"lineid","car","time","location","longitude","latitude","cityid","cityname"
"234023","9380-KE","2018/04/09 20:49:46","新北市永和區竹林路25巷15號","121.517858333333","25.0149266666667","6500400","永和區"
"234074","AAC-211","2018/04/09 20:49:26","新北市永和區環河東路二段20號","121.522286666667","25.0131133333333","6500400","永和區"
"222003","436-BY","2018/04/09 20:49:29","新北市深坑區阿柔洋40號","121.6103","24.9985","6501800","深坑區"
"222002","659-BX","2018/04/09 20:49:30","新北市深坑區北深路三段107巷11號","121.6048","25.0011266666667","6501800","深坑區"
"231041","002-UM","2018/04/09 20:49:41","台北市文山區景文街146巷26號","121.53297","24.99157","6500600","新店區"
"231059","046-UY","2018/04/09 20:49:42","新北市新店區僑信路132巷38號","121.499796666667","24.945405","6500600","新店區"
"231040","047-UY","2018/04/09 20:49:26","新北市新店區中正路270號","121.538916666667","24.973535","6500600","新店區"
"231044","106-UY","2018/04/09 20:49:44","新北市新店區民族路190號","121.536453333333","24.9756116666667","6500600","新店區"
"231052","108-UY","2018/04/09 20:49:37","新北市新店區新烏路一段231號","121.549171666667","24.9306933333333","6500600","新店區"
"231047","187-VK","2018/04/09 20:49:39","新北市新店區寶元路二段1巷2號","121.55071","24.98409","6500600","新店區"
"231057","256-BX","2018/04/09 20:49:30","新北市新店區花園一路四段43號","121.550768333333","24.9319066666667","6500600","新店區"
"231051","278-BY","2018/04/09 20:49:25","新北市新店區民生路181號","121.528961666667","24.9784133333333","6500600","新店區"
"231050","AAD-862","2018/04/09 20:49:43","新北市新店區中正路247巷3號","121.538873333333","24.9729616666667","6500600","新店區"
"231058","3713-VJ","2018/04/09 20:49:30","新北市新店區中央三街123-1號","121.524165","24.97649","6500600","新店區"
"231066","4716-K9","2018/04/09 20:49:22","新北市新店區安民街130號","121.516476666667","24.9692283333333","6500600","新店區"
"231056","4715-K9","2018/04/09 20:49:28","新北市新店區安興路105號","121.51506","24.9781433333333","6500600","新店區"
"231067","4772-VM","2018/04/09 20:49:42","新北市新店區安華路3號","121.51909","24.9593733333333","6500600","新店區"
"231065","512-UM","2018/04/09 20:49:31","新北市新店區安祥路104巷6弄38號","121.483271666667","24.963175","6500600","新店區"
"231049","513-UM","2018/04/09 20:49:39","新北市新店區華潭街52號","121.529298333333","24.9551483333333","6500600","新店區"
"231061","619-UM","2018/04/09 20:49:28","新北市新店區新和街120號","121.521298333333","24.9864816666667","6500600","新店區"
"231063","641-BX","2018/04/09 20:49:31","新北市新店區如意街26號","121.493971666667","24.948345","6500600","新店區"
"231042","645-TV","2018/04/09 20:49:36","新北市新店區寶高路120巷1號","121.554586666667","24.9761383333333","6500600","新店區"
"231068","718-UY","2018/04/09 20:49:38","新北市新店區中興路三段228巷28號","121.544756666667","24.9834433333333","6500600","新店區"
"231064","719-UM","2018/04/09 20:49:32","新北市新店區安民街375號","121.516351666667","24.976315","6500600","新店區"
"231054","719-UY","2018/04/09 20:49:34","新北市新店區中正路75巷61號","121.543343333333","24.9693933333333","6500600","新店區"
"231062","720-UM","2018/04/09 20:49:40","新北市新店區和成街18巷16號","121.487555","24.9462933333333","6500600","新店區"
"231060","897-TW","2018/04/09 20:49:37","新北市新店區安康路三段738號","121.47388","24.9419666666667","6500600","新店區"
"231045","898-TW","2018/04/09 20:49:39","新北市新店區光明街314號","121.540711666667","24.9651483333333","6500600","新店區"
"231043","899-TW","2018/04/09 20:49:37","新北市新店區建國路83號","121.540538333333","24.976205","6500600","新店區"
"241011","013-R5","2018/04/09 20:49:39","新北市三重區龍濱路205巷8號","121.502391666667","25.0718316666667","6500200","三重區"
"241028","022-UY","2018/04/09 20:49:37","新北市三重區中正南路42號","121.493883333333","25.06009","6500200","三重區"
"241008","059-VK","2018/04/09 20:49:37","新北市三重區永福街72巷11號","121.479356666667","25.0767666666667","6500200","三重區"
"241009","060-VK","2018/04/09 20:49:33","新北市三重區三和路四段388-2號","121.482033333333","25.079165","6500200","三重區"
"241031","061-VK","2018/04/09 20:49:29","新北市三重區重陽路一段113巷2弄2號","121.487511666667","25.0598416666667","6500200","三重區"
"241015","062-VK","2018/04/09 20:49:33","新北市三重區三和路二段105號","121.499341666667","25.068615","6500200","三重區"
"241017","063-VK","2018/04/09 20:49:25","新北市三重區民生街30號","121.491813333333","25.06714","6500200","三重區"
"241024","065-VK","2018/04/09 20:49:25","新北市三重區大勇街49號","121.481335","25.07194","6500200","三重區"
"241026","066-VK","2018/04/09 20:49:30","新北市三重區文化南路7號","121.49993","25.0623933333333","6500200","三重區"
"241002","090-VK","2018/04/09 20:49:37","新北市三重區仁義街157巷60號","121.49834","25.0817466666667","6500200","三重區"
"241003","091-VK","2018/04/09 20:49:42","新北市三重區五華街141巷58號","121.493503333333","25.0867633333333","6500200","三重區"
"241005","262-UM","2018/04/09 20:49:32","新北市三重區集賢路87-1號","121.493883333333","25.087005","6500200","三重區"
"241016","265-UM","2018/04/09 20:49:41","新北市三重區自強路一段168號","121.495286666667","25.0661966666667","6500200","三重區"
"241018","268-UM","2018/04/09 20:49:25","新北市三重區重陽路四段128號","121.492536666667","25.0711183333333","6500200","三重區"
"241032","269-UM","2018/04/09 20:49:27","新北市三重區重陽路一段120巷48號","121.484961666667","25.0602016666667","6500200","三重區"
"241013","270-UM","2018/04/09 20:49:41","新北市三重區仁賢街12-1號","121.495686666667","25.0748366666667","6500200","三重區"
"241025","271-UM","2018/04/09 20:49:31","新北市三重區貴陽街14號","121.48422","25.0618633333333","6500200","三重區"
"241007","398-BY","2018/04/09 20:49:40","新北市三重區慈愛街10號","121.484576666667","25.078415","6500200","三重區"
"241035","KEA-2210","2018/04/09 20:49:39","新北市三重區三和路三段32號","121.496266666667","25.0706633333333","6500200","三重區"
"241020","478-VK","2018/04/09 20:49:31","新北市三重區忠孝路一段107號","121.489093333333","25.071905","6500200","三重區"
"241030","480-VK","2018/04/09 20:49:39","新北市三重區環河南路221巷10號","121.49194","25.0522183333333","6500200","三重區"
"241014","543-UM","2018/04/09 20:49:37","新北市三重區萬全街86號","121.50182","25.07033","6500200","三重區"
"241023","545-UM","2018/04/09 20:49:27","新北市三重區忠孝路三段99巷4號","121.480138333333","25.06421","6500200","三重區"
"241001","547-UM","2018/04/09 20:49:28","新北市三重區自強路三段76巷27弄8號","121.485223333333","25.074285","6500200","三重區"
"241019","KEA-2593","2018/04/09 20:49:26","新北市三重區忠孝路一段2-1號","121.492486666667","25.0717283333333","6500200","三重區"
"241006","AAD-863","2018/04/09 20:49:35","新北市三重區車路頭街139巷14號","121.484341666667","25.0763433333333","6500200","三重區"
"241022","887-TS","2018/04/09 20:49:33","新北市三重區中正北路20巷12號","121.487996666667","25.0625616666667","6500200","三重區"
"241012","941-UM","2018/04/09 20:49:27","新北市三重區龍門路274巷45號","121.5012","25.0755433333333","6500200","三重區"
"241029","942-UM","2018/04/09 20:49:26","新北市三重區中正南路187號","121.493675","25.0551783333333","6500200","三重區"
"241033","AAC-255","2018/04/09 20:49:43","新北市三重區光復路二段2號","121.472173333333","25.0533916666667","6500200","三重區"
"235069","4980-A6","2018/04/09 20:49:34","新北市中和區員山路381巷1弄2號","121.480905","25.0023483333333","6500300","中和區"
"247024","893-R6","2018/04/09 20:49:26","新北市蘆洲區長樂路140號","121.46217","25.0901783333333","6501400","蘆洲區"
"247022","500-BY","2018/04/09 20:49:39","新北市蘆洲區中正路185巷48號","121.467131666667","25.08511","6501400","蘆洲區"
"247010","341-TH","2018/04/09 20:49:31","新北市蘆洲區鷺江街93號","121.476846666667","25.0838266666667","6501400","蘆洲區"
"247012","339-TH","2018/04/09 20:49:27","新北市三重區集賢路186號","121.48417","25.0883883333333","6501400","蘆洲區"
"247004","337-TH","2018/04/09 20:49:40","新北市蘆洲區長安街97號","121.461641666667","25.0807416666667","6501400","蘆洲區"
"247006","336-TH","2018/04/09 20:49:26","新北市蘆洲區九芎街107號","121.465808333333","25.0798316666667","6501400","蘆洲區"
"247008","056-VK","2018/04/09 20:49:42","新北市蘆洲區永安北路二段44號","121.482491666667","25.083325","6501400","蘆洲區"
"247014","053-VK","2018/04/09 20:48:45","新北市蘆洲區三民路97號","121.473515","25.0852183333333","6501400","蘆洲區"
"247016","007-UY","2018/04/09 20:49:35","新北市蘆洲區中山二路134號","121.471548333333","25.0814716666667","6501400","蘆洲區"
"247002","002-UY","2018/04/09 20:49:38","新北市蘆洲區長榮路345號","121.459398333333","25.087605","6501400","蘆洲區"
"247020","001-UY","2018/04/09 20:49:22","新北市蘆洲區仁愛街66號","121.471533333333","25.0938833333333","6501400","蘆洲區"
"222001","KEA-2212","2018/04/09 20:49:43","新北市深坑區北深路三段145號","121.603391666667","25.0027883333333","6501800","深坑區"
"208002","KEA-2872","2018/04/09 20:49:30","新北市金山區磺港里磺港路309號","121.64266","25.228245","6502700","金山區"
"251001","011-UM","2018/04/09 20:49:36","新北市淡水區淡金路218號","121.460418333333","25.1671766666667","6501000","淡水區"
"251002","012-UM","2018/04/09 20:49:34","新北市淡水區英專路42號","121.445596666667","25.1701916666667","6501000","淡水區"
"251013","179-VK","2018/04/09 20:49:38","新北市淡水區行忠路132號","121.454625","25.1983383333333","6501000","淡水區"
"251014","180-VK","2018/04/09 20:49:36","新北市淡水區公埔子32-8號","121.461631666667","25.2323766666667","6501000","淡水區"
"251008","181-VK","2018/04/09 20:49:31","新北市淡水區下圭柔山91-3號","121.43092","25.2111916666667","6501000","淡水區"
"251010","413-VK","2018/04/09 20:49:33","新北市淡水區沙崙路145-1號","121.423421666667","25.18312","6501000","淡水區"
"251012","441-VK","2018/04/09 20:49:41","新北市淡水區興仁路162號","121.451606666667","25.2209483333333","6501000","淡水區"
"251016","442-VK","2018/04/09 20:49:32","新北市淡水區淡金路四段469號","121.45176","25.223865","6501000","淡水區"
"251007","577-R6","2018/04/09 20:49:31","新北市淡水區鄧公路35巷19弄7號","121.452433333333","25.1718333333333","6501000","淡水區"
"251011","650-BX","2018/04/09 20:49:27","新北市淡水區新民街一段13-1號","121.433061666667","25.1846283333333","6501000","淡水區"
"251003","766-UM","2018/04/09 20:49:41","新北市淡水區中山北路一段247巷118號","121.441566666667","25.1795316666667","6501000","淡水區"
"252002","178-VK","2018/04/09 20:49:35","新北市三芝區淡金路二段89-1號","121.504016666667","25.2608566666667","6502100","三芝區"
"242034","AAC-296","2018/04/09 20:49:34","新北市新莊區中正路369號","121.446488333333","25.0348383333333","6500500","新莊區"
"242053","751-BX","2018/04/09 20:49:36","新北市新莊區民安西路189巷10弄30號","121.426501666667","25.0152233333333","6500500","新莊區"
"242027","615-BX","2018/04/09 20:49:31","新北市新莊區瓊林路42-1號","121.447786666667","25.0292583333333","6500500","新莊區"
"242042","566-BX","2018/04/09 20:49:40","新北市新莊區天祥街31巷1號","121.417001666667","25.0280266666667","6500500","新莊區"
"242050","441-UM","2018/04/09 20:49:30","新北市新莊區民安西路90-2號","121.42696","25.0190833333333","6500500","新莊區"
"242036","415-TV","2018/04/09 20:49:27","新北市新莊區中正路517-2號","121.439726666667","25.0333816666667","6500500","新莊區"
"242007","413-TV","2018/04/09 20:49:26","新北市新莊區思源路63號","121.459886666667","25.040375","6500500","新莊區"
"242044","400-BY","2018/04/09 20:49:28","新北市新莊區龍安路108號","121.418396666667","25.0205183333333","6500500","新莊區"
"242023","362-BY","2018/04/09 20:49:41","新北市新莊區復興路三段36號","121.461308333333","25.0443416666667","6500500","新莊區"
"242048","172-VK","2018/04/09 20:49:25","新北市新莊區環河路506號","121.438926666667","25.01649","6500500","新莊區"
"242002","349-TH","2018/04/09 20:49:29","新北市新莊區中港路五守新村37巷1號","121.454621666667","25.0387933333333","6500500","新莊區"
"242019","350-TH","2018/04/09 20:49:40","新北市新莊區中港路54號","121.455456666667","25.0385833333333","6500500","新莊區"
"242013","351-TH","2018/04/09 20:49:42","新北市新莊區瓊林路59-83號","121.442043333333","25.0236983333333","6500500","新莊區"
"221036","130-UY","2018/04/09 20:49:30","新北市汐止區仁愛路321-1號","121.664475","25.0677266666667","6501100","汐止區"
"221015","131-UY","2018/04/09 20:49:28","新北市汐止區大同路二段603號","121.663916666667","25.07065","6501100","汐止區"
"221032","280-BY","2018/04/09 20:49:46","新北市汐止區橫科路221巷19-1號","121.621541666667","25.0494833333333","6501100","汐止區"
"221027","281-BY","2018/04/09 20:49:32","新北市汐止區水源路一段3號","121.657146666667","25.0671983333333","6501100","汐止區"
"221029","298-VK","2018/04/09 20:49:32","新北市汐止區康寧街777-1號","121.644963333333","25.07564","6501100","汐止區"
"221021","299-VK","2018/04/09 20:49:27","新北市汐止區新台五路一段183號","121.655611666667","25.063245","6501100","汐止區"
"221035","622-UM","2018/04/09 20:49:31","新北市汐止區康寧街901號","121.651341666667","25.0750783333333","6501100","汐止區"
"221038","646-BX","2018/04/09 20:49:43","新北市汐止區汐萬路一段256巷1號","121.651923333333","25.074475","6501100","汐止區"
"221018","753-BX","2018/04/09 20:49:45","新北市汐止區忠孝東路397號","121.665735","25.070765","6501100","汐止區"
"220070","282-UM","2018/04/09 20:49:32","新北市林口區汕頭32號","121.366276666667","25.13484","6500100","板橋區"
"242009","281-VK","2018/04/09 20:49:43","新北市新莊區幸福路570號","121.454248333333","25.04936","6500500","新莊區"
"220075","303-R5","2018/04/09 20:49:22","新北市樹林區環河路600-1號","121.404646666667","24.9682916666667","6500100","板橋區"
"242031","280-VK","2018/04/09 20:49:28","新北市新莊區中正路508巷5弄2號","121.435068333333","25.03384","6500500","新莊區"
