"lineid","car","time","location","longitude","latitude","cityid","cityname"
"222002","659-BX","2018/04/09 20:59:50","新北市深坑區北深路三段38號","121.608878333333","25.0011866666667","6501800","深坑區"
"231059","046-UY","2018/04/09 20:59:42","新北市新店區僑信路113號","121.500656666667","24.9462383333333","6500600","新店區"
"231040","047-UY","2018/04/09 20:59:46","新北市新店區北新路一段351號","121.541863333333","24.969315","6500600","新店區"
"231052","108-UY","2018/04/09 20:59:47","新北市新店區光明街119號","121.538986666667","24.9616733333333","6500600","新店區"
"231047","187-VK","2018/04/09 20:59:39","新北市新店區文化路73巷1號","121.544891666667","24.982555","6500600","新店區"
"231057","256-BX","2018/04/09 20:59:49","新北市新店區光明街113號","121.538943333333","24.9614866666667","6500600","新店區"
"231051","278-BY","2018/04/09 20:59:45","新北市新店區中正路663巷1弄8號","121.533125","24.99023","6500600","新店區"
"231050","AAD-862","2018/04/09 20:59:43","新北市新店區三民路117巷7弄3號","121.53419","24.9709383333333","6500600","新店區"
"231066","4716-K9","2018/04/09 20:59:42","新北市新店區安光路10-1號","121.513885","24.9639866666667","6500600","新店區"
"231067","4772-VM","2018/04/09 20:59:42","新北市新店區安德街130巷10號","121.508245","24.9608216666667","6500600","新店區"
"231065","512-UM","2018/04/09 20:59:51","新北市新店區安祥路67巷28弄1號","121.484786666667","24.9593916666667","6500600","新店區"
"231061","619-UM","2018/04/09 20:59:48","新北市新店區永安街93號","121.520295","24.9862233333333","6500600","新店區"
"231063","641-BX","2018/04/09 20:59:31","新北市新店區玫瑰路58巷3號","121.495296666667","24.9465466666667","6500600","新店區"
"231042","645-TV","2018/04/09 20:59:36","新北市新店區中興路二段219號","121.548093333333","24.97442","6500600","新店區"
"231068","718-UY","2018/04/09 20:59:38","新北市新店區寶元路二段45號","121.54708","24.9812783333333","6500600","新店區"
"231064","719-UM","2018/04/09 20:59:31","新北市新店區安民街243-1號","121.516623333333","24.97265","6500600","新店區"
"231054","719-UY","2018/04/09 20:59:43","新北市新店區五峰路27號","121.544038333333","24.9692566666667","6500600","新店區"
"231062","720-UM","2018/04/09 20:59:40","新北市新店區裕合街92號","121.490323333333","24.9487283333333","6500600","新店區"
"231060","897-TW","2018/04/09 20:59:37","新北市新店區安康路三段383號","121.483535","24.95023","6500600","新店區"
"231043","899-TW","2018/04/09 20:59:37","新北市新店區中正路389號","121.534623333333","24.9771416666667","6500600","新店區"
"241011","013-R5","2018/04/09 20:59:39","新北市三重區秀江街117號","121.499718333333","25.0722266666667","6500200","三重區"
"241028","022-UY","2018/04/09 20:59:37","新北市三重區重新路四段2號","121.489438333333","25.05835","6500200","三重區"
"241008","059-VK","2018/04/09 20:59:37","新北市三重區力行路二段162巷3號","121.48281","25.0765766666667","6500200","三重區"
"241009","060-VK","2018/04/09 20:59:33","新北市三重區力行路二段151號","121.483695","25.07775","6500200","三重區"
"241031","061-VK","2018/04/09 20:59:49","新北市三重區重陽路一段113巷3號","121.487535","25.0597833333333","6500200","三重區"
"241015","062-VK","2018/04/09 20:59:33","新北市三重區福德北路46號","121.502003333333","25.0655983333333","6500200","三重區"
"241017","063-VK","2018/04/09 20:59:45","新北市三重區大同北路132巷8號","121.492221666667","25.0646566666667","6500200","三重區"
"241024","065-VK","2018/04/09 20:59:45","新北市三重區大勇街49號","121.481416666667","25.07196","6500200","三重區"
"241026","066-VK","2018/04/09 20:59:49","新北市三重區文化南路43號","121.500163333333","25.061435","6500200","三重區"
"241002","090-VK","2018/04/09 20:59:37","新北市三重區五華街7巷47號","121.496056666667","25.0805533333333","6500200","三重區"
"241003","091-VK","2018/04/09 20:59:42","新北市三重區仁義街248號","121.493856666667","25.0859533333333","6500200","三重區"
"241005","262-UM","2018/04/09 20:59:32","新北市三重區五華街141巷7號","121.491303333333","25.0849033333333","6500200","三重區"
"241016","265-UM","2018/04/09 20:59:41","新北市三重區自強路一段79號","121.4962","25.0664016666667","6500200","三重區"
"241018","268-UM","2018/04/09 20:59:45","新北市三重區雙園街97號","121.493838333333","25.0673366666667","6500200","三重區"
"241032","269-UM","2018/04/09 20:59:47","新北市三重區興華街129號","121.483191666667","25.059935","6500200","三重區"
"241013","270-UM","2018/04/09 20:59:41","新北市三重區仁賢街12-1號","121.495766666667","25.0748466666667","6500200","三重區"
"241025","271-UM","2018/04/09 20:59:31","新北市三重區貴陽街14號","121.484191666667","25.0618583333333","6500200","三重區"
"241007","398-BY","2018/04/09 20:59:40","新北市三重區慈愛街11號","121.485193333333","25.07871","6500200","三重區"
"241020","478-VK","2018/04/09 20:59:31","新北市三重區忠孝路二段35號","121.48592","25.0711316666667","6500200","三重區"
"241030","480-VK","2018/04/09 20:59:39","新北市三重區環河南路220-8號","121.493388333333","25.0527016666667","6500200","三重區"
"241014","543-UM","2018/04/09 20:59:37","新北市三重區長壽街120巷19弄9號","121.502495","25.0691716666667","6500200","三重區"
"241023","545-UM","2018/04/09 20:59:47","新北市三重區忠孝路三段50巷41弄64號","121.482401666667","25.0637716666667","6500200","三重區"
"241001","547-UM","2018/04/09 20:59:48","新北市三重區三和路四段118巷1號","121.488978333333","25.074825","6500200","三重區"
"241019","KEA-2593","2018/04/09 20:59:45","新北市三重區三張街104號","121.487921666667","25.06993","6500200","三重區"
"241006","AAD-863","2018/04/09 20:59:35","新北市三重區永福街50號","121.481783333333","25.078025","6500200","三重區"
"241022","887-TS","2018/04/09 20:59:33","新北市三重區中正北路20巷12號","121.487905","25.0625116666667","6500200","三重區"
"241012","941-UM","2018/04/09 20:59:47","新北市三重區龍門路274巷45號","121.5012","25.0755666666667","6500200","三重區"
"241029","942-UM","2018/04/09 20:59:46","新北市三重區正義南路107號","121.498225","25.0585483333333","6500200","三重區"
"241033","AAC-255","2018/04/09 20:59:43","新北市三重區光復路二段28號","121.472103333333","25.0542866666667","6500200","三重區"
"235069","4980-A6","2018/04/09 20:59:27","新北市中和區連城路469巷70弄24號","121.482551666667","24.9939216666667","6500300","中和區"
"247024","893-R6","2018/04/09 20:59:46","新北市蘆洲區長興路213號","121.461133333333","25.0863916666667","6501400","蘆洲區"
"247022","500-BY","2018/04/09 20:59:45","新北市蘆洲區民族路439號","121.46781","25.088955","6501400","蘆洲區"
"247010","341-TH","2018/04/09 20:59:51","新北市蘆洲區鷺江街91號","121.476835","25.08378","6501400","蘆洲區"
"247012","339-TH","2018/04/09 20:59:48","新北市蘆洲區民權路6號","121.476928333333","25.08545","6501400","蘆洲區"
"247004","337-TH","2018/04/09 20:59:41","新北市蘆洲區永安南路二段268號","121.458693333333","25.08067","6501400","蘆洲區"
"247006","336-TH","2018/04/09 20:59:46","新北市蘆洲區永安南路二段18號","121.467733333333","25.0772016666667","6501400","蘆洲區"
"247018","057-VK","2018/04/09 20:59:36","新北市蘆洲區民權路136-2號","121.47317","25.088955","6501400","蘆洲區"
"247014","053-VK","2018/04/09 20:59:49","新北市蘆洲區中山二路36巷9號","121.474313333333","25.0826633333333","6501400","蘆洲區"
"247016","007-UY","2018/04/09 20:59:35","新北市蘆洲區正和街84號","121.468365","25.0809016666667","6501400","蘆洲區"
"247020","001-UY","2018/04/09 20:59:42","新北市蘆洲區民族路375號","121.470745","25.0910266666667","6501400","蘆洲區"
"222001","KEA-2212","2018/04/09 20:59:43","新北市深坑區北深路三段25巷15-1號","121.608791666667","25.0001333333333","6501800","深坑區"
"251001","011-UM","2018/04/09 20:59:36","新北市淡水區淡金路二段143號","121.450176666667","25.1824966666667","6501000","淡水區"
"251002","012-UM","2018/04/09 20:59:49","新北市淡水區水源街一段139號","121.447143333333","25.1718933333333","6501000","淡水區"
"251013","179-VK","2018/04/09 20:59:50","新北市淡水區埤島52號","121.464553333333","25.1992633333333","6501000","淡水區"
"251014","180-VK","2018/04/09 20:59:36","新北市淡水區溪口7-3號","121.455676666667","25.23655","6501000","淡水區"
"251008","181-VK","2018/04/09 20:59:31","新北市淡水區崁頂78-5號","121.429136666667","25.207585","6501000","淡水區"
"251010","413-VK","2018/04/09 20:59:33","新北市淡水區中正路一段118-3號","121.42385","25.178895","6501000","淡水區"
"251012","441-VK","2018/04/09 20:59:41","新北市淡水區淡金路五段72號","121.454715","25.23361","6501000","淡水區"
"251016","442-VK","2018/04/09 20:59:52","新北市淡水區牛埔子10-1號","121.449786666667","25.2184183333333","6501000","淡水區"
"251005","443-VK","2018/04/09 20:59:51","新北市淡水區學府路75號","121.448393333333","25.1699933333333","6501000","淡水區"
"251009","575-R6","2018/04/09 20:59:43","新北市淡水區民族路170號","121.461985","25.1338816666667","6501000","淡水區"
"251007","577-R6","2018/04/09 20:59:51","新北市淡水區仁愛街2巷26號","121.44663","25.171315","6501000","淡水區"
"251011","650-BX","2018/04/09 20:59:47","新北市淡水區新民街226巷2號","121.436201666667","25.1805716666667","6501000","淡水區"
"251003","766-UM","2018/04/09 20:59:33","新北市淡水區新春街200號","121.443395","25.18076","6501000","淡水區"
"242050","441-UM","2018/04/09 20:59:50","新北市新莊區新樹路300-2號","121.432835","25.00645","6500500","新莊區"
"242002","349-TH","2018/04/09 20:59:49","新北市新莊區中正路173號","121.454201666667","25.0365083333333","6500500","新莊區"
"221029","298-VK","2018/04/09 20:59:12","新北市汐止區康寧街901號","121.651415","25.0748666666667","6501100","汐止區"
"220070","282-UM","2018/04/09 20:59:32","新北市林口區太平里180號","121.368408333333","25.13444","6500100","板橋區"
