"lineid","car","time","location","longitude","latitude","cityid","cityname"
"231050","AAD-862","2018/04/09 21:29:23","新北市新店區中正路263-2號","121.538473333333","24.9737616666667","6500600","新店區"
"231063","641-BX","2018/04/09 21:29:31","新北市新店區如意街55號","121.493501666667","24.9472433333333","6500600","新店區"
"231060","897-TW","2018/04/09 21:29:37","新北市新店區薏仁坑路8-2號","121.499371666667","24.958905","6500600","新店區"
"241024","065-VK","2018/04/09 21:29:25","新北市三重區中正北路115巷6號","121.484103333333","25.06773","6500200","三重區"
"241003","091-VK","2018/04/09 21:29:29","新北市三重區進安街196號","121.493698333333","25.0861366666667","6500200","三重區"
"241005","262-UM","2018/04/09 21:29:32","新北市三重區仁華街6號","121.483428333333","25.0812133333333","6500200","三重區"
"241016","265-UM","2018/04/09 21:29:21","新北市三重區信義西街118號","121.495721666667","25.0642883333333","6500200","三重區"
"241007","398-BY","2018/04/09 21:29:20","新北市三重區正義北路128號","121.496815","25.0656333333333","6500200","三重區"
"241033","AAC-255","2018/04/09 21:29:23","新北市三重區光復路二段88巷63號","121.469185","25.0573316666667","6500200","三重區"
"247010","341-TH","2018/04/09 21:29:31","新北市蘆洲區三民路26巷1弄1號","121.476156666667","25.0827083333333","6501400","蘆洲區"
"247012","339-TH","2018/04/09 21:29:27","新北市蘆洲區中正路520巷30-16號","121.47063","25.0982766666667","6501400","蘆洲區"
"247016","007-UY","2018/04/09 21:27:55","新北市五股區中直路17-4號","121.422961666667","25.11126","6501400","蘆洲區"
"251004","009-UM","2018/04/09 21:29:39","新北市淡水區民權路119號","121.460263333333","25.1368616666667","6501000","淡水區"
"251001","011-UM","2018/04/09 21:29:36","新北市淡水區濱海路一段221號","121.43771","25.1897433333333","6501000","淡水區"
"251002","012-UM","2018/04/09 21:11:34","新北市淡水區學府路172巷21號","121.448298333333","25.17488","6501000","淡水區"
"251013","179-VK","2018/04/09 21:29:30","新北市淡水區埤島40-1號","121.45279","25.197435","6501000","淡水區"
"251014","180-VK","2018/04/09 21:29:36","新北市淡水區六塊厝2-1號","121.449501666667","25.24024","6501000","淡水區"
"251008","181-VK","2018/04/09 21:29:33","新北市淡水區水源街二段138-1號","121.45361","25.1748133333333","6501000","淡水區"
"251015","182-VK","2018/04/09 21:29:33","新北市淡水區淡金路四段542巷83弄13號","121.456483333333","25.2266983333333","6501000","淡水區"
"251010","413-VK","2018/04/09 21:29:33","新北市淡水區沙崙路25巷21號","121.42057","25.1824733333333","6501000","淡水區"
"251012","441-VK","2018/04/09 21:29:21","新北市淡水區淡金路五段35巷46號","121.452483333333","25.2347466666667","6501000","淡水區"
"251016","442-VK","2018/04/09 21:29:32","新北市淡水區前洲子28號","121.441051666667","25.2192433333333","6501000","淡水區"
"251005","443-VK","2018/04/09 21:29:31","新北市淡水區水源街一段73號","121.444561666667","25.1722933333333","6501000","淡水區"
"251006","561-UM","2018/04/09 21:29:27","新北市淡水區公明街51號","121.443406666667","25.1687816666667","6501000","淡水區"
"251009","575-R6","2018/04/09 21:29:23","新北市淡水區民族路65巷68號","121.463551666667","25.13613","6501000","淡水區"
"251011","650-BX","2018/04/09 21:29:27","新北市淡水區新民街180-8號","121.43642","25.17903","6501000","淡水區"
"251003","766-UM","2018/04/09 21:29:33","新北市淡水區崁頂15-5號","121.438963333333","25.18589","6501000","淡水區"
"220070","282-UM","2018/04/09 21:29:32","新北市板橋區大觀路二段1巷60-4號","121.45195","25.0032916666667","6500100","板橋區"
