"lineid","car","time","location","longitude","latitude","cityid","cityname"
"234066","553-UM","2018/04/09 22:01:57","新北市永和區福和路1號","121.52644","25.009795","6500400","永和區"
"247005","336-TH","2018/04/09 22:26:40","新北市五股區中興路三段163號","121.449181666667","25.0808316666667","6501400","蘆洲區"
"251004","009-UM","2018/04/09 22:29:19","新北市淡水區民族路33巷16-19號","121.462331666667","25.1359316666667","6501000","淡水區"
"251008","181-VK","2018/04/09 22:29:31","新北市淡水區學府路108號","121.450055","25.17213","6501000","淡水區"
"251010","413-VK","2018/04/09 22:29:33","新北市淡水區沙崙路200號","121.424668333333","25.18388","6501000","淡水區"
"251007","577-R6","2018/04/09 22:29:26","新北市淡水區北新路180號","121.449408333333","25.1787233333333","6501000","淡水區"
