"lineid","car","time","location","longitude","latitude","cityid","cityname"
"248005","653-BX","2018/08/13 07:59:35","新北市五股區明德路12巷6號","121.433353333333","25.07182","6501500","五股區"
"232001","290-BY","2018/08/13 07:59:23","新北市坪林區下坑子口6-15號","121.711491666667","24.9434366666667","6502000","坪林區"
"232012","291-BY","2018/08/13 07:59:31","新北市坪林區金瓜寮32號","121.677513333333","24.907355","6502000","坪林區"
"232010","375-UM","2018/08/13 07:57:39","新北市坪林區厚德岡坑2-1號","121.727551666667","24.9396266666667","6502000","坪林區"
"232017","705-BZ","2018/08/13 07:59:36","新北市坪林區坪雙路二段115號","121.75313","24.9660033333333","6502000","坪林區"
"232005","758-BX","2018/08/13 07:59:31","新北市坪林區九芎林19-4號","121.707116666667","24.9265616666667","6502000","坪林區"
"244006","080-UY","2018/08/13 07:59:29","新北市林口區粉寮69號","121.40492","25.090865","6501700","林口區"
"244001","248-BX","2018/08/13 07:59:39","新北市林口區嘉溪雅坑5-4號","121.346656666667","25.0997683333333","6501700","林口區"
"244012","KEA-2802","2018/08/13 07:59:22","新北市林口區粉寮69號","121.404808333333","25.0908883333333","6501700","林口區"
"244022","483-VK","2018/08/13 07:59:39","新北市林口區粉寮路二段157號","121.404205","25.0880033333333","6501700","林口區"
"244024","837-TS","2018/08/13 07:59:27","新北市林口區粉寮69號","121.4051","25.0908233333333","6501700","林口區"
"244020","838-TS","2018/08/13 07:59:28","新北市林口區粉寮69號","121.40486","25.0907883333333","6501700","林口區"
"231007","189-VK","2018/08/13 07:59:37","新北市新店區華城路18-2號","121.529015","24.95729","6500600","新店區"
"231008","192-VK","2018/08/13 07:59:43","新北市新店區安一路一段1-1號","121.519263333333","24.9613766666667","6500600","新店區"
"235001","611-BX","2018/08/13 07:59:34","新北市中和區圓通路367巷6號","121.491541666667","24.9893016666667","6500300","中和區"
"226005","5620-A6","2018/08/13 07:59:23","新北市平溪區石底里公園街18-3號","121.733783333333","25.02528","6502400","平溪區"
"226001","7418-A5","2018/08/13 07:59:31","新北市平溪區南山里乾坑11號","121.782706666667","25.0471816666667","6502400","平溪區"
"226003","AGD-0702","2018/08/13 07:59:24","新北市平溪區新寮里頂寮子3-8號","121.766306666667","25.050475","6502400","平溪區"
"223006","022-BY","2018/08/13 07:59:32","新北市石碇區番子坑17號","121.673875","25.0012666666667","6501900","石碇區"
"223002","KEA-2673","2018/08/13 07:59:33","新北市石碇區北宜路五段80號","121.646571666667","24.9517733333333","6501900","石碇區"
"223003","205-TH","2018/08/13 07:59:34","新北市石碇區蛇舌子6-3號","121.664913333333","24.9681516666667","6501900","石碇區"
"223008","406-TH","2018/08/13 07:39:43","新北市石碇區靜安路一段337號","121.698718333333","25.014675","6501900","石碇區"
"223004","660-BX","2018/08/13 07:59:33","新北市深坑區文山路一段8號","121.644775","25.0089516666667","6501900","石碇區"
"223007","661-BX","2018/08/13 07:48:22","新北市石碇區靜安路一段337號","121.698913333333","25.01455","6501900","石碇區"
"223005","677-TV","2018/08/13 07:59:40","新北市石碇區外按6-1號","121.64984","24.9944883333333","6501900","石碇區"
"227005","282-VK","2018/08/13 07:59:24","新北市雙溪區平林里外平林71號","121.842355","25.0349133333333","6502500","雙溪區"
"252006","073-UM","2018/08/13 07:59:28","新北市三芝區海景三街26號","121.470955","25.2478683333333","6502100","三芝區"
"252004","249-BX","2018/08/13 07:59:35","新北市三芝區店子里菜公坑81號","121.512978333333","25.2019683333333","6502100","三芝區"
"237001","159-UY","2018/08/13 07:59:39","新北市三峽區大學路45-1號","121.376943333333","24.9405916666667","6500900","三峽區"
"236001","165-UM","2018/08/13 07:59:37","新北市土城區永豐路185號","121.469951666667","24.9783066666667","6501300","土城區"
"236001","KEA-2877","2018/08/13 07:59:34","新北市土城區龍泉路89-1號","121.446391666667","24.942205","6501300","土城區"
"242057","986-R7","2018/08/13 07:59:32","新北市新莊區中正路596號","121.426768333333","25.030295","6500500","新莊區"
"242024","705-TV","2018/08/13 07:59:30","新北市新莊區復興路二段31號","121.454378333333","25.0440483333333","6500500","新莊區"
"242026","615-BX","2018/08/13 07:59:32","新北市新莊區民樂街109號","121.457805","25.0441866666667","6500500","新莊區"
"242040","566-BX","2018/08/13 07:59:36","新北市新莊區新樹路111號","121.437835","25.02667","6500500","新莊區"
"242045","497-BY","2018/08/13 07:59:43","新北市新莊區新樹路21號","121.440493333333","25.0325266666667","6500500","新莊區"
"242052","442-UM","2018/08/13 07:59:42","新北市新莊區瓊林南路305巷1號","121.434698333333","25.0054566666667","6500500","新莊區"
"242049","441-UM","2018/08/13 07:59:26","新北市新莊區新樹路258巷3號","121.432166666667","25.0155283333333","6500500","新莊區"
"242055","440-UM","2018/08/13 07:59:34","新北市新莊區新泰路12號","121.449836666667","25.0329733333333","6500500","新莊區"
"242035","415-TV","2018/08/13 07:59:29","新北市新莊區建國二路1號","121.434943333333","25.0236433333333","6500500","新莊區"
"242006","413-TV","2018/08/13 07:59:33","新北市新莊區福樂街118巷26號","121.457581666667","25.0486216666667","6500500","新莊區"
"242043","400-BY","2018/08/13 07:59:26","新北市新莊區富國路100號","121.421373333333","25.02546","6500500","新莊區"
"242022","362-BY","2018/08/13 07:59:24","新北市新莊區公園路41號","121.453206666667","25.04017","6500500","新莊區"
"242059","353-BY","2018/08/13 07:59:37","新北市新莊區瓊林南路35-10號","121.435678333333","25.017005","6500500","新莊區"
"242008","132-UY","2018/08/13 07:59:25","新北市新莊區昌德街167號","121.45335","25.054705","6500500","新莊區"
"242038","133-UY","2018/08/13 07:59:34","新北市新莊區民安路270號","121.42757","25.0213283333333","6500500","新莊區"
"242030","135-UY","2018/08/13 07:59:34","新北市新莊區新泰路403號","121.443453333333","25.0440483333333","6500500","新莊區"
"242047","172-VK","2018/08/13 07:59:36","新北市新莊區四維路210號","121.421383333333","25.0201416666667","6500500","新莊區"
"242016","175-VK","2018/08/13 07:59:36","新北市新莊區復興路一段191號","121.451828333333","25.0435366666667","6500500","新莊區"
"242003","176-VK","2018/08/13 07:59:34","新北市新莊區中港路288巷14號","121.453458333333","25.04452","6500500","新莊區"
"242012","347-TH","2018/08/13 07:59:41","新北市新莊區中誠街46巷4弄2號","121.451205","25.0487266666667","6500500","新莊區"
"242020","348-TH","2018/08/13 07:59:34","新北市新莊區中華路一段26巷1號","121.452053333333","25.037365","6500500","新莊區"
"242001","349-TH","2018/08/13 07:59:30","新北市新莊區新莊路211號","121.455346666667","25.0353866666667","6500500","新莊區"
"242018","350-TH","2018/08/13 07:59:34","新北市新莊區中港路72號","121.455543333333","25.0389283333333","6500500","新莊區"
"220037","146-RM","2018/08/13 07:59:09","新北市五股區成泰路三段362號","121.451476666667","25.09849","6500100","板橋區"
"242014","281-VK","2018/08/13 07:59:39","新北市新莊區新泰路152號","121.447723333333","25.0373566666667","6500500","新莊區"
"242033","280-VK","2018/08/13 07:59:33","新北市新莊區新莊路386號","121.44901","25.033405","6500500","新莊區"
