"lineid","car","time","location","longitude","latitude","cityid","cityname"
"248005","653-BX","2018/08/13 08:38:21","新北市五股區明德路12巷6號","121.433371666667","25.0718533333333","6501500","五股區"
"232001","290-BY","2018/08/13 08:39:43","新北市坪林區虎寮潭1號","121.740933333333","24.9525933333333","6502000","坪林區"
"232012","291-BY","2018/08/13 08:39:32","新北市坪林區金瓜寮24-2號","121.68024","24.9080183333333","6502000","坪林區"
"232017","705-BZ","2018/08/13 08:39:16","新北市坪林區中心崙5-2號","121.782068333333","24.948355","6502000","坪林區"
"232005","758-BX","2018/08/13 08:39:31","新北市坪林區鶯子瀨11-2號","121.710035","24.914215","6502000","坪林區"
"244006","080-UY","2018/08/13 08:39:29","新北市林口區林口路270號","121.386326666667","25.0845866666667","6501700","林口區"
"244001","248-BX","2018/08/13 08:39:39","新北市林口區寶斗厝坑67-5號","121.338646666667","25.1111566666667","6501700","林口區"
"244018","403-UM","2018/08/13 08:39:25","新北市林口區文化一路一段105號","121.372888333333","25.0710116666667","6501700","林口區"
"244012","KEA-2802","2018/08/13 08:39:22","新北市林口區中山路190號","121.3892","25.07896","6501700","林口區"
"244008","410-SL","2018/08/13 08:39:40","新北市林口區林口路239號","121.386793333333","25.0835816666667","6501700","林口區"
"244022","483-VK","2018/08/13 08:39:39","新北市林口區興林路221巷27號","121.38977","25.071745","6501700","林口區"
"244016","485-VK","2018/08/13 08:39:34","新北市林口區公園路177號","121.370848333333","25.0719633333333","6501700","林口區"
"244010","657-BX","2018/08/13 08:39:40","新北市林口區中正路50號","121.395266666667","25.0774566666667","6501700","林口區"
"244001","658-BX","2018/08/13 08:39:24","新北市林口區竹林路380巷2號","121.391983333333","25.085485","6501700","林口區"
"244024","837-TS","2018/08/13 08:39:27","新北市林口區文化北路一段258號","121.359166666667","25.0717083333333","6501700","林口區"
"244020","838-TS","2018/08/13 08:39:28","新北市林口區自強六街2號","121.40009","25.076935","6501700","林口區"
"222005","289-BY","2018/08/13 08:39:40","新北市深坑區深南路220號","121.624413333333","25.0170533333333","6501800","深坑區"
"231007","189-VK","2018/08/13 08:39:37","新北市新店區新潭路二段99號","121.515886666667","24.9245716666667","6500600","新店區"
"231008","192-VK","2018/08/13 08:39:42","新北市新店區新烏路三段165巷62號","121.553833333333","24.9013966666667","6500600","新店區"
"235001","611-BX","2018/08/13 08:39:34","新北市中和區員山路276號","121.481306666667","25.0020033333333","6500300","中和區"
"226005","5620-A6","2018/08/13 08:39:23","新北市平溪區南山里乾坑2-5號","121.786938333333","25.0452266666667","6502400","平溪區"
"226001","7418-A5","2018/08/13 08:39:31","新北市平溪區東勢里火燒寮34-1號","121.759988333333","24.9916783333333","6502400","平溪區"
"226003","AGD-0702","2018/08/13 08:39:44","新北市平溪區靜安路三段355號","121.780003333333","25.0451166666667","6502400","平溪區"
"223006","022-BY","2018/08/13 08:39:41","新北市石碇區靜安路一段189號","121.67266","25.0081983333333","6501900","石碇區"
"223002","KEA-2673","2018/08/13 08:39:29","新北市石碇區北宜路五段59號","121.63516","24.9543816666667","6501900","石碇區"
"223003","205-TH","2018/08/13 08:39:34","新北市石碇區北宜路六段塗潭巷3號","121.645965","24.9378933333333","6501900","石碇區"
"223008","406-TH","2018/08/13 08:39:41","新北市石碇區碇南路二段松柏崎巷3號","121.673591666667","25.0185066666667","6501900","石碇區"
"223001","592-UM","2018/08/13 08:39:29","新北市石碇區北宜路六段塗潭巷18號","121.650748333333","24.9334583333333","6501900","石碇區"
"223004","660-BX","2018/08/13 08:39:33","新北市石碇區碇坪路一段282號","121.67635","24.9768866666667","6501900","石碇區"
"223005","677-TV","2018/08/13 08:38:04","新北市石碇區碇坪路一段280號","121.676225","24.9769016666667","6501900","石碇區"
"227005","030-BX","2018/08/13 08:39:23","新北市雙溪區上林里大瀨10號","121.822958333333","25.0213716666667","6502500","雙溪區"
"252006","073-UM","2018/08/13 08:39:28","新北市三芝區後厝里北勢子7-13號","121.478075","25.2537816666667","6502100","三芝區"
"252004","249-BX","2018/08/13 08:39:35","新北市三芝區興華里車埕3號","121.501261666667","25.2023516666667","6502100","三芝區"
"237001","159-UY","2018/08/13 08:39:40","新北市三峽區學勤路106號","121.374951666667","24.9461416666667","6500900","三峽區"
"236001","165-UM","2018/08/13 08:39:37","新北市土城區石門路67號","121.456988333333","24.9600883333333","6501300","土城區"
"236001","KEA-2877","2018/08/13 08:39:34","新北市土城區中央路三段253號","121.427253333333","24.96376","6501300","土城區"
"236005","498-BY","2018/08/13 08:39:40","新北市土城區永和街25號","121.435063333333","24.96307","6501300","土城區"
"242057","986-R7","2018/08/13 08:39:38","新北市新莊區中正路740號","121.413713333333","25.022965","6500500","新莊區"
"242024","705-TV","2018/08/13 08:39:30","新北市新莊區五工路80號","121.457506666667","25.0638633333333","6500500","新莊區"
"242026","615-BX","2018/08/13 08:39:37","新北市新莊區幸福路25號","121.458878333333","25.0493916666667","6500500","新莊區"
"242040","566-BX","2018/08/13 08:39:41","新北市新莊區天祥街71巷6號","121.415721666667","25.02887","6500500","新莊區"
"242045","497-BY","2018/08/13 08:39:43","新北市新莊區福營路296號","121.422515","25.027575","6500500","新莊區"
"242052","442-UM","2018/08/13 08:39:42","新北市新莊區光華街36號","121.428726666667","25.0113","6500500","新莊區"
"242049","441-UM","2018/08/13 08:39:26","新北市新莊區民安西路75巷22號","121.428211666667","25.0193766666667","6500500","新莊區"
"242055","440-UM","2018/08/13 08:39:34","新北市新莊區豐年街豐2巷12號","121.447125","25.0307083333333","6500500","新莊區"
"242035","415-TV","2018/08/13 08:39:43","新北市新莊區後港一路31巷3弄2號","121.42503","25.0266716666667","6500500","新莊區"
"242006","413-TV","2018/08/13 08:39:29","新北市新莊區思源路591號","121.459675","25.05955","6500500","新莊區"
"242043","400-BY","2018/08/13 08:39:26","新北市新莊區天泉二街11號","121.415013333333","25.0249766666667","6500500","新莊區"
"242022","362-BY","2018/08/13 08:39:44","新北市新莊區化成路392號","121.465888333333","25.0503566666667","6500500","新莊區"
"242059","353-BY","2018/08/13 08:39:37","新北市新莊區後港一路58號","121.42634","25.026375","6500500","新莊區"
"242008","132-UY","2018/08/13 08:39:25","新北市新莊區昌平街71巷15號","121.453815","25.053605","6500500","新莊區"
"242038","133-UY","2018/08/13 08:39:34","新北市新莊區民安路309號","121.429846666667","25.0227","6500500","新莊區"
"242030","135-UY","2018/08/13 08:39:43","新北市新莊區新泰路277巷57弄10號","121.443075","25.0398383333333","6500500","新莊區"
"242047","172-VK","2018/08/13 08:39:38","新北市新莊區後港一路1號","121.423971666667","25.0261683333333","6500500","新莊區"
"242010","173-VK","2018/08/13 08:39:30","新北市新莊區中榮街31號","121.450203333333","25.0526483333333","6500500","新莊區"
"242016","175-VK","2018/08/13 08:39:36","新北市新莊區中安街5巷1號","121.452795","25.0455333333333","6500500","新莊區"
"242003","176-VK","2018/08/13 08:39:25","新北市新莊區復興路二段49號","121.454826666667","25.0441566666667","6500500","新莊區"
"242012","347-TH","2018/08/13 08:39:41","新北市新莊區中泰街38巷16號","121.450753333333","25.047555","6500500","新莊區"
"242020","348-TH","2018/08/13 08:39:34","新北市新莊區新興街44號","121.45076","25.0372933333333","6500500","新莊區"
"242001","349-TH","2018/08/13 08:39:31","新北市新莊區武前街29號","121.450315","25.0325516666667","6500500","新莊區"
"242018","350-TH","2018/08/13 08:39:39","新北市新莊區中港路132巷15號","121.455848333333","25.0408583333333","6500500","新莊區"
"220037","146-RM","2018/08/13 08:39:29","新北市五股區凌雲路二段18巷12號","121.444493333333","25.1067983333333","6500100","板橋區"
"242014","281-VK","2018/08/13 08:39:38","新北市新莊區中平路198巷14號","121.445726666667","25.04833","6500500","新莊區"
"242033","280-VK","2018/08/13 08:39:39","新北市新莊區仁愛街2號","121.444243333333","25.03468","6500500","新莊區"
