"lineid","car","time","location","longitude","latitude","cityid","cityname"
"248005","653-BX","2018/08/13 09:09:23","新北市五股區水碓路19號","121.433326666667","25.072625","6501500","五股區"
"232005","758-BX","2018/08/13 09:09:31","新北市坪林區魚堀11-5號","121.707146666667","24.90511","6502000","坪林區"
"244006","080-UY","2018/08/13 09:09:29","新北市林口區林口路113巷47號","121.387973333333","25.07987","6501700","林口區"
"244018","403-UM","2018/08/13 09:09:39","新北市林口區文化一路一段100巷8弄6號","121.373665","25.0705716666667","6501700","林口區"
"244012","KEA-2802","2018/08/13 09:09:42","新北市林口區麗園一街6巷6-3號","121.375241666667","25.07061","6501700","林口區"
"244008","410-SL","2018/08/13 09:09:40","新北市林口區文林一街115巷11號","121.378845","25.08775","6501700","林口區"
"244022","483-VK","2018/08/13 09:09:39","新北市林口區東湖路153巷135號","121.382251666667","25.0734816666667","6501700","林口區"
"244016","485-VK","2018/08/13 09:09:34","新北市林口區八德路78號","121.365638333333","25.065625","6501700","林口區"
"244010","657-BX","2018/08/13 09:09:40","新北市林口區仁愛路一段264號","121.394045","25.0758833333333","6501700","林口區"
"244001","658-BX","2018/08/13 09:09:44","新北市林口區後坑15-3號","121.355203333333","25.1251916666667","6501700","林口區"
"244024","837-TS","2018/08/13 09:09:27","新北市林口區文化北路一段472號","121.365693333333","25.0775983333333","6501700","林口區"
"244020","838-TS","2018/08/13 09:09:28","新北市林口區工六路100號","121.401175","25.0765966666667","6501700","林口區"
"222005","289-BY","2018/08/13 09:09:40","新北市深坑區土庫尖路75-1號","121.631325","25.0181966666667","6501800","深坑區"
"231007","189-VK","2018/08/13 09:09:37","新北市新店區新潭路三段215巷25號","121.508086666667","24.9040783333333","6500600","新店區"
"231008","192-VK","2018/08/13 09:09:42","新北市新店區廣興路66巷8號","121.539238333333","24.9138333333333","6500600","新店區"
"235001","611-BX","2018/08/13 09:09:34","新北市中和區民享街245號","121.472075","24.996215","6500300","中和區"
"226001","7418-A5","2018/08/13 09:09:31","新北市平溪區東勢里火燒寮6號","121.746976666667","25.00137","6502400","平溪區"
"226003","AGD-0702","2018/08/13 09:06:24","新北市平溪區南山里南山坪5號","121.761068333333","25.0336316666667","6502400","平溪區"
"223006","022-BY","2018/08/13 09:09:28","新北市深坑區昇高坑路50號","121.628711666667","24.9978516666667","6501900","石碇區"
"223002","KEA-2673","2018/08/13 09:09:30","新北市石碇區員潭子坑14號","121.646181666667","24.9901733333333","6501900","石碇區"
"223003","205-TH","2018/08/13 09:09:31","新北市石碇區北宜路六段水底寮巷23號","121.664291666667","24.94217","6501900","石碇區"
"223008","406-TH","2018/08/13 09:09:41","新北市石碇區光明路13號","121.68004","25.0336683333333","6501900","石碇區"
"223001","592-UM","2018/08/13 09:09:29","新北市石碇區北宜路六段水底寮巷7號","121.66514","24.9482083333333","6501900","石碇區"
"223004","660-BX","2018/08/13 09:09:34","新北市石碇區碇坪路二段51號","121.684315","24.9717716666667","6501900","石碇區"
"223005","677-TV","2018/08/13 09:06:30","新北市石碇區崩山53號","121.68239","24.96889","6501900","石碇區"
"227005","030-BX","2018/08/13 09:09:23","新北市雙溪區泰平里泰平41-3號","121.83655","24.980775","6502500","雙溪區"
"252006","073-UM","2018/08/13 09:09:28","新北市三芝區埔坪里埔頭坑107號","121.504533333333","25.261505","6502100","三芝區"
"252004","249-BX","2018/08/13 09:09:35","新北市三芝區興華里田心子31號","121.488836666667","25.200475","6502100","三芝區"
"237001","159-UY","2018/08/13 09:09:18","新北市樹林區中山路三段214號","121.380045","24.9678","6500900","三峽區"
"236001","165-UM","2018/08/13 09:09:37","新北市土城區大安路2號","121.43259","24.96553","6501300","土城區"
"236001","KEA-2877","2018/08/13 09:09:44","新北市土城區福仁街42號","121.439758333333","24.9752733333333","6501300","土城區"
"236005","498-BY","2018/08/13 09:09:40","新北市土城區中央路三段76巷48號","121.435633333333","24.969205","6501300","土城區"
"242057","986-R7","2018/08/13 09:09:32","新北市新莊區八德街109號","121.424196666667","25.0210183333333","6500500","新莊區"
"242024","705-TV","2018/08/13 09:09:30","新北市新莊區五工三路78巷34號","121.459863333333","25.06597","6500500","新莊區"
"242026","615-BX","2018/08/13 09:09:32","新北市新莊區立信三街12巷18號","121.444223333333","25.0513183333333","6500500","新莊區"
"242040","566-BX","2018/08/13 09:09:36","新北市新莊區壽山路45號","121.414771666667","25.0310283333333","6500500","新莊區"
"242045","497-BY","2018/08/13 09:09:24","新北市新莊區中正路新生巷45號","121.417591666667","25.0232233333333","6500500","新莊區"
"242052","442-UM","2018/08/13 09:09:45","新北市新莊區西盛街395巷22弄8號","121.428456666667","25.0128183333333","6500500","新莊區"
"242049","441-UM","2018/08/13 09:09:46","新北市新莊區西盛街259號","121.428081666667","25.01584","6500500","新莊區"
"242055","440-UM","2018/08/13 09:09:30","新北市新莊區新豐街20巷11號","121.447711666667","25.034405","6500500","新莊區"
"242035","415-TV","2018/08/13 09:09:29","新北市新莊區建安街25巷16號","121.429863333333","25.0261433333333","6500500","新莊區"
"242006","413-TV","2018/08/13 09:09:29","新北市新莊區思源路73號","121.4599","25.0408366666667","6500500","新莊區"
"242043","400-BY","2018/08/13 09:09:26","新北市新莊區新北大道七段722號","121.412308333333","25.0259883333333","6500500","新莊區"
"242022","362-BY","2018/08/13 09:09:44","新北市新莊區化成路752號","121.465488333333","25.0579133333333","6500500","新莊區"
"242059","353-BY","2018/08/13 09:09:37","新北市新莊區瓊林路59-72號","121.444343333333","25.02749","6500500","新莊區"
"242008","132-UY","2018/08/13 09:09:25","新北市新莊區昌盛街103巷12號","121.456195","25.050615","6500500","新莊區"
"242038","133-UY","2018/08/13 09:09:43","新北市新莊區成功街54號","121.42461","25.01984","6500500","新莊區"
"242030","135-UY","2018/08/13 09:09:33","新北市新莊區公園一路68號","121.443166666667","25.0364133333333","6500500","新莊區"
"242047","172-VK","2018/08/13 09:09:36","新北市新莊區四維路152巷19號","121.422206666667","25.022725","6500500","新莊區"
"242010","173-VK","2018/08/13 09:09:30","新北市新莊區中信街53號","121.449646666667","25.05079","6500500","新莊區"
"242016","175-VK","2018/08/13 09:09:36","新北市新莊區中平路84號","121.44484","25.044865","6500500","新莊區"
"242003","176-VK","2018/08/13 09:09:41","新北市新莊區化成路63巷24弄21號","121.462576666667","25.0458916666667","6500500","新莊區"
"242012","347-TH","2018/08/13 09:09:40","新北市新莊區中平路302巷6號","121.445421666667","25.05172","6500500","新莊區"
"242020","348-TH","2018/08/13 09:09:34","新北市新莊區新泰路304號","121.445531666667","25.0410916666667","6500500","新莊區"
"242001","349-TH","2018/08/13 09:09:30","新北市新莊區化成路5-12號","121.464633333333","25.04241","6500500","新莊區"
"242018","350-TH","2018/08/13 09:09:34","新北市新莊區博愛路7巷2號","121.456086666667","25.043925","6500500","新莊區"
"220037","146-RM","2018/08/13 09:00:30","新北市板橋區民生路二段36-1號","121.472495","25.0168566666667","6500100","板橋區"
"242014","281-VK","2018/08/13 09:09:38","新北市新莊區中平路36巷18號","121.445523333333","25.0435183333333","6500500","新莊區"
"242033","280-VK","2018/08/13 09:09:37","新北市新莊區建中街141號","121.444981666667","25.0365","6500500","新莊區"
