"lineid","car","time","location","longitude","latitude","cityid","cityname"
"248005","653-BX","2018/08/13 10:39:43","新北市五股區中興路二段37巷26號","121.460491666667","25.0749216666667","6501500","五股區"
"244007","080-UY","2018/08/13 10:31:25","新北市林口區粉寮69號","121.40494","25.0908933333333","6501700","林口區"
"244018","403-UM","2018/08/13 10:39:45","新北市林口區四維路156-2號","121.380891666667","25.0757083333333","6501700","林口區"
"231007","189-VK","2018/08/13 10:39:37","新北市新店區新潭路三段80巷15號","121.501625","24.9098933333333","6500600","新店區"
"231008","192-VK","2018/08/13 10:39:42","新北市新店區廣興路5巷19號","121.545795","24.9136183333333","6500600","新店區"
"227005","030-BX","2018/08/13 10:11:23","新北市雙溪區泰平里灣潭路20-1號","121.812563333333","24.9290783333333","6502500","雙溪區"
"237001","159-UY","2018/08/13 10:39:39","新北市三峽區中山路459巷163-3號","121.349028333333","24.9331016666667","6500900","三峽區"
"242001","349-TH","2018/08/13 10:39:30","新北市板橋區大觀路三段36巷122-2號","121.435335","24.99874","6500500","新莊區"
