"lineid","car","time","location","longitude","latitude","cityid","cityname"
"244007","080-UY","2018/08/13 10:31:25","新北市林口區粉寮69號","121.40494","25.0908933333333","6501700","林口區"
"244018","403-UM","2018/08/13 10:49:25","新北市林口區粉寮路一段51號","121.396901666667","25.0777116666667","6501700","林口區"
"231007","189-VK","2018/08/13 10:49:37","新北市新店區新潭路三段76號","121.506013333333","24.9117483333333","6500600","新店區"
"231008","192-VK","2018/08/13 10:49:42","新北市新店區成功路43號","121.543968333333","24.9020966666667","6500600","新店區"
"227005","030-BX","2018/08/13 10:49:43","新北市雙溪區泰平里溪尾寮46號","121.82151","24.968515","6502500","雙溪區"
"237001","159-UY","2018/08/13 10:45:09","新北市三峽區中山路459巷163-3號","121.349018333333","24.933105","6500900","三峽區"
"242001","349-TH","2018/08/13 10:49:30","新北市新莊區新泰路357巷2號","121.442003333333","25.0414516666667","6500500","新莊區"
