"lineid","car","time","location","longitude","latitude","cityid","cityname"
"234044","148-BY","2018/08/13 12:29:39","新北市永和區豫溪街217巷11號","121.525","25.010045","6500400","永和區"
"234078","298-R6","2018/08/13 12:29:27","新北市永和區豫溪街217巷11號","121.524955","25.010075","6500400","永和區"
"234084","338-UY","2018/08/13 12:29:40","新北市永和區永貞路8號","121.520818333333","25.0073383333333","6500400","永和區"
"234036","553-UM","2018/08/13 12:29:47","新北市永和區福和路1號","121.526586666667","25.01009","6500400","永和區"
"234015","745-BX","2018/08/13 12:29:34","新北市永和區福和路1號","121.526256666667","25.0096033333333","6500400","永和區"
"234012","KEA-2591","2018/08/13 12:29:44","新北市永和區信義路117號","121.512313333333","25.0148633333333","6500400","永和區"
"234010","9373-KE","2018/08/13 12:29:39","新北市永和區福和路1號","121.526615","25.0099866666667","6500400","永和區"
"234076","969-R7","2018/08/13 12:29:34","新北市永和區福和路1號","121.526213333333","25.0095766666667","6500400","永和區"
"243008","KEA-2801","2018/08/13 12:12:23","新北市泰山區黎明路31號","121.421586666667","25.06093","6501600","泰山區"
"243004","646-TV","2018/08/13 12:23:14","新北市泰山區黎明路26號","121.42113","25.0605883333333","6501600","泰山區"
"237001","159-UY","2018/08/13 12:29:32","新北市三峽區中山路459巷163-1號","121.349365","24.9331216666667","6500900","三峽區"
"221010","269-BY","2018/08/13 12:29:40","新北市汐止區康寧街861巷1號","121.645665","25.07594","6501100","汐止區"
