"lineid","car","time","location","longitude","latitude","cityid","cityname"
"234044","148-BY","2018/08/13 12:49:39","新北市永和區秀朗路二段148巷12弄16號","121.524863333333","25.0011016666667","6500400","永和區"
"234005","207-UY","2018/08/13 12:49:33","新北市永和區文化路152號","121.512495","25.0153333333333","6500400","永和區"
"234078","298-R6","2018/08/13 12:49:47","新北市永和區永利路156號","121.522636666667","25.0029166666667","6500400","永和區"
"234062","337-UY","2018/08/13 12:49:33","新北市永和區福和路1號","121.526113333333","25.0095433333333","6500400","永和區"
"234084","338-UY","2018/08/13 12:49:40","新北市永和區中正路69號","121.514915","24.996675","6500400","永和區"
"234068","552-UM","2018/08/13 12:49:29","新北市永和區環河東路二段102號","121.524525","25.0104883333333","6500400","永和區"
"234036","553-UM","2018/08/13 12:49:47","新北市永和區成功路一段84號","121.526695","25.0029316666667","6500400","永和區"
"234015","745-BX","2018/08/13 12:49:34","新北市永和區永和路二段409號","121.51519","25.01722","6500400","永和區"
"234028","746-BX","2018/08/13 12:49:36","新北市永和區得和路321號","121.523411666667","24.9996183333333","6500400","永和區"
"234052","KEA-2590","2018/08/13 12:49:45","新北市永和區環河東路二段92號","121.52445","25.010605","6500400","永和區"
"234012","KEA-2591","2018/08/13 12:49:44","新北市永和區保福路二段133巷30號","121.508996666667","25.0134216666667","6500400","永和區"
"234060","AAD-866","2018/08/13 12:49:47","新北市永和區福和路256號","121.518583333333","25.0075866666667","6500400","永和區"
"234040","862-TW","2018/08/13 12:49:43","新北市永和區永貞路271號","121.51171","25.0048216666667","6500400","永和區"
"234048","863-TW","2018/08/13 12:49:51","新北市永和區福和路1號","121.526275","25.0098033333333","6500400","永和區"
"234025","9371-KE","2018/08/13 12:49:34","新北市永和區永和路184-1號","121.514261666667","25.0091133333333","6500400","永和區"
"234010","9373-KE","2018/08/13 12:49:39","新北市永和區保福路二段158巷1號","121.509046666667","25.0150316666667","6500400","永和區"
"248015","026-BX","2018/08/13 12:49:31","新北市五股區中興路三段5號","121.449073333333","25.0799783333333","6501500","五股區"
"248019","225-UY","2018/08/13 12:49:31","新北市五股區中興路二段83巷26-6號","121.459938333333","25.075115","6501500","五股區"
"248009","682-TV","2018/08/13 12:49:44","新北市五股區中興路二段37巷26號","121.4603","25.075225","6501500","五股區"
"234022","9380-KE","2018/08/13 12:49:36","新北市永和區竹林路119巷45號","121.521953333333","25.01183","6500400","永和區"
"234076","969-R7","2018/08/13 12:49:35","新北市中和區安樂路69號","121.512383333333","24.9937316666667","6500400","永和區"
"234072","AAC-211","2018/08/13 12:49:48","新北市永和區福和路1號","121.526443333333","25.00978","6500400","永和區"
"234066","AAC-212","2018/08/13 12:49:32","新北市永和區中和路625號","121.513005","25.0050116666667","6500400","永和區"
"234001","AAC-295","2018/08/13 12:49:50","新北市永和區中正路657號","121.514916666667","25.0102183333333","6500400","永和區"
"243004","646-TV","2018/08/13 12:23:14","新北市泰山區黎明路26號","121.42113","25.0605883333333","6501600","泰山區"
"231005","106-UY","2018/08/13 12:49:35","新北市新店區安華路28-1號","121.519598333333","24.9608533333333","6500600","新店區"
"231010","107-UY","2018/08/13 12:49:48","新北市新店區安一路一段1-1號","121.519125","24.96161","6500600","新店區"
"231019","110-UY","2018/08/13 12:49:50","新北市新店區安一路一段1-1號","121.518991666667","24.9616083333333","6500600","新店區"
"231023","KEA-2219","2018/08/13 12:49:38","新北市新店區安華路1-1號","121.519525","24.9602833333333","6500600","新店區"
"231014","AAD-862","2018/08/13 12:49:33","新北市新店區安一路一段1-1號","121.519735","24.9611716666667","6500600","新店區"
"231037","4716-K9","2018/08/13 12:49:39","新北市新店區安一路一段1-1號","121.51936","24.961255","6500600","新店區"
"231013","513-UM","2018/08/13 12:49:47","新北市新店區安一路一段1-1號","121.519588333333","24.9610533333333","6500600","新店區"
"231030","619-UM","2018/08/13 12:49:43","新北市新店區安華路28-1號","121.51952","24.9608816666667","6500600","新店區"
"231034","641-BX","2018/08/13 12:49:38","新北市新店區安華路28-1號","121.51956","24.9606083333333","6500600","新店區"
"231035","719-UM","2018/08/13 12:49:30","新北市新店區安一路一段1-1號","121.519426666667","24.9612883333333","6500600","新店區"
"231031","720-UM","2018/08/13 12:49:34","新北市新店區安一路一段1-1號","121.519298333333","24.9612666666667","6500600","新店區"
"231029","897-TW","2018/08/13 12:49:49","新北市新店區安華路28-1號","121.519591666667","24.9607783333333","6500600","新店區"
"235028","005-UY","2018/08/13 12:49:46","新北市中和區員山路36巷16-3號","121.485161666667","24.991405","6500300","中和區"
"235029","098-UM","2018/08/13 12:49:48","新北市中和區中正路637巷60弄61號","121.48546","24.9929116666667","6500300","中和區"
"235022","151-BY","2018/08/13 12:49:32","新北市中和區員山路36巷16-2號","121.485176666667","24.9915816666667","6500300","中和區"
"235002","185-VK","2018/08/13 12:49:40","新北市中和區中正路561號","121.487063333333","24.9943416666667","6500300","中和區"
"235031","255-BX","2018/08/13 12:49:34","新北市中和區新生街12號","121.483145","25.0044633333333","6500300","中和區"
"235001","611-BX","2018/08/13 12:49:48","新北市中和區中山路三段136巷29號","121.473736666667","25.0077183333333","6500300","中和區"
"235035","783-BX","2018/08/13 12:49:30","新北市中和區員山路36巷16-3號","121.485063333333","24.991435","6500300","中和區"
"235016","805-TS","2018/08/13 12:49:41","新北市中和區員山路36巷16號","121.484401666667","24.9914933333333","6500300","中和區"
"235017","900-TW","2018/08/13 12:49:36","新北市中和區員山路36巷16-3號","121.484583333333","24.991265","6500300","中和區"
"207002","749-BX","2018/08/13 12:49:46","新北市萬里區雙興里二坪路32號","121.6449","25.16875","6502800","萬里區"
"207001","662-BX","2018/08/13 12:49:41","新北市萬里區萬里里獅頭路23號","121.693241666667","25.178195","6502800","萬里區"
"237001","159-UY","2018/08/13 12:49:32","新北市三峽區學成路317號","121.377331666667","24.9441966666667","6500900","三峽區"
"236005","498-BY","2018/08/13 12:49:35","新北市土城區永寧路30號","121.429465","24.96089","6501300","土城區"
"221010","269-BY","2018/08/13 12:49:40","新北市汐止區忠二街1號","121.623105","25.0770733333333","6501100","汐止區"
"221032","280-BY","2018/08/13 12:49:45","新北市汐止區汐萬路一段81號","121.654655","25.0699516666667","6501100","汐止區"
"235025","KEA-2875","2018/08/13 12:33:28","新北市中和區和城路一段271巷1號","121.485416666667","24.9917283333333","6500300","中和區"
