"lineid","car","time","location","longitude","latitude","cityid","cityname"
"234044","148-BY","2018/08/13 13:39:39","新北市永和區永元路101號","121.522516666667","25.0022416666667","6500400","永和區"
"234005","207-UY","2018/08/13 13:39:33","新北市永和區永和路一段107號","121.51391","25.0079416666667","6500400","永和區"
"234078","298-R6","2018/08/13 13:39:47","新北市永和區國中路104巷10號","121.52482","25.0069216666667","6500400","永和區"
"234062","337-UY","2018/08/13 13:39:33","新北市永和區秀朗路二段24巷28弄14號","121.519595","25.0018666666667","6500400","永和區"
"234084","338-UY","2018/08/13 13:39:40","新北市永和區永亨路165巷1-5號","121.526091666667","25.0041566666667","6500400","永和區"
"234068","552-UM","2018/08/13 13:39:49","新北市永和區永和路二段233號","121.51556","25.0142066666667","6500400","永和區"
"234036","553-UM","2018/08/13 13:39:47","新北市永和區民樂街43巷15號","121.528398333333","24.999905","6500400","永和區"
"234015","745-BX","2018/08/13 13:39:34","新北市永和區永和路二段425巷75弄5號","121.513455","25.0170866666667","6500400","永和區"
"234028","746-BX","2018/08/13 13:39:36","新北市永和區民權路1巷24號","121.521491666667","24.998285","6500400","永和區"
"234052","KEA-2590","2018/08/13 13:39:46","新北市永和區竹林路39巷14號","121.518596666667","25.0146116666667","6500400","永和區"
"234012","KEA-2591","2018/08/13 13:39:44","新北市永和區永平路210號","121.509498333333","25.0101766666667","6500400","永和區"
"234060","AAD-866","2018/08/13 13:39:47","新北市永和區中正路416號","121.517531666667","25.0022216666667","6500400","永和區"
"234040","862-TW","2018/08/13 13:39:43","新北市中和區中和路456號","121.512","25.0036966666667","6500400","永和區"
"234048","863-TW","2018/08/13 13:39:31","新北市永和區保安路132號","121.508886666667","25.0152116666667","6500400","永和區"
"234025","9371-KE","2018/08/13 13:39:34","新北市永和區永平路58號","121.51243","25.0086533333333","6500400","永和區"
"234010","9373-KE","2018/08/13 13:39:39","新北市永和區信義路25巷53號","121.512366666667","25.0115966666667","6500400","永和區"
"248015","026-BX","2018/08/13 13:39:34","新北市五股區凌雲路一段133巷36號","121.448678333333","25.1009683333333","6501500","五股區"
"248005","077-UY","2018/08/13 13:39:40","新北市五股區中興路一段2號","121.469506666667","25.0723833333333","6501500","五股區"
"248007","095-VK","2018/08/13 13:39:41","新北市五股區中興路一段151巷32號","121.465161666667","25.07271","6501500","五股區"
"248019","225-UY","2018/08/13 13:39:31","新北市五股區孝義路102號","121.44533","25.1196683333333","6501500","五股區"
"248011","247-BX","2018/08/13 13:39:41","新北市五股區成泰路三段2巷1-12號","121.44131","25.0867333333333","6501500","五股區"
"248013","261-SL","2018/08/13 13:39:31","新北市五股區中興路四段70號","121.436956666667","25.0833883333333","6501500","五股區"
"248003","677-BX","2018/08/13 13:39:51","新北市五股區民義路一段293號","121.425003333333","25.09345","6501500","五股區"
"248001","678-BX","2018/08/13 13:39:45","新北市五股區西雲路221號","121.448811666667","25.0970016666667","6501500","五股區"
"248009","682-TV","2018/08/13 13:39:44","新北市五股區水碓七路168號","121.430975","25.07401","6501500","五股區"
"234022","9380-KE","2018/08/13 13:39:36","新北市永和區中正路702巷26號","121.516518333333","25.0106316666667","6500400","永和區"
"234076","969-R7","2018/08/13 13:39:34","新北市永和區民權路46號","121.520145","24.998575","6500400","永和區"
"234072","AAC-211","2018/08/13 13:39:48","新北市永和區竹林路225巷56號","121.52304","25.0086933333333","6500400","永和區"
"234066","AAC-212","2018/08/13 13:39:36","新北市永和區中山路一段191巷9弄1號","121.509576666667","25.0080966666667","6500400","永和區"
"234001","AAC-295","2018/08/13 13:39:30","新北市永和區自由街18號","121.514581666667","25.006655","6500400","永和區"
"244001","248-BX","2018/08/13 13:39:39","新北市林口區瑞平里66號","121.34565","25.1272633333333","6501700","林口區"
"244001","658-BX","2018/08/13 13:39:36","新北市林口區湖南里70-9號","121.375818333333","25.0897133333333","6501700","林口區"
"243005","AAD-798","2018/08/13 13:29:52","新北市泰山區明志路三段206巷3號","121.423311666667","25.037965","6501600","泰山區"
"243008","KEA-2801","2018/08/13 13:39:30","新北市泰山區犁頭窠3-1號","121.421891666667","25.060345","6501600","泰山區"
"243003","KEA-2215","2018/08/13 13:39:44","新北市泰山區黎明路31-1號","121.421485","25.060505","6501600","泰山區"
"243004","646-TV","2018/08/13 13:39:34","新北市泰山區黎明路3號","121.421085","25.0632666666667","6501600","泰山區"
"231006","001-UM","2018/08/13 13:39:38","新北市新店區北宜路一段83號","121.538726666667","24.9562066666667","6500600","新店區"
"231002","002-UM","2018/08/13 13:39:38","新北市新店區中央三街127號","121.524041666667","24.9768633333333","6500600","新店區"
"231027","0293-UT","2018/08/13 13:39:33","新北市新店區北宜路一段105巷4弄9號","121.540351666667","24.9554983333333","6500600","新店區"
"231028","046-UY","2018/08/13 13:39:34","新北市新店區安和路一段39號","121.517113333333","24.9652933333333","6500600","新店區"
"231001","047-UY","2018/08/13 13:39:38","新北市新店區中正路396號","121.534631666667","24.977395","6500600","新店區"
"231005","106-UY","2018/08/13 13:39:35","新北市新店區寶中路72號","121.547831666667","24.9806433333333","6500600","新店區"
"231010","107-UY","2018/08/13 13:39:29","新北市新店區中正路307巷17號","121.535801666667","24.9736","6500600","新店區"
"231019","110-UY","2018/08/13 13:39:30","新北市新店區新烏路一段130號","121.544126666667","24.9337416666667","6500600","新店區"
"231011","187-VK","2018/08/13 13:39:35","新北市新店區德正街27巷1號","121.54458","24.9714083333333","6500600","新店區"
"231023","KEA-2219","2018/08/13 13:39:38","新北市新店區新店路169號","121.537095","24.9556116666667","6500600","新店區"
"231026","256-BX","2018/08/13 13:39:34","新北市新店區中正路331-1號","121.53604","24.9752383333333","6500600","新店區"
"231003","268-BY","2018/08/13 13:39:43","新北市新店區中興路一段290號","121.545915","24.9690883333333","6500600","新店區"
"231018","278-BY","2018/08/13 13:39:39","新北市新店區百忍街42巷1號","121.533441666667","24.9759216666667","6500600","新店區"
"231014","AAD-862","2018/08/13 13:39:39","新北市新店區竹林路26巷42號","121.551078333333","24.9508933333333","6500600","新店區"
"231004","355-BY","2018/08/13 13:39:40","新北市新店區北新路二段2號","121.542633333333","24.97067","6500600","新店區"
"231038","3712-VJ","2018/08/13 13:39:32","新北市新店區安華路28-1號","121.51922","24.9607083333333","6500600","新店區"
"231037","4716-K9","2018/08/13 13:39:39","新北市新店區薏仁坑路35號","121.493558333333","24.962995","6500600","新店區"
"231025","4715-K9","2018/08/13 13:39:46","新北市新店區中央六街54號","121.528006666667","24.975695","6500600","新店區"
"231036","512-UM","2018/08/13 13:39:46","新北市新店區安祥路142號","121.474218333333","24.9554066666667","6500600","新店區"
"231013","513-UM","2018/08/13 13:39:47","新北市新店區中正路454-5號","121.534461666667","24.979","6500600","新店區"
"231030","619-UM","2018/08/13 13:39:49","新北市新店區安康路一段164-1號","121.52593","24.9630466666667","6500600","新店區"
"231034","641-BX","2018/08/13 13:39:38","新北市新店區車子路110號","121.50521","24.952095","6500600","新店區"
"231035","719-UM","2018/08/13 13:39:50","新北市新店區安忠路56巷6號","121.51295","24.9593883333333","6500600","新店區"
"231031","720-UM","2018/08/13 13:39:34","新北市新店區莒光路12號","121.52637","24.9603833333333","6500600","新店區"
"231029","897-TW","2018/08/13 13:39:49","新北市新店區安康路二段330號","121.503973333333","24.95776","6500600","新店區"
"231024","AKT-0513","2018/08/13 13:39:45","新北市新店區北新路一段271巷31-3號","121.539791666667","24.9670366666667","6500600","新店區"
"235030","003-UY","2018/08/13 13:39:34","新北市中和區水源路45號","121.504851666667","25.0036516666667","6500300","中和區"
"235028","005-UY","2018/08/13 13:39:46","新北市中和區連城路103號","121.496438333333","24.9998133333333","6500300","中和區"
"235027","006-UY","2018/08/13 13:39:47","新北市中和區連城路397號","121.486325","24.996135","6500300","中和區"
"235020","096-UM","2018/08/13 13:39:32","新北市中和區中山路二段568巷46號","121.48219","25.0069333333333","6500300","中和區"
"235003","097-UM","2018/08/13 13:39:36","新北市中和區景平路278巷14弄8號","121.514431666667","24.9930333333333","6500300","中和區"
"235029","098-UM","2018/08/13 13:39:48","新北市中和區中山路二段2巷65號","121.501585","25.0073933333333","6500300","中和區"
"235004","150-BY","2018/08/13 13:39:43","新北市中和區安平路59號","121.509516666667","24.9953616666667","6500300","中和區"
"235022","151-BY","2018/08/13 13:39:32","新北市中和區員山路49號","121.481251666667","24.9928283333333","6500300","中和區"
"235019","183-VK","2018/08/13 13:39:47","新北市中和區國光街8巷7號","121.471606666667","25.0006983333333","6500300","中和區"
"235002","185-VK","2018/08/13 13:39:40","新北市中和區大勇街60巷16號","121.518695","24.994705","6500300","中和區"
"235013","186-VK","2018/08/13 13:39:39","新北市中和區景安路116號","121.50522","24.99502","6500300","中和區"
"235031","255-BX","2018/08/13 13:39:34","新北市中和區新生街186巷5弄27號","121.482936666667","24.9986766666667","6500300","中和區"
"235008","293-VK","2018/08/13 13:39:49","新北市中和區復興路274巷12號","121.502811666667","24.990725","6500300","中和區"
"235036","301-VK","2018/08/13 13:39:46","新北市中和區安邦街1號","121.49581","24.9984316666667","6500300","中和區"
"235007","352-BY","2018/08/13 13:39:51","新北市中和區景平路183號","121.511711666667","24.9924683333333","6500300","中和區"
"235006","KEA-2878","2018/08/13 13:39:40","新北市中和區秀朗路三段135巷7弄5號","121.5256","24.9919966666667","6500300","中和區"
"235014","4979-A6","2018/08/13 13:39:48","新北市中和區景新街496巷28弄12號","121.51297","24.9859783333333","6500300","中和區"
"235033","4980-A6","2018/08/13 13:39:39","新北市中和區連城路87號","121.49687","25.0003916666667","6500300","中和區"
"235034","558-UM","2018/08/13 13:39:38","新北市中和區景平路477號","121.500383333333","24.997225","6500300","中和區"
"235009","565-BX","2018/08/13 13:39:35","新北市中和區南山路236巷63弄1號","121.503873333333","24.987605","6500300","中和區"
"235018","640-BX","2018/08/13 13:39:34","新北市中和區民享街53號","121.474091666667","25.002615","6500300","中和區"
"235024","647-TV","2018/08/13 13:39:34","新北市中和區中山路二段608號","121.48172","25.0054583333333","6500300","中和區"
"235011","732-UM","2018/08/13 13:39:47","新北市中和區南山路320巷10弄25號","121.506606666667","24.9865766666667","6500300","中和區"
"235035","783-BX","2018/08/13 13:39:30","新北市中和區立德街17號","121.489133333333","25.0070616666667","6500300","中和區"
"235026","800-TS","2018/08/13 13:39:41","新北市中和區中山路二段296號","121.496016666667","25.0024966666667","6500300","中和區"
"235021","801-TS","2018/08/13 13:39:45","新北市中和區員山路327巷22號","121.48077","25.0015233333333","6500300","中和區"
"235005","802-TS","2018/08/13 13:39:37","新北市中和區中和路400巷27號","121.511843333333","25.0021383333333","6500300","中和區"
"235016","805-TS","2018/08/13 13:39:45","新北市中和區興南路三段52巷2-5號","121.49453","24.975865","6500300","中和區"
"235012","896-TW","2018/08/13 13:39:43","新北市中和區中正路77號","121.500876666667","24.993395","6500300","中和區"
"235017","900-TW","2018/08/13 13:39:36","新北市土城區延壽路118-6號","121.469068333333","24.9947","6500300","中和區"
"235015","157-BY","2018/08/13 13:39:49","新北市中和區華新街143巷106弄22號","121.50599","24.9788766666667","6500300","中和區"
"235001","AAC-213","2018/08/13 13:39:33","新北市中和區景德街52號","121.51764","24.9915533333333","6500300","中和區"
"235023","AAC-215","2018/08/13 13:39:43","新北市中和區錦和路354巷15號","121.49003","24.9915366666667","6500300","中和區"
"220013","015-TV","2018/08/13 13:39:45","新北市板橋區民族路247巷5弄42號","121.47016","25.0085283333333","6500100","板橋區"
"220034","073-UY","2018/08/13 13:39:32","新北市板橋區南雅西路二段177號","121.451808333333","25.012565","6500100","板橋區"
"220017","AAD-861","2018/08/13 13:39:39","新北市板橋區華東街1-10號","121.448358333333","24.995135","6500100","板橋區"
"247007","056-VK","2018/08/13 13:39:42","新北市蘆洲區國道路二段105號","121.470543333333","25.0748716666667","6501400","蘆洲區"
"253003","6232-TK","2018/08/13 13:39:47","新北市石門區內石門21-1號","121.571748333333","25.27369","6502200","石門區"
"253001","6251-TK","2018/08/13 13:39:41","新北市石門區下員坑26號","121.515185","25.2761483333333","6502200","石門區"
"253002","637-UY","2018/08/13 13:39:34","新北市石門區內石門79號","121.566258333333","25.260145","6502200","石門區"
"253004","8270-PC","2018/08/13 13:39:47","新北市石門區阿里荖50號","121.607403333333","25.2747433333333","6502200","石門區"
"207002","749-BX","2018/08/13 13:39:46","新北市萬里區崁腳里崁腳路166號","121.645026666667","25.1558666666667","6502800","萬里區"
"252005","073-UM","2018/08/13 13:39:39","新北市三芝區圓山里內柑宅25號","121.53863","25.2183383333333","6502100","三芝區"
"207001","662-BX","2018/08/13 13:39:40","新北市萬里區大鵬里萬里加投35-1號","121.645453333333","25.2111816666667","6502800","萬里區"
"237001","159-UY","2018/08/13 13:39:32","新北市三峽區中山路459巷163-1號","121.3493","24.9334216666667","6500900","三峽區"
"236040","107-UM","2018/08/13 13:39:37","新北市土城區城林路6巷80號","121.438535","24.9797216666667","6501300","土城區"
"236029","253-BX","2018/08/13 13:39:44","新北市土城區城林路6巷80號","121.43848","24.9798166666667","6501300","土城區"
"236032","271-VK","2018/08/13 13:39:44","新北市土城區城林路6巷80號","121.43854","24.9798183333333","6501300","土城區"
"236005","498-BY","2018/08/13 13:39:35","新北市土城區慶祥街68號","121.436368333333","24.973715","6501300","土城區"
"236045","913-UM","2018/08/13 13:39:31","新北市土城區城林路6巷80號","121.438496666667","24.97974","6501300","土城區"
"236060","915-UM","2018/08/13 13:39:47","新北市土城區城林路6巷80號","121.438528333333","24.9796816666667","6501300","土城區"
"242047","172-VK","2018/08/13 13:39:33","新北市新莊區民安西路370號","121.427695","25.01089","6500500","新莊區"
"221010","269-BY","2018/08/13 13:39:40","新北市汐止區康寧街753巷10弄11-8號","121.639463333333","25.0754316666667","6501100","汐止區"
"221032","280-BY","2018/08/13 13:39:45","新北市汐止區仁愛路25號","121.659281666667","25.063765","6501100","汐止區"
"220027","145-BY","2018/08/13 13:39:50","新北市板橋區大仁街107號","121.452643333333","25.015575","6500100","板橋區"
"220028","200-UY","2018/08/13 13:39:47","新北市板橋區大觀路二段265巷3號","121.442503333333","24.9964666666667","6500100","板橋區"
"220030","610-BX","2018/08/13 13:39:40","新北市板橋區篤行路一段33號","121.43205","24.994375","6500100","板橋區"
"220004","276-BY","2018/08/13 13:39:29","新北市土城區廣興街38號","121.45345","24.9914733333333","6500100","板橋區"
"220020","277-BY","2018/08/13 13:39:46","新北市板橋區大觀路三段93號","121.432936666667","24.99476","6500100","板橋區"
"220019","283-VK","2018/08/13 13:39:48","新北市土城區四川路6號","121.455716666667","24.9961016666667","6500100","板橋區"
"220043","285-UM","2018/08/13 13:39:31","新北市板橋區民生路二段161巷1號","121.470251666667","25.01987","6500100","板橋區"
"220031","286-VK","2018/08/13 13:39:49","新北市板橋區大觀路二段29號","121.44674","25.0032216666667","6500100","板橋區"
"220029","287-VK","2018/08/13 13:39:32","新北市板橋區大觀路二段14號","121.44682","25.0036316666667","6500100","板橋區"
"220009","293-UM","2018/08/13 13:39:46","新北市板橋區民生路二段120號","121.47046","25.0198283333333","6500100","板橋區"
"220032","296-UM","2018/08/13 13:39:48","新北市板橋區大觀路二段148巷1號","121.441898333333","24.9996266666667","6500100","板橋區"
"220023","303-R5","2018/08/13 13:39:37","新北市板橋區華東街272號","121.452815","25.0020733333333","6500100","板橋區"
"220010","305-R5","2018/08/13 13:39:45","新北市板橋區民生路二段120號","121.470443333333","25.0197066666667","6500100","板橋區"
"220012","486-VK","2018/08/13 13:39:38","新北市板橋區縣民大道一段310號","121.461353333333","25.0106983333333","6500100","板橋區"
"220104","560-BX","2018/08/13 13:39:35","新北市板橋區南雅西路二段145巷6號","121.45164","25.011895","6500100","板橋區"
"220052","561-BX","2018/08/13 13:39:37","新北市板橋區民生路二段180號","121.470823333333","25.020215","6500100","板橋區"
"220002","630-UY","2018/08/13 13:39:44","新北市板橋區南雅南路二段120-16號","121.452031666667","24.9992666666667","6500100","板橋區"
"220005","686-BX","2018/08/13 13:39:34","新北市板橋區華東街1-9號","121.448221666667","24.99492","6500100","板橋區"
"220025","687-BX","2018/08/13 13:39:44","新北市板橋區大觀路三段180巷30號","121.429796666667","24.9937383333333","6500100","板橋區"
"220042","689-BX","2018/08/13 13:39:32","新北市板橋區民生路二段161巷1號","121.470036666667","25.0201183333333","6500100","板橋區"
"220003","827-TW","2018/08/13 13:39:49","新北市板橋區華東街1-8號","121.447538333333","24.9950666666667","6500100","板橋區"
"220014","829-TW","2018/08/13 13:39:34","新北市板橋區民生路二段161巷5號","121.470166666667","25.019695","6500100","板橋區"
"220038","833-TW","2018/08/13 13:39:51","新北市板橋區民生路二段120號","121.470675","25.0196083333333","6500100","板橋區"
"220022","895-R6","2018/08/13 13:39:34","新北市板橋區南雅南路一段8號","121.455755","25.00628","6500100","板橋區"
"220021","985-R7","2018/08/13 13:39:36","新北市板橋區南雅南路一段127號","121.455421666667","25.0043966666667","6500100","板橋區"
"220018","AAC-253","2018/08/13 13:39:49","新北市板橋區板城路421號","121.448173333333","24.9957333333333","6500100","板橋區"
"235032","KEA-2873","2018/08/13 13:39:44","新北市中和區中正路211巷38號","121.497706666667","24.9926166666667","6500300","中和區"
"235025","KEA-2875","2018/08/13 13:39:31","新北市中和區民享街37號","121.474028333333","25.0037166666667","6500300","中和區"
