"lineid","car","time","location","longitude","latitude","cityid","cityname"
"234044","148-BY","2018/08/13 13:59:39","新北市永和區成功路一段40號","121.527033333333","25.004475","6500400","永和區"
"234005","207-UY","2018/08/13 13:59:53","新北市中和區中和路320號","121.509521666667","25.0008116666667","6500400","永和區"
"234078","298-R6","2018/08/13 13:59:47","新北市永和區永利路73號","121.521181666667","25.0037466666667","6500400","永和區"
"234062","337-UY","2018/08/13 13:59:33","新北市永和區中正路412巷20弄32號","121.51914","25.0012266666667","6500400","永和區"
"234084","338-UY","2018/08/13 13:59:40","新北市永和區福和路74號","121.523036666667","25.0080233333333","6500400","永和區"
"234068","552-UM","2018/08/13 13:59:49","新北市永和區國光路14號","121.519055","25.0083216666667","6500400","永和區"
"234036","553-UM","2018/08/13 13:59:47","新北市永和區成功路二段185號","121.526655","24.9965933333333","6500400","永和區"
"234015","745-BX","2018/08/13 13:59:47","新北市永和區文化路164號","121.512225","25.015405","6500400","永和區"
"234028","746-BX","2018/08/13 13:59:36","新北市永和區民生路47巷33號","121.525101666667","24.9978233333333","6500400","永和區"
"234052","KEA-2590","2018/08/13 13:59:45","新北市永和區竹林路73-1號","121.518711666667","25.0132983333333","6500400","永和區"
"234012","KEA-2591","2018/08/13 13:59:44","新北市永和區永平路306號","121.507223333333","25.0125066666667","6500400","永和區"
"234060","AAD-866","2018/08/13 13:59:47","新北市永和區中正路151巷5弄2-1號","121.515605","24.9987616666667","6500400","永和區"
"234040","862-TW","2018/08/13 13:59:43","新北市永和區中和路335巷18弄5號","121.507648333333","25.00039","6500400","永和區"
"234048","863-TW","2018/08/13 13:59:43","新北市永和區保安路137號","121.507288333333","25.0134316666667","6500400","永和區"
"234025","9371-KE","2018/08/13 13:59:45","新北市永和區安樂路306號","121.514391666667","25.0054783333333","6500400","永和區"
"234010","9373-KE","2018/08/13 13:59:39","新北市中和區中山路二段2巷45弄2號","121.502563333333","25.007235","6500400","永和區"
"248015","026-BX","2018/08/13 13:59:34","新北市五股區成泰路三段559巷14弄2號","121.451341666667","25.1024366666667","6501500","五股區"
"248007","095-VK","2018/08/13 13:59:41","新北市五股區中興路一段118巷23號","121.465978333333","25.0745633333333","6501500","五股區"
"248019","225-UY","2018/08/13 13:59:31","新北市五股區凌雲路三段85-3號","121.423091666667","25.1245166666667","6501500","五股區"
"248011","247-BX","2018/08/13 13:59:41","新北市五股區成泰路二段195巷1號","121.440345","25.0873883333333","6501500","五股區"
"248003","677-BX","2018/08/13 13:59:51","新北市五股區民義路二段50-1號","121.411933333333","25.102975","6501500","五股區"
"248001","678-BX","2018/08/13 13:59:45","新北市五股區凌雲路一段158巷6號","121.448088333333","25.1028316666667","6501500","五股區"
"248009","682-TV","2018/08/13 13:59:44","新北市五股區水碓一路23號","121.430605","25.0713583333333","6501500","五股區"
"234022","9380-KE","2018/08/13 13:59:36","新北市永和區復興街14號","121.515815","25.0127716666667","6500400","永和區"
"234076","969-R7","2018/08/13 13:59:34","新北市永和區民族街43巷13號","121.519045","24.9984266666667","6500400","永和區"
"234072","AAC-211","2018/08/13 13:59:48","新北市永和區豫溪街187巷1號","121.52253","25.01042","6500400","永和區"
"234066","AAC-212","2018/08/13 13:59:32","新北市永和區永貞路354號","121.510286666667","25.0064633333333","6500400","永和區"
"234001","AAC-295","2018/08/13 13:59:30","新北市永和區福和路318號","121.515748333333","25.0072266666667","6500400","永和區"
"244001","658-BX","2018/08/13 13:59:36","新北市八里區中山路三段409號","121.368341666667","25.134875","6501700","林口區"
"243005","AAD-798","2018/08/13 13:59:29","新北市泰山區明志路三段261號","121.423218333333","25.0372283333333","6501600","泰山區"
"243008","KEA-2801","2018/08/13 13:59:30","新北市泰山區明志路二段152-1號","121.427586666667","25.0506166666667","6501600","泰山區"
"243007","421-VK","2018/08/13 13:59:36","新北市泰山區明志路一段248號","121.432346666667","25.0608566666667","6501600","泰山區"
"243003","KEA-2215","2018/08/13 13:59:43","新北市泰山區明志路二段246-1號","121.427135","25.0482033333333","6501600","泰山區"
"243002","KEA-2216","2018/08/13 13:59:42","新北市泰山區辭修路24號","121.429106666667","25.0582483333333","6501600","泰山區"
"243004","646-TV","2018/08/13 13:59:34","新北市泰山區福興三街181號","121.432913333333","25.0570083333333","6501600","泰山區"
"243006","680-BX","2018/08/13 13:59:33","新北市泰山區黎明路23號","121.420958333333","25.0626966666667","6501600","泰山區"
"231006","001-UM","2018/08/13 13:59:39","新北市新店區北宜路二段213號","121.553236666667","24.9533466666667","6500600","新店區"
"231002","002-UM","2018/08/13 13:59:45","新北市新店區溪園路87號","121.528928333333","24.9866166666667","6500600","新店區"
"231027","0293-UT","2018/08/13 13:59:33","新北市新店區中興路一段24-3號","121.538825","24.9582383333333","6500600","新店區"
"231028","046-UY","2018/08/13 13:59:31","新北市新店區安和路三段22-3號","121.517948333333","24.9814733333333","6500600","新店區"
"231001","047-UY","2018/08/13 13:59:38","新北市新店區三民路24號","121.537091666667","24.9709933333333","6500600","新店區"
"231005","106-UY","2018/08/13 13:59:35","新北市新店區中興路三段218號","121.543583333333","24.982575","6500600","新店區"
"231019","110-UY","2018/08/13 13:59:30","新北市新店區新烏路二段38-1號","121.544251666667","24.9289716666667","6500600","新店區"
"231011","187-VK","2018/08/13 13:59:40","新北市新店區中興路二段77號","121.546711666667","24.9710783333333","6500600","新店區"
"231023","KEA-2219","2018/08/13 13:59:38","新北市新店區文中路45號","121.539646666667","24.9567383333333","6500600","新店區"
"231026","256-BX","2018/08/13 13:59:34","新北市新店區安康路一段355號","121.519573333333","24.963105","6500600","新店區"
"231003","268-BY","2018/08/13 13:59:36","新北市新店區中興路一段110號","121.54105","24.9620766666667","6500600","新店區"
"231018","278-BY","2018/08/13 13:59:39","新北市新店區中央路192號","121.530936666667","24.9749016666667","6500600","新店區"
"231014","AAD-862","2018/08/13 13:59:39","新北市新店區郵政路4巷57號","121.555756666667","24.95182","6500600","新店區"
"231004","355-BY","2018/08/13 13:59:41","新北市新店區寶橋路7號","121.543556666667","24.9738283333333","6500600","新店區"
"231038","3712-VJ","2018/08/13 13:59:32","新北市新店區安華路30巷1號","121.51963","24.9592783333333","6500600","新店區"
"231037","4716-K9","2018/08/13 13:59:39","新北市新店區安康路三段355巷19號","121.485003333333","24.95027","6500600","新店區"
"231025","4715-K9","2018/08/13 13:59:46","新北市新店區中正路328巷41號","121.53788","24.97626","6500600","新店區"
"231036","512-UM","2018/08/13 13:59:46","新北市新店區安祥路110巷35號","121.4731","24.9567016666667","6500600","新店區"
"231013","513-UM","2018/08/13 13:59:47","新北市新店區明德路74號","121.541286666667","24.979835","6500600","新店區"
"231030","619-UM","2018/08/13 13:59:43","新北市新店區安和路一段6-2號","121.517101666667","24.9649016666667","6500600","新店區"
"231034","641-BX","2018/08/13 13:59:38","新北市新店區達觀路1-1號","121.50538","24.943425","6500600","新店區"
"231035","719-UM","2018/08/13 13:59:50","新北市新店區安和路一段52巷2-1號","121.517663333333","24.966285","6500600","新店區"
"231031","720-UM","2018/08/13 13:59:34","新北市新店區秀山路72號","121.531198333333","24.96096","6500600","新店區"
"231029","897-TW","2018/08/13 13:59:49","新北市新店區安康路二段4號","121.516405","24.96379","6500600","新店區"
"231024","AKT-0513","2018/08/13 13:59:45","新北市新店區中央三街117號","121.524485","24.9762333333333","6500600","新店區"
"235030","003-UY","2018/08/13 13:59:22","新北市中和區中山路二段131巷12號","121.50287","25.002105","6500300","中和區"
"235028","005-UY","2018/08/13 13:59:46","新北市中和區泰和街30巷22號","121.499006666667","25.001185","6500300","中和區"
"235027","006-UY","2018/08/13 13:59:47","新北市中和區中正路592號","121.485663333333","24.9950383333333","6500300","中和區"
"235020","096-UM","2018/08/13 13:59:51","新北市中和區員山路514巷19號","121.479753333333","25.0097683333333","6500300","中和區"
"235003","097-UM","2018/08/13 13:59:36","新北市中和區秀朗路三段177號","121.52433","24.9911316666667","6500300","中和區"
"235029","098-UM","2018/08/13 13:59:28","新北市中和區莊敬路33號","121.500856666667","25.0049233333333","6500300","中和區"
"235004","150-BY","2018/08/13 13:59:43","新北市中和區保健路44巷1號","121.509581666667","24.9971783333333","6500300","中和區"
"235022","151-BY","2018/08/13 13:59:52","新北市中和區連城路532號","121.475765","24.99152","6500300","中和區"
"235019","183-VK","2018/08/13 13:59:47","新北市中和區德光路18號","121.471105","25.00446","6500300","中和區"
"235002","185-VK","2018/08/13 13:59:40","新北市中和區立人街20號","121.519045","24.9942666666667","6500300","中和區"
"235013","186-VK","2018/08/13 13:59:39","新北市中和區景安路66號","121.505848333333","24.99674","6500300","中和區"
"235031","255-BX","2018/08/13 13:59:34","新北市中和區新生街264號","121.483565","24.9972933333333","6500300","中和區"
"235008","293-VK","2018/08/13 13:59:49","新北市中和區中興街161巷7弄26號","121.50104","24.9914316666667","6500300","中和區"
"235036","301-VK","2018/08/13 13:59:46","新北市中和區中山路二段47號","121.50449","25.004945","6500300","中和區"
"235007","352-BY","2018/08/13 13:59:31","新北市永和區成功路二段199-2號","121.52659","24.9960716666667","6500300","中和區"
"235006","KEA-2878","2018/08/13 13:59:40","新北市中和區秀朗路三段128巷1弄15號","121.523733333333","24.9915866666667","6500300","中和區"
"247009","KEA-2869","2018/08/13 13:59:16","新北市蘆洲區集賢路224巷14-1號","121.48185","25.0870366666667","6501400","蘆洲區"
"235014","4979-A6","2018/08/13 13:59:28","新北市中和區忠孝街37巷4號","121.511343333333","24.9836533333333","6500300","中和區"
"235033","4980-A6","2018/08/13 13:59:39","新北市中和區圓通路109巷16號","121.49986","24.9963116666667","6500300","中和區"
"235034","558-UM","2018/08/13 13:59:38","新北市中和區中和路128號","121.503433333333","24.9997483333333","6500300","中和區"
"235009","565-BX","2018/08/13 13:59:35","新北市中和區景新街467巷20弄19號","121.51499","24.987325","6500300","中和區"
"235018","640-BX","2018/08/13 13:59:47","新北市中和區國光街107巷4弄28號","121.469961666667","24.99887","6500300","中和區"
"235024","647-TV","2018/08/13 13:59:34","新北市中和區民治街120號","121.475243333333","25.0034983333333","6500300","中和區"
"235011","732-UM","2018/08/13 13:59:47","新北市中和區興南路二段34巷4號","121.506993333333","24.9855733333333","6500300","中和區"
"235010","733-UM","2018/08/13 13:59:44","新北市中和區興南路二段5號","121.50812","24.986235","6500300","中和區"
"235035","783-BX","2018/08/13 13:59:30","新北市中和區立德街98巷115號","121.488831666667","25.0080483333333","6500300","中和區"
"235026","800-TS","2018/08/13 13:59:41","新北市中和區中山路二段340巷21-1號","121.49356","25.00314","6500300","中和區"
"235021","801-TS","2018/08/13 13:59:45","新北市中和區民利街56號","121.479106666667","24.998715","6500300","中和區"
"235005","802-TS","2018/08/13 13:59:37","新北市中和區中安街34號","121.513113333333","25.00276","6500300","中和區"
"235016","805-TS","2018/08/13 13:59:41","新北市中和區興南路二段261巷7-1號","121.503223333333","24.9798566666667","6500300","中和區"
"235012","896-TW","2018/08/13 13:59:43","新北市中和區華新街45號","121.50779","24.9846483333333","6500300","中和區"
"235017","900-TW","2018/08/13 13:59:36","新北市中和區壽德街26號","121.46662","24.99441","6500300","中和區"
"235015","157-BY","2018/08/13 13:59:29","新北市中和區忠孝街11巷12號","121.50993","24.9832683333333","6500300","中和區"
"235001","AAC-213","2018/08/13 13:59:33","新北市中和區秀朗路三段10巷14弄39號","121.524183333333","24.99613","6500300","中和區"
"235023","AAC-215","2018/08/13 13:59:43","新北市中和區圓通路367巷20弄23號","121.491426666667","24.988335","6500300","中和區"
"220105","013-TV","2018/08/13 13:59:36","新北市板橋區文化路二段124巷28-2號","121.471196666667","25.0255933333333","6500100","板橋區"
"220013","015-TV","2018/08/13 13:59:45","新北市板橋區漢生東路328號","121.471643333333","25.0078266666667","6500100","板橋區"
"220034","073-UY","2018/08/13 13:59:32","新北市板橋區中正路236巷80號","121.458225","25.0194083333333","6500100","板橋區"
"220017","AAD-861","2018/08/13 13:59:39","新北市板橋區華興街76號","121.457108333333","25.0051133333333","6500100","板橋區"
"247013","546-UM","2018/08/13 13:59:40","新北市蘆洲區中正路187號","121.468618333333","25.0856733333333","6501400","蘆洲區"
"247011","339-TH","2018/08/13 13:59:35","新北市蘆洲區民族路146號","121.479391666667","25.0859333333333","6501400","蘆洲區"
"247003","337-TH","2018/08/13 13:59:35","新北市蘆洲區中華街13號","121.463741666667","25.0816783333333","6501400","蘆洲區"
"247005","336-TH","2018/08/13 13:59:34","新北市蘆洲區九芎街150號","121.464413333333","25.0783816666667","6501400","蘆洲區"
"247017","057-VK","2018/08/13 13:59:32","新北市蘆洲區仁愛街35巷26號","121.475633333333","25.088955","6501400","蘆洲區"
"247007","056-VK","2018/08/13 13:59:42","新北市蘆洲區中山一路6號","121.480758333333","25.0802883333333","6501400","蘆洲區"
"247015","007-UY","2018/08/13 13:59:50","新北市蘆洲區光華路16號","121.469655","25.08345","6501400","蘆洲區"
"247001","002-UY","2018/08/13 13:59:43","新北市蘆洲區永平街32巷72號","121.460435","25.0935533333333","6501400","蘆洲區"
"247019","001-UY","2018/08/13 13:59:48","新北市蘆洲區民族路422巷88-1號","121.473503333333","25.0939583333333","6501400","蘆洲區"
"253003","6232-TK","2018/08/13 13:59:47","新北市石門區尖子鹿19-2號","121.576096666667","25.2773766666667","6502200","石門區"
"253001","6251-TK","2018/08/13 13:59:41","新北市石門區八甲58-2號","121.52205","25.2742533333333","6502200","石門區"
"253002","637-UY","2018/08/13 13:59:48","新北市石門區尖山湖18號","121.559601666667","25.2470216666667","6502200","石門區"
"253004","8270-PC","2018/08/13 13:59:47","新北市石門區坪林26號","121.593726666667","25.2690583333333","6502200","石門區"
"207002","749-BX","2018/08/13 13:59:46","新北市萬里區溪底里烏塗炭9-2號","121.640823333333","25.1518183333333","6502800","萬里區"
"252005","073-UM","2018/08/13 13:59:38","新北市三芝區橫山里橫山56-6號","121.535511666667","25.2507383333333","6502100","三芝區"
"207001","662-BX","2018/08/13 13:59:40","新北市萬里區磺潭里清水4-3號","121.642748333333","25.201865","6502800","萬里區"
"237001","159-UY","2018/08/13 13:59:32","新北市三峽區中山路459巷163-1號","121.349296666667","24.9334266666667","6500900","三峽區"
"236064","105-UM","2018/08/13 13:59:39","新北市土城區城林路6巷80號","121.438683333333","24.97969","6501300","土城區"
"236040","107-UM","2018/08/13 13:59:37","新北市土城區城林路6巷80號","121.438578333333","24.97972","6501300","土城區"
"236074","166-UM","2018/08/13 13:59:42","新北市土城區永寧路32巷2號","121.429238333333","24.9606366666667","6501300","土城區"
"236029","253-BX","2018/08/13 13:59:44","新北市土城區城林路6巷80號","121.438525","24.9797883333333","6501300","土城區"
"236024","269-VK","2018/08/13 13:59:38","新北市土城區承天路35-3號","121.437603333333","24.9646766666667","6501300","土城區"
"236012","270-VK","2018/08/13 13:59:36","新北市土城區員福街8號","121.441766666667","24.9785716666667","6501300","土城區"
"236032","271-VK","2018/08/13 13:59:44","新北市土城區城林路6巷80號","121.438533333333","24.9798316666667","6501300","土城區"
"236016","401-BY","2018/08/13 13:59:33","新北市土城區城林路6巷80號","121.438566666667","24.979805","6501300","土城區"
"236005","498-BY","2018/08/13 13:59:35","新北市土城區中央路一段365巷1弄3號","121.44353","24.980935","6501300","土城區"
"236057","912-UM","2018/08/13 13:59:34","新北市土城區中央路三段280號","121.426713333333","24.963665","6501300","土城區"
"236045","913-UM","2018/08/13 13:59:31","新北市土城區城林路6巷80號","121.438526666667","24.9797616666667","6501300","土城區"
"236060","915-UM","2018/08/13 13:59:47","新北市土城區金城路一段112號","121.446018333333","24.975815","6501300","土城區"
"236054","AAC-216","2018/08/13 13:59:36","新北市土城區城林路6巷80號","121.4387","24.979685","6501300","土城區"
"242047","172-VK","2018/08/13 13:59:33","新北市新莊區環漢路四段1號","121.434946666667","25.000345","6500500","新莊區"
"221010","269-BY","2018/08/13 13:59:40","新北市汐止區八連路二段610巷11號","121.62765","25.10896","6501100","汐止區"
"221032","280-BY","2018/08/13 13:59:45","新北市汐止區大同路二段207號","121.652696666667","25.0643233333333","6501100","汐止區"
"220027","145-BY","2018/08/13 13:59:50","新北市板橋區民權路260巷40號","121.45931","25.0151166666667","6500100","板橋區"
"220028","200-UY","2018/08/13 13:59:41","新北市板橋區大觀路二段153巷46弄60號","121.449423333333","25.00035","6500100","板橋區"
"220030","610-BX","2018/08/13 13:59:40","新北市板橋區篤行路二段136號","121.429748333333","24.988445","6500100","板橋區"
"220050","245-BX","2018/08/13 13:59:45","新北市板橋區文化路二段182巷3弄3號","121.471368333333","25.0274083333333","6500100","板橋區"
"220040","267-BY","2018/08/13 13:59:30","新北市板橋區雙十路二段47巷36號","121.475306666667","25.0256466666667","6500100","板橋區"
"220004","276-BY","2018/08/13 13:59:48","新北市板橋區信義路161號","121.45846","24.992655","6500100","板橋區"
"220020","277-BY","2018/08/13 13:59:32","新北市板橋區大觀路三段50巷59號","121.431921666667","24.9961266666667","6500100","板橋區"
"220019","283-VK","2018/08/13 13:59:35","新北市板橋區重慶路245巷54號","121.46518","25.0008816666667","6500100","板橋區"
"220043","285-UM","2018/08/13 13:59:51","新北市板橋區文化路二段37號","121.468931666667","25.0248816666667","6500100","板橋區"
"220001","285-VK","2018/08/13 13:59:41","新北市板橋區中山路二段89巷8弄2號","121.473866666667","25.017195","6500100","板橋區"
"220031","286-VK","2018/08/13 13:59:38","新北市板橋區大觀路二段22巷38-2號","121.444661666667","25.0037683333333","6500100","板橋區"
"220029","287-VK","2018/08/13 13:59:32","新北市板橋區光華街17號","121.453935","25.0120983333333","6500100","板橋區"
"220039","288-VK","2018/08/13 13:59:42","新北市板橋區四維路177巷1弄2號","121.464005","25.0261833333333","6500100","板橋區"
"220009","293-UM","2018/08/13 13:59:46","新北市板橋區富山街81號","121.476815","25.0218783333333","6500100","板橋區"
"220032","296-UM","2018/08/13 13:59:47","新北市板橋區篤行路一段16號","121.431351666667","24.995495","6500100","板橋區"
"220023","303-R5","2018/08/13 13:59:37","新北市板橋區南雅西路二段202號","121.451803333333","25.0148366666667","6500100","板橋區"
"220010","305-R5","2018/08/13 13:59:45","新北市板橋區三民路二段245巷60號","121.48103","25.0122683333333","6500100","板橋區"
"220041","307-R5","2018/08/13 13:59:38","新北市板橋區文化路一段90號","121.464301666667","25.0176283333333","6500100","板橋區"
"220047","317-R6","2018/08/13 13:59:44","新北市板橋區民生路三段105號","121.466405","25.0250366666667","6500100","板橋區"
"220012","486-VK","2018/08/13 13:59:39","新北市板橋區板新路237號","121.467543333333","25.0158333333333","6500100","板橋區"
"220037","491-VK","2018/08/13 13:59:45","新北市板橋區民生路二段210-1號","121.469513333333","25.02148","6500100","板橋區"
"220104","560-BX","2018/08/13 13:59:35","新北市板橋區中正路341巷35號","121.454255","25.01975","6500100","板橋區"
"220052","561-BX","2018/08/13 13:59:38","新北市板橋區縣民大道二段200巷13號","121.469925","25.0176966666667","6500100","板橋區"
"220011","609-BX","2018/08/13 13:59:39","新北市板橋區中山路二段88號","121.475093333333","25.016345","6500100","板橋區"
"220002","630-UY","2018/08/13 13:59:44","新北市板橋區重慶路139巷38號","121.463661666667","25.0045566666667","6500100","板橋區"
"220005","686-BX","2018/08/13 13:59:34","新北市板橋區重慶路173號","121.462703333333","25.0025983333333","6500100","板橋區"
"220025","687-BX","2018/08/13 13:59:44","新北市板橋區大觀路二段174巷137號","121.441155","25.0020516666667","6500100","板橋區"
"220042","689-BX","2018/08/13 13:59:33","新北市板橋區民生路三段120-2號","121.466191666667","25.02672","6500100","板橋區"
"220051","KEA-2699","2018/08/13 13:59:47","新北市板橋區懷德街235巷2-1號","121.481385","25.0280266666667","6500100","板橋區"
"220003","827-TW","2018/08/13 13:59:49","新北市板橋區中山路一段158巷25號","121.466566666667","25.0112","6500100","板橋區"
"220014","829-TW","2018/08/13 13:59:34","新北市板橋區三民路2段正泰3巷18-1號","121.477888333333","25.0141816666667","6500100","板橋區"
"220016","830-TW","2018/08/13 13:59:45","新北市板橋區中山路二段465巷48號","121.481263333333","25.0216066666667","6500100","板橋區"
"220045","831-TW","2018/08/13 13:59:44","新北市板橋區莒光路133巷7弄1號","121.472728333333","25.0242616666667","6500100","板橋區"
"220038","833-TW","2018/08/13 13:59:51","新北市板橋區文聖街149巷6號","121.478826666667","25.02812","6500100","板橋區"
"220022","895-R6","2018/08/13 13:59:34","新北市板橋區新興路2號","121.456471666667","25.007295","6500100","板橋區"
"220021","985-R7","2018/08/13 13:59:36","新北市板橋區館前西路259號","121.454085","25.008785","6500100","板橋區"
"220046","AAC-210","2018/08/13 13:59:34","新北市板橋區國光路197巷2號","121.46174","25.0188033333333","6500100","板橋區"
"220018","AAC-253","2018/08/13 13:59:39","新北市板橋區四川路一段353號","121.458386666667","24.9999183333333","6500100","板橋區"
"235032","KEA-2873","2018/08/13 13:59:44","新北市中和區連勝街38巷16號","121.497828333333","24.9979016666667","6500300","中和區"
"235025","KEA-2875","2018/08/13 13:59:48","新北市中和區中山路三段63巷11弄2號","121.477226666667","25.0040616666667","6500300","中和區"
