"lineid","car","time","location","longitude","latitude","cityid","cityname"
"234044","148-BY","2018/08/13 14:09:41","新北市永和區得和路338號","121.52355","24.99944","6500400","永和區"
"234005","207-UY","2018/08/13 14:09:32","新北市中和區中和路232號","121.50677","24.99948","6500400","永和區"
"234078","298-R6","2018/08/13 14:09:47","新北市永和區國中路37號","121.524548333333","25.0056383333333","6500400","永和區"
"234062","337-UY","2018/08/13 14:09:33","新北市永和區永利路152號","121.522415","25.0026966666667","6500400","永和區"
"234084","338-UY","2018/08/13 14:09:40","新北市永和區中正路648號","121.516916666667","25.008405","6500400","永和區"
"234068","552-UM","2018/08/13 14:09:49","新北市永和區福和路204號","121.519785","25.0076716666667","6500400","永和區"
"234036","553-UM","2018/08/13 14:09:47","新北市永和區成功路一段56號","121.526821666667","25.0039416666667","6500400","永和區"
"234015","745-BX","2018/08/13 14:09:34","新北市永和區永和路二段245號","121.515801666667","25.01498","6500400","永和區"
"234028","746-BX","2018/08/13 14:09:36","新北市永和區民權路47號","121.520076666667","24.9971716666667","6500400","永和區"
"234052","KEA-2590","2018/08/13 14:09:45","新北市永和區環河東路一段122號","121.520693333333","25.0155116666667","6500400","永和區"
"234012","KEA-2591","2018/08/13 14:09:44","新北市永和區仁愛路263號","121.506356666667","25.0100316666667","6500400","永和區"
"234060","AAD-866","2018/08/13 14:09:47","新北市永和區安樂路166號","121.514511666667","25.000765","6500400","永和區"
"234040","862-TW","2018/08/13 14:09:43","新北市永和區雙和街16巷19號","121.509836666667","25.00268","6500400","永和區"
"234048","863-TW","2018/08/13 14:09:51","新北市永和區環河西路二段89號","121.506653333333","25.014955","6500400","永和區"
"234025","9371-KE","2018/08/13 14:09:34","新北市永和區安樂路272巷9弄7號","121.515088333333","25.0045766666667","6500400","永和區"
"234010","9373-KE","2018/08/13 14:09:39","新北市永和區仁愛路352巷92弄15號","121.501236666667","25.00859","6500400","永和區"
"248015","026-BX","2018/08/13 14:09:34","新北市五股區成泰路三段543巷23號","121.450498333333","25.102485","6501500","五股區"
"248007","095-VK","2018/08/13 14:09:41","新北市五股區中興路二段57-6號","121.460403333333","25.07527","6501500","五股區"
"248019","225-UY","2018/08/13 14:08:47","新北市五股區凌雲路三段57號","121.425315","25.1250616666667","6501500","五股區"
"248011","247-BX","2018/08/13 14:09:41","新北市五股區工商路36巷9號","121.439731666667","25.084225","6501500","五股區"
"248003","677-BX","2018/08/13 14:09:31","新北市五股區民義路一段186號","121.43281","25.0879066666667","6501500","五股區"
"248001","678-BX","2018/08/13 14:09:45","新北市五股區成泰路三段577巷24號","121.451408333333","25.1029233333333","6501500","五股區"
"248009","682-TV","2018/08/13 14:09:44","新北市五股區水碓一路23號","121.430648333333","25.071375","6501500","五股區"
"234022","9380-KE","2018/08/13 14:09:36","新北市永和區光復街2巷16弄27號","121.518045","25.0163316666667","6500400","永和區"
"234076","969-R7","2018/08/13 14:09:51","新北市永和區民有街75巷10弄33號","121.519243333333","24.9960666666667","6500400","永和區"
"234072","AAC-211","2018/08/13 14:09:48","新北市永和區竹林路201巷24弄1號","121.522293333333","25.0096883333333","6500400","永和區"
"234066","AAC-212","2018/08/13 14:09:52","新北市永和區保平路236巷12弄2號","121.508576666667","25.0064483333333","6500400","永和區"
"234001","AAC-295","2018/08/13 14:09:30","新北市永和區永和路二段8號","121.514605","25.010305","6500400","永和區"
"244001","658-BX","2018/08/13 14:09:36","新北市八里區中山路三段372號","121.368823333333","25.1359733333333","6501700","林口區"
"243005","AAD-798","2018/08/13 14:09:49","新北市泰山區明志路三段231巷4弄1號","121.424306666667","25.0375783333333","6501600","泰山區"
"243001","297-R6","2018/08/13 14:09:33","新北市泰山區楓樹街15巷3-2號","121.434811666667","25.0630483333333","6501600","泰山區"
"243008","KEA-2801","2018/08/13 14:09:50","新北市泰山區明志路二段353號","121.42544","25.044405","6501600","泰山區"
"243007","421-VK","2018/08/13 14:09:33","新北市泰山區公園路23號","121.429095","25.05422","6501600","泰山區"
"243003","KEA-2215","2018/08/13 14:09:43","新北市泰山區明志路二段342號","121.426086666667","25.0453883333333","6501600","泰山區"
"243002","KEA-2216","2018/08/13 14:09:42","新北市泰山區明志路一段483巷1弄3號","121.431081666667","25.0555266666667","6501600","泰山區"
"243004","646-TV","2018/08/13 14:09:34","新北市泰山區辭修路36巷8弄5-1號","121.427788333333","25.0587033333333","6501600","泰山區"
"243006","680-BX","2018/08/13 14:09:33","新北市泰山區泰林路二段454號","121.425995","25.06418","6501600","泰山區"
"231006","001-UM","2018/08/13 14:09:38","新北市新店區北宜路二段212號","121.559445","24.9543866666667","6500600","新店區"
"231002","002-UM","2018/08/13 14:09:38","新北市新店區中正路543-1號","121.533548333333","24.98706","6500600","新店區"
"231027","0293-UT","2018/08/13 14:09:33","新北市新店區光明街138巷13弄9號","121.540133333333","24.9615016666667","6500600","新店區"
"231028","046-UY","2018/08/13 14:09:31","新北市新店區安和路三段60-1號","121.518058333333","24.982745","6500600","新店區"
"231001","047-UY","2018/08/13 14:09:38","新北市新店區中華路68號","121.53919","24.9690966666667","6500600","新店區"
"231005","106-UY","2018/08/13 14:09:35","新北市新店區中興路三段298號","121.542445","24.9850683333333","6500600","新店區"
"231019","110-UY","2018/08/13 14:09:50","新北市新店區屈尺路75號","121.545611666667","24.9227383333333","6500600","新店區"
"231011","187-VK","2018/08/13 14:09:48","新北市新店區五峰路138號","121.544696666667","24.9658","6500600","新店區"
"231023","KEA-2219","2018/08/13 14:09:38","新北市新店區文中路45號","121.539485","24.9567233333333","6500600","新店區"
"231003","268-BY","2018/08/13 14:09:36","新北市新店區中興路一段34號","121.538653333333","24.9585683333333","6500600","新店區"
"231018","278-BY","2018/08/13 14:09:39","新北市新店區中央五街22-1號","121.529198333333","24.9744666666667","6500600","新店區"
"231014","AAD-862","2018/08/13 14:09:39","新北市新店區北宜路二段392巷2號","121.565188333333","24.9532333333333","6500600","新店區"
"231004","355-BY","2018/08/13 14:09:40","新北市新店區北新路二段173號","121.54286","24.9766266666667","6500600","新店區"
"231038","3712-VJ","2018/08/13 14:09:32","新北市新店區安華路1號","121.52066","24.96334","6500600","新店區"
"231037","4716-K9","2018/08/13 14:09:39","新北市新店區安康路三段132號","121.490893333333","24.9517683333333","6500600","新店區"
"231025","4715-K9","2018/08/13 14:09:46","新北市新店區二十張路129巷5弄1號","121.53655","24.9787016666667","6500600","新店區"
"231036","512-UM","2018/08/13 14:09:46","新北市新店區安祥路109巷3弄104號","121.479255","24.960575","6500600","新店區"
"231013","513-UM","2018/08/13 14:09:47","新北市新店區北新路三段65巷34弄2號","121.540045","24.981185","6500600","新店區"
"231030","619-UM","2018/08/13 14:09:43","新北市新店區安民街115巷28號","121.515246666667","24.9675866666667","6500600","新店區"
"231034","641-BX","2018/08/13 14:09:38","新北市新店區車子路11號","121.50302","24.95204","6500600","新店區"
"231035","719-UM","2018/08/13 14:09:30","新北市新店區安和路一段52巷2-1號","121.517663333333","24.9663016666667","6500600","新店區"
"231031","720-UM","2018/08/13 14:09:34","新北市新店區永業路59號","121.5321","24.9542683333333","6500600","新店區"
"231029","897-TW","2018/08/13 14:09:49","新北市新店區安康路二段156號","121.51234","24.9609183333333","6500600","新店區"
"235030","003-UY","2018/08/13 14:09:49","新北市中和區水源路102號","121.506181666667","25.0033933333333","6500300","中和區"
"235028","005-UY","2018/08/13 14:09:46","新北市中和區連城路23巷7號","121.499123333333","25.001745","6500300","中和區"
"235027","006-UY","2018/08/13 14:09:47","新北市中和區連城路249巷26弄12號","121.494133333333","24.9955883333333","6500300","中和區"
"235020","096-UM","2018/08/13 14:09:51","新北市中和區員山路533號","121.479708333333","25.00704","6500300","中和區"
"235003","097-UM","2018/08/13 14:09:36","新北市中和區秀峰街119巷2弄1號","121.519851666667","24.9903983333333","6500300","中和區"
"235029","098-UM","2018/08/13 14:09:48","新北市中和區中山路二段64巷12弄17號","121.504215","25.0056166666667","6500300","中和區"
"235004","150-BY","2018/08/13 14:09:43","新北市中和區保健路44巷11號","121.509091666667","24.9967583333333","6500300","中和區"
"235022","151-BY","2018/08/13 14:09:32","新北市中和區員山路143巷30號","121.479675","24.9956266666667","6500300","中和區"
"235019","183-VK","2018/08/13 14:09:47","新北市中和區莒光路3巷1號","121.471975","25.0061066666667","6500300","中和區"
"235002","185-VK","2018/08/13 14:09:40","新北市中和區大仁街10巷9弄29號","121.519238333333","24.9928316666667","6500300","中和區"
"235013","186-VK","2018/08/13 14:09:38","新北市中和區景新街151號","121.506281666667","24.996415","6500300","中和區"
"235031","255-BX","2018/08/13 14:09:34","新北市中和區新生街174號","121.483645","24.999955","6500300","中和區"
"235008","293-VK","2018/08/13 14:09:49","新北市中和區中興街202巷16號","121.498963333333","24.9898433333333","6500300","中和區"
"235036","301-VK","2018/08/13 14:09:46","新北市中和區中山路二段153號","121.501693333333","25.0028166666667","6500300","中和區"
"235007","352-BY","2018/08/13 14:09:50","新北市中和區景平路16號","121.523778333333","24.9906433333333","6500300","中和區"
"235006","KEA-2878","2018/08/13 14:09:40","新北市中和區大勇街60巷23號","121.518801666667","24.994765","6500300","中和區"
"247009","KEA-2869","2018/08/13 14:09:35","新北市蘆洲區信義路188巷2弄8號","121.47945","25.0840883333333","6501400","蘆洲區"
"235014","4979-A6","2018/08/13 14:09:48","新北市中和區復興路262-1號","121.503385","24.9902916666667","6500300","中和區"
"235033","4980-A6","2018/08/13 14:09:39","新北市中和區中和路165巷15號","121.502608333333","25.0005433333333","6500300","中和區"
"235034","558-UM","2018/08/13 14:09:41","新北市中和區連城路67號","121.497541666667","25.0013933333333","6500300","中和區"
"235009","565-BX","2018/08/13 14:09:35","新北市中和區景新街467巷15弄11號","121.513738333333","24.9886833333333","6500300","中和區"
"235018","640-BX","2018/08/13 14:09:34","新北市中和區國光街109巷2弄17號","121.469153333333","25.0006283333333","6500300","中和區"
"235024","647-TV","2018/08/13 14:09:34","新北市中和區中山路三段97號","121.475256666667","25.00592","6500300","中和區"
"235011","732-UM","2018/08/13 14:09:47","新北市中和區興南路一段142-6號","121.508516666667","24.9872316666667","6500300","中和區"
"235010","733-UM","2018/08/13 14:09:44","新北市中和區忠孝街1巷84號","121.50818","24.9849633333333","6500300","中和區"
"235035","783-BX","2018/08/13 14:09:50","新北市中和區建三路7號","121.486271666667","25.00363","6500300","中和區"
"235026","800-TS","2018/08/13 14:09:41","新北市中和區中山路二段380巷4號","121.490935","25.004395","6500300","中和區"
"235021","801-TS","2018/08/13 14:09:45","新北市中和區民利街44號","121.479441666667","24.99888","6500300","中和區"
"235005","802-TS","2018/08/13 14:09:37","新北市中和區中安街178巷2號","121.511055","24.9995833333333","6500300","中和區"
"235016","805-TS","2018/08/13 14:09:41","新北市中和區興南路二段142巷23號","121.503168333333","24.9837416666667","6500300","中和區"
"235012","896-TW","2018/08/13 14:09:44","新北市中和區工專路147號","121.508463333333","24.978885","6500300","中和區"
"235017","900-TW","2018/08/13 14:09:36","新北市中和區民德路274號","121.46773","24.996475","6500300","中和區"
"235015","157-BY","2018/08/13 14:08:29","新北市中和區興南路一段85巷33號","121.510383333333","24.9880683333333","6500300","中和區"
"235001","AAC-213","2018/08/13 14:09:34","新北市中和區秀朗路三段54號","121.526385","24.9952633333333","6500300","中和區"
"235023","AAC-215","2018/08/13 14:09:43","新北市中和區圓通路294巷17-5號","121.488633333333","24.9903866666667","6500300","中和區"
"220105","013-TV","2018/08/13 14:09:36","新北市板橋區雙十路三段10巷1號","121.471995","25.0307016666667","6500100","板橋區"
"220013","015-TV","2018/08/13 14:09:51","新北市板橋區民族路219巷23號","121.469248333333","25.0080583333333","6500100","板橋區"
"220034","073-UY","2018/08/13 14:09:32","新北市板橋區中正路216巷38-1號","121.457086666667","25.0187866666667","6500100","板橋區"
"220017","AAD-861","2018/08/13 14:09:39","新北市板橋區華興街49號","121.457703333333","25.0045166666667","6500100","板橋區"
"247023","893-R6","2018/08/13 14:09:50","新北市蘆洲區光榮路112號","121.4644","25.089365","6501400","蘆洲區"
"247013","546-UM","2018/08/13 14:09:40","新北市蘆洲區忠孝路74號","121.47162","25.08552","6501400","蘆洲區"
"247021","500-BY","2018/08/13 14:09:37","新北市蘆洲區三民路209號","121.470163333333","25.087945","6501400","蘆洲區"
"247011","339-TH","2018/08/13 14:09:35","新北市蘆洲區信義路345號","121.477793333333","25.0870633333333","6501400","蘆洲區"
"247003","337-TH","2018/08/13 14:09:35","新北市蘆洲區長安街108巷26號","121.461973333333","25.0823333333333","6501400","蘆洲區"
"247005","336-TH","2018/08/13 14:09:34","新北市蘆洲區和平路97巷13號","121.467598333333","25.0786166666667","6501400","蘆洲區"
"247017","057-VK","2018/08/13 14:09:32","新北市蘆洲區復興路105巷11號","121.476325","25.0884633333333","6501400","蘆洲區"
"247007","056-VK","2018/08/13 14:09:42","新北市蘆洲區永安南路一段142巷66號","121.471626666667","25.0778216666667","6501400","蘆洲區"
"247015","007-UY","2018/08/13 14:09:30","新北市蘆洲區光華路46巷34號","121.467975","25.0841116666667","6501400","蘆洲區"
"247001","002-UY","2018/08/13 14:09:43","新北市蘆洲區永樂街38巷67弄18號","121.457825","25.0911216666667","6501400","蘆洲區"
"247019","001-UY","2018/08/13 14:09:40","新北市蘆洲區民族路426巷48號","121.47296","25.0933916666667","6501400","蘆洲區"
"253003","6232-TK","2018/08/13 14:09:47","新北市石門區尖子鹿53-1號","121.582636666667","25.2732066666667","6502200","石門區"
"253001","6251-TK","2018/08/13 14:09:41","新北市石門區下員坑50-2號","121.519655","25.27272","6502200","石門區"
"253002","637-UY","2018/08/13 14:07:14","新北市石門區七股60號","121.553823333333","25.252135","6502200","石門區"
"253004","8270-PC","2018/08/13 14:09:47","新北市石門區內阿里磅6號","121.589356666667","25.2527316666667","6502200","石門區"
"207002","749-BX","2018/08/13 14:09:46","新北市萬里區溪底里溪底路10號","121.617481666667","25.1486716666667","6502800","萬里區"
"252005","073-UM","2018/08/13 14:09:38","新北市三芝區橫山里橫山33號","121.542376666667","25.258775","6502100","三芝區"
"207001","662-BX","2018/08/13 14:09:40","新北市萬里區磺潭里清水18號","121.637828333333","25.1977783333333","6502800","萬里區"
"237001","159-UY","2018/08/13 14:09:32","新北市三峽區中山路459巷163-1號","121.349303333333","24.9334233333333","6500900","三峽區"
"236064","105-UM","2018/08/13 14:09:39","新北市土城區明德路一段217號","121.463288333333","24.9786133333333","6501300","土城區"
"236040","107-UM","2018/08/13 14:09:37","新北市土城區城林路6巷80號","121.438403333333","24.97948","6501300","土城區"
"236074","166-UM","2018/08/13 14:09:42","新北市土城區永寧路32巷1-1號","121.42912","24.9605666666667","6501300","土城區"
"236029","253-BX","2018/08/13 14:09:44","新北市土城區城林路6巷80號","121.438598333333","24.9797616666667","6501300","土城區"
"236024","269-VK","2018/08/13 14:09:38","新北市土城區承天路43巷4號","121.43911","24.96403","6501300","土城區"
"236012","270-VK","2018/08/13 14:09:36","新北市土城區青雲路39巷7號","121.460305","24.9875216666667","6501300","土城區"
"236032","271-VK","2018/08/13 14:09:44","新北市土城區明德路一段365-1號","121.453611666667","24.9790283333333","6501300","土城區"
"236016","401-BY","2018/08/13 14:09:33","新北市土城區城林路6巷80號","121.438551666667","24.9798033333333","6501300","土城區"
"236005","498-BY","2018/08/13 14:09:35","新北市土城區中華路一段10號","121.448188333333","24.9908433333333","6501300","土城區"
"236057","912-UM","2018/08/13 14:09:34","新北市土城區中央路四段99號","121.416746666667","24.957925","6501300","土城區"
"236045","913-UM","2018/08/13 14:09:31","新北市土城區明德路一段369-2號","121.453233333333","24.9793866666667","6501300","土城區"
"236060","915-UM","2018/08/13 14:09:47","新北市土城區金城路三段193-1號","121.470078333333","24.9889383333333","6501300","土城區"
"236054","AAC-216","2018/08/13 14:09:36","新北市土城區城林路6巷80號","121.438698333333","24.97969","6501300","土城區"
"221010","269-BY","2018/08/13 14:09:40","新北市汐止區長青路210巷52號","121.614878333333","25.1171433333333","6501100","汐止區"
"221032","280-BY","2018/08/13 14:09:45","新北市汐止區龍安路30號","121.654938333333","25.0642266666667","6501100","汐止區"
"220027","145-BY","2018/08/13 14:09:30","新北市板橋區民權路202巷14弄1號","121.460683333333","25.0159816666667","6500100","板橋區"
"220028","200-UY","2018/08/13 14:09:42","新北市板橋區大觀路二段3巷18號","121.447806666667","25.0036266666667","6500100","板橋區"
"220030","610-BX","2018/08/13 14:09:43","新北市板橋區溪崑二街16號","121.428756666667","24.9916083333333","6500100","板橋區"
"220050","245-BX","2018/08/13 14:09:24","新北市板橋區民生路二段234巷24弄1號","121.470291666667","25.0224466666667","6500100","板橋區"
"220040","267-BY","2018/08/13 14:09:51","新北市板橋區縣民大道247巷74號","121.482096666667","25.0267333333333","6500100","板橋區"
"220004","276-BY","2018/08/13 14:09:48","新北市板橋區信義路110巷1弄5號","121.458051666667","24.9921833333333","6500100","板橋區"
"220020","277-BY","2018/08/13 14:09:32","新北市板橋區金門街369巷57弄8號","121.429231666667","24.984055","6500100","板橋區"
"220019","283-VK","2018/08/13 14:09:48","新北市板橋區重慶路247-3號","121.463251666667","25.0003166666667","6500100","板橋區"
"220043","285-UM","2018/08/13 14:09:51","新北市板橋區光武街128號","121.465535","25.0297166666667","6500100","板橋區"
"220001","285-VK","2018/08/13 14:09:41","新北市板橋區懷仁街13號","121.476215","25.0199783333333","6500100","板橋區"
"220031","286-VK","2018/08/13 14:09:38","新北市板橋區大觀路二段174巷198號","121.442341666667","25.003975","6500100","板橋區"
"220029","287-VK","2018/08/13 14:09:32","新北市板橋區南雅西路二段156巷17號","121.452388333333","25.0132333333333","6500100","板橋區"
"220039","288-VK","2018/08/13 14:09:42","新北市板橋區四維路269巷16號","121.462338333333","25.0282266666667","6500100","板橋區"
"220009","293-UM","2018/08/13 14:09:46","新北市板橋區三民路二段21巷8號","121.479926666667","25.0181733333333","6500100","板橋區"
"220032","296-UM","2018/08/13 14:09:47","新北市板橋區溪崑二街56巷12號","121.427758333333","24.9909883333333","6500100","板橋區"
"220023","303-R5","2018/08/13 14:09:37","新北市板橋區府中路141號","121.455671666667","25.009535","6500100","板橋區"
"220010","305-R5","2018/08/13 14:09:45","新北市板橋區三民路二段居仁巷2弄25號","121.480035","25.0130433333333","6500100","板橋區"
"220041","307-R5","2018/08/13 14:09:38","新北市板橋區文化路二段225巷58號","121.469276666667","25.0284983333333","6500100","板橋區"
"220047","317-R6","2018/08/13 14:09:49","新北市板橋區自由路51巷14弄1號","121.464768333333","25.0235816666667","6500100","板橋區"
"220012","486-VK","2018/08/13 14:09:38","新北市板橋區板新路1號","121.475611666667","25.0124066666667","6500100","板橋區"
"220037","491-VK","2018/08/13 14:09:45","新北市板橋區莊敬路36-3號","121.472935","25.027295","6500100","板橋區"
"220104","560-BX","2018/08/13 14:09:45","新北市板橋區中正路397號","121.454236666667","25.022085","6500100","板橋區"
"220052","561-BX","2018/08/13 14:09:37","新北市板橋區文化路一段188巷9弄19號","121.468031666667","25.0192316666667","6500100","板橋區"
"220011","609-BX","2018/08/13 14:09:39","新北市板橋區三民路二段33號","121.4796","25.0175983333333","6500100","板橋區"
"220002","630-UY","2018/08/13 14:09:44","新北市板橋區實踐路32巷6號","121.463016666667","25.0071316666667","6500100","板橋區"
"220005","686-BX","2018/08/13 14:09:14","新北市板橋區重慶路344號","121.464188333333","24.99734","6500100","板橋區"
"220025","687-BX","2018/08/13 14:09:44","新北市板橋區僑中二街152號","121.444861666667","25.0042533333333","6500100","板橋區"
"220042","689-BX","2018/08/13 14:09:32","新北市板橋區民生路三段123號","121.466405","25.025885","6500100","板橋區"
"220051","KEA-2699","2018/08/13 14:09:47","新北市板橋區田單街49巷2號","121.482598333333","25.0281216666667","6500100","板橋區"
"220003","827-TW","2018/08/13 14:09:49","新北市板橋區新民街13號","121.46391","25.0099033333333","6500100","板橋區"
"220014","829-TW","2018/08/13 14:09:34","新北市板橋區三民路二段正隆巷44號","121.476931666667","25.0138866666667","6500100","板橋區"
"220016","830-TW","2018/08/13 14:09:46","新北市板橋區三民路一段1巷53號","121.48091","25.02502","6500100","板橋區"
"220045","831-TW","2018/08/13 14:09:44","新北市板橋區大同街6號","121.477003333333","25.02665","6500100","板橋區"
"220038","833-TW","2018/08/13 14:09:52","新北市板橋區文化路二段362號","121.472996666667","25.0306716666667","6500100","板橋區"
"220022","895-R6","2018/08/13 14:09:34","新北市板橋區府中路141-1號","121.455633333333","25.009525","6500100","板橋區"
"220021","985-R7","2018/08/13 14:09:37","新北市板橋區民權路258-3號","121.458061666667","25.0151066666667","6500100","板橋區"
"220046","AAC-210","2018/08/13 14:09:34","新北市板橋區幸福路70巷32號","121.460188333333","25.02102","6500100","板橋區"
"220018","AAC-253","2018/08/13 14:09:49","新北市板橋區忠孝路58號","121.461231666667","25.001985","6500100","板橋區"
"235032","KEA-2873","2018/08/13 14:09:44","新北市中和區連勝街57巷20號","121.498096666667","24.996505","6500300","中和區"
"235025","KEA-2875","2018/08/13 14:09:31","新北市中和區員山路147號","121.481046666667","24.99626","6500300","中和區"
