"lineid","car","time","location","longitude","latitude","cityid","cityname"
"234070","149-BY","2018/08/13 14:56:03","新北市永和區新生路2-6號","121.509243333333","25.0170166666667","6500400","永和區"
"234025","9371-KE","2018/08/13 14:56:14","新北市永和區水源街33巷5號","121.510865","25.0041666666667","6500400","永和區"
"248015","026-BX","2018/08/13 14:56:14","新北市五股區成泰路三段577巷80弄71號","121.448931666667","25.10484","6501500","五股區"
"248007","095-VK","2018/08/13 14:56:08","新北市五股區四維路30巷34弄2號","121.46829","25.0715083333333","6501500","五股區"
"248011","247-BX","2018/08/13 14:56:01","新北市五股區六合街118號","121.430288333333","25.090795","6501500","五股區"
"248013","261-SL","2018/08/13 14:56:13","新北市五股區五福路14巷27號","121.435368333333","25.088985","6501500","五股區"
"248003","677-BX","2018/08/13 14:56:11","新北市五股區成泰路一段32巷45號","121.435165","25.0669666666667","6501500","五股區"
"248001","678-BX","2018/08/13 14:56:05","新北市五股區新五路三段26號","121.443838333333","25.0873916666667","6501500","五股區"
"248009","682-TV","2018/08/13 14:56:04","新北市五股區成泰路一段7巷66號","121.432686666667","25.067925","6501500","五股區"
"243005","AAD-798","2018/08/13 14:56:09","新北市泰山區中央路5巷36號","121.427738333333","25.0430633333333","6501600","泰山區"
"243001","297-R6","2018/08/13 14:56:13","新北市泰山區泰林路二段146號","121.434321666667","25.0599383333333","6501600","泰山區"
"243008","KEA-2801","2018/08/13 14:56:10","新北市泰山區明志路三段253號","121.423413333333","25.037375","6501600","泰山區"
"243007","421-VK","2018/08/13 14:56:13","新北市泰山區泰林路二段211號","121.433005","25.0616733333333","6501600","泰山區"
"243003","KEA-2215","2018/08/13 14:56:04","新北市新莊區壽山路33-4號","121.416596666667","25.0304866666667","6501600","泰山區"
"243002","KEA-2216","2018/08/13 14:56:02","新北市泰山區新生路31巷12號","121.427756666667","25.0462283333333","6501600","泰山區"
"243004","646-TV","2018/08/13 14:56:14","新北市泰山區楓江路67-1號","121.436415","25.06296","6501600","泰山區"
"243006","680-BX","2018/08/13 14:56:13","新北市泰山區泰林路二段395號","121.427113333333","25.064175","6501600","泰山區"
"231006","001-UM","2018/08/13 14:56:18","新北市新店區中興路一段172巷1號","121.542895","24.9645433333333","6500600","新店區"
"231002","002-UM","2018/08/13 14:56:18","新北市新店區民權路100號","121.536116666667","24.982935","6500600","新店區"
"231027","0293-UT","2018/08/13 14:56:13","新北市新店區安興路102號","121.515233333333","24.9768966666667","6500600","新店區"
"231028","046-UY","2018/08/13 14:56:11","新北市新店區安德街171號","121.508595","24.9590716666667","6500600","新店區"
"231001","047-UY","2018/08/13 14:56:18","新北市新店區中正路299號","121.53706","24.974655","6500600","新店區"
"231005","106-UY","2018/08/13 14:56:15","新北市新店區建國路299號","121.537211666667","24.986955","6500600","新店區"
"231019","110-UY","2018/08/13 14:56:10","新北市新店區永福路54-2號","121.558208333333","24.9286716666667","6500600","新店區"
"231011","187-VK","2018/08/13 14:56:15","新北市新店區寶橋路85巷37號","121.545116666667","24.97641","6500600","新店區"
"231023","KEA-2219","2018/08/13 14:56:17","新北市新店區檳榔路109號","121.544435","24.9615733333333","6500600","新店區"
"231026","256-BX","2018/08/13 14:56:10","新北市新店區北新路一段91號","121.538843333333","24.9617916666667","6500600","新店區"
"231003","268-BY","2018/08/13 14:56:16","新北市新店區中興路一段302號","121.546293333333","24.9696833333333","6500600","新店區"
"231018","278-BY","2018/08/13 14:56:18","新北市新店區中央六街5號","121.5303","24.97446","6500600","新店區"
"231014","AAD-862","2018/08/13 14:56:19","新北市新店區銀河路57號","121.57744","24.95792","6500600","新店區"
"231004","355-BY","2018/08/13 14:56:20","新北市新店區民族路57號","121.539993333333","24.9785133333333","6500600","新店區"
"231038","3712-VJ","2018/08/13 14:56:12","新北市新店區安華路28-1號","121.519693333333","24.9609383333333","6500600","新店區"
"231025","4715-K9","2018/08/13 14:56:06","新北市新店區大豐路68巷9號","121.538763333333","24.9800616666667","6500600","新店區"
"231036","512-UM","2018/08/13 14:56:06","新北市新店區安祥路106巷20號","121.47801","24.9623466666667","6500600","新店區"
"231030","619-UM","2018/08/13 14:56:02","新北市新店區安民街344號","121.517033333333","24.9754166666667","6500600","新店區"
"231034","641-BX","2018/08/13 14:56:18","新北市新店區玫瑰路4-1號","121.493586666667","24.95143","6500600","新店區"
"231039","718-UY","2018/08/13 14:56:08","新北市新店區寶安街30號","121.542025","24.9823833333333","6500600","新店區"
"231035","719-UM","2018/08/13 14:56:10","新北市新店區安業街33號","121.517698333333","24.9770383333333","6500600","新店區"
"231031","720-UM","2018/08/13 14:56:14","新北市新店區安泰路22號","121.485526666667","24.9484283333333","6500600","新店區"
"231029","897-TW","2018/08/13 14:56:09","新北市新店區錦秀路61號","121.479058333333","24.943125","6500600","新店區"
"231024","AKT-0513","2018/08/13 14:56:05","新北市新店區中華路83巷21號","121.538743333333","24.968095","6500600","新店區"
"235030","003-UY","2018/08/13 14:56:15","新北市中和區南工路76號","121.506635","25.00228","6500300","中和區"
"235020","096-UM","2018/08/13 14:56:12","新北市中和區漢民路415號","121.47236","25.0068866666667","6500300","中和區"
"235003","097-UM","2018/08/13 14:56:17","新北市中和區安樂路143巷7號","121.514025","24.9970666666667","6500300","中和區"
"235029","098-UM","2018/08/13 14:56:08","新北市中和區永和路118號","121.496555","25.0062233333333","6500300","中和區"
"235004","150-BY","2018/08/13 14:56:03","新北市中和區景安路79巷21號","121.507028333333","24.9967733333333","6500300","中和區"
"235022","151-BY","2018/08/13 14:56:12","新北市中和區員山路150巷2弄14號","121.481538333333","24.9978716666667","6500300","中和區"
"235031","255-BX","2018/08/13 14:56:14","新北市中和區中正路751巷3弄12號","121.484276666667","24.9993783333333","6500300","中和區"
"235008","293-VK","2018/08/13 14:56:09","新北市中和區中正路91號","121.500415","24.993535","6500300","中和區"
"235036","301-VK","2018/08/13 14:56:06","新北市中和區板南路335號","121.49423","24.9978733333333","6500300","中和區"
"235007","352-BY","2018/08/13 14:56:11","新北市中和區興南路一段25號","121.511266666667","24.9908316666667","6500300","中和區"
"235014","4979-A6","2018/08/13 14:56:08","新北市中和區景平路241巷64弄16號","121.50736","24.99245","6500300","中和區"
"235033","4980-A6","2018/08/13 14:56:19","新北市中和區圓通路83號","121.499806666667","24.9969316666667","6500300","中和區"
"235034","558-UM","2018/08/13 14:56:18","新北市中和區圓通路154號","121.497985","24.995715","6500300","中和區"
"235018","640-BX","2018/08/13 14:56:14","新北市中和區莒光路80號","121.472325","25.0028716666667","6500300","中和區"
"235010","733-UM","2018/08/13 14:56:04","新北市中和區興南路一段61-1號","121.510471666667","24.9895616666667","6500300","中和區"
"235035","783-BX","2018/08/13 14:56:10","新北市中和區中正路786號","121.485005","25.0009766666667","6500300","中和區"
"235026","800-TS","2018/08/13 14:56:21","新北市中和區中山路二段342號","121.493641666667","25.0021683333333","6500300","中和區"
"235012","896-TW","2018/08/13 14:56:03","新北市中和區忠孝街1巷2-1號","121.509165","24.9830316666667","6500300","中和區"
"235017","900-TW","2018/08/13 14:56:16","新北市中和區民德路80號","121.468705","25.0013016666667","6500300","中和區"
"235015","157-BY","2018/08/13 14:56:09","新北市中和區景安路198號","121.504255","24.9913833333333","6500300","中和區"
"235001","AAC-213","2018/08/13 14:56:13","新北市中和區自立路147號","121.522518333333","24.9930733333333","6500300","中和區"
"235023","AAC-215","2018/08/13 14:56:03","新北市中和區圓通路365號","121.491798333333","24.9894733333333","6500300","中和區"
"220105","013-TV","2018/08/13 14:56:16","新北市板橋區民治街42巷26號","121.478161666667","25.033","6500100","板橋區"
"220013","015-TV","2018/08/13 14:56:11","新北市板橋區民族路276巷1弄1號","121.469943333333","25.0066","6500100","板橋區"
"220034","073-UY","2018/08/13 14:56:12","新北市板橋區大觀路二段275號","121.442698333333","24.999005","6500100","板橋區"
"220017","AAD-861","2018/08/13 14:56:19","新北市板橋區南雅南路二段11-29號","121.453805","25.0012616666667","6500100","板橋區"
"247021","500-BY","2018/08/13 14:56:16","新北市蘆洲區中正路482號","121.462906666667","25.095695","6501400","蘆洲區"
"253003","6232-TK","2018/08/13 14:56:07","新北市石門區尖子鹿106號","121.576058333333","25.2976633333333","6502200","石門區"
"253001","6251-TK","2018/08/13 14:56:00","新北市石門區崁子腳56號","121.537811666667","25.273285","6502200","石門區"
"253002","637-UY","2018/08/13 14:56:13","新北市石門區楓林58號","121.542203333333","25.272935","6502200","石門區"
"253004","8270-PC","2018/08/13 14:56:07","新北市石門區小坑22號","121.592996666667","25.2807883333333","6502200","石門區"
"207002","749-BX","2018/08/13 14:56:06","新北市萬里區崁腳里崁腳路73號","121.647621666667","25.1595933333333","6502800","萬里區"
"207001","662-BX","2018/08/13 14:56:20","新北市萬里區雙興里二坪路1-1號","121.651421666667","25.1770283333333","6502800","萬里區"
"237001","159-UY","2018/08/13 14:45:15","新北市三峽區中山路459巷163-1號","121.349301666667","24.93341","6500900","三峽區"
"236064","105-UM","2018/08/13 14:56:19","新北市土城區明德路二段119巷12號","121.450416666667","24.9811933333333","6501300","土城區"
"236040","107-UM","2018/08/13 14:56:17","新北市土城區學府路一段229巷7號","121.45157","24.9838133333333","6501300","土城區"
"236074","166-UM","2018/08/13 14:56:13","新北市土城區中央路四段67巷2弄12號","121.417125","24.957735","6501300","土城區"
"236029","253-BX","2018/08/13 14:56:12","新北市土城區中央路三段1號","121.439763333333","24.9707766666667","6501300","土城區"
"236024","269-VK","2018/08/13 14:56:19","新北市土城區中央路二段246號","121.441871666667","24.9748366666667","6501300","土城區"
"236012","270-VK","2018/08/13 14:56:16","新北市土城區永豐路25號","121.462851666667","24.9882316666667","6501300","土城區"
"236032","271-VK","2018/08/13 14:56:04","新北市土城區仁愛路18號","121.46073","24.9803133333333","6501300","土城區"
"236016","401-BY","2018/08/13 14:56:17","新北市土城區延吉街168巷16號","121.467906666667","24.986265","6501300","土城區"
"236057","912-UM","2018/08/13 14:56:14","新北市土城區明德路一段385-1號","121.453181666667","24.9804433333333","6501300","土城區"
"236045","913-UM","2018/08/13 14:56:11","新北市土城區青雲路318號","121.458903333333","24.9772533333333","6501300","土城區"
"236060","915-UM","2018/08/13 14:56:07","新北市土城區金城路三段149巷14號","121.468208333333","24.9888666666667","6501300","土城區"
"236054","AAC-216","2018/08/13 14:56:16","新北市土城區裕民路66號","121.44931","24.9876216666667","6501300","土城區"
"238010","601-UM","2018/08/13 14:56:21","新北市樹林區育德街78號","121.38808","24.9683416666667","6500700","樹林區"
"238006","599-UM","2018/08/13 14:56:18","新北市樹林區育德街78號","121.38781","24.96832","6500700","樹林區"
"238011","5061-A6","2018/08/13 14:56:19","新北市樹林區育德街78-1號","121.388015","24.968075","6500700","樹林區"
"238009","KEA-2213","2018/08/13 14:56:06","新北市樹林區育德街78號","121.388018333333","24.9683516666667","6500700","樹林區"
"238008","KEA-2539","2018/08/13 14:56:16","新北市樹林區育德街78-1號","121.387846666667","24.9681316666667","6500700","樹林區"
"238012","303-VK","2018/08/13 14:56:10","新北市樹林區育德街78號","121.387908333333","24.968345","6500700","樹林區"
"238004","283-BY","2018/08/13 14:56:07","新北市樹林區育德街78號","121.387515","24.9685216666667","6500700","樹林區"
"238001","282-BY","2018/08/13 14:56:08","新北市樹林區育德街78-1號","121.387613333333","24.96812","6500700","樹林區"
"238007","268-VK","2018/08/13 14:56:04","新北市樹林區育德街78-1號","121.387918333333","24.9682866666667","6500700","樹林區"
"238013","172-UY","2018/08/13 14:56:19","新北市樹林區育德街78號","121.3876","24.9683666666667","6500700","樹林區"
"221010","269-BY","2018/08/13 14:56:20","新北市汐止區康寧街885巷43號","121.650288333333","25.0771083333333","6501100","汐止區"
"220027","145-BY","2018/08/13 14:56:09","新北市板橋區大仁街128號","121.45234","25.01566","6500100","板橋區"
"220028","200-UY","2018/08/13 14:56:21","新北市板橋區大觀路二段153巷35號","121.446906666667","25.0003","6500100","板橋區"
"220030","610-BX","2018/08/13 14:56:00","新北市板橋區篤行路一段37號","121.432105","24.993855","6500100","板橋區"
"220050","245-BX","2018/08/13 14:56:04","新北市板橋區縣民大道三段99號","121.476165","25.0223983333333","6500100","板橋區"
"220040","267-BY","2018/08/13 14:56:11","新北市板橋區懷德街174巷26號","121.478363333333","25.0292766666667","6500100","板橋區"
"220020","277-BY","2018/08/13 14:56:12","新北市板橋區金門街151巷3弄2號","121.433251666667","24.9904033333333","6500100","板橋區"
"220019","283-VK","2018/08/13 14:56:14","新北市板橋區和平路174巷33號","121.465086666667","24.994385","6500100","板橋區"
"220043","285-UM","2018/08/13 14:56:13","新北市板橋區雨農路19號","121.461803333333","25.0245533333333","6500100","板橋區"
"220001","285-VK","2018/08/13 14:56:22","新北市板橋區中山路二段60巷9號","121.474313333333","25.0153333333333","6500100","板橋區"
"220031","286-VK","2018/08/13 14:56:18","新北市板橋區僑中二街88巷20-1號","121.445466666667","25.0095316666667","6500100","板橋區"
"220029","287-VK","2018/08/13 14:56:11","新北市板橋區大觀路一段28巷104號","121.45011","25.0112416666667","6500100","板橋區"
"220039","288-VK","2018/08/13 14:56:21","新北市板橋區龍泉街54巷8弄14號","121.457445","25.026915","6500100","板橋區"
"220009","293-UM","2018/08/13 14:56:06","新北市板橋區縣民大道二段200巷35號","121.470791666667","25.0179783333333","6500100","板橋區"
"220023","303-R5","2018/08/13 14:56:17","新北市板橋區金華街10巷135號","121.460055","25.020725","6500100","板橋區"
"220010","305-R5","2018/08/13 14:56:05","新北市板橋區光復街33巷22號","121.482293333333","25.0189183333333","6500100","板橋區"
"220041","307-R5","2018/08/13 14:56:17","新北市板橋區四維路259巷70號","121.46021","25.0267116666667","6500100","板橋區"
"220047","317-R6","2018/08/13 14:56:11","新北市板橋區漢生西路159號","121.463023333333","25.02351","6500100","板橋區"
"220012","486-VK","2018/08/13 14:56:18","新北市板橋區實踐路55-1號","121.463798333333","25.0066083333333","6500100","板橋區"
"220037","491-VK","2018/08/13 14:56:05","新北市板橋區仁化街184號","121.478638333333","25.0340416666667","6500100","板橋區"
"220104","560-BX","2018/08/13 14:56:15","新北市板橋區新生街29巷15弄5號","121.456278333333","25.0220166666667","6500100","板橋區"
"220052","561-BX","2018/08/13 14:56:17","新北市板橋區陽明街29巷1弄24號","121.464128333333","25.0221683333333","6500100","板橋區"
"220011","609-BX","2018/08/13 14:56:19","新北市板橋區翠華街7巷1號","121.48018","25.0240116666667","6500100","板橋區"
"220002","630-UY","2018/08/13 14:56:02","新北市板橋區實踐路93巷56號","121.466026666667","25.005075","6500100","板橋區"
"220005","686-BX","2018/08/13 14:56:14","新北市板橋區信義路51號","121.457035","24.99587","6500100","板橋區"
"220025","687-BX","2018/08/13 14:56:14","新北市板橋區僑中三街39號","121.445075","25.00469","6500100","板橋區"
"220042","689-BX","2018/08/13 14:56:12","新北市板橋區長江路二段59號","121.464583333333","25.03143","6500100","板橋區"
"220051","KEA-2699","2018/08/13 14:56:07","新北市板橋區仁化街56號","121.475655","25.0315283333333","6500100","板橋區"
"220003","827-TW","2018/08/13 14:56:08","新北市板橋區仁愛路78號","121.46054","24.9994583333333","6500100","板橋區"
"220014","829-TW","2018/08/13 14:56:14","新北市板橋區長安街331巷110-4號","121.471611666667","25.01251","6500100","板橋區"
"220016","830-TW","2018/08/13 14:56:08","新北市板橋區中山路二段412巷27號","121.483686666667","25.019865","6500100","板橋區"
"220045","831-TW","2018/08/13 14:56:08","新北市板橋區文化路二段124巷34弄16號","121.470773333333","25.0255016666667","6500100","板橋區"
"220038","833-TW","2018/08/13 14:56:11","新北市板橋區龍泉街139號","121.457848333333","25.0239933333333","6500100","板橋區"
"220022","895-R6","2018/08/13 14:56:14","新北市板橋區館前西路120號","121.456738333333","25.00774","6500100","板橋區"
"220021","985-R7","2018/08/13 14:56:16","新北市板橋區南雅西路二段237號","121.45154","25.0142183333333","6500100","板橋區"
"220046","AAC-210","2018/08/13 14:56:14","新北市板橋區光正街45巷2弄2號","121.46177","25.01731","6500100","板橋區"
"220018","AAC-253","2018/08/13 14:56:09","新北市板橋區館前東路126號","121.463918333333","25.0078266666667","6500100","板橋區"
"235032","KEA-2873","2018/08/13 14:56:14","新北市中和區勝利路35巷1弄15號","121.49948","25.00773","6500300","中和區"
