"lineid","car","time","location","longitude","latitude","cityid","cityname"
"243009","297-R6","2018/08/13 15:45:01","新北市泰山區黎明路25號","121.42195","25.0609733333333","6501600","泰山區"
"243012","646-TV","2018/08/13 15:43:01","新北市泰山區黎明路25號","121.422078333333","25.0607066666667","6501600","泰山區"
"231046","107-UY","2018/08/13 16:05:41","新北市新店區碧潭路67號","121.534273333333","24.95666","6500600","新店區"
"231011","187-VK","2018/08/13 16:05:34","新北市新店區安興路112號","121.51507","24.977635","6500600","新店區"
"231018","278-BY","2018/08/13 16:05:38","新北市新店區中正路694巷15號","121.535376666667","24.990875","6500600","新店區"
"231014","AAD-862","2018/08/13 16:05:39","新北市新店區中正路347號","121.535483333333","24.9758116666667","6500600","新店區"
"231037","4716-K9","2018/08/13 16:05:39","新北市新店區薏仁坑路6號","121.500241666667","24.9580183333333","6500600","新店區"
"231035","719-UM","2018/08/13 16:03:50","新北市新店區安民街303巷9弄2號","121.51684","24.9733916666667","6500600","新店區"
"241011","013-R5","2018/08/13 16:05:32","新北市三重區正義北路223號","121.496005","25.0688283333333","6500200","三重區"
"241028","022-UY","2018/08/13 16:05:34","新北市三重區正義南路111號","121.498248333333","25.0585833333333","6500200","三重區"
"241008","059-VK","2018/08/13 16:05:32","新北市三重區新北大道一段252號","121.479813333333","25.0614016666667","6500200","三重區"
"241022","060-VK","2018/08/13 16:05:39","新北市三重區重陽路二段52巷74弄2號","121.483308333333","25.0661716666667","6500200","三重區"
"241015","062-VK","2018/08/13 16:05:53","新北市三重區環河南路286號","121.489576666667","25.048285","6500200","三重區"
"241017","063-VK","2018/08/13 16:05:36","新北市三重區大仁街23號","121.491931666667","25.064615","6500200","三重區"
"241024","065-VK","2018/08/13 16:05:44","新北市三重區中正北路145巷7弄17號","121.485175","25.067565","6500200","三重區"
"241026","066-VK","2018/08/13 16:05:41","新北市三重區福裕街98號","121.496401666667","25.061245","6500200","三重區"
"241002","090-VK","2018/08/13 16:05:35","新北市三重區河邊北街178號","121.503026666667","25.0740033333333","6500200","三重區"
"241003","091-VK","2018/08/13 16:05:45","新北市三重區自強路五段112號","121.496841666667","25.0836133333333","6500200","三重區"
"241005","262-UM","2018/08/13 16:05:37","新北市三重區溪尾街305號","121.487553333333","25.0837183333333","6500200","三重區"
"241016","266-UM","2018/08/13 16:05:40","新北市三重區重陽路一段1號","121.4868","25.0570916666667","6500200","三重區"
"241018","268-UM","2018/08/13 16:05:48","新北市三重區中正北路71巷10號","121.490598333333","25.0633783333333","6500200","三重區"
"241013","270-UM","2018/08/13 16:05:36","新北市三重區正義北路235號","121.495995","25.0692466666667","6500200","三重區"
"241025","271-UM","2018/08/13 16:05:50","新北市三重區中正北路157號","121.482366666667","25.067715","6500200","三重區"
"241007","398-BY","2018/08/13 16:05:40","新北市三重區慈愛街8號","121.48446","25.0784416666667","6500200","三重區"
"241004","475-VK","2018/08/13 16:05:54","新北市三重區長元街105號","121.50465","25.0668716666667","6500200","三重區"
"241020","478-VK","2018/08/13 16:05:51","新北市三重區車路頭街35號","121.483856666667","25.0712833333333","6500200","三重區"
"241030","480-VK","2018/08/13 16:05:51","新北市三重區重新路四段121號","121.48479","25.052385","6500200","三重區"
"241014","543-UM","2018/08/13 16:05:42","新北市三重區環河南路290號","121.489068333333","25.047895","6500200","三重區"
"241023","545-UM","2018/08/13 16:03:08","新北市三重區中正北路145巷4弄18號","121.48275","25.0680783333333","6500200","三重區"
"241001","547-UM","2018/08/13 16:05:46","新北市三重區自強路三段93號","121.487535","25.0750816666667","6500200","三重區"
"241006","AAD-863","2018/08/13 16:05:36","新北市三重區永福街58巷3弄20號","121.480591666667","25.0772383333333","6500200","三重區"
"241012","941-UM","2018/08/13 16:05:37","新北市三重區文化北路102巷15號","121.497883333333","25.0661233333333","6500200","三重區"
"241029","942-UM","2018/08/13 16:05:36","新北市三重區大同南路182號","121.496795","25.0569833333333","6500200","三重區"
"241033","AAC-255","2018/08/13 16:05:46","新北市三重區中興南街80巷3號","121.47144","25.0432466666667","6500200","三重區"
"235026","800-TS","2018/08/13 16:05:41","新北市中和區永和路204號","121.492093333333","25.0073166666667","6500300","中和區"
"224007","275-VK","2018/08/13 16:05:32","新北市瑞芳區粗坑口路3-1號","121.76188","25.09861","6501200","瑞芳區"
"227001","642-TC","2018/08/13 16:05:46","新北市雙溪區上林里內平林6號","121.83533","25.0325516666667","6502500","雙溪區"
"227008","400-TW","2018/08/13 16:05:45","新北市雙溪區三港里雙澳路71號","121.880848333333","25.0535783333333","6502500","雙溪區"
"236074","166-UM","2018/08/13 16:05:42","新北市土城區金安街63號","121.420536666667","24.9650466666667","6501300","土城區"
"236057","912-UM","2018/08/13 16:05:34","新北市土城區中央路二段125號","121.442026666667","24.9773316666667","6501300","土城區"
"238002","755-BX","2018/08/13 16:05:51","新北市樹林區文德街10號","121.418768333333","24.9917933333333","6500700","樹林區"
"238010","601-UM","2018/08/13 16:05:41","新北市樹林區三福街121巷11號","121.406073333333","25.015745","6500700","樹林區"
"238006","599-UM","2018/08/13 16:05:38","新北市樹林區中華路134號","121.41718","24.9802933333333","6500700","樹林區"
"238005","571-TV","2018/08/13 16:05:44","新北市樹林區博愛街155號","121.425478333333","24.9902633333333","6500700","樹林區"
"238011","5061-A6","2018/08/13 16:05:38","新北市樹林區育德街76巷6號","121.389091666667","24.9686866666667","6500700","樹林區"
"238009","KEA-2213","2018/08/13 16:05:46","新北市樹林區太平路174巷4號","121.418416666667","24.9770083333333","6500700","樹林區"
"238025","303-VK","2018/08/13 16:05:49","新北市樹林區中正路22-1號","121.427833333333","24.99941","6500700","樹林區"
"238004","283-BY","2018/08/13 16:05:47","新北市樹林區中正路433-1號","121.414725","25.0080066666667","6500700","樹林區"
"238001","282-BY","2018/08/13 16:05:48","新北市樹林區千歲街44號","121.425816666667","24.99697","6500700","樹林區"
"238007","268-VK","2018/08/13 16:05:45","新北市樹林區俊興街263號","121.418238333333","25.0169833333333","6500700","樹林區"
"238013","172-UY","2018/08/13 16:05:47","新北市樹林區佳園路一段75巷40號","121.396006666667","24.9704733333333","6500700","樹林區"
"238003","169-UY","2018/08/13 16:05:49","新北市樹林區復興路335巷10號","121.418543333333","24.98746","6500700","樹林區"
"220029","287-VK","2018/08/13 16:05:52","新北市土城區城林路6巷80號","121.438271666667","24.98004","6500100","板橋區"
"220005","686-BX","2018/08/13 16:05:34","新北市五股區凌雲路三段24巷21-26號","121.433283333333","25.107665","6500100","板橋區"
