"lineid","car","time","location","longitude","latitude","cityid","cityname"
"249005","172-UM","2018/08/13 17:29:52","新北市八里區荖阡坑路69號","121.406373333333","25.12703","6502300","八里區"
"249001","173-UM","2018/08/13 17:29:47","新北市八里區龍米路三段23號","121.426688333333","25.159415","6502300","八里區"
"249004","303-UY","2018/08/13 17:29:48","新北市八里區民有街78-2號","121.414856666667","25.1561416666667","6502300","八里區"
"249002","305-UY","2018/08/13 17:29:39","新北市八里區龍米路二段65巷15弄12號","121.447445","25.1400733333333","6502300","八里區"
"249003","593-UM","2018/08/13 17:29:44","新北市八里區中山路二段315號","121.400658333333","25.1477316666667","6502300","八里區"
"232011","375-UM","2018/08/13 17:29:41","新北市坪林區鶯子瀨12-1號","121.713475","24.9140683333333","6502000","坪林區"
"244007","080-UY","2018/08/13 17:29:38","新北市林口區湖北里5鄰24號","121.386373333333","25.0931933333333","6501700","林口區"
"244019","403-UM","2018/08/13 17:29:43","新北市林口區文化一路一段133號","121.373778333333","25.0718083333333","6501700","林口區"
"244013","KEA-2802","2018/08/13 17:29:51","新北市林口區文化一路二段40號","121.380661666667","25.0771633333333","6501700","林口區"
"244009","410-SL","2018/08/13 17:29:55","新北市林口區中北一街76號","121.385825","25.08855","6501700","林口區"
"244023","483-VK","2018/08/13 17:29:40","新北市林口區東明一街1巷10號","121.393346666667","25.072465","6501700","林口區"
"244017","485-VK","2018/08/13 17:29:40","新北市林口區文化一路一段118號","121.374026666667","25.0717566666667","6501700","林口區"
"244011","657-BX","2018/08/13 17:29:47","新北市林口區仁愛路一段386巷2號","121.387675","25.077165","6501700","林口區"
"244025","837-TS","2018/08/13 17:29:44","新北市林口區南勢街120號","121.362985","25.0740783333333","6501700","林口區"
"244021","838-TS","2018/08/13 17:29:42","新北市林口區粉寮路二段27號","121.400591666667","25.0842533333333","6501700","林口區"
"231046","107-UY","2018/08/13 17:29:41","新北市新店區直潭路92號","121.530915","24.937575","6500600","新店區"
"221038","KEA-2785","2018/08/13 17:29:39","新北市汐止區汐萬路一段256巷3號","121.652433333333","25.0745566666667","6501100","汐止區"
"241011","013-R5","2018/08/13 17:29:52","新北市三重區河邊北街110巷67號","121.502486666667","25.0705516666667","6500200","三重區"
"241015","062-VK","2018/08/13 17:29:34","新北市三重區長元街65巷22弄20號","121.503606666667","25.0658733333333","6500200","三重區"
"241017","063-VK","2018/08/13 17:29:35","新北市三重區中正北路25巷25弄11號","121.493775","25.0627866666667","6500200","三重區"
"241024","065-VK","2018/08/13 17:29:44","新北市三重區大勇街82巷15弄26號","121.48082","25.07184","6500200","三重區"
"241003","091-VK","2018/08/13 17:29:45","新北市三重區集賢路87-1號","121.493683333333","25.0868483333333","6500200","三重區"
"241005","262-UM","2018/08/13 17:29:37","新北市三重區永安北路二段51-1號","121.482918333333","25.0829416666667","6500200","三重區"
"241016","266-UM","2018/08/13 17:29:40","新北市三重區信義西街49號","121.495265","25.0639316666667","6500200","三重區"
"241009","267-UM","2018/08/13 17:29:33","新北市三重區車路頭街139巷14號","121.484268333333","25.0761883333333","6500200","三重區"
"241018","268-UM","2018/08/13 17:29:48","新北市三重區大智街41號","121.493666666667","25.06612","6500200","三重區"
"241032","269-UM","2018/08/13 17:29:42","新北市三重區名源街31號","121.4818","25.06054","6500200","三重區"
"241013","270-UM","2018/08/13 17:29:36","新北市三重區仁愛街112巷7號","121.494691666667","25.0746133333333","6500200","三重區"
"241025","271-UM","2018/08/13 17:29:48","新北市三重區中正北路209號","121.476453333333","25.0699633333333","6500200","三重區"
"241007","398-BY","2018/08/13 17:29:39","新北市三重區三和路四段145巷223號","121.488936666667","25.0795783333333","6500200","三重區"
"241020","478-VK","2018/08/13 17:29:50","新北市三重區忠孝路一段159號","121.488061666667","25.0715966666667","6500200","三重區"
"241030","480-VK","2018/08/13 17:29:51","新北市三重區新興路46號","121.491445","25.0536933333333","6500200","三重區"
"241014","543-UM","2018/08/13 17:29:42","新北市三重區安和路13號","121.501445","25.0684083333333","6500200","三重區"
"241023","545-UM","2018/08/13 17:29:48","新北市三重區三民街146巷3弄3號","121.481601666667","25.0647683333333","6500200","三重區"
"241019","KEA-2593","2018/08/13 17:29:46","新北市三重區自強路二段26巷38號","121.48845","25.068855","6500200","三重區"
"241006","AAD-863","2018/08/13 17:29:36","新北市五股區凌雲路三段15-3號","121.429041666667","25.1087483333333","6500200","三重區"
"241012","941-UM","2018/08/13 17:29:37","新北市三重區仁興街39巷25號","121.499521666667","25.07587","6500200","三重區"
"241033","AAC-255","2018/08/13 17:29:41","新北市三重區興德路133號","121.470241666667","25.05286","6500200","三重區"
"235064","005-UY","2018/08/13 17:29:47","新北市中和區員山路36巷16-3號","121.485115","24.9914133333333","6500300","中和區"
"247010","KEA-2869","2018/08/13 17:29:47","新北市蘆洲區中山一路114號","121.477263333333","25.0816133333333","6501400","蘆洲區"
"247024","893-R6","2018/08/13 17:29:55","新北市蘆洲區長興路325號","121.460495","25.0903216666667","6501400","蘆洲區"
"247014","546-UM","2018/08/13 17:29:54","新北市蘆洲區三民路33號","121.475416666667","25.08303","6501400","蘆洲區"
"247022","500-BY","2018/08/13 17:29:37","新北市蘆洲區三民路222號","121.468741666667","25.08928","6501400","蘆洲區"
"247012","339-TH","2018/08/13 17:29:35","新北市蘆洲區民族路42號","121.476638333333","25.0843716666667","6501400","蘆洲區"
"247004","337-TH","2018/08/13 17:29:36","新北市蘆洲區長安街233巷15號","121.458753333333","25.0825116666667","6501400","蘆洲區"
"247006","336-TH","2018/08/13 17:29:39","新北市蘆洲區光華路185-1號","121.46512","25.0809433333333","6501400","蘆洲區"
"247018","057-VK","2018/08/13 17:29:42","新北市蘆洲區水湳街31號","121.471918333333","25.0879","6501400","蘆洲區"
"247008","056-VK","2018/08/13 17:29:52","新北市蘆洲區民生街109號","121.47338","25.0786983333333","6501400","蘆洲區"
"247016","007-UY","2018/08/13 17:29:50","新北市蘆洲區光華路22巷21號","121.468741666667","25.08425","6501400","蘆洲區"
"247002","002-UY","2018/08/13 17:29:44","新北市蘆洲區永樂街38巷57弄5號","121.458096666667","25.0901516666667","6501400","蘆洲區"
"247020","001-UY","2018/08/13 17:29:45","新北市蘆洲區水湳街397號","121.470196666667","25.0938283333333","6501400","蘆洲區"
"228003","097-TW","2018/08/13 17:29:50","新北市貢寮區仁理村仁和路2-2號","121.923343333333","25.048435","6502600","貢寮區"
"228001","212-TW","2018/08/13 17:29:38","新北市貢寮區仁理村仁愛路39號","121.924968333333","25.05329","6502600","貢寮區"
"228002","663-BX","2018/08/13 17:29:52","新北市貢寮區福隆里興隆街21-1號","121.943361666667","25.016485","6502600","貢寮區"
"224010","AGQ-8101","2018/08/13 17:29:52","新北市瑞芳區逢甲路132號","121.808706666667","25.1091","6501200","瑞芳區"
"224006","676-BX","2018/08/13 17:29:42","新北市瑞芳區靜安路四段91號","121.793366666667","25.10902","6501200","瑞芳區"
"224008","285-BY","2018/08/13 17:29:53","新北市瑞芳區九芎橋路8號","121.833391666667","25.0895283333333","6501200","瑞芳區"
"224009","273-VK","2018/08/13 17:29:42","新北市瑞芳區汽車路2號","121.846905","25.1106233333333","6501200","瑞芳區"
"224005","271-BY","2018/08/13 17:29:49","新北市瑞芳區哩咾路1號","121.875203333333","25.1235233333333","6501200","瑞芳區"
"227001","642-TC","2018/08/13 17:29:46","新北市雙溪區平林里外平林62號","121.844453333333","25.0344533333333","6502500","雙溪區"
"251005","010-UM","2018/08/13 17:29:52","新北市淡水區鄧公路31巷15號","121.451883333333","25.1706733333333","6501000","淡水區"
"251013","KEA-2871","2018/08/13 17:29:42","新北市淡水區大竹圍5-1號","121.46642","25.194565","6501000","淡水區"
"251016","179-VK","2018/08/13 17:29:42","新北市淡水區埤島72號","121.455298333333","25.1931083333333","6501000","淡水區"
"251014","180-VK","2018/08/13 17:29:03","新北市淡水區公埔子20-6號","121.47078","25.2268383333333","6501000","淡水區"
"251015","181-VK","2018/08/13 17:29:40","新北市淡水區三空泉15號","121.472708333333","25.1633266666667","6501000","淡水區"
"251010","413-VK","2018/08/13 17:29:40","新北市淡水區中正路二段211號","121.426231666667","25.1891466666667","6501000","淡水區"
"251012","441-VK","2018/08/13 17:29:49","新北市淡水區北新路113號","121.44833","25.1783866666667","6501000","淡水區"
"251008","442-VK","2018/08/13 17:29:53","新北市淡水區大同路120巷16號","121.463041666667","25.1396633333333","6501000","淡水區"
"251004","443-VK","2018/08/13 17:14:41","新北市淡水區中正東路二段88巷15號","121.459026666667","25.150465","6501000","淡水區"
"251006","561-UM","2018/08/13 17:29:50","新北市淡水區大仁街23號","121.4425","25.1752383333333","6501000","淡水區"
"251009","575-R6","2018/08/13 17:29:39","新北市淡水區新生街30巷38號","121.439455","25.173085","6501000","淡水區"
"251007","577-R6","2018/08/13 17:29:42","新北市淡水區民生路47-4號","121.462103333333","25.13798","6501000","淡水區"
"251011","650-BX","2018/08/13 17:29:39","新北市淡水區坪頂路718號","121.482533333333","25.1584916666667","6501000","淡水區"
"251002","672-BX","2018/08/13 17:29:46","新北市淡水區中正路437號","121.43198","25.17474","6501000","淡水區"
"251003","766-UM","2018/08/13 17:29:47","新北市淡水區文化路63號","121.43817","25.1728883333333","6501000","淡水區"
"207003","550-UM","2018/08/13 17:29:44","新北市萬里區龜吼里翡翠路17號","121.683385","25.187255","6502800","萬里區"
"207004","225-TW","2018/08/13 17:29:53","新北市萬里區萬里里景美路6-1號","121.683816666667","25.172525","6502800","萬里區"
"252002","178-VK","2018/08/13 17:29:50","新北市三芝區忠孝街1-14號","121.505386666667","25.2538783333333","6502100","三芝區"
"252001","292-VK","2018/08/13 17:29:39","新北市三芝區長安街119號","121.498056666667","25.2596366666667","6502100","三芝區"
"237012","275-BY","2018/08/13 17:29:53","新北市三峽區中山路459巷137號","121.349955","24.933885","6500900","三峽區"
"237015","649-BX","2018/08/13 17:29:44","新北市三峽區中山路331號","121.360338333333","24.9379716666667","6500900","三峽區"
"242058","986-R7","2018/08/13 17:29:53","新北市新莊區中正路524號","121.431183333333","25.0316783333333","6500500","新莊區"
"242025","705-TV","2018/08/13 17:29:51","新北市新莊區復興路二段31號","121.454338333333","25.044025","6500500","新莊區"
"242027","615-BX","2018/08/13 17:29:40","新北市新莊區思源路63號","121.46022","25.0403766666667","6500500","新莊區"
"242042","566-BX","2018/08/13 17:29:49","新北市新莊區新樹路115-1號","121.437538333333","25.0266266666667","6500500","新莊區"
"242046","497-BY","2018/08/13 17:29:48","新北市新莊區福營路30-5號","121.439395","25.032625","6500500","新莊區"
"242053","442-UM","2018/08/13 17:29:56","新北市新莊區瓊林南路305巷1號","121.43465","25.0055216666667","6500500","新莊區"
"242050","441-UM","2018/08/13 17:29:55","新北市新莊區新樹路268巷39弄4號","121.431091666667","25.0162783333333","6500500","新莊區"
"242056","440-UM","2018/08/13 17:29:45","新北市新莊區新泰路20號","121.449615","25.0336716666667","6500500","新莊區"
"242036","415-TV","2018/08/13 17:29:50","新北市新莊區後港一路195號","121.434278333333","25.02838","6500500","新莊區"
"242007","413-TV","2018/08/13 17:29:51","新北市新莊區自強街54號","121.454745","25.046755","6500500","新莊區"
"242044","400-BY","2018/08/13 17:29:48","新北市新莊區富國路100號","121.421371666667","25.0254733333333","6500500","新莊區"
"242023","362-BY","2018/08/13 17:29:52","新北市新莊區公園路150號","121.453153333333","25.0400983333333","6500500","新莊區"
"242060","353-BY","2018/08/13 17:29:43","新北市新莊區瓊林南路50號","121.435783333333","25.0173333333333","6500500","新莊區"
"242009","132-UY","2018/08/13 17:29:51","新北市新莊區中原路171號","121.45366","25.0543466666667","6500500","新莊區"
"242039","133-UY","2018/08/13 17:29:46","新北市新莊區民安西路37號","121.427725","25.02094","6500500","新莊區"
"242031","135-UY","2018/08/13 17:29:52","新北市新莊區新泰路401巷29-1號","121.44248","25.0439066666667","6500500","新莊區"
"242048","172-VK","2018/08/13 17:29:51","新北市新莊區四維路210號","121.421306666667","25.020175","6500500","新莊區"
"242011","173-VK","2018/08/13 17:29:51","新北市新莊區中華路二段83-1號","121.452625","25.0486666666667","6500500","新莊區"
"242017","175-VK","2018/08/13 17:29:38","新北市新莊區德豐街2號","121.451641666667","25.043905","6500500","新莊區"
"242004","176-VK","2018/08/13 17:29:41","新北市新莊區中港路288巷20號","121.453645","25.0445933333333","6500500","新莊區"
"242013","347-TH","2018/08/13 17:29:50","新北市新莊區中誠街46巷4弄3號","121.451381666667","25.04881","6500500","新莊區"
"242021","348-TH","2018/08/13 17:29:47","新北市新莊區中華路一段18號","121.452041666667","25.0371866666667","6500500","新莊區"
"242002","349-TH","2018/08/13 17:29:46","新北市新莊區新莊路217號","121.455241666667","25.03531","6500500","新莊區"
"242019","350-TH","2018/08/13 17:29:45","新北市新莊區中港路97號","121.455395","25.0393783333333","6500500","新莊區"
"238015","755-BX","2018/08/13 17:29:36","新北市樹林區大安路267號","121.418985","24.9937233333333","6500700","樹林區"
"238019","599-UM","2018/08/13 17:29:38","新北市樹林區太平路59號","121.419008333333","24.981955","6500700","樹林區"
"238018","571-TV","2018/08/13 17:29:54","新北市樹林區鎮前街127號","121.424235","24.9895633333333","6500700","樹林區"
"238024","5061-A6","2018/08/13 17:29:41","新北市樹林區鎮前街144號","121.424565","24.990445","6500700","樹林區"
"238022","KEA-2213","2018/08/13 17:29:40","新北市樹林區中華路187巷28號","121.420928333333","24.980725","6500700","樹林區"
"238021","KEA-2539","2018/08/13 17:29:41","新北市樹林區西圳街一段203巷23-1號","121.394553333333","24.9584016666667","6500700","樹林區"
"238025","303-VK","2018/08/13 17:29:38","新北市樹林區保安街二段24-1號","121.415381666667","25.0018466666667","6500700","樹林區"
"238017","283-BY","2018/08/13 17:29:47","新北市樹林區中正路438號","121.413501666667","25.01174","6500700","樹林區"
"238014","282-BY","2018/08/13 17:29:48","新北市樹林區保安街一段247號","121.419753333333","24.99663","6500700","樹林區"
"238020","268-VK","2018/08/13 17:29:44","新北市樹林區俊英街110號","121.427471666667","25.005425","6500700","樹林區"
"238026","172-UY","2018/08/13 17:29:43","新北市樹林區新興街27-9號","121.40021","24.9724266666667","6500700","樹林區"
"238016","169-UY","2018/08/13 17:29:53","新北市樹林區日新街39號","121.422718333333","24.992195","6500700","樹林區"
"239007","AAC-297","2018/08/13 17:29:54","新北市鶯歌區仁愛路53號","121.353981666667","24.9560033333333","6500800","鶯歌區"
"239006","891-R6","2018/08/13 17:29:37","新北市鶯歌區鶯桃路436巷26弄4號","121.333823333333","24.9654616666667","6500800","鶯歌區"
"239008","527-UM","2018/08/13 17:29:51","新北市鶯歌區永和街230-1號","121.337761666667","24.9721483333333","6500800","鶯歌區"
"239005","526-UM","2018/08/13 17:29:44","新北市鶯歌區福隆一街9號","121.325496666667","24.971825","6500800","鶯歌區"
"239001","417-VK","2018/08/13 17:29:54","新北市鶯歌區中正三路101號","121.338248333333","24.9409416666667","6500800","鶯歌區"
"239003","360-BY","2018/08/13 17:29:44","新北市鶯歌區德昌街1號","121.334113333333","24.960735","6500800","鶯歌區"
"239002","359-BY","2018/08/13 17:29:50","新北市鶯歌區南雅路432號","121.346965","24.9540566666667","6500800","鶯歌區"
"239004","193-VK","2018/08/13 17:29:33","新北市鶯歌區文化路224號","121.352685","24.948775","6500800","鶯歌區"
"221008","489-VK","2018/08/13 17:29:44","新北市汐止區康寧街901號","121.65139","25.07509","6501100","汐止區"
"221033","647-BX","2018/08/13 17:29:51","新北市汐止區大同路二段175號","121.651715","25.06414","6501100","汐止區"
"242015","281-VK","2018/08/13 17:29:51","新北市新莊區新泰路152號","121.447683333333","25.0373133333333","6500500","新莊區"
"242034","280-VK","2018/08/13 17:29:50","新北市新莊區新莊路376號","121.449221666667","25.0334866666667","6500500","新莊區"
"235061","KEA-2875","2018/08/13 17:18:45","新北市中和區員山路36巷16-2號","121.485136666667","24.9916883333333","6500300","中和區"
