"lineid","car","time","location","longitude","latitude","cityid","cityname"
"234026","9371-KE","2018/08/13 17:59:56","新北市永和區永和路一段45-1號","121.512851666667","25.00628","6500400","永和區"
"249005","172-UM","2018/08/13 17:59:52","新北市八里區荖阡坑路20-9號","121.398396666667","25.1370216666667","6502300","八里區"
"249001","173-UM","2018/08/13 17:59:47","新北市八里區龍米路二段35號","121.448481666667","25.1400483333333","6502300","八里區"
"249004","303-UY","2018/08/13 17:59:48","新北市八里區賢一街59號","121.419745","25.1579016666667","6502300","八里區"
"249002","305-UY","2018/08/13 17:59:39","新北市八里區龍米路一段430號","121.450835","25.1338066666667","6502300","八里區"
"249003","593-UM","2018/08/13 17:59:44","新北市八里區中華路二段258巷7號","121.405048333333","25.1497583333333","6502300","八里區"
"248016","026-BX","2018/08/13 17:59:43","新北市五股區中興路二段103巷14號","121.458565","25.0762216666667","6501500","五股區"
"248006","077-UY","2018/08/13 17:59:41","新北市五股區中興路二段37巷28號","121.460083333333","25.0749333333333","6501500","五股區"
"248008","095-VK","2018/08/13 17:59:51","新北市五股區更洲路30號","121.457905","25.079165","6501500","五股區"
"248018","225-UY","2018/08/13 17:59:52","新北市五股區中興路二段163號","121.457588333333","25.0777116666667","6501500","五股區"
"248014","261-SL","2018/08/13 17:59:42","新北市五股區更洲路47-1號","121.454691666667","25.0782383333333","6501500","五股區"
"248010","682-TV","2018/08/13 17:59:54","新北市五股區中興路二段161號","121.45772","25.077335","6501500","五股區"
"232011","375-UM","2018/08/13 17:59:43","新北市坪林區北宜路八段387號","121.708445","24.9324033333333","6502000","坪林區"
"244007","080-UY","2018/08/13 17:59:38","新北市林口區林口路178號","121.38764","25.08266","6501700","林口區"
"244019","403-UM","2018/08/13 17:59:43","新北市林口區文化一路一段124號","121.375055","25.0723283333333","6501700","林口區"
"244013","KEA-2802","2018/08/13 17:59:51","新北市林口區中原街23號","121.392548333333","25.078575","6501700","林口區"
"244009","410-SL","2018/08/13 17:59:55","新北市林口區佳林路56巷13號","121.385471666667","25.0815266666667","6501700","林口區"
"244023","483-VK","2018/08/13 17:59:40","新北市林口區東湖路105巷79號","121.384495","25.07154","6501700","林口區"
"244017","485-VK","2018/08/13 17:59:40","新北市林口區忠孝路372號","121.369215","25.071365","6501700","林口區"
"244011","657-BX","2018/08/13 17:59:47","新北市林口區中正路100號","121.393936666667","25.0773383333333","6501700","林口區"
"244025","837-TS","2018/08/13 17:59:44","新北市林口區三民路77-3號","121.358905","25.0684566666667","6501700","林口區"
"244021","838-TS","2018/08/13 17:59:42","新北市林口區新寮44號","121.404055","25.0649666666667","6501700","林口區"
"222003","436-BY","2018/08/13 17:59:36","新北市深坑區炮子崙24號","121.605106666667","24.98776","6501800","深坑區"
"222002","659-BX","2018/08/13 17:59:48","新北市深坑區文化街110號","121.61611","25.00178","6501800","深坑區"
"231046","107-UY","2018/08/13 17:59:41","新北市新店區康雅崙路45號","121.535608333333","24.9270233333333","6500600","新店區"
"221031","KEA-2785","2018/08/13 17:59:39","新北市汐止區中興路190號","121.63159","25.06573","6501100","汐止區"
"231055","AKT-0513","2018/08/13 17:59:52","新北市新店區安華路28-1號","121.52004","24.9607783333333","6500600","新店區"
"241005","262-UM","2018/08/13 17:59:37","新北市三重區集賢路87-1號","121.493703333333","25.0868433333333","6500200","三重區"
"241016","266-UM","2018/08/13 17:59:40","新北市新莊區五工一路86號","121.461595","25.0677183333333","6500200","三重區"
"241024","462-BY","2018/08/13 17:59:40","新北市三重區中正北路193巷35弄29號","121.477236666667","25.07102","6500200","三重區"
"241006","AAD-863","2018/08/13 17:59:16","新北市八里區荖阡坑路28-2號","121.403023333333","25.12776","6500200","三重區"
"241033","AAC-255","2018/08/13 17:59:41","新北市三重區重新路五段595號","121.46957","25.0456733333333","6500200","三重區"
"235064","005-UY","2018/08/13 17:59:51","新北市中和區員山路36巷16-3號","121.485088333333","24.9912966666667","6500300","中和區"
"235063","006-UY","2018/08/13 17:59:47","新北市中和區員山路36巷16-3號","121.484955","24.9912866666667","6500300","中和區"
"235065","098-UM","2018/08/13 17:59:43","新北市中和區中山路二段454號","121.488945","25.0051133333333","6500300","中和區"
"235058","151-BY","2018/08/13 17:59:45","新北市中和區圓通路367巷15-1號","121.492208333333","24.9878266666667","6500300","中和區"
"235055","183-VK","2018/08/13 17:59:33","新北市中和區員山路36巷16-3號","121.485031666667","24.9913733333333","6500300","中和區"
"235038","185-VK","2018/08/13 17:59:50","新北市中和區中正路269號","121.495866666667","24.9935466666667","6500300","中和區"
"235054","640-BX","2018/08/13 17:59:50","新北市中和區員山路82巷10弄8號","121.481361666667","24.993615","6500300","中和區"
"235051","157-BY","2018/08/13 17:59:47","新北市中和區中正路637巷52弄1號","121.485541666667","24.9935516666667","6500300","中和區"
"235037","AAC-213","2018/08/13 17:59:34","新北市中和區錦和路350-1號","121.490003333333","24.9935416666667","6500300","中和區"
"247024","893-R6","2018/08/13 17:59:55","新北市蘆洲區長興路50巷1號","121.46377","25.0837733333333","6501400","蘆洲區"
"247014","546-UM","2018/08/13 17:59:18","新北市蘆洲區忠孝路98號","121.47141","25.0860933333333","6501400","蘆洲區"
"247012","339-TH","2018/08/13 17:59:55","新北市蘆洲區民族路184號","121.479956666667","25.086955","6501400","蘆洲區"
"247006","336-TH","2018/08/13 17:59:39","新北市蘆洲區長榮路1號","121.463731666667","25.0818016666667","6501400","蘆洲區"
"247018","057-VK","2018/08/13 17:59:42","新北市蘆洲區復興路218號","121.479008333333","25.0892466666667","6501400","蘆洲區"
"247008","056-VK","2018/08/13 17:59:52","新北市蘆洲區成功路36號","121.473291666667","25.079355","6501400","蘆洲區"
"247016","007-UY","2018/08/13 17:59:50","新北市蘆洲區中正路185巷78弄18號","121.46587","25.0847083333333","6501400","蘆洲區"
"247002","002-UY","2018/08/13 17:59:49","新北市蘆洲區永平街32巷45弄36號","121.458371666667","25.0932616666667","6501400","蘆洲區"
"247020","001-UY","2018/08/13 17:59:45","新北市蘆洲區民義街35巷5號","121.471631666667","25.089385","6501400","蘆洲區"
"226004","312-R5","2018/08/13 17:59:46","新北市平溪區石底里石筍尖21號","121.730401666667","25.0257766666667","6502400","平溪區"
"228003","097-TW","2018/08/13 17:59:40","新北市貢寮區真理里美艷山街6-2號","121.928826666667","25.0607583333333","6502600","貢寮區"
"228001","212-TW","2018/08/13 17:59:38","新北市貢寮區真理里新港街26巷53號","121.927908333333","25.0534083333333","6502600","貢寮區"
"228002","663-BX","2018/08/13 17:59:52","新北市貢寮區福隆里桂安街3-1號","121.962703333333","25.0208833333333","6502600","貢寮區"
"224010","AGQ-8101","2018/08/13 17:59:52","新北市瑞芳區汽車路9-13號","121.84583","25.1110333333333","6501200","瑞芳區"
"224006","676-BX","2018/08/13 17:59:42","新北市瑞芳區大寮路356-1號","121.784916666667","25.10319","6501200","瑞芳區"
"224002","639-TC","2018/08/13 17:59:55","新北市瑞芳區三爪子坑路34號","121.810471666667","25.1061416666667","6501200","瑞芳區"
"224008","285-BY","2018/08/13 17:59:53","新北市瑞芳區明燈路一段45巷71號","121.821888333333","25.104825","6501200","瑞芳區"
"224009","273-VK","2018/08/13 17:59:42","新北市瑞芳區金光路336號","121.85018","25.109605","6501200","瑞芳區"
"224005","271-BY","2018/08/13 17:59:49","新北市瑞芳區建基路一段50巷6-1號","121.817915","25.127995","6501200","瑞芳區"
"227001","642-TC","2018/08/13 17:59:46","新北市雙溪區共和里東榮街52號","121.866288333333","25.0337433333333","6502500","雙溪區"
"253005","032-BX","2018/08/13 17:59:50","新北市石門區中山路62-11號","121.567563333333","25.28968","6502200","石門區"
"253006","295-VK","2018/08/13 17:59:53","新北市石門區大丘田45-5號","121.549681666667","25.2760766666667","6502200","石門區"
"222001","KEA-2212","2018/08/13 17:59:45","新北市深坑區北深路三段13-1號","121.610071666667","25.00098","6501800","深坑區"
"208002","KEA-2872","2018/08/13 17:59:45","新北市金山區三界壇路38號","121.625063333333","25.2286033333333","6502700","金山區"
"208003","665-BX","2018/08/13 17:59:44","新北市金山區磺港里磺港路308號","121.643991666667","25.22741","6502700","金山區"
"208001","761-BX","2018/08/13 17:59:48","新北市金山區磺港里磺港路248號","121.643806666667","25.2250066666667","6502700","金山區"
"251005","010-UM","2018/08/13 17:59:52","新北市淡水區英專路135號","121.446468333333","25.1727233333333","6501000","淡水區"
"251001","011-UM","2018/08/13 17:59:58","新北市淡水區民權路17號","121.463668333333","25.124115","6501000","淡水區"
"251013","KEA-2871","2018/08/13 17:59:42","新北市淡水區泉洲厝30號","121.479681666667","25.191","6501000","淡水區"
"251016","179-VK","2018/08/13 17:59:42","新北市淡水區埤島28號","121.447615","25.1983083333333","6501000","淡水區"
"251014","180-VK","2018/08/13 17:59:49","新北市淡水區南平4號","121.481886666667","25.2220533333333","6501000","淡水區"
"251015","181-VK","2018/08/13 17:59:40","新北市淡水區興福寮88巷1號","121.485368333333","25.1650166666667","6501000","淡水區"
"251010","413-VK","2018/08/13 17:59:51","新北市淡水區中正路一段87巷1號","121.421641666667","25.1791083333333","6501000","淡水區"
"251012","441-VK","2018/08/13 17:59:49","新北市淡水區北新路三段38巷7號","121.484538333333","25.18703","6501000","淡水區"
"251008","442-VK","2018/08/13 17:59:33","新北市淡水區八勢一街51號","121.461928333333","25.155705","6501000","淡水區"
"251004","443-VK","2018/08/13 17:59:49","新北市淡水區民權路187巷5號","121.459728333333","25.1335916666667","6501000","淡水區"
"251006","561-UM","2018/08/13 17:59:50","新北市淡水區新生街80巷7號","121.439018333333","25.1738516666667","6501000","淡水區"
"251009","575-R6","2018/08/13 17:59:39","新北市淡水區大仁街6巷1號","121.44244","25.1746","6501000","淡水區"
"251011","650-BX","2018/08/13 17:59:39","新北市淡水區三空泉9號","121.475151666667","25.162815","6501000","淡水區"
"251002","672-BX","2018/08/13 17:59:46","新北市淡水區中正東路8號","121.448066666667","25.1666383333333","6501000","淡水區"
"251003","766-UM","2018/08/13 17:59:47","新北市淡水區大忠街45號","121.444656666667","25.1763866666667","6501000","淡水區"
"207003","550-UM","2018/08/13 17:59:44","新北市萬里區港東路野柳風景區攤販66號","121.691371666667","25.2058816666667","6502800","萬里區"
"207004","225-TW","2018/08/13 17:59:53","新北市萬里區中幅里中福路48號","121.683051666667","25.17395","6502800","萬里區"
"252002","178-VK","2018/08/13 17:59:50","新北市三芝區中山路二段45號","121.503008333333","25.2548366666667","6502100","三芝區"
"252001","292-VK","2018/08/13 17:59:39","新北市三芝區中興街二段2號","121.498403333333","25.256655","6502100","三芝區"
"237007","153-BY","2018/08/13 17:59:45","新北市三峽區中正路二段66號","121.366493333333","24.9183466666667","6500900","三峽區"
"237009","210-TH","2018/08/13 17:59:37","新北市三峽區中山路106巷2號","121.366165","24.9360516666667","6500900","三峽區"
"237013","252-BX","2018/08/13 17:59:57","新北市三峽區長泰街70-2號","121.37676","24.933545","6500900","三峽區"
"237012","275-BY","2018/08/13 17:59:53","新北市三峽區民生街29號","121.37584","24.9363816666667","6500900","三峽區"
"237008","302-VK","2018/08/13 17:59:44","新北市三峽區白雞38-19號","121.373386666667","24.9118983333333","6500900","三峽區"
"237014","433-BY","2018/08/13 17:59:44","新北市三峽區和平街36巷7弄9號","121.370863333333","24.9376866666667","6500900","三峽區"
"237006","5529-G3","2018/08/13 17:59:45","新北市三峽區介壽路二段136巷83-6號","121.393576666667","24.93121","6500900","三峽區"
"237011","KEA-2596","2018/08/13 17:59:48","新北市三峽區光明路68號","121.375205","24.92906","6500900","三峽區"
"237015","649-BX","2018/08/13 17:59:44","新北市三峽區紫微路109號","121.408533333333","24.9112116666667","6500900","三峽區"
"237010","706-TV","2018/08/13 17:59:51","新北市三峽區中山路56號","121.368345","24.9345016666667","6500900","三峽區"
"237005","AKY-6261","2018/08/13 17:59:43","新北市三峽區復興路179號","121.369623333333","24.9386766666667","6500900","三峽區"
"236069","105-UM","2018/08/13 17:59:34","新北市土城區城林路6巷80號","121.438488333333","24.9797516666667","6501300","土城區"
"236042","107-UM","2018/08/13 17:59:40","新北市土城區城林路6巷80號","121.438545","24.9795633333333","6501300","土城區"
"236078","166-UM","2018/08/13 17:59:04","新北市土城區永寧路119號","121.430695","24.9540716666667","6501300","土城區"
"236030","253-BX","2018/08/13 17:59:48","新北市土城區城林路6巷80號","121.43868","24.9796566666667","6501300","土城區"
"236026","269-VK","2018/08/13 17:59:38","新北市土城區承天路67號","121.439536666667","24.9634816666667","6501300","土城區"
"236014","270-VK","2018/08/13 17:59:47","新北市土城區城林路6巷80號","121.438483333333","24.9796066666667","6501300","土城區"
"236039","271-VK","2018/08/13 17:59:52","新北市土城區城林路6巷80號","121.438406666667","24.979785","6501300","土城區"
"236020","401-BY","2018/08/13 17:59:42","新北市土城區城林路6巷80號","121.438745","24.9796483333333","6501300","土城區"
"236059","912-UM","2018/08/13 17:59:41","新北市土城區中央路三段250號","121.427601666667","24.9642833333333","6501300","土城區"
"236048","913-UM","2018/08/13 17:58:26","新北市土城區中央路二段280號","121.440811666667","24.974","6501300","土城區"
"236063","915-UM","2018/08/13 17:59:47","新北市土城區城林路6巷80號","121.438631666667","24.9795683333333","6501300","土城區"
"236055","AAC-216","2018/08/13 17:59:52","新北市土城區城林路6巷80號","121.438471666667","24.9795883333333","6501300","土城區"
"242058","986-R7","2018/08/13 17:59:44","新北市新莊區中山路三段551號","121.412418333333","25.027015","6500500","新莊區"
"242025","705-TV","2018/08/13 17:59:48","新北市新莊區五工路58號","121.458818333333","25.062845","6500500","新莊區"
"242027","615-BX","2018/08/13 17:59:39","新北市新莊區思源路338號","121.46003","25.05114","6500500","新莊區"
"242042","566-BX","2018/08/13 17:59:48","新北市新莊區壽山路31號","121.42003","25.029","6500500","新莊區"
"242046","497-BY","2018/08/13 17:59:48","新北市新莊區福營路227巷31號","121.430213333333","25.029005","6500500","新莊區"
"242053","442-UM","2018/08/13 17:59:38","新北市新莊區民安西路327巷4弄19號","121.428748333333","25.0112266666667","6500500","新莊區"
"242050","441-UM","2018/08/13 17:59:37","新北市新莊區西盛街153巷1號","121.4284","25.0181083333333","6500500","新莊區"
"242056","440-UM","2018/08/13 17:59:45","新北市新莊區豐年街124巷18號","121.4455","25.029895","6500500","新莊區"
"242036","415-TV","2018/08/13 17:59:50","新北市新莊區建福路38號","121.426423333333","25.0282333333333","6500500","新莊區"
"242007","413-TV","2018/08/13 17:59:51","新北市新莊區自信街24號","121.454038333333","25.0482733333333","6500500","新莊區"
"242044","400-BY","2018/08/13 17:59:48","新北市新莊區雙鳳路23號","121.416738333333","25.02694","6500500","新莊區"
"242023","362-BY","2018/08/13 17:59:52","新北市新莊區福壽街70號","121.458301666667","25.0492616666667","6500500","新莊區"
"242060","353-BY","2018/08/13 17:59:43","新北市新莊區新樹路327號","121.433191666667","25.0189166666667","6500500","新莊區"
"242009","132-UY","2018/08/13 17:59:51","新北市新莊區昌平街59巷34號","121.453788333333","25.0532266666667","6500500","新莊區"
"242039","133-UY","2018/08/13 17:59:46","新北市新莊區民安西路24巷18弄1號","121.42611","25.020785","6500500","新莊區"
"242031","135-UY","2018/08/13 17:59:52","新北市新莊區新泰路289巷6號","121.445118333333","25.04064","6500500","新莊區"
"242048","172-VK","2018/08/13 17:59:51","新北市新莊區後港二路10號","121.42289","25.0240433333333","6500500","新莊區"
"242011","173-VK","2018/08/13 17:57:51","新北市新莊區中港路642號","121.450955","25.0554483333333","6500500","新莊區"
"242017","175-VK","2018/08/13 17:59:37","新北市新莊區永樂街112號","121.449903333333","25.0449866666667","6500500","新莊區"
"242004","176-VK","2018/08/13 17:59:41","新北市新莊區福樂街72巷14號","121.458563333333","25.0465816666667","6500500","新莊區"
"242013","347-TH","2018/08/13 17:59:54","新北市泰山區信華六街23號","121.4419","25.04433","6500500","新莊區"
"242021","348-TH","2018/08/13 17:59:47","新北市新莊區建興街6號","121.450198333333","25.036585","6500500","新莊區"
"242002","349-TH","2018/08/13 17:59:56","新北市新莊區中正路163號","121.455056666667","25.0366466666667","6500500","新莊區"
"242019","350-TH","2018/08/13 17:59:45","新北市新莊區明中街43巷29號","121.456995","25.038525","6500500","新莊區"
"238015","755-BX","2018/08/13 17:59:57","新北市樹林區文德街3巷41號","121.417963333333","24.9917566666667","6500700","樹林區"
"238023","601-UM","2018/08/13 17:59:53","新北市樹林區龍興街59巷4號","121.403696666667","25.0152833333333","6500700","樹林區"
"238019","599-UM","2018/08/13 17:59:38","新北市樹林區信義街82號","121.425105","24.9828466666667","6500700","樹林區"
"238018","571-TV","2018/08/13 17:59:54","新北市樹林區樹新路200號","121.431283333333","25.0002866666667","6500700","樹林區"
"238024","5061-A6","2018/08/13 17:59:41","新北市樹林區中山路三段337-1號","121.390598333333","24.9712","6500700","樹林區"
"238022","KEA-2213","2018/08/13 17:59:40","新北市樹林區太平路225巷2號","121.418576666667","24.9770216666667","6500700","樹林區"
"238021","KEA-2539","2018/08/13 17:59:41","新北市樹林區柑園街一段33巷7號","121.404173333333","24.9591816666667","6500700","樹林區"
"238025","303-VK","2018/08/13 17:59:38","新北市樹林區三俊街14號","121.411183333333","25.015445","6500700","樹林區"
"238017","283-BY","2018/08/13 17:59:47","新北市樹林區中正路849號","121.409028333333","25.017765","6500700","樹林區"
"238014","282-BY","2018/08/13 17:59:48","新北市樹林區大安路125巷5號","121.422761666667","24.9971483333333","6500700","樹林區"
"238020","268-VK","2018/08/13 17:59:45","新北市樹林區三俊街157號","121.419075","25.0156316666667","6500700","樹林區"
"238026","172-UY","2018/08/13 17:59:22","新北市樹林區育德街25號","121.392133333333","24.970355","6500700","樹林區"
"238016","169-UY","2018/08/13 17:59:49","新北市樹林區日新街154號","121.42022","24.9885616666667","6500700","樹林區"
"239007","AAC-297","2018/08/13 17:59:53","新北市鶯歌區鶯桃路94巷33-2號","121.34199","24.9548316666667","6500800","鶯歌區"
"239006","891-R6","2018/08/13 17:59:57","新北市鶯歌區鶯桃路455巷8弄15號","121.330993333333","24.9641833333333","6500800","鶯歌區"
"239008","527-UM","2018/08/13 17:59:51","新北市鶯歌區國際一路78號","121.335566666667","24.9779016666667","6500800","鶯歌區"
"239005","526-UM","2018/08/13 17:59:44","新北市鶯歌區鶯桃路658巷49-2號","121.330946666667","24.97035","6500800","鶯歌區"
"239001","417-VK","2018/08/13 17:59:34","新北市鶯歌區中正三路156巷1號","121.334008333333","24.9387083333333","6500800","鶯歌區"
"239003","360-BY","2018/08/13 17:59:44","新北市鶯歌區永吉街7巷1號","121.336693333333","24.9586133333333","6500800","鶯歌區"
"239002","359-BY","2018/08/13 17:59:50","新北市鶯歌區光明街100號","121.346086666667","24.955865","6500800","鶯歌區"
"221008","489-VK","2018/08/13 17:59:44","新北市汐止區明峰街15號","121.634908333333","25.071415","6501100","汐止區"
"221036","130-UY","2018/08/13 17:59:49","新北市汐止區大同路三段62巷1號","121.667636666667","25.0770533333333","6501100","汐止區"
"221015","131-UY","2018/08/13 17:59:43","新北市汐止區長江街271號","121.66452","25.0805283333333","6501100","汐止區"
"221010","269-BY","2018/08/13 17:59:45","新北市汐止區汐萬路二段245巷29號","121.644401666667","25.087515","6501100","汐止區"
"221012","278-VK","2018/08/13 17:59:50","新北市汐止區長興街二段50巷10號","121.674515","25.0811916666667","6501100","汐止區"
"221023","279-VK","2018/08/13 17:59:55","新北市汐止區明峰街145號","121.629543333333","25.0706316666667","6501100","汐止區"
"221032","280-BY","2018/08/13 17:59:55","新北市汐止區橫科路73巷2-1號","121.61939","25.0508166666667","6501100","汐止區"
"221027","281-BY","2018/08/13 17:59:42","新北市汐止區大同路二段389號","121.657773333333","25.06721","6501100","汐止區"
"221029","298-VK","2018/08/13 17:59:54","新北市汐止區樟樹二路338號","121.641583333333","25.070525","6501100","汐止區"
"221002","129-UY","2018/08/13 17:59:48","新北市汐止區中興路62號","121.635421666667","25.0613866666667","6501100","汐止區"
"221035","622-UM","2018/08/13 17:59:47","新北市汐止區新江北路30巷30弄9號","121.651203333333","25.0697083333333","6501100","汐止區"
"221025","623-UM","2018/08/13 17:59:49","新北市汐止區仁愛路35號","121.659481666667","25.0636","6501100","汐止區"
"221038","646-BX","2018/08/13 17:59:46","新北市汐止區連興街128巷7弄9號","121.653541666667","25.0612366666667","6501100","汐止區"
"221033","647-BX","2018/08/13 17:59:51","台北市南港區合順街8巷3弄54號","121.619695","25.0427066666667","6501100","汐止區"
"221018","753-BX","2018/08/13 17:59:55","新北市汐止區招商街11巷1號","121.666473333333","25.06895","6501100","汐止區"
"242015","281-VK","2018/08/13 17:59:51","新北市新莊區中平路87巷10號","121.444135","25.0458716666667","6500500","新莊區"
"242034","280-VK","2018/08/13 17:59:50","新北市新莊區新莊路765號","121.442426666667","25.03261","6500500","新莊區"
