"lineid","car","time","location","longitude","latitude","cityid","cityname"
"234026","9371-KE","2018/08/13 18:09:36","新北市永和區秀朗路一段10巷19號","121.51344","25.00614","6500400","永和區"
"234011","9373-KE","2018/08/13 18:09:51","新北市永和區福和路1號","121.525333333333","25.0093366666667","6500400","永和區"
"249005","172-UM","2018/08/13 18:09:52","新北市八里區荖阡坑路15-40號","121.40173","25.1397666666667","6502300","八里區"
"249001","173-UM","2018/08/13 18:09:47","新北市八里區龍米路二段26號","121.44886","25.1393533333333","6502300","八里區"
"249004","303-UY","2018/08/13 18:09:48","新北市八里區渡船頭24-4號","121.437416666667","25.1554533333333","6502300","八里區"
"249002","305-UY","2018/08/13 18:09:39","新北市八里區龍米路一段356巷48號","121.452085","25.1302466666667","6502300","八里區"
"249003","593-UM","2018/08/13 18:09:44","新北市八里區松子腳3-2號","121.402983333333","25.14431","6502300","八里區"
"248016","026-BX","2018/08/13 18:09:43","新北市五股區新五路三段1號","121.44449","25.0892833333333","6501500","五股區"
"248006","077-UY","2018/08/13 18:09:41","新北市五股區中興路二段81號","121.46081","25.0772216666667","6501500","五股區"
"248008","095-VK","2018/08/13 18:09:52","新北市五股區中興路二段182巷15弄13號","121.457125","25.0813133333333","6501500","五股區"
"248018","225-UY","2018/08/13 18:09:52","新北市五股區成泰路三段79號","121.44364","25.08992","6501500","五股區"
"248012","247-BX","2018/08/13 18:09:43","新北市五股區中興路三段196號","121.442208333333","25.0818116666667","6501500","五股區"
"248014","261-SL","2018/08/13 18:09:45","新北市五股區成泰路一段231-32號","121.434988333333","25.0779266666667","6501500","五股區"
"248004","677-BX","2018/08/13 18:09:43","新北市五股區成泰路二段138號","121.438123333333","25.0837633333333","6501500","五股區"
"248002","678-BX","2018/08/13 18:09:48","新北市五股區中興路三段196號","121.441866666667","25.081885","6501500","五股區"
"248010","682-TV","2018/08/13 18:09:34","新北市五股區新五路二段258號","121.440828333333","25.08222","6501500","五股區"
"232011","375-UM","2018/08/13 18:09:41","新北市坪林區水柳腳18號","121.7112","24.9356316666667","6502000","坪林區"
"244007","080-UY","2018/08/13 18:09:38","新北市林口區林口路94號","121.388876666667","25.0810266666667","6501700","林口區"
"244019","403-UM","2018/08/13 18:09:43","新北市林口區忠孝路559號","121.372755","25.0682766666667","6501700","林口區"
"244013","KEA-2802","2018/08/13 18:09:51","新北市林口區中山路158號","121.390635","25.0788066666667","6501700","林口區"
"244009","410-SL","2018/08/13 18:09:55","新北市林口區中山路260號","121.385013333333","25.07978","6501700","林口區"
"244023","483-VK","2018/08/13 18:09:40","新北市林口區東湖路153巷151號","121.382318333333","25.0737133333333","6501700","林口區"
"244017","485-VK","2018/08/13 18:09:40","新北市林口區忠孝路508號","121.370866666667","25.0699383333333","6501700","林口區"
"244011","657-BX","2018/08/13 18:09:27","新北市林口區中正路74巷3弄2號","121.394593333333","25.0777233333333","6501700","林口區"
"244025","837-TS","2018/08/13 18:09:44","新北市林口區忠孝三路一段118號","121.358976666667","25.0715766666667","6501700","林口區"
"244021","838-TS","2018/08/13 18:09:42","新北市林口區中正路17號","121.396803333333","25.0774416666667","6501700","林口區"
"243013","AAD-798","2018/08/13 18:09:42","新北市泰山區南林路99巷1-1號","121.415428333333","25.0508933333333","6501600","泰山區"
"222003","436-BY","2018/08/13 18:09:36","新北市深坑區阿柔洋45號","121.612326666667","24.9980483333333","6501800","深坑區"
"222002","659-BX","2018/08/13 18:09:48","新北市深坑區文化街54號","121.618925","25.0018","6501800","深坑區"
"231041","002-UM","2018/08/13 18:09:53","新北市新店區安華路28-1號","121.519928333333","24.96074","6500600","新店區"
"231040","047-UY","2018/08/13 18:09:39","新北市新店區安一路一段1-1號","121.51903","24.9609666666667","6500600","新店區"
"231046","107-UY","2018/08/13 18:09:41","新北市新店區直潭七街60號","121.532286666667","24.939805","6500600","新店區"
"231047","187-VK","2018/08/13 18:09:43","新北市新店區安一路一段1-1號","121.519536666667","24.961135","6500600","新店區"
"231054","KEA-2219","2018/08/13 18:09:40","新北市新店區安一路一段1-1號","121.520006666667","24.9611583333333","6500600","新店區"
"221031","KEA-2785","2018/08/13 18:09:39","新北市汐止區中興路171-1號","121.630813333333","25.066445","6501100","汐止區"
"231042","268-BY","2018/08/13 18:09:47","新北市新店區安華路1-1號","121.51943","24.96036","6500600","新店區"
"231050","AAD-862","2018/08/13 18:09:55","新北市新店區安一路一段1-1號","121.519821666667","24.9613116666667","6500600","新店區"
"231043","355-BY","2018/08/13 18:09:38","新北市新店區安華路28-1號","121.519015","24.9606516666667","6500600","新店區"
"231058","3713-VJ","2018/08/13 18:09:50","新北市新店區安華路3號","121.5189","24.9605116666667","6500600","新店區"
"231066","4716-K9","2018/08/13 18:09:36","新北市新店區安一路一段1-1號","121.519195","24.961115","6500600","新店區"
"231056","4715-K9","2018/08/13 18:09:42","新北市新店區安康路一段94號","121.527731666667","24.9621016666667","6500600","新店區"
"231049","513-UM","2018/08/13 18:09:47","新北市新店區安一路一段1-1號","121.51963","24.9611883333333","6500600","新店區"
"231061","619-UM","2018/08/13 18:09:45","新北市新店區安華路1-1號","121.519518333333","24.9605066666667","6500600","新店區"
"231063","641-BX","2018/08/13 18:09:52","新北市新店區安華路1-1號","121.519545","24.9604916666667","6500600","新店區"
"231064","719-UM","2018/08/13 18:09:50","新北市新店區安一路一段1-1號","121.519435","24.9610566666667","6500600","新店區"
"231062","720-UM","2018/08/13 18:09:56","新北市新店區安一路一段1-1號","121.519098333333","24.96166","6500600","新店區"
"231060","897-TW","2018/08/13 18:09:51","新北市新店區安華路28-1號","121.519865","24.9605933333333","6500600","新店區"
"231055","AKT-0513","2018/08/13 18:09:52","新北市新店區安華路28-1號","121.519831666667","24.96074","6500600","新店區"
"241006","AAD-863","2018/08/13 18:09:56","新北市五股區中興路二段182巷5號","121.456808333333","25.07865","6500200","三重區"
"241033","AAC-255","2018/08/13 18:09:41","新北市三重區中興北街133-1號","121.46935","25.050585","6500200","三重區"
"235066","003-UY","2018/08/13 18:09:44","新北市中和區中正路256號","121.495496666667","24.99398","6500300","中和區"
"235064","005-UY","2018/08/13 18:09:51","新北市中和區中正路277-6號","121.495203333333","24.993795","6500300","中和區"
"235063","006-UY","2018/08/13 18:09:47","新北市中和區員山路36巷16-3號","121.485148333333","24.9912","6500300","中和區"
"235056","096-UM","2018/08/13 18:09:51","新北市中和區連城路469巷89號","121.48463","24.9936683333333","6500300","中和區"
"235065","098-UM","2018/08/13 18:09:43","新北市中和區莊敬路49巷18號","121.501631666667","25.00617","6500300","中和區"
"235058","151-BY","2018/08/13 18:09:45","新北市中和區圓通路367巷62-8號","121.493073333333","24.9831783333333","6500300","中和區"
"235055","183-VK","2018/08/13 18:09:53","新北市中和區員山路36巷16-3號","121.484993333333","24.9914166666667","6500300","中和區"
"235038","185-VK","2018/08/13 18:09:50","新北市中和區大智街15號","121.519796666667","24.9919066666667","6500300","中和區"
"235067","255-BX","2018/08/13 18:09:38","新北市中和區和城路一段271巷1號","121.485716666667","24.9918183333333","6500300","中和區"
"235044","293-VK","2018/08/13 18:09:53","新北市中和區員山路36巷16-3號","121.485091666667","24.9913966666667","6500300","中和區"
"235042","KEA-2878","2018/08/13 18:09:41","新北市中和區中正路589巷15號","121.485736666667","24.9933533333333","6500300","中和區"
"235050","4979-A6","2018/08/13 18:09:47","新北市中和區中正路395號","121.4899","24.9936016666667","6500300","中和區"
"235070","558-UM","2018/08/13 18:09:48","新北市中和區錦和路350-1號","121.490436666667","24.9936083333333","6500300","中和區"
"235045","565-BX","2018/08/13 18:09:50","新北市中和區錦和路350-1號","121.490533333333","24.9936183333333","6500300","中和區"
"235054","640-BX","2018/08/13 18:09:50","新北市中和區莒光路200號","121.472195","24.9984183333333","6500300","中和區"
"235047","732-UM","2018/08/13 18:09:40","新北市中和區中正路250號","121.495656666667","24.99403","6500300","中和區"
"235057","801-TS","2018/08/13 18:09:53","新北市中和區員山路36巷16-3號","121.485138333333","24.9914116666667","6500300","中和區"
"235052","805-TS","2018/08/13 18:09:41","新北市中和區中正路273號","121.495716666667","24.9937816666667","6500300","中和區"
"235051","157-BY","2018/08/13 18:09:47","新北市中和區南山路156號","121.504321666667","24.9919916666667","6500300","中和區"
"235037","AAC-213","2018/08/13 18:09:54","新北市中和區景平路265號","121.50825","24.9929066666667","6500300","中和區"
"226004","312-R5","2018/08/13 18:09:46","新北市平溪區薯榔里薯榔寮26號","121.714731666667","25.019585","6502400","平溪區"
"228003","097-TW","2018/08/13 18:09:40","新北市貢寮區真理里美艷山街6-2號","121.928831666667","25.0607366666667","6502600","貢寮區"
"228001","212-TW","2018/08/13 18:09:38","新北市貢寮區真理里新港街26巷55弄2-1號","121.927363333333","25.052845","6502600","貢寮區"
"228002","663-BX","2018/08/13 18:09:52","新北市貢寮區福連里福連街1號","121.988308333333","25.0165383333333","6502600","貢寮區"
"224010","AGQ-8101","2018/08/13 18:02:52","新北市瑞芳區金光路334號","121.84817","25.1095183333333","6501200","瑞芳區"
"224006","676-BX","2018/08/13 18:09:42","新北市瑞芳區中山路157號","121.802095","25.1065016666667","6501200","瑞芳區"
"224002","639-TC","2018/08/13 18:09:35","新北市瑞芳區三爪子坑路48號","121.810656666667","25.1057416666667","6501200","瑞芳區"
"224008","285-BY","2018/08/13 18:09:53","新北市瑞芳區員山子路23號","121.82138","25.103025","6501200","瑞芳區"
"224007","275-VK","2018/08/13 18:09:52","新北市瑞芳區四腳亭坑路2-4號","121.77599","25.1093666666667","6501200","瑞芳區"
"224009","273-VK","2018/08/13 18:09:42","新北市瑞芳區金光路207號","121.852903333333","25.1068683333333","6501200","瑞芳區"
"224005","271-BY","2018/08/13 18:09:49","新北市瑞芳區深澳路67-1號","121.818191666667","25.1301383333333","6501200","瑞芳區"
"227001","642-TC","2018/08/13 18:09:46","新北市雙溪區共和里東榮街52號","121.866303333333","25.0337166666667","6502500","雙溪區"
"253005","032-BX","2018/08/13 18:09:50","新北市石門區福安街11號","121.568501666667","25.29272","6502200","石門區"
"253006","295-VK","2018/08/13 18:09:53","新北市石門區老梅路52巷21號","121.546415","25.2883966666667","6502200","石門區"
"222001","KEA-2212","2018/08/13 18:09:45","新北市深坑區北深路二段188號","121.613938333333","25.00226","6501800","深坑區"
"208002","KEA-2872","2018/08/13 18:09:24","新北市金山區三界壇路99巷14號","121.620435","25.22768","6502700","金山區"
"208003","665-BX","2018/08/13 18:09:41","新北市金山區磺港里磺港路56號","121.647435","25.22809","6502700","金山區"
"208001","761-BX","2018/08/13 18:09:48","新北市金山區磺港里磺港路110號","121.64632","25.22686","6502700","金山區"
"251005","010-UM","2018/08/13 18:09:52","新北市淡水區水源街一段139號","121.447186666667","25.1718783333333","6501000","淡水區"
"251001","011-UM","2018/08/13 18:09:38","新北市淡水區自立路10號","121.463101666667","25.129805","6501000","淡水區"
"251013","KEA-2871","2018/08/13 18:09:42","新北市淡水區口湖子6號","121.476178333333","25.1914483333333","6501000","淡水區"
"251016","179-VK","2018/08/13 18:09:50","新北市淡水區下圭柔山15號","121.453033333333","25.20216","6501000","淡水區"
"251014","180-VK","2018/08/13 18:09:43","新北市淡水區南平15號","121.48852","25.2189383333333","6501000","淡水區"
"251015","181-VK","2018/08/13 18:09:40","新北市淡水區興福寮88巷1號","121.485365","25.164995","6501000","淡水區"
"251010","413-VK","2018/08/13 18:09:40","新北市淡水區淡海路168-1號","121.420623333333","25.1834566666667","6501000","淡水區"
"251012","441-VK","2018/08/13 18:09:49","新北市淡水區北新路三段180號","121.49285","25.1928833333333","6501000","淡水區"
"251008","442-VK","2018/08/13 18:09:53","新北市淡水區中正東路二段5巷1號","121.45859","25.1591083333333","6501000","淡水區"
"251004","443-VK","2018/08/13 18:09:49","新北市淡水區民族路110巷28號","121.461721666667","25.1354166666667","6501000","淡水區"
"251006","561-UM","2018/08/13 18:09:50","新北市淡水區真理街3巷24-1號","121.43784","25.1765316666667","6501000","淡水區"
"251009","575-R6","2018/08/13 18:09:39","新北市淡水區大忠街34巷15號","121.443856666667","25.17575","6501000","淡水區"
"251011","650-BX","2018/08/13 18:09:39","新北市淡水區三空泉9-2號","121.474106666667","25.1635033333333","6501000","淡水區"
"251002","672-BX","2018/08/13 18:09:46","新北市淡水區中正東路一段127巷2號","121.455521666667","25.1593916666667","6501000","淡水區"
"251003","766-UM","2018/08/13 18:09:47","新北市淡水區大忠街113巷20號","121.447293333333","25.1775533333333","6501000","淡水區"
"207003","550-UM","2018/08/13 18:09:44","新北市萬里區野柳里港西路74號","121.685666666667","25.2049983333333","6502800","萬里區"
"207004","225-TW","2018/08/13 18:09:53","新北市萬里區中幅里中福路112-1號","121.675908333333","25.1675116666667","6502800","萬里區"
"252002","178-VK","2018/08/13 18:09:50","新北市三芝區中山路二段39號","121.502916666667","25.2551033333333","6502100","三芝區"
"252003","249-BX","2018/08/13 18:09:42","新北市三芝區埔頭里埔頭37號","121.49843","25.2603266666667","6502100","三芝區"
"252001","292-VK","2018/08/13 18:09:39","新北市三芝區中興街二段2號","121.498378333333","25.2566716666667","6502100","三芝區"
"237007","153-BY","2018/08/13 18:09:41","新北市三峽區中正路二段370巷81號","121.364196666667","24.9116733333333","6500900","三峽區"
"237009","210-TH","2018/08/13 18:09:37","新北市三峽區大仁路50巷21號","121.365188333333","24.9382883333333","6500900","三峽區"
"237013","252-BX","2018/08/13 18:09:37","新北市三峽區介壽路一段193-1號","121.37813","24.9310366666667","6500900","三峽區"
"237012","275-BY","2018/08/13 18:09:53","新北市三峽區民生街1巷1-17號","121.377706666667","24.9359016666667","6500900","三峽區"
"237008","302-VK","2018/08/13 18:09:44","新北市三峽區白雞64-2號","121.385465","24.9127216666667","6500900","三峽區"
"237014","433-BY","2018/08/13 18:09:44","新北市三峽區復興路111號","121.371858333333","24.9379583333333","6500900","三峽區"
"237006","5529-G3","2018/08/13 18:09:45","新北市三峽區介壽路二段138巷1弄92號","121.398626666667","24.9324283333333","6500900","三峽區"
"237011","KEA-2596","2018/08/13 18:09:48","新北市三峽區大同路12號","121.378043333333","24.9297216666667","6500900","三峽區"
"237015","649-BX","2018/08/13 18:09:44","新北市三峽區紫新路32巷1號","121.422241666667","24.9220483333333","6500900","三峽區"
"237010","706-TV","2018/08/13 18:09:51","新北市三峽區民權街200號","121.367688333333","24.9291933333333","6500900","三峽區"
"237005","AKY-6261","2018/08/13 18:09:37","新北市三峽區文化路65巷12號","121.371961666667","24.9354966666667","6500900","三峽區"
"236069","105-UM","2018/08/13 18:09:34","新北市土城區明德路一段369號","121.45583","24.9778416666667","6501300","土城區"
"236042","107-UM","2018/08/13 18:09:40","新北市土城區中華路二段2號","121.439415","24.979625","6501300","土城區"
"236078","166-UM","2018/08/13 18:09:44","新北市土城區永寧路30-1號","121.429393333333","24.96078","6501300","土城區"
"236030","253-BX","2018/08/13 18:09:47","新北市土城區城林路6巷80號","121.43868","24.9796566666667","6501300","土城區"
"236026","269-VK","2018/08/13 18:09:38","新北市土城區承天路18號","121.439511666667","24.963435","6501300","土城區"
"236014","270-VK","2018/08/13 18:09:47","新北市土城區城林路6巷80號","121.438348333333","24.9795166666667","6501300","土城區"
"236039","271-VK","2018/08/13 18:09:52","新北市土城區中正路82號","121.445368333333","24.97569","6501300","土城區"
"236020","401-BY","2018/08/13 18:09:42","新北市土城區城林路6巷80號","121.438356666667","24.9796316666667","6501300","土城區"
"236059","912-UM","2018/08/13 18:09:41","新北市土城區中央路四段218號","121.415636666667","24.95733","6501300","土城區"
"236048","913-UM","2018/08/13 18:09:50","新北市土城區明德路一段365-1號","121.453556666667","24.9790416666667","6501300","土城區"
"236063","915-UM","2018/08/13 18:09:47","新北市土城區金城路二段52-1號","121.451781666667","24.979335","6501300","土城區"
"236055","AAC-216","2018/08/13 18:09:52","新北市土城區城林路6巷80號","121.438458333333","24.9795716666667","6501300","土城區"
"242058","986-R7","2018/08/13 18:09:43","新北市新莊區新北大道七段239號","121.413005","25.0297216666667","6500500","新莊區"
"242025","705-TV","2018/08/13 18:09:48","新北市新莊區五權一路11-1號","121.459448333333","25.0676283333333","6500500","新莊區"
"242027","615-BX","2018/08/13 18:09:39","新北市新莊區幸福路515號","121.455615","25.0491766666667","6500500","新莊區"
"242042","566-BX","2018/08/13 18:09:44","新北市新莊區天祥街135巷8弄2號","121.4137","25.0293833333333","6500500","新莊區"
"242046","497-BY","2018/08/13 18:09:43","新北市新莊區福營路338號","121.421615","25.0267916666667","6500500","新莊區"
"242053","442-UM","2018/08/13 18:09:38","新北市新莊區民安西路368號","121.427601666667","25.0109633333333","6500500","新莊區"
"242050","441-UM","2018/08/13 18:09:35","新北市新莊區民本街11巷2弄30號","121.42918","25.019995","6500500","新莊區"
"242056","440-UM","2018/08/13 18:09:52","新北市新莊區泰豐街1巷12號","121.44804","25.0311283333333","6500500","新莊區"
"242036","415-TV","2018/08/13 18:09:50","新北市新莊區後港一路65巷9弄7號","121.4258","25.02677","6500500","新莊區"
"242007","413-TV","2018/08/13 18:09:51","新北市新莊區自立街79巷12號","121.454456666667","25.0458666666667","6500500","新莊區"
"242044","400-BY","2018/08/13 18:09:48","新北市新莊區雙鳳路143號","121.413093333333","25.0271166666667","6500500","新莊區"
"242023","362-BY","2018/08/13 18:09:51","新北市新莊區幸福路912號","121.442735","25.0490183333333","6500500","新莊區"
"242060","353-BY","2018/08/13 18:09:43","新北市新莊區新樹路79號","121.437778333333","25.02753","6500500","新莊區"
"242009","132-UY","2018/08/13 18:09:51","新北市新莊區中華路二段210巷22號","121.45364","25.0524483333333","6500500","新莊區"
"242039","133-UY","2018/08/13 18:09:54","新北市新莊區民安東路157號","121.432828333333","25.020475","6500500","新莊區"
"242031","135-UY","2018/08/13 18:09:52","新北市新莊區新泰路277巷11號","121.445188333333","25.0402983333333","6500500","新莊區"
"242048","172-VK","2018/08/13 18:09:51","新北市新莊區民安路49號","121.423895","25.026255","6500500","新莊區"
"242011","173-VK","2018/08/13 18:09:51","新北市新莊區中信街86號","121.44787","25.0532366666667","6500500","新莊區"
"242017","175-VK","2018/08/13 18:09:37","新北市新莊區永樂街4號","121.45215","25.0451916666667","6500500","新莊區"
"242004","176-VK","2018/08/13 18:09:41","新北市新莊區自由街34號","121.455901666667","25.0465316666667","6500500","新莊區"
"242021","348-TH","2018/08/13 18:09:47","新北市新莊區新興街45巷1號","121.450581666667","25.0390083333333","6500500","新莊區"
"242002","349-TH","2018/08/13 18:09:50","新北市新莊區新莊路26號","121.45848","25.03719","6500500","新莊區"
"242019","350-TH","2018/08/13 18:09:45","新北市新莊區中港路132巷12號","121.455828333333","25.0407066666667","6500500","新莊區"
"238015","755-BX","2018/08/13 18:09:57","新北市樹林區文德街2巷1號","121.419306666667","24.9914066666667","6500700","樹林區"
"238023","601-UM","2018/08/13 18:09:50","新北市樹林區三福街85巷8號","121.407005","25.0154716666667","6500700","樹林區"
"238019","599-UM","2018/08/13 18:09:38","新北市樹林區忠孝街103號","121.424508333333","24.9808233333333","6500700","樹林區"
"238018","571-TV","2018/08/13 18:09:54","新北市樹林區博愛一街25號","121.425471666667","24.990985","6500700","樹林區"
"238024","5061-A6","2018/08/13 18:09:41","新北市樹林區大安路251號","121.419286666667","24.99416","6500700","樹林區"
"238021","KEA-2539","2018/08/13 18:09:41","新北市樹林區柑園街二段22號","121.387603333333","24.9556483333333","6500700","樹林區"
"238025","303-VK","2018/08/13 18:09:53","新北市樹林區保安街一段329號","121.417338333333","24.9987083333333","6500700","樹林區"
"238017","283-BY","2018/08/13 18:09:47","新北市樹林區保安街二段210號","121.412525","25.0106866666667","6500700","樹林區"
"238014","282-BY","2018/08/13 18:09:48","新北市樹林區千歲街61巷40弄3號","121.425743333333","24.9988583333333","6500700","樹林區"
"238020","268-VK","2018/08/13 18:09:44","新北市樹林區三俊街65巷18弄38號","121.415078333333","25.01718","6500700","樹林區"
"238026","172-UY","2018/08/13 18:09:43","新北市樹林區佳園路一段105號","121.393571666667","24.9694283333333","6500700","樹林區"
"238016","169-UY","2018/08/13 18:09:49","新北市樹林區文化街21號","121.419398333333","24.987445","6500700","樹林區"
"239007","AAC-297","2018/08/13 18:09:53","新北市鶯歌區尖山埔路189號","121.345503333333","24.9506133333333","6500800","鶯歌區"
"239006","891-R6","2018/08/13 18:09:57","新北市鶯歌區鶯桃路381巷2弄5號","121.333141666667","24.9635533333333","6500800","鶯歌區"
"239008","527-UM","2018/08/13 18:09:51","新北市鶯歌區朝陽街59號","121.338091666667","24.97837","6500800","鶯歌區"
"239005","526-UM","2018/08/13 18:09:43","新北市鶯歌區鶯桃路668巷69弄6號","121.329833333333","24.971865","6500800","鶯歌區"
"239001","417-VK","2018/08/13 18:09:54","新北市鶯歌區國中街19號","121.342101666667","24.9425716666667","6500800","鶯歌區"
"239003","360-BY","2018/08/13 18:09:44","新北市鶯歌區福安街32巷36號","121.335365","24.9635016666667","6500800","鶯歌區"
"239002","359-BY","2018/08/13 18:09:50","新北市鶯歌區中山路249巷8弄2號","121.346748333333","24.9565483333333","6500800","鶯歌區"
"221008","489-VK","2018/08/13 18:09:44","新北市汐止區康寧街307巷1弄10號","121.626933333333","25.0680083333333","6501100","汐止區"
"221036","130-UY","2018/08/13 18:09:49","新北市汐止區大同路三段121號","121.668753333333","25.0777066666667","6501100","汐止區"
"221015","131-UY","2018/08/13 18:09:43","新北市汐止區長江街367號","121.668058333333","25.0824","6501100","汐止區"
"221010","269-BY","2018/08/13 18:09:45","新北市汐止區汐萬路二段275巷3弄1號","121.645266666667","25.0887883333333","6501100","汐止區"
"221012","278-VK","2018/08/13 18:09:50","新北市汐止區保一街47-2號","121.674583333333","25.08026","6501100","汐止區"
"221023","279-VK","2018/08/13 18:09:54","新北市汐止區明峰街185號","121.62834","25.0698","6501100","汐止區"
"221032","280-BY","2018/08/13 18:09:55","新北市汐止區力行街15號","121.617103333333","25.0509016666667","6501100","汐止區"
"221027","281-BY","2018/08/13 18:09:42","新北市汐止區大同路二段585號","121.663768333333","25.0703466666667","6501100","汐止區"
"221029","298-VK","2018/08/13 18:09:54","新北市汐止區樟樹二路134號","121.640018333333","25.0656116666667","6501100","汐止區"
"221002","129-UY","2018/08/13 18:09:53","新北市汐止區福德一路213號","121.634765","25.06536","6501100","汐止區"
"221035","622-UM","2018/08/13 18:09:47","新北市汐止區大同路二段202號","121.653173333333","25.0648866666667","6501100","汐止區"
"221025","623-UM","2018/08/13 18:09:49","新北市汐止區秀峰路151巷1號","121.660655","25.06194","6501100","汐止區"
"221038","646-BX","2018/08/13 18:09:45","新北市汐止區莊敬街119巷11號","121.655395","25.0602483333333","6501100","汐止區"
"221033","647-BX","2018/08/13 18:09:51","新北市汐止區宜興街40巷22弄2號","121.622546666667","25.04118","6501100","汐止區"
"221018","753-BX","2018/08/13 18:09:55","新北市汐止區茄苳路43號","121.665813333333","25.0709483333333","6501100","汐止區"
"242015","281-VK","2018/08/13 18:09:51","新北市新莊區中和街59巷10弄14號","121.446883333333","25.0472283333333","6500500","新莊區"
"242034","280-VK","2018/08/13 18:09:50","新北市新莊區中正路421巷7號","121.444683333333","25.0339133333333","6500500","新莊區"
"220103","561-BX","2018/08/13 18:09:39","新北市板橋區富山街109巷87號","121.474865","25.0210466666667","6500100","板橋區"
"235068","KEA-2873","2018/08/13 18:09:26","新北市中和區員山路36巷16-3號","121.485163333333","24.9912083333333","6500300","中和區"
"235061","KEA-2875","2018/08/13 18:09:30","新北市土城區延壽路109巷2號","121.469126666667","24.99336","6500300","中和區"
