"lineid","car","time","location","longitude","latitude","cityid","cityname"
"234046","148-BY","2018/08/13 18:59:41","新北市永和區得和路373巷29號","121.525061666667","25.000325","6500400","永和區"
"234007","207-UY","2018/08/13 18:59:40","新北市永和區永和路二段74號","121.515038333333","25.0112283333333","6500400","永和區"
"234081","298-R6","2018/08/13 18:59:50","新北市永和區國中路208號","121.52222","25.0058766666667","6500400","永和區"
"234064","337-UY","2018/08/13 18:59:42","新北市永和區秀朗路一段146號","121.518158333333","25.0033933333333","6500400","永和區"
"234086","338-UY","2018/08/13 18:59:40","新北市永和區永利路20號","121.51807","25.0057483333333","6500400","永和區"
"234070","552-UM","2018/08/13 18:59:56","新北市永和區中興街68巷5弄1號","121.517678333333","25.0114533333333","6500400","永和區"
"234038","553-UM","2018/08/13 18:59:50","新北市永和區成功路二段207號","121.526523333333","24.9959833333333","6500400","永和區"
"234017","745-BX","2018/08/13 18:59:47","新北市永和區永和路二段308號","121.516215","25.015985","6500400","永和區"
"234030","746-BX","2018/08/13 18:59:50","新北市永和區秀朗路二段293號","121.526113333333","24.9979166666667","6500400","永和區"
"234054","KEA-2590","2018/08/13 18:59:41","新北市永和區竹林路64號","121.518263333333","25.0135283333333","6500400","永和區"
"234013","KEA-2591","2018/08/13 18:59:54","新北市永和區信義路19號","121.51408","25.011845","6500400","永和區"
"234061","AAD-866","2018/08/13 18:59:49","新北市永和區福和路307號","121.516251666667","25.007095","6500400","永和區"
"234042","862-TW","2018/08/13 18:59:25","新北市永和區永貞路267號","121.511916666667","25.0046916666667","6500400","永和區"
"234050","863-TW","2018/08/13 18:59:40","新北市永和區文化路208號","121.510266666667","25.016585","6500400","永和區"
"234026","9371-KE","2018/08/13 18:59:56","新北市永和區安樂路451號","121.514295","25.0049433333333","6500400","永和區"
"234011","9373-KE","2018/08/13 18:59:51","新北市永和區忠孝街34巷12弄1號","121.514561666667","25.0166966666667","6500400","永和區"
"249005","172-UM","2018/08/13 18:59:51","新北市八里區長道坑2號","121.393743333333","25.1245516666667","6502300","八里區"
"249001","173-UM","2018/08/13 18:59:47","新北市八里區龍米路二段228-2號","121.43265","25.1584466666667","6502300","八里區"
"248016","026-BX","2018/08/13 18:59:43","新北市五股區成泰路三段543巷18號","121.450945","25.1023166666667","6501500","五股區"
"248006","077-UY","2018/08/13 18:59:51","新北市五股區四維路80號","121.467426666667","25.0729516666667","6501500","五股區"
"248008","095-VK","2018/08/13 18:59:51","新北市五股區中興路二段9巷12號","121.463371666667","25.0731883333333","6501500","五股區"
"248018","225-UY","2018/08/13 18:59:52","新北市五股區民義路二段22巷26-2號","121.423856666667","25.09898","6501500","五股區"
"248012","247-BX","2018/08/13 18:59:43","新北市五股區工商路38號","121.439371666667","25.0836983333333","6501500","五股區"
"248004","677-BX","2018/08/13 18:59:41","新北市五股區民義路一段206號","121.430425","25.0889716666667","6501500","五股區"
"248002","678-BX","2018/08/13 18:59:48","新北市五股區凌雲路一段156巷1號","121.44899","25.1026316666667","6501500","五股區"
"248010","682-TV","2018/08/13 18:59:54","新北市五股區水碓七路26號","121.428886666667","25.0715216666667","6501500","五股區"
"234023","9380-KE","2018/08/13 18:59:57","新北市永和區竹林路75巷33弄21號","121.520871666667","25.0144233333333","6500400","永和區"
"234077","969-R7","2018/08/13 18:59:50","新北市永和區智光街32巷1號","121.51782","24.99878","6500400","永和區"
"234074","AAC-211","2018/08/13 18:59:49","新北市永和區環河東路二段100號","121.524105","25.010315","6500400","永和區"
"234067","AAC-212","2018/08/13 18:59:51","新北市永和區自由街47號","121.513968333333","25.0059916666667","6500400","永和區"
"234003","AAC-295","2018/08/13 18:59:53","新北市永和區和平街38號","121.513061666667","25.009925","6500400","永和區"
"232011","375-UM","2018/08/13 18:59:47","新北市坪林區水柳腳1號","121.711565","24.9352216666667","6502000","坪林區"
"244007","080-UY","2018/08/13 18:59:38","新北市林口區太平里12-2號","121.378358333333","25.1146816666667","6501700","林口區"
"244019","403-UM","2018/08/13 18:59:43","新北市林口區麗園二街1巷8號","121.37861","25.070155","6501700","林口區"
"244013","KEA-2802","2018/08/13 18:59:51","新北市林口區麗園一街11巷11號","121.378641666667","25.07063","6501700","林口區"
"244009","410-SL","2018/08/13 18:59:55","新北市林口區台電新村146號","121.388703333333","25.087555","6501700","林口區"
"244023","483-VK","2018/08/13 18:59:44","新北市林口區民權路10-1號","121.37141","25.0799166666667","6501700","林口區"
"244017","485-VK","2018/08/13 18:59:40","新北市林口區公園路131巷7號","121.368953333333","25.0706816666667","6501700","林口區"
"244011","657-BX","2018/08/13 18:59:47","新北市林口區中正路365號","121.387466666667","25.0777016666667","6501700","林口區"
"244025","837-TS","2018/08/13 18:59:44","新北市林口區南勢街128號","121.362643333333","25.07458","6501700","林口區"
"243013","AAD-798","2018/08/13 18:59:40","新北市泰山區明志路三段206巷1號","121.423481666667","25.0377666666667","6501600","泰山區"
"243009","297-R6","2018/08/13 18:59:53","新北市泰山區泰林路二段360號","121.428893333333","25.0636166666667","6501600","泰山區"
"243016","KEA-2801","2018/08/13 18:59:42","新北市泰山區明志路二段137號","121.427668333333","25.050625","6501600","泰山區"
"243015","421-VK","2018/08/13 18:59:52","新北市泰山區明志路一段223號","121.43263","25.0612216666667","6501600","泰山區"
"243011","KEA-2215","2018/08/13 18:59:43","新北市泰山區明志路二段254號","121.426921666667","25.0475283333333","6501600","泰山區"
"243010","KEA-2216","2018/08/13 18:59:50","新北市泰山區辭修路28號","121.429093333333","25.05837","6501600","泰山區"
"243012","646-TV","2018/08/13 18:59:55","新北市泰山區仁德路112號","121.43278","25.05687","6501600","泰山區"
"243014","680-BX","2018/08/13 18:59:55","新北市泰山區泰林路二段593號","121.421733333333","25.0635","6501600","泰山區"
"222003","436-BY","2018/08/13 18:59:36","新北市深坑區深南路51-1號","121.621353333333","25.01014","6501800","深坑區"
"222002","659-BX","2018/08/13 18:59:47","新北市深坑區文山路一段31巷2號","121.629873333333","25.0033133333333","6501800","深坑區"
"231045","001-UM","2018/08/13 18:59:55","新北市新店區光明街9號","121.538173333333","24.9592833333333","6500600","新店區"
"231041","002-UM","2018/08/13 18:59:53","新北市新店區環河路74號","121.537026666667","24.963145","6500600","新店區"
"231059","046-UY","2018/08/13 18:59:54","新北市新店區安華路28-1號","121.519638333333","24.9610183333333","6500600","新店區"
"231040","047-UY","2018/08/13 18:59:39","新北市新店區中正路394號","121.534595","24.977275","6500600","新店區"
"231044","106-UY","2018/08/13 18:59:41","新北市新店區寶中路72號","121.547818333333","24.9805733333333","6500600","新店區"
"231046","107-UY","2018/08/13 18:59:41","新北市新店區直潭六街39號","121.533153333333","24.940355","6500600","新店區"
"231052","110-UY","2018/08/13 18:59:45","新北市新店區屈尺路58號","121.54735","24.9227433333333","6500600","新店區"
"231047","187-VK","2018/08/13 18:59:43","新北市新店區德正街27巷14號","121.545196666667","24.9715216666667","6500600","新店區"
"231054","KEA-2219","2018/08/13 18:59:40","新北市新店區新店路13號","121.54027","24.9528316666667","6500600","新店區"
"221031","KEA-2785","2018/08/13 18:59:59","新北市汐止區福德二路156巷8號","121.630135","25.06544","6501100","汐止區"
"231042","268-BY","2018/08/13 18:59:46","新北市新店區中正路30號","121.544978333333","24.9699616666667","6500600","新店區"
"231051","278-BY","2018/08/13 18:59:42","新北市新店區百忍街31號","121.533705","24.975775","6500600","新店區"
"231050","AAD-862","2018/08/13 18:59:35","新北市新店區北宜路二段30巷5弄18號","121.548591666667","24.95072","6500600","新店區"
"231043","355-BY","2018/08/13 18:59:38","新北市新店區光明街179號","121.539608333333","24.96291","6500600","新店區"
"231058","3713-VJ","2018/08/13 18:59:50","新北市新店區中興路一段112-1號","121.54064","24.9613633333333","6500600","新店區"
"231066","4716-K9","2018/08/13 18:59:56","新北市新店區安豐路22巷15號","121.50294","24.9549366666667","6500600","新店區"
"231056","4715-K9","2018/08/13 18:59:42","新北市新店區建國路210-1號","121.537753333333","24.98105","6500600","新店區"
"231067","4772-VM","2018/08/13 18:59:47","新北市新店區安康路一段220號","121.523816666667","24.9635116666667","6500600","新店區"
"231065","512-UM","2018/08/13 18:59:42","新北市新店區安祥路156巷37號","121.474933333333","24.9540833333333","6500600","新店區"
"231049","513-UM","2018/08/13 18:59:27","新北市新店區中正路454-5號","121.534446666667","24.9790733333333","6500600","新店區"
"231061","619-UM","2018/08/13 18:59:45","新北市新店區安華路16號","121.517093333333","24.9581516666667","6500600","新店區"
"231063","641-BX","2018/08/13 18:59:52","新北市新店區安華路30巷3號","121.518925","24.9589266666667","6500600","新店區"
"231064","719-UM","2018/08/13 18:59:50","新北市新店區安一路一段1-1號","121.519665","24.9611833333333","6500600","新店區"
"231062","720-UM","2018/08/13 18:59:56","新北市新店區安豐路48號","121.500435","24.9541416666667","6500600","新店區"
"231060","897-TW","2018/08/13 18:59:51","新北市新店區安忠路57巷11弄14號","121.515225","24.9579383333333","6500600","新店區"
"231055","AKT-0513","2018/08/13 18:59:52","新北市新店區中央三街125號","121.524106666667","24.9765616666667","6500600","新店區"
"241026","066-VK","2018/08/13 18:59:41","新北市三重區泉州街106號","121.494891666667","25.0537533333333","6500200","三重區"
"241006","AAD-863","2018/08/13 18:59:36","新北市三重區車路頭街135-1號","121.484288333333","25.076165","6500200","三重區"
"241029","942-UM","2018/08/13 18:59:35","新北市三重區重安街24號","121.490353333333","25.0579666666667","6500200","三重區"
"235066","003-UY","2018/08/13 18:59:44","新北市中和區中山路二段131巷5弄3號","121.502826666667","25.0028366666667","6500300","中和區"
"235064","005-UY","2018/08/13 18:59:51","新北市中和區景平路634-11號","121.498741666667","24.9998883333333","6500300","中和區"
"235063","006-UY","2018/08/13 18:59:47","新北市中和區中正路578號","121.486263333333","24.9947233333333","6500300","中和區"
"235056","096-UM","2018/08/13 18:59:51","新北市中和區新民街94巷15號","121.481291666667","25.0089933333333","6500300","中和區"
"235039","097-UM","2018/08/13 18:59:41","新北市中和區安樂路207號","121.514435","24.9986283333333","6500300","中和區"
"235065","098-UM","2018/08/13 18:59:43","新北市中和區勝利路35巷1弄1號","121.498958333333","25.0074533333333","6500300","中和區"
"235004","150-BY","2018/08/13 18:59:54","新北市中和區宜安路17號","121.513078333333","24.9957233333333","6500300","中和區"
"235058","151-BY","2018/08/13 18:59:55","新北市中和區連城路428巷11號","121.479848333333","24.99552","6500300","中和區"
"235055","183-VK","2018/08/13 18:59:53","新北市中和區民德路25巷11號","121.469951666667","25.003185","6500300","中和區"
"235038","185-VK","2018/08/13 18:59:50","新北市中和區自強路62巷12號","121.519405","24.994625","6500300","中和區"
"235049","186-VK","2018/08/13 18:59:52","新北市中和區景安路169號","121.505301666667","24.9945083333333","6500300","中和區"
"235067","255-BX","2018/08/13 18:59:38","新北市中和區民樂路78號","121.48449","25.0011266666667","6500300","中和區"
"235044","293-VK","2018/08/13 18:59:53","新北市中和區中興街161巷10弄2號","121.501215","24.9908716666667","6500300","中和區"
"235072","301-VK","2018/08/13 18:59:40","新北市中和區中山路二段191號","121.500153333333","25.0027233333333","6500300","中和區"
"235043","352-BY","2018/08/13 18:59:51","新北市中和區成功路52號","121.526115","24.9925783333333","6500300","中和區"
"235042","KEA-2878","2018/08/13 18:59:41","新北市中和區秀朗路三段50巷2弄7號","121.525903333333","24.9959133333333","6500300","中和區"
"235050","4979-A6","2018/08/13 18:59:47","新北市中和區華新街50巷7號","121.507671666667","24.983925","6500300","中和區"
"235069","4980-A6","2018/08/13 18:59:46","新北市中和區圓通路109巷1弄4號","121.499975","24.9963516666667","6500300","中和區"
"235070","558-UM","2018/08/13 18:59:48","新北市中和區中和路162號","121.504135","24.9996716666667","6500300","中和區"
"235045","565-BX","2018/08/13 18:59:50","新北市中和區景新街467巷20弄94號","121.514506666667","24.9875233333333","6500300","中和區"
"235054","640-BX","2018/08/13 18:59:50","新北市中和區民享街86巷23號","121.473375","25.0004533333333","6500300","中和區"
"235060","647-TV","2018/08/13 18:59:44","新北市中和區民治街5巷1號","121.475003333333","25.005135","6500300","中和區"
"235047","732-UM","2018/08/13 18:59:40","新北市中和區興南路二段52號","121.50648","24.9850416666667","6500300","中和區"
"235046","733-UM","2018/08/13 18:59:37","新北市中和區興南路一段135巷22弄12號","121.509023333333","24.9867916666667","6500300","中和區"
"235071","783-BX","2018/08/13 18:59:45","新北市中和區員山路36巷16-3號","121.485218333333","24.9911866666667","6500300","中和區"
"235062","800-TS","2018/08/13 18:59:48","新北市中和區中山路二段328-3號","121.495031666667","25.002275","6500300","中和區"
"235057","801-TS","2018/08/13 18:59:53","新北市中和區民利街56號","121.479033333333","24.99884","6500300","中和區"
"235041","802-TS","2018/08/13 18:59:51","新北市中和區宜安路116號","121.510335","24.9979283333333","6500300","中和區"
"235052","805-TS","2018/08/13 18:59:40","新北市中和區興南路二段341號","121.501628333333","24.9810183333333","6500300","中和區"
"235048","896-TW","2018/08/13 18:59:44","新北市中和區華新街109巷16號","121.508763333333","24.9810883333333","6500300","中和區"
"235053","900-TW","2018/08/13 18:59:42","新北市中和區和平路200巷35弄1號","121.465345","24.9946116666667","6500300","中和區"
"235051","157-BY","2018/08/13 18:59:47","新北市中和區忠孝街11巷1號","121.509853333333","24.9830566666667","6500300","中和區"
"235037","AAC-213","2018/08/13 18:59:54","新北市中和區秀朗路三段10巷37弄4號","121.52417","24.995975","6500300","中和區"
"235059","AAC-215","2018/08/13 18:59:51","新北市中和區圓通路367巷6號","121.491478333333","24.9891633333333","6500300","中和區"
"220106","013-TV","2018/08/13 18:59:54","新北市板橋區文化路二段124巷28-2號","121.471246666667","25.025725","6500100","板橋區"
"220065","015-TV","2018/08/13 18:59:43","新北市板橋區民族路287巷10號","121.471175","25.0071","6500100","板橋區"
"220086","073-UY","2018/08/13 18:59:45","新北市板橋區中正路250巷10號","121.456003333333","25.0193383333333","6500100","板橋區"
"220069","AAD-861","2018/08/13 18:59:51","新北市板橋區東興街2號","121.45872","25.005375","6500100","板橋區"
"226004","312-R5","2018/08/13 18:59:46","新北市平溪區靜安路三段10號","121.752251666667","25.0266883333333","6502400","平溪區"
"228003","097-TW","2018/08/13 18:59:40","新北市貢寮區和美里龍洞街60號","121.914258333333","25.1162416666667","6502600","貢寮區"
"228001","212-TW","2018/08/13 18:59:38","新北市貢寮區仁理村研海街12-1號","121.923891666667","25.0516583333333","6502600","貢寮區"
"228002","663-BX","2018/08/13 18:59:52","新北市貢寮區福隆里東興街106巷25弄1號","121.94641","25.01831","6502600","貢寮區"
"224010","AGQ-8101","2018/08/13 18:59:52","新北市瑞芳區基山街6-2號","121.845361666667","25.10927","6501200","瑞芳區"
"224006","676-BX","2018/08/13 18:59:42","新北市瑞芳區民權街6巷16號","121.807268333333","25.1065816666667","6501200","瑞芳區"
"224002","639-TC","2018/08/13 18:59:55","新北市平溪區新寮里五分寮10-3號","121.79667","25.0778216666667","6501200","瑞芳區"
"224008","285-BY","2018/08/13 18:59:53","新北市瑞芳區逢甲路343-12號","121.799323333333","25.1124916666667","6501200","瑞芳區"
"224007","275-VK","2018/08/13 18:59:53","新北市瑞芳區中央路48巷吉祥園8號","121.759525","25.103745","6501200","瑞芳區"
"224009","273-VK","2018/08/13 18:59:42","新北市瑞芳區長仁路32號","121.866163333333","25.1182883333333","6501200","瑞芳區"
"224005","271-BY","2018/08/13 18:59:49","新北市瑞芳區瑞濱路67號","121.82225","25.120975","6501200","瑞芳區"
"227001","642-TC","2018/08/13 18:59:46","新北市雙溪區平林里康福家園10號","121.858833333333","25.037325","6502500","雙溪區"
"227008","400-TW","2018/08/13 18:59:45","新北市雙溪區牡丹里中正路58巷23號","121.866453333333","25.0415916666667","6502500","雙溪區"
"253005","032-BX","2018/08/13 18:59:50","新北市石門區中央路14-1號","121.567148333333","25.2916333333333","6502200","石門區"
"253006","295-VK","2018/08/13 18:59:53","新北市石門區下員坑42-1號","121.518046666667","25.277675","6502200","石門區"
"222001","KEA-2212","2018/08/13 18:59:45","新北市深坑區北深路一段264號","121.629375","25.00878","6501800","深坑區"
"208002","KEA-2872","2018/08/13 18:59:44","新北市金山區信義路72號","121.635133333333","25.21962","6502700","金山區"
"208003","665-BX","2018/08/13 18:59:41","新北市金山區中正路20號","121.63595","25.2222783333333","6502700","金山區"
"208001","761-BX","2018/08/13 18:59:48","新北市金山區中山路73號","121.640581666667","25.2184216666667","6502700","金山區"
"251005","010-UM","2018/08/13 18:59:52","新北市淡水區中正路18巷6號","121.437656666667","25.1728083333333","6501000","淡水區"
"251001","011-UM","2018/08/13 18:59:38","新北市淡水區自強路58號","121.463248333333","25.12743","6501000","淡水區"
"251013","KEA-2871","2018/08/13 18:59:56","新北市淡水區安子內12-1號","121.481776666667","25.219065","6501000","淡水區"
"251016","179-VK","2018/08/13 18:59:41","新北市淡水區淡金路三段331巷8號","121.448493333333","25.2060883333333","6501000","淡水區"
"251014","180-VK","2018/08/13 18:59:43","新北市淡水區小中寮22-1號","121.488838333333","25.228795","6501000","淡水區"
"251015","181-VK","2018/08/13 18:59:40","新北市淡水區糞箕湖62號","121.485205","25.1721716666667","6501000","淡水區"
"251010","413-VK","2018/08/13 18:59:40","新北市淡水區中正路二段22巷47號","121.421511666667","25.18257","6501000","淡水區"
"251009","575-R6","2018/08/13 18:59:39","新北市淡水區重建街永興巷11號","121.439273333333","25.1726883333333","6501000","淡水區"
"251007","577-R6","2018/08/13 18:59:42","新北市淡水區民生路154號","121.46485","25.1386783333333","6501000","淡水區"
"251002","672-BX","2018/08/13 18:59:46","新北市淡水區學府路36號","121.447965","25.1688166666667","6501000","淡水區"
"251003","766-UM","2018/08/13 18:59:47","新北市淡水區中山北路一段149巷24號","121.4429","25.1780216666667","6501000","淡水區"
"207003","550-UM","2018/08/13 18:59:44","新北市萬里區大鵬里頂社29號","121.656573333333","25.2107583333333","6502800","萬里區"
"207004","225-TW","2018/08/13 18:59:53","新北市萬里區萬里里獅頭路23號","121.693253333333","25.1782633333333","6502800","萬里區"
"252002","178-VK","2018/08/13 18:59:50","新北市三芝區中正路一段54號","121.503533333333","25.2580433333333","6502100","三芝區"
"252003","249-BX","2018/08/13 18:59:46","新北市三芝區後厝里北勢子42-3號","121.472275","25.2525833333333","6502100","三芝區"
"252001","292-VK","2018/08/13 18:59:39","新北市三芝區中興街二段260號","121.501723333333","25.2530516666667","6502100","三芝區"
"237007","153-BY","2018/08/13 18:59:41","新北市三峽區中正路二段233-1號","121.36601","24.9126283333333","6500900","三峽區"
"237013","252-BX","2018/08/13 18:59:37","新北市三峽區光明路69巷25號","121.376723333333","24.92924","6500900","三峽區"
"237012","275-BY","2018/08/13 18:59:53","新北市三峽區三樹路222巷236弄2號","121.390473333333","24.9432316666667","6500900","三峽區"
"237008","302-VK","2018/08/13 18:59:44","新北市三峽區大同路174巷6號","121.372598333333","24.927135","6500900","三峽區"
"237014","433-BY","2018/08/13 18:59:44","新北市三峽區隆恩街166-7號","121.36324","24.94313","6500900","三峽區"
"237006","5529-G3","2018/08/13 18:59:45","新北市三峽區溪東路233巷51-1號","121.4104","24.9345066666667","6500900","三峽區"
"237011","KEA-2596","2018/08/13 18:59:48","新北市三峽區介壽路三段245號","121.407745","24.9496566666667","6500900","三峽區"
"237015","649-BX","2018/08/13 18:59:44","新北市三峽區建安118號","121.466086666667","24.9175716666667","6500900","三峽區"
"237010","706-TV","2018/08/13 18:59:51","新北市三峽區復興路341號","121.36426","24.938755","6500900","三峽區"
"237005","AKY-6261","2018/08/13 18:59:57","新北市三峽區中山路459巷163-3號","121.34865","24.93293","6500900","三峽區"
"236069","105-UM","2018/08/13 18:59:54","新北市土城區明德路一段385-1號","121.452866666667","24.9804183333333","6501300","土城區"
"236042","107-UM","2018/08/13 18:59:50","新北市土城區學府路一段229巷9號","121.45164","24.9837516666667","6501300","土城區"
"236078","166-UM","2018/08/13 18:59:44","新北市土城區中央路四段125巷2弄18號","121.416355","24.9569","6501300","土城區"
"236030","253-BX","2018/08/13 18:59:47","新北市土城區慶利街9號","121.439593333333","24.9736283333333","6501300","土城區"
"236026","269-VK","2018/08/13 18:59:58","新北市土城區光明街11號","121.441945","24.97466","6501300","土城區"
"236014","270-VK","2018/08/13 18:59:47","新北市土城區永豐路13巷2號","121.461718333333","24.9887233333333","6501300","土城區"
"236039","271-VK","2018/08/13 18:59:52","新北市土城區仁愛路13巷1號","121.460301666667","24.9808016666667","6501300","土城區"
"236020","401-BY","2018/08/13 18:59:42","新北市土城區延吉街168巷9號","121.468068333333","24.98584","6501300","土城區"
"236059","912-UM","2018/08/13 18:59:41","新北市土城區金城路二段188號","121.454163333333","24.98128","6501300","土城區"
"236048","913-UM","2018/08/13 18:59:50","新北市土城區明德路一段355-5號","121.456848333333","24.97759","6501300","土城區"
"236063","915-UM","2018/08/13 18:59:49","新北市土城區延和路90號","121.466461666667","24.9894283333333","6501300","土城區"
"236055","AAC-216","2018/08/13 18:59:52","新北市土城區學成路162號","121.448078333333","24.9891866666667","6501300","土城區"
"242050","441-UM","2018/08/13 18:59:55","新北市樹林區環河路10-1號","121.424378333333","24.976085","6500500","新莊區"
"238023","601-UM","2018/08/13 18:59:53","新北市樹林區大慶街63號","121.396205","25.013565","6500700","樹林區"
"238019","599-UM","2018/08/13 18:59:38","新北市樹林區東榮街91巷4弄2號","121.416288333333","24.9820266666667","6500700","樹林區"
"238022","KEA-2213","2018/08/13 18:59:40","新北市樹林區東順街90巷6號","121.40846","24.9765266666667","6500700","樹林區"
"238021","KEA-2539","2018/08/13 18:59:39","新北市樹林區柑園街二段276巷8-2號","121.373078333333","24.9529","6500700","樹林區"
"238025","303-VK","2018/08/13 18:59:58","新北市樹林區民和街48號","121.384403333333","24.9690833333333","6500700","樹林區"
"238017","283-BY","2018/08/13 18:59:47","新北市樹林區保安街二段2號","121.416621666667","24.9996316666667","6500700","樹林區"
"238014","282-BY","2018/08/13 18:59:49","新北市樹林區千歲街73號","121.427348333333","24.9990066666667","6500700","樹林區"
"238020","268-VK","2018/08/13 18:59:44","新北市樹林區三俊街168號","121.417478333333","25.0154666666667","6500700","樹林區"
"238026","172-UY","2018/08/13 18:58:43","新北市樹林區佳園路一段41巷28弄11號","121.394856666667","24.9703883333333","6500700","樹林區"
"238016","169-UY","2018/08/13 18:59:49","新北市樹林區復興路335巷8號","121.418396666667","24.987605","6500700","樹林區"
"239007","AAC-297","2018/08/13 18:59:53","新北市鶯歌區成功街6巷22號","121.359208333333","24.9573666666667","6500800","鶯歌區"
"239006","891-R6","2018/08/13 18:59:56","新北市鶯歌區鶯桃路296巷53號","121.33583","24.9613416666667","6500800","鶯歌區"
"239008","527-UM","2018/08/13 18:59:51","新北市鶯歌區國際二路20巷10號","121.337123333333","24.97523","6500800","鶯歌區"
"239005","526-UM","2018/08/13 18:59:43","新北市鶯歌區鳳吉一街68號","121.326656666667","24.9740833333333","6500800","鶯歌區"
"239001","417-VK","2018/08/13 18:59:54","新北市鶯歌區永明街81號","121.341511666667","24.9560716666667","6500800","鶯歌區"
"239003","360-BY","2018/08/13 18:59:44","新北市鶯歌區鶯桃路485號","121.331743333333","24.966265","6500800","鶯歌區"
"239004","193-VK","2018/08/13 18:59:53","新北市鶯歌區中正三路156巷31號","121.3335","24.9397133333333","6500800","鶯歌區"
"221008","489-VK","2018/08/13 18:59:44","新北市汐止區康寧街753巷2弄22號","121.640131666667","25.0745366666667","6501100","汐止區"
"221036","130-UY","2018/08/13 18:59:49","新北市汐止區忠孝東路314巷21號","121.664513333333","25.0683133333333","6501100","汐止區"
"221015","131-UY","2018/08/13 18:59:43","新北市汐止區鄉長路一段55巷9號","121.66539","25.0761083333333","6501100","汐止區"
"221010","269-BY","2018/08/13 18:59:44","新北市汐止區康寧街901號","121.651443333333","25.0749716666667","6501100","汐止區"
"221012","278-VK","2018/08/13 18:59:50","新北市汐止區康寧街901號","121.650838333333","25.0752183333333","6501100","汐止區"
"221023","279-VK","2018/08/13 18:59:54","新北市汐止區康寧街901號","121.650975","25.075195","6501100","汐止區"
"221032","280-BY","2018/08/13 18:59:55","新北市汐止區橫科路407巷81弄5號","121.628586666667","25.0481566666667","6501100","汐止區"
"221027","281-BY","2018/08/13 18:59:42","新北市汐止區康寧街901號","121.651361666667","25.07497","6501100","汐止區"
"221029","298-VK","2018/08/13 18:59:54","新北市汐止區樟樹一路232號","121.642308333333","25.06674","6501100","汐止區"
"221021","299-VK","2018/08/13 18:59:43","新北市汐止區康寧街901號","121.651436666667","25.075035","6501100","汐止區"
"221002","129-UY","2018/08/13 18:59:57","新北市汐止區大同路一段50號","121.622396666667","25.05497","6501100","汐止區"
"221035","622-UM","2018/08/13 18:59:47","新北市汐止區汐萬路一段282號","121.650791666667","25.07417","6501100","汐止區"
"221038","646-BX","2018/08/13 18:59:46","新北市汐止區康寧街901號","121.650706666667","25.075355","6501100","汐止區"
"221033","647-BX","2018/08/13 18:59:51","新北市汐止區南勢街1巷1號","121.627015","25.0374733333333","6501100","汐止區"
"220079","145-BY","2018/08/13 18:59:56","新北市板橋區民權路202巷17弄1號","121.460726666667","25.0164166666667","6500100","板橋區"
"220080","200-UY","2018/08/13 18:59:40","新北市板橋區大觀路二段265巷1弄14號","121.443531666667","24.9985266666667","6500100","板橋區"
"220082","610-BX","2018/08/13 18:59:52","新北市板橋區滿平街60號","121.42712","24.9893983333333","6500100","板橋區"
"220101","245-BX","2018/08/13 18:59:47","新北市板橋區莊敬路113號","121.472158333333","25.0258","6500100","板橋區"
"220091","267-BY","2018/08/13 18:59:41","新北市板橋區雙十路二段47巷21號","121.475461666667","25.0256733333333","6500100","板橋區"
"220056","276-BY","2018/08/13 18:59:53","新北市板橋區信義路187號","121.45909","24.99182","6500100","板橋區"
"220072","277-BY","2018/08/13 18:59:53","新北市板橋區篤行路一段33號","121.432006666667","24.9943233333333","6500100","板橋區"
"220071","283-VK","2018/08/13 18:59:50","新北市板橋區忠孝路154巷22號","121.464081666667","25.0019666666667","6500100","板橋區"
"220094","285-UM","2018/08/13 18:59:43","新北市板橋區文化路二段76號","121.469388333333","25.0250666666667","6500100","板橋區"
"220053","285-VK","2018/08/13 18:59:54","新北市板橋區中山路二段89巷48號","121.473728333333","25.0171533333333","6500100","板橋區"
"220083","286-VK","2018/08/13 18:59:43","新北市板橋區大觀路一段38巷156弄9號","121.442411666667","25.00505","6500100","板橋區"
"220081","287-VK","2018/08/13 18:59:51","新北市板橋區南雅西路二段100號","121.45241","25.011755","6500100","板橋區"
"220090","288-VK","2018/08/13 18:59:47","新北市板橋區四維路175-2號","121.464486666667","25.0263133333333","6500100","板橋區"
"220061","293-UM","2018/08/13 18:59:43","新北市板橋區富山街109巷70號","121.475325","25.021265","6500100","板橋區"
"220084","296-UM","2018/08/13 18:59:41","新北市板橋區龍興街6號","121.442776666667","24.9995383333333","6500100","板橋區"
"220075","303-R5","2018/08/13 18:59:40","新北市板橋區後菜園街30號","121.456786666667","25.0102183333333","6500100","板橋區"
"220062","305-R5","2018/08/13 18:59:49","新北市板橋區民享街103號","121.477388333333","25.0159766666667","6500100","板橋區"
"220092","307-R5","2018/08/13 18:59:42","新北市板橋區文化路一段104巷1弄7-1號","121.46532","25.01795","6500100","板橋區"
"220098","317-R6","2018/08/13 18:59:51","新北市板橋區民有街18號","121.466243333333","25.0249166666667","6500100","板橋區"
"220064","486-VK","2018/08/13 18:59:45","新北市板橋區縣民大道二段102號","121.466676666667","25.015","6500100","板橋區"
"220088","491-VK","2018/08/13 18:59:56","新北市板橋區民生路二段216號","121.469301666667","25.02153","6500100","板橋區"
"220035","560-BX","2018/08/13 18:59:47","新北市板橋區中正路341巷31號","121.454113333333","25.019975","6500100","板橋區"
"220103","561-BX","2018/08/13 18:59:56","新北市板橋區民生路二段56-6號","121.471256666667","25.0187883333333","6500100","板橋區"
"220063","609-BX","2018/08/13 18:59:53","新北市板橋區中山路二段140號","121.476453333333","25.0170133333333","6500100","板橋區"
"220054","630-UY","2018/08/13 18:59:56","新北市板橋區重慶路139巷15號","121.463465","25.00467","6500100","板橋區"
"220057","686-BX","2018/08/13 18:59:46","新北市板橋區重慶路183號","121.462761666667","25.0022966666667","6500100","板橋區"
"220077","687-BX","2018/08/13 18:59:40","新北市板橋區龍興街2號","121.442721666667","24.9993516666667","6500100","板橋區"
"220093","689-BX","2018/08/13 18:59:44","新北市板橋區民生路三段66-3號","121.46691","25.0258","6500100","板橋區"
"220102","KEA-2699","2018/08/13 18:59:43","新北市板橋區田單街2巷24號","121.481433333333","25.0278816666667","6500100","板橋區"
"220055","827-TW","2018/08/13 18:59:59","新北市板橋區中山路一段158巷12號","121.466111666667","25.0114433333333","6500100","板橋區"
"220067","829-TW","2018/08/13 18:59:42","新北市板橋區三民路186巷13-1號","121.478646666667","25.0149816666667","6500100","板橋區"
"220068","830-TW","2018/08/13 18:59:43","新北市板橋區三民路一段31巷84號","121.481288333333","25.0231483333333","6500100","板橋區"
"220096","831-TW","2018/08/13 18:59:54","新北市板橋區莒光路142號","121.473311666667","25.0239633333333","6500100","板橋區"
"220089","833-TW","2018/08/13 18:59:51","新北市板橋區仁化街53號","121.47515","25.0317266666667","6500100","板橋區"
"220074","895-R6","2018/08/13 18:59:52","新北市板橋區南門街1號","121.45801","25.0095533333333","6500100","板橋區"
"220073","985-R7","2018/08/13 18:59:58","新北市板橋區館前西路195號","121.455321666667","25.008355","6500100","板橋區"
"220097","AAC-210","2018/08/13 18:59:37","新北市板橋區漢生東路1號","121.464538333333","25.01746","6500100","板橋區"
"220070","AAC-253","2018/08/13 18:59:55","新北市板橋區四川路一段287號","121.458878333333","25.0006533333333","6500100","板橋區"
"235068","KEA-2873","2018/08/13 18:59:26","新北市中和區中正路221號","121.496115","24.99378","6500300","中和區"
"235061","KEA-2875","2018/08/13 18:59:30","新北市中和區中山路三段101號","121.475158333333","25.00613","6500300","中和區"
