"lineid","car","time","location","longitude","latitude","cityid","cityname"
"234046","148-BY","2018/08/13 19:09:21","新北市永和區永元路18巷9號","121.523123333333","25.0002533333333","6500400","永和區"
"234007","207-UY","2018/08/13 19:09:20","新北市永和區中山路一段142號","121.510073333333","25.0096866666667","6500400","永和區"
"234081","298-R6","2018/08/13 19:09:25","新北市永和區福和路57巷14弄1號","121.522746666667","25.00689","6500400","永和區"
"234064","337-UY","2018/08/13 19:09:22","新北市永和區秀朗路二段31號","121.521258333333","25.0025283333333","6500400","永和區"
"234086","338-UY","2018/08/13 19:09:20","新北市永和區永貞路53號","121.51934","25.0043833333333","6500400","永和區"
"234070","552-UM","2018/08/13 19:09:15","新北市永和區豫溪街95巷8號","121.518178333333","25.0108033333333","6500400","永和區"
"234038","553-UM","2018/08/13 19:09:11","新北市永和區民樂街71巷1號","121.527361666667","24.997575","6500400","永和區"
"234017","745-BX","2018/08/13 19:09:07","新北市永和區文化路90巷9弄2號","121.51382","25.015785","6500400","永和區"
"234030","746-BX","2018/08/13 19:09:17","新北市永和區四維街121號","121.523181666667","24.9983783333333","6500400","永和區"
"234054","KEA-2590","2018/08/13 19:09:20","新北市永和區中興街133巷12號","121.51857","25.012725","6500400","永和區"
"234013","KEA-2591","2018/08/13 19:09:21","新北市永和區保福路二段20號","121.511015","25.01145","6500400","永和區"
"234061","AAD-866","2018/08/13 19:09:20","新北市永和區安樂路304巷7號","121.514381666667","25.0050316666667","6500400","永和區"
"234042","862-TW","2018/08/13 19:09:25","新北市永和區保平路131號","121.510515","25.0060883333333","6500400","永和區"
"234050","863-TW","2018/08/13 19:09:21","新北市永和區文化路135巷22弄1號","121.510465","25.0147316666667","6500400","永和區"
"234026","9371-KE","2018/08/13 19:09:16","新北市永和區安樂路272巷9弄7號","121.51511","25.0045716666667","6500400","永和區"
"234011","9373-KE","2018/08/13 19:09:11","新北市永和區信義路43巷22弄2號","121.512398333333","25.01215","6500400","永和區"
"249005","172-UM","2018/08/13 19:09:12","新北市八里區中華路三段45號","121.395623333333","25.1419783333333","6502300","八里區"
"249001","173-UM","2018/08/13 19:09:27","新北市八里區龍米路二段219號","121.430971666667","25.1586266666667","6502300","八里區"
"248016","026-BX","2018/08/13 19:09:23","新北市五股區成泰路三段543巷30號","121.450713333333","25.1025983333333","6501500","五股區"
"248006","077-UY","2018/08/13 19:09:21","新北市五股區四維路112號","121.467651666667","25.0738133333333","6501500","五股區"
"248008","095-VK","2018/08/13 19:09:11","新北市五股區中興路二段63巷17號","121.460285","25.0753566666667","6501500","五股區"
"248018","225-UY","2018/08/13 19:09:12","新北市五股區民義路一段287巷2號","121.423483333333","25.0900733333333","6501500","五股區"
"248012","247-BX","2018/08/13 19:09:23","新北市五股區中興路四段48巷16號","121.438613333333","25.083415","6501500","五股區"
"248004","677-BX","2018/08/13 19:09:21","新北市五股區五福路11-6號","121.434168333333","25.0886716666667","6501500","五股區"
"248002","678-BX","2018/08/13 19:09:08","新北市五股區凌雲路一段158巷14-1號","121.447818333333","25.103475","6501500","五股區"
"248010","682-TV","2018/08/13 19:09:14","新北市五股區水碓一路23號","121.430551666667","25.0713516666667","6501500","五股區"
"234023","9380-KE","2018/08/13 19:09:17","新北市永和區中興街10巷19號","121.515881666667","25.0111933333333","6500400","永和區"
"234077","969-R7","2018/08/13 19:09:11","新北市永和區民權路34號","121.52028","24.9988116666667","6500400","永和區"
"234074","AAC-211","2018/08/13 19:09:09","新北市永和區福和路170號","121.521125","25.007835","6500400","永和區"
"234067","AAC-212","2018/08/13 19:09:11","新北市永和區永和路一段65巷4號","121.512745","25.0073","6500400","永和區"
"234003","AAC-295","2018/08/13 19:09:10","新北市永和區和平街54巷5弄16號","121.512223333333","25.0104266666667","6500400","永和區"
"244019","403-UM","2018/08/13 19:09:23","新北市林口區仁愛路二段201-1號","121.377145","25.0739783333333","6501700","林口區"
"244013","KEA-2802","2018/08/13 19:09:11","新北市林口區文化一路一段126號","121.375675","25.072345","6501700","林口區"
"244023","483-VK","2018/08/13 19:09:20","新北市林口區文林六街27巷23號","121.370221666667","25.0813683333333","6501700","林口區"
"244017","485-VK","2018/08/13 19:09:20","新北市林口區文化北路一段436號","121.364996666667","25.0767216666667","6501700","林口區"
"244011","657-BX","2018/08/13 19:09:27","新北市林口區中正路296巷24號","121.387945","25.0783183333333","6501700","林口區"
"244025","837-TS","2018/08/13 19:09:24","新北市林口區民族路180-1號","121.36811","25.0770133333333","6501700","林口區"
"243013","AAD-798","2018/08/13 19:09:20","新北市泰山區明志路三段277號","121.423181666667","25.0367566666667","6501600","泰山區"
"243009","297-R6","2018/08/13 19:09:14","新北市泰山區明志路一段124號","121.433326666667","25.0635916666667","6501600","泰山區"
"243016","KEA-2801","2018/08/13 19:09:22","新北市泰山區明志路二段341號","121.425625","25.0446583333333","6501600","泰山區"
"243015","421-VK","2018/08/13 19:09:13","新北市泰山區明志路一段453-1號","121.430741666667","25.0563683333333","6501600","泰山區"
"243011","KEA-2215","2018/08/13 19:09:23","新北市泰山區明志路二段318號","121.426215","25.0460333333333","6501600","泰山區"
"243010","KEA-2216","2018/08/13 19:09:18","新北市泰山區仁愛路39巷23號","121.431055","25.05531","6501600","泰山區"
"243012","646-TV","2018/08/13 19:09:15","新北市泰山區辭修路36巷8弄5號","121.427858333333","25.058585","6501600","泰山區"
"243014","680-BX","2018/08/13 19:09:22","新北市泰山區泰林路二段332-1號","121.429756666667","25.0632666666667","6501600","泰山區"
"222003","436-BY","2018/08/13 19:09:16","新北市深坑區深南路162號","121.626141666667","25.014965","6501800","深坑區"
"222002","659-BX","2018/08/13 19:09:28","新北市深坑區烏月路1號","121.633388333333","25.0081783333333","6501800","深坑區"
"231045","001-UM","2018/08/13 19:09:15","新北市新店區北宜路一段164號","121.540451666667","24.9534133333333","6500600","新店區"
"231041","002-UM","2018/08/13 19:09:13","新北市新店區溪園路393號","121.5243","24.9790133333333","6500600","新店區"
"231059","046-UY","2018/08/13 19:09:14","新北市新店區安康路一段351-1號","121.519515","24.9640216666667","6500600","新店區"
"231040","047-UY","2018/08/13 19:09:19","新北市新店區三民路98-5號","121.533933333333","24.9733083333333","6500600","新店區"
"231044","106-UY","2018/08/13 19:09:21","新北市新店區中興路三段168號","121.544308333333","24.98081","6500600","新店區"
"231046","107-UY","2018/08/13 19:09:21","新北市新店區直潭路29號","121.533466666667","24.94561","6500600","新店區"
"231052","110-UY","2018/08/13 19:09:25","新北市新店區屈尺路115號","121.545341666667","24.9235166666667","6500600","新店區"
"231047","187-VK","2018/08/13 19:09:23","新北市新店區德正街27巷29弄35號","121.545181666667","24.9719116666667","6500600","新店區"
"231054","KEA-2219","2018/08/13 19:09:20","新北市新店區新店路137號","121.53706","24.9545716666667","6500600","新店區"
"221031","KEA-2785","2018/08/13 19:09:19","新北市汐止區中興路181-1號","121.630343333333","25.0667833333333","6501100","汐止區"
"231042","268-BY","2018/08/13 19:09:06","新北市新店區中興路一段168號","121.542793333333","24.9643483333333","6500600","新店區"
"231051","278-BY","2018/08/13 19:09:22","新北市新店區中正路382巷25號","121.535501666667","24.978445","6500600","新店區"
"231050","AAD-862","2018/08/13 19:09:15","新北市新店區竹林路2巷19號","121.55029","24.9512566666667","6500600","新店區"
"231043","355-BY","2018/08/13 19:09:19","新北市新店區寶橋路75號","121.545615","24.9750833333333","6500600","新店區"
"231058","3713-VJ","2018/08/13 19:09:10","新北市新店區光明街168巷16號","121.540408333333","24.9617183333333","6500600","新店區"
"231066","4716-K9","2018/08/13 19:09:16","新北市新店區安祥路74號","121.489506666667","24.958505","6500600","新店區"
"231056","4715-K9","2018/08/13 19:09:22","新北市新店區民權路107-4號","121.536295","24.982175","6500600","新店區"
"231067","4772-VM","2018/08/13 19:09:27","新北市新店區安康路一段146號","121.526446666667","24.962905","6500600","新店區"
"231065","512-UM","2018/08/13 19:09:22","新北市新店區安祥路111號","121.47563","24.9568616666667","6500600","新店區"
"231049","513-UM","2018/08/13 19:09:27","新北市新店區二十張路25巷18弄9號","121.539285","24.981605","6500600","新店區"
"231061","619-UM","2018/08/13 19:09:25","新北市新店區安康路一段206號","121.524131666667","24.9635183333333","6500600","新店區"
"231063","641-BX","2018/08/13 19:09:13","新北市新店區車子路111號","121.50525","24.9520183333333","6500600","新店區"
"231064","719-UM","2018/08/13 19:09:10","新北市新店區安忠路56巷6號","121.512895","24.9593883333333","6500600","新店區"
"231062","720-UM","2018/08/13 19:09:16","新北市新店區安平路53號","121.519706666667","24.9684","6500600","新店區"
"231060","897-TW","2018/08/13 19:09:11","新北市新店區車子路1-1號","121.505035","24.9579316666667","6500600","新店區"
"241026","066-VK","2018/08/13 19:09:20","新北市三重區泉州街61巷1號","121.494678333333","25.0545916666667","6500200","三重區"
"241035","265-UM","2018/08/13 19:09:14","新北市三重區重新路三段115巷18號","121.489908333333","25.060805","6500200","三重區"
"241020","478-VK","2018/08/13 19:09:11","新北市三重區忠孝路二段31號","121.486095","25.0711583333333","6500200","三重區"
"241006","AAD-863","2018/08/13 19:09:16","新北市三重區車路頭街139巷14號","121.484271666667","25.076195","6500200","三重區"
"241029","942-UM","2018/08/13 19:09:15","新北市三重區集美街235號","121.492158333333","25.0553583333333","6500200","三重區"
"235066","003-UY","2018/08/13 19:09:24","新北市中和區廣福路12-1號","121.505543333333","25.0028316666667","6500300","中和區"
"235064","005-UY","2018/08/13 19:09:11","新北市中和區泰和街38巷5號","121.499075","25.0002366666667","6500300","中和區"
"235063","006-UY","2018/08/13 19:09:27","新北市中和區連城路249巷8弄2-3號","121.493645","24.9967516666667","6500300","中和區"
"235056","096-UM","2018/08/13 19:09:11","新北市中和區員山路548號","121.478746666667","25.0102083333333","6500300","中和區"
"235039","097-UM","2018/08/13 19:09:21","新北市中和區景平路64巷14弄15號","121.52285","24.9912866666667","6500300","中和區"
"235065","098-UM","2018/08/13 19:09:24","新北市中和區中山路二段136巷64號","121.50068","25.0042633333333","6500300","中和區"
"235004","150-BY","2018/08/13 19:09:17","新北市中和區宜安路66號","121.511503333333","24.9970183333333","6500300","中和區"
"235058","151-BY","2018/08/13 19:09:08","新北市中和區連城路523巷11弄1號","121.481685","24.9942883333333","6500300","中和區"
"235055","183-VK","2018/08/13 19:09:13","新北市中和區德光路98號","121.468566666667","25.00346","6500300","中和區"
"235038","185-VK","2018/08/13 19:09:15","新北市中和區大仁街10巷27弄4號","121.519243333333","24.9927116666667","6500300","中和區"
"235049","186-VK","2018/08/13 19:09:12","新北市中和區景安路85號","121.506058333333","24.99671","6500300","中和區"
"235067","255-BX","2018/08/13 19:09:23","新北市中和區新生街176巷14號","121.482951666667","24.9999233333333","6500300","中和區"
"235044","293-VK","2018/08/13 19:09:13","新北市中和區復興路329號","121.50079","24.99026","6500300","中和區"
"235043","352-BY","2018/08/13 19:09:11","新北市中和區景平路134號","121.51874","24.991945","6500300","中和區"
"235042","KEA-2878","2018/08/13 19:09:21","新北市中和區自立路16巷2號","121.521738333333","24.99372","6500300","中和區"
"235050","4979-A6","2018/08/13 19:09:07","新北市中和區復興路249巷11弄3-1號","121.503545","24.9896283333333","6500300","中和區"
"235069","4980-A6","2018/08/13 19:09:05","新北市中和區中和路217巷20號","121.50469","25.000575","6500300","中和區"
"235070","558-UM","2018/08/13 19:09:08","新北市中和區中和路6號","121.499511666667","25.002225","6500300","中和區"
"235045","565-BX","2018/08/13 19:09:10","新北市中和區景新街467巷15弄11號","121.5136","24.9886933333333","6500300","中和區"
"235054","640-BX","2018/08/13 19:09:10","新北市中和區民德路155號","121.46865","25.0001016666667","6500300","中和區"
"235060","647-TV","2018/08/13 19:09:24","新北市中和區民享街66號","121.474166666667","25.0019533333333","6500300","中和區"
"235047","732-UM","2018/08/13 19:09:20","新北市中和區興南路一段162號","121.508103333333","24.9867666666667","6500300","中和區"
"235046","733-UM","2018/08/13 19:09:17","新北市中和區忠孝街1巷77號","121.508205","24.98482","6500300","中和區"
"235071","783-BX","2018/08/13 19:09:05","新北市中和區連城路469-1號","121.483558333333","24.9958316666667","6500300","中和區"
"235062","800-TS","2018/08/13 19:09:08","新北市中和區中山路二段466號","121.488448333333","25.0045183333333","6500300","中和區"
"235057","801-TS","2018/08/13 19:09:13","新北市中和區民利街68巷1弄1號","121.478443333333","24.9986916666667","6500300","中和區"
"235041","802-TS","2018/08/13 19:09:15","新北市中和區中和路232號","121.506615","24.999445","6500300","中和區"
"235052","805-TS","2018/08/13 19:09:20","新北市中和區興南路二段142巷19弄58號","121.50239","24.98332","6500300","中和區"
"235048","896-TW","2018/08/13 19:09:24","新北市中和區忠孝街2-8號","121.509216666667","24.9829783333333","6500300","中和區"
"235053","900-TW","2018/08/13 19:09:22","新北市中和區民德路260號","121.467923333333","24.9968883333333","6500300","中和區"
"235051","157-BY","2018/08/13 19:09:07","新北市中和區忠孝街31巷43號","121.509753333333","24.985155","6500300","中和區"
"235037","AAC-213","2018/08/13 19:09:13","新北市中和區秀朗路三段60巷28號","121.52539","24.994995","6500300","中和區"
"235059","AAC-215","2018/08/13 19:09:11","新北市中和區圓通路294巷9號","121.488646666667","24.9899616666667","6500300","中和區"
"220106","013-TV","2018/08/13 19:09:23","新北市板橋區雙十路三段12號","121.471861666667","25.0306033333333","6500100","板橋區"
"220065","015-TV","2018/08/13 19:09:23","新北市板橋區民族路151巷55號","121.469198333333","25.0083683333333","6500100","板橋區"
"220086","073-UY","2018/08/13 19:09:25","新北市板橋區國光路173巷3弄1號","121.46046","25.0187183333333","6500100","板橋區"
"220069","AAD-861","2018/08/13 19:09:10","新北市板橋區大華街65-1號","121.459661666667","25.0033116666667","6500100","板橋區"
"226004","312-R5","2018/08/13 19:09:26","新北市平溪區十分里十分街96-2號","121.776646666667","25.0425516666667","6502400","平溪區"
"228003","097-TW","2018/08/13 19:09:20","新北市貢寮區和美里和美街40號","121.912473333333","25.0898433333333","6502600","貢寮區"
"228001","212-TW","2018/08/13 19:09:18","新北市貢寮區真理里新港街10號","121.9255","25.0543466666667","6502600","貢寮區"
"228002","663-BX","2018/08/13 19:09:12","新北市貢寮區福隆里福隆街32-1號","121.945136666667","25.0173916666667","6502600","貢寮區"
"224010","AGQ-8101","2018/08/13 19:08:52","新北市瑞芳區基山街36號","121.844846666667","25.1084116666667","6501200","瑞芳區"
"224006","676-BX","2018/08/13 19:09:22","新北市瑞芳區中山路87號","121.803771666667","25.1062433333333","6501200","瑞芳區"
"224008","285-BY","2018/08/13 19:09:13","新北市瑞芳區瑞芳街162號","121.80134","25.1108033333333","6501200","瑞芳區"
"224007","275-VK","2018/08/13 19:09:13","新北市瑞芳區瑞竹路46號","121.763481666667","25.1033483333333","6501200","瑞芳區"
"224009","273-VK","2018/08/13 19:09:22","新北市瑞芳區洞頂路101巷49號","121.860506666667","25.12029","6501200","瑞芳區"
"227001","642-TC","2018/08/13 19:09:26","新北市雙溪區平林里外平林9-5號","121.859136666667","25.0380133333333","6502500","雙溪區"
"227008","400-TW","2018/08/13 19:09:25","新北市雙溪區牡丹里中正路44號","121.864875","25.03872","6502500","雙溪區"
"253005","032-BX","2018/08/13 19:09:10","新北市石門區小坑14-3號","121.601625","25.28646","6502200","石門區"
"253006","295-VK","2018/08/13 19:09:13","新北市石門區八甲3號","121.52202","25.2848183333333","6502200","石門區"
"222001","KEA-2212","2018/08/13 19:09:25","新北市深坑區北深路一段300號","121.62416","25.0057083333333","6501800","深坑區"
"208002","KEA-2872","2018/08/13 19:09:24","新北市金山區仁愛路67巷4號","121.63451","25.2209266666667","6502700","金山區"
"208003","665-BX","2018/08/13 19:09:21","新北市金山區中正路135號","121.632411666667","25.2214533333333","6502700","金山區"
"208001","761-BX","2018/08/13 19:09:28","新北市金山區溫泉路4號","121.639593333333","25.2219566666667","6502700","金山區"
"251005","010-UM","2018/08/13 19:09:12","新北市淡水區原德路11號","121.442145","25.17127","6501000","淡水區"
"251001","011-UM","2018/08/13 19:09:18","新北市淡水區自強路201巷39號","121.462176666667","25.1267666666667","6501000","淡水區"
"251013","KEA-2871","2018/08/13 19:09:22","新北市淡水區安子內12-1號","121.481548333333","25.2190866666667","6501000","淡水區"
"251016","179-VK","2018/08/13 19:09:21","新北市淡水區淡金路三段28號","121.447826666667","25.19875","6501000","淡水區"
"251014","180-VK","2018/08/13 19:09:23","新北市淡水區小中寮19-2號","121.484926666667","25.2291333333333","6501000","淡水區"
"251015","181-VK","2018/08/13 19:09:20","新北市淡水區南勢埔27-2號","121.483258333333","25.1806633333333","6501000","淡水區"
"251010","413-VK","2018/08/13 19:09:20","新北市淡水區中正路一段156巷3號","121.421131666667","25.1802333333333","6501000","淡水區"
"251009","575-R6","2018/08/13 19:08:59","新北市淡水區重建街61號","121.439868333333","25.1718533333333","6501000","淡水區"
"251007","577-R6","2018/08/13 19:09:22","新北市淡水區民生路145巷58號","121.468021666667","25.13876","6501000","淡水區"
"251002","672-BX","2018/08/13 19:09:05","新北市淡水區中山路88號","121.442728333333","25.1704983333333","6501000","淡水區"
"251003","766-UM","2018/08/13 19:09:27","新北市淡水區中山北路一段88號","121.44242","25.1761633333333","6501000","淡水區"
"207003","550-UM","2018/08/13 19:09:24","新北市萬里區大鵬里萬里加投25-1號","121.648166666667","25.2064833333333","6502800","萬里區"
"207004","225-TW","2018/08/13 19:09:13","新北市萬里區萬里里瑪鋉下街50號","121.691568333333","25.17949","6502800","萬里區"
"252002","178-VK","2018/08/13 19:09:10","新北市三芝區埔坪里埔頭坑81號","121.509881666667","25.2537966666667","6502100","三芝區"
"252003","249-BX","2018/08/13 19:09:22","新北市三芝區錫板里南勢崗6號","121.479588333333","25.261965","6502100","三芝區"
"252001","292-VK","2018/08/13 19:09:19","新北市三芝區長勤街80號","121.500273333333","25.255115","6502100","三芝區"
"237007","153-BY","2018/08/13 19:09:21","新北市三峽區中正路二段42巷84號","121.364308333333","24.92057","6500900","三峽區"
"237013","252-BX","2018/08/13 19:09:17","新北市三峽區光明路69巷25號","121.376655","24.92925","6500900","三峽區"
"237012","275-BY","2018/08/13 19:09:13","新北市三峽區三樹路222巷236弄23號","121.391381666667","24.9430483333333","6500900","三峽區"
"237008","302-VK","2018/08/13 19:09:24","新北市三峽區大同路90號","121.375748333333","24.927665","6500900","三峽區"
"237014","433-BY","2018/08/13 19:09:24","新北市三峽區復興路480巷28號","121.359488333333","24.9388633333333","6500900","三峽區"
"237006","5529-G3","2018/08/13 19:09:25","新北市三峽區溪北街109號","121.39839","24.9354566666667","6500900","三峽區"
"237011","KEA-2596","2018/08/13 19:09:08","新北市三峽區介壽路三段71號","121.395475","24.93818","6500900","三峽區"
"237015","649-BX","2018/08/13 19:09:24","新北市三峽區建安74-12號","121.454303333333","24.9230816666667","6500900","三峽區"
"237010","706-TV","2018/08/13 19:09:11","新北市三峽區國光街350巷14號","121.371686666667","24.94012","6500900","三峽區"
"237005","AKY-6261","2018/08/13 19:09:17","新北市三峽區中山路459巷163-3號","121.348651666667","24.9329233333333","6500900","三峽區"
"236069","105-UM","2018/08/13 19:09:14","新北市土城區裕生路84巷12號","121.446741666667","24.98562","6501300","土城區"
"236042","107-UM","2018/08/13 19:09:19","新北市土城區學府路一段239號","121.450358333333","24.98331","6501300","土城區"
"236078","166-UM","2018/08/13 19:09:24","新北市土城區龍泉路20號","121.410123333333","24.9484266666667","6501300","土城區"
"236026","269-VK","2018/08/13 19:09:18","新北市土城區中正路74巷3弄1號","121.444731666667","24.97487","6501300","土城區"
"236014","270-VK","2018/08/13 19:09:27","新北市土城區學府路一段99巷2號","121.456508333333","24.9872216666667","6501300","土城區"
"236020","401-BY","2018/08/13 19:09:22","新北市土城區延峰街34巷2號","121.469501666667","24.98493","6501300","土城區"
"236059","912-UM","2018/08/13 19:09:21","新北市土城區金城路二段8-1號","121.448406666667","24.9768583333333","6501300","土城區"
"236048","913-UM","2018/08/13 19:09:10","新北市土城區明德路一段365-1號","121.453655","24.9790733333333","6501300","土城區"
"236055","AAC-216","2018/08/13 19:09:27","新北市土城區學府路一段202號","121.452675","24.9855583333333","6501300","土城區"
"238015","755-BX","2018/08/13 19:09:18","新北市樹林區光明街8號","121.410976666667","24.9890516666667","6500700","樹林區"
"238023","601-UM","2018/08/13 19:09:21","新北市樹林區三興路39號","121.39606","25.014555","6500700","樹林區"
"238019","599-UM","2018/08/13 19:09:18","新北市樹林區東榮街60號","121.416833333333","24.983015","6500700","樹林區"
"238024","5061-A6","2018/08/13 19:09:21","新北市樹林區中山路三段160-1號","121.389356666667","24.9702483333333","6500700","樹林區"
"238022","KEA-2213","2018/08/13 19:09:20","新北市樹林區中山路二段151巷6弄16號","121.406065","24.97814","6500700","樹林區"
"238021","KEA-2539","2018/08/13 19:09:19","新北市樹林區柑園街二段363巷8號","121.368881666667","24.9484183333333","6500700","樹林區"
"238025","303-VK","2018/08/13 19:09:18","新北市樹林區中山路三段147-5號","121.396133333333","24.97304","6500700","樹林區"
"238017","283-BY","2018/08/13 19:08:07","新北市樹林區光興街376巷1號","121.406246666667","25.005695","6500700","樹林區"
"238014","282-BY","2018/08/13 19:09:08","新北市樹林區千歲街63-14號","121.427043333333","24.9986716666667","6500700","樹林區"
"238020","268-VK","2018/08/13 19:09:24","新北市樹林區俊英街280號","121.42383","25.0131033333333","6500700","樹林區"
"238026","172-UY","2018/08/13 19:09:22","新北市樹林區佳園路二段29-1號","121.391691666667","24.9630733333333","6500700","樹林區"
"238016","169-UY","2018/08/13 19:09:19","新北市樹林區中山路一段306巷51弄22號","121.417791666667","24.9859116666667","6500700","樹林區"
"239007","AAC-297","2018/08/13 19:09:13","新北市鶯歌區中正一路225號","121.354095","24.9575133333333","6500800","鶯歌區"
"239006","891-R6","2018/08/13 19:09:16","新北市鶯歌區鶯桃路296巷84弄11號","121.337036666667","24.961665","6500800","鶯歌區"
"239008","527-UM","2018/08/13 19:09:11","新北市鶯歌區國際二路12巷5號","121.337851666667","24.9745366666667","6500800","鶯歌區"
"239005","526-UM","2018/08/13 19:09:23","新北市鶯歌區大湖路361巷24弄2-1號","121.33034","24.97809","6500800","鶯歌區"
"239001","417-VK","2018/08/13 19:09:14","新北市鶯歌區永智街45號","121.336651666667","24.9540933333333","6500800","鶯歌區"
"239003","360-BY","2018/08/13 19:09:24","新北市鶯歌區德昌街27號","121.3333","24.959755","6500800","鶯歌區"
"239002","359-BY","2018/08/13 19:09:10","新北市鶯歌區中正一路357號","121.357885","24.95711","6500800","鶯歌區"
"239004","193-VK","2018/08/13 19:09:13","新北市鶯歌區中正三路192號","121.332786666667","24.938325","6500800","鶯歌區"
"221008","489-VK","2018/08/13 19:09:23","新北市汐止區康寧街445號","121.63108","25.0681816666667","6501100","汐止區"
"221036","130-UY","2018/08/13 19:09:09","新北市汐止區大同路二段378號","121.65796","25.067225","6501100","汐止區"
"221015","131-UY","2018/08/13 19:09:23","新北市汐止區橋東街46號","121.665753333333","25.0750683333333","6501100","汐止區"
"221010","269-BY","2018/08/13 19:09:24","新北市汐止區康寧街901號","121.651501666667","25.0749783333333","6501100","汐止區"
"221012","278-VK","2018/08/13 19:09:09","新北市汐止區康寧街901號","121.650836666667","25.07524","6501100","汐止區"
"221023","279-VK","2018/08/13 19:09:14","新北市汐止區康寧街901號","121.650976666667","25.0751766666667","6501100","汐止區"
"221032","280-BY","2018/08/13 19:09:15","新北市汐止區橫科路241-6號","121.62283","25.0484416666667","6501100","汐止區"
"221027","281-BY","2018/08/13 19:09:22","新北市汐止區康寧街901號","121.65137","25.0749816666667","6501100","汐止區"
"221029","298-VK","2018/08/13 19:09:14","新北市汐止區康寧街901號","121.651166666667","25.075105","6501100","汐止區"
"221021","299-VK","2018/08/13 19:09:23","新北市汐止區康寧街901號","121.651403333333","25.0750483333333","6501100","汐止區"
"221002","129-UY","2018/08/13 19:09:17","台北市南港區南港路一段30巷4號","121.618865","25.0552766666667","6501100","汐止區"
"221038","646-BX","2018/08/13 19:09:25","新北市汐止區康寧街901號","121.650731666667","25.0753333333333","6501100","汐止區"
"221033","647-BX","2018/08/13 19:09:11","新北市汐止區南勢街1巷1號","121.627066666667","25.0374516666667","6501100","汐止區"
"220079","145-BY","2018/08/13 19:09:26","新北市板橋區民權路306號","121.457243333333","25.0161483333333","6500100","板橋區"
"220080","200-UY","2018/08/13 19:09:20","新北市板橋區大觀路二段7巷24號","121.447955","25.003385","6500100","板橋區"
"220082","610-BX","2018/08/13 19:09:12","新北市板橋區溪崑二街89號","121.42732","24.9894733333333","6500100","板橋區"
"220101","245-BX","2018/08/13 19:09:27","新北市板橋區民生路二段188號","121.470085","25.0207883333333","6500100","板橋區"
"220091","267-BY","2018/08/13 19:09:25","新北市板橋區萬板路710號","121.481851666667","25.0271466666667","6500100","板橋區"
"220056","276-BY","2018/08/13 19:09:16","新北市板橋區信義路74巷1弄1號","121.457251666667","24.993125","6500100","板橋區"
"220072","277-BY","2018/08/13 19:09:20","新北市板橋區金門街369巷58號","121.428386666667","24.981815","6500100","板橋區"
"220071","283-VK","2018/08/13 19:09:19","新北市板橋區重慶路327巷22號","121.464596666667","24.9985933333333","6500100","板橋區"
"220094","285-UM","2018/08/13 19:09:23","新北市板橋區光武街133號","121.465615","25.029195","6500100","板橋區"
"220053","285-VK","2018/08/13 19:09:23","新北市板橋區懷仁街21號","121.476305","25.0198183333333","6500100","板橋區"
"220083","286-VK","2018/08/13 19:09:23","新北市板橋區龍興街99巷17號","121.443106666667","25.0030866666667","6500100","板橋區"
"220081","287-VK","2018/08/13 19:09:11","新北市板橋區光華街39巷27號","121.452981666667","25.012895","6500100","板橋區"
"220090","288-VK","2018/08/13 19:09:07","新北市板橋區裕民街45巷3-1號","121.461545","25.0284","6500100","板橋區"
"220061","293-UM","2018/08/13 19:09:23","新北市板橋區懷仁街85巷8號","121.477735","25.01858","6500100","板橋區"
"220084","296-UM","2018/08/13 19:09:21","新北市板橋區溪崑一街30巷34號","121.42921","24.99148","6500100","板橋區"
"220075","303-R5","2018/08/13 19:09:20","新北市板橋區南雅南路一段75號","121.455801666667","25.0056066666667","6500100","板橋區"
"220062","305-R5","2018/08/13 19:09:08","新北市板橋區三民路二段245巷69弄2號","121.481105","25.012905","6500100","板橋區"
"220092","307-R5","2018/08/13 19:09:22","新北市板橋區文化路二段225巷60弄26號","121.469195","25.0290583333333","6500100","板橋區"
"220098","317-R6","2018/08/13 19:09:12","新北市板橋區四維路103巷12號","121.464735","25.0242633333333","6500100","板橋區"
"220064","486-VK","2018/08/13 19:09:25","新北市板橋區長安街236-3號","121.475323333333","25.0127066666667","6500100","板橋區"
"220088","491-VK","2018/08/13 19:09:16","新北市板橋區文化路二段182巷1弄2號","121.470783333333","25.027445","6500100","板橋區"
"220035","560-BX","2018/08/13 19:09:21","新北市板橋區中正路379巷1弄2號","121.453985","25.0214866666667","6500100","板橋區"
"220103","561-BX","2018/08/13 19:09:16","新北市板橋區文化路一段188巷9弄66號","121.468065","25.0190533333333","6500100","板橋區"
"220063","609-BX","2018/08/13 19:09:13","新北市板橋區三民路二段155號","121.479221666667","25.0149216666667","6500100","板橋區"
"220054","630-UY","2018/08/13 19:09:13","新北市板橋區重慶路89巷53號","121.463388333333","25.00658","6500100","板橋區"
"220057","686-BX","2018/08/13 19:09:21","新北市板橋區重慶路346巷15號","121.4637","24.9969","6500100","板橋區"
"220077","687-BX","2018/08/13 19:09:21","新北市板橋區大觀路二段123號","121.44589","25.0013533333333","6500100","板橋區"
"220093","689-BX","2018/08/13 19:09:24","新北市板橋區民生路三段179號","121.46544","25.0272483333333","6500100","板橋區"
"220102","KEA-2699","2018/08/13 19:09:24","新北市板橋區萬板路818巷9號","121.482931666667","25.0268383333333","6500100","板橋區"
"220055","827-TW","2018/08/13 19:09:19","新北市板橋區新民街7巷9號","121.463556666667","25.0101083333333","6500100","板橋區"
"220067","829-TW","2018/08/13 19:09:22","新北市板橋區中山路二段90巷43弄2號","121.4765","25.0148716666667","6500100","板橋區"
"220068","830-TW","2018/08/13 19:09:23","新北市板橋區中山路二段443巷70號","121.480836666667","25.0220466666667","6500100","板橋區"
"220096","831-TW","2018/08/13 19:09:14","新北市板橋區雙十路二段4號","121.477221666667","25.025165","6500100","板橋區"
"220089","833-TW","2018/08/13 19:05:51","新北市板橋區文化路二段503號","121.476031666667","25.0344983333333","6500100","板橋區"
"220074","895-R6","2018/08/13 19:09:12","新北市板橋區西門街59號","121.454446666667","25.0091283333333","6500100","板橋區"
"220073","985-R7","2018/08/13 19:09:18","新北市板橋區民權路262號","121.457778333333","25.0152916666667","6500100","板橋區"
"220097","AAC-210","2018/08/13 19:09:17","新北市板橋區幸福路60巷57號","121.460106666667","25.0214083333333","6500100","板橋區"
"220070","AAC-253","2018/08/13 19:09:20","新北市板橋區忠孝路23號","121.460458333333","25.00193","6500100","板橋區"
"235068","KEA-2873","2018/08/13 19:09:26","新北市中和區圓通路169號","121.49764","24.995385","6500300","中和區"
"235061","KEA-2875","2018/08/13 19:09:20","新北市中和區員山路403號","121.481178333333","25.0031216666667","6500300","中和區"
