"lineid","car","time","location","longitude","latitude","cityid","cityname"
"234046","148-BY","2018/08/13 19:19:21","新北市永和區得和路373巷7號","121.524805","24.9999083333333","6500400","永和區"
"234007","207-UY","2018/08/13 19:19:20","新北市永和區中山路一段322號","121.506415","25.0067616666667","6500400","永和區"
"234081","298-R6","2018/08/13 19:19:25","新北市永和區福和路52號","121.523458333333","25.00816","6500400","永和區"
"234064","337-UY","2018/08/13 19:19:22","新北市永和區永元路17巷6弄2號","121.521416666667","25.0006683333333","6500400","永和區"
"234086","338-UY","2018/08/13 19:19:20","新北市永和區永利路69號","121.519673333333","25.0048733333333","6500400","永和區"
"234070","552-UM","2018/08/13 19:19:24","新北市永和區豫溪街84號","121.517965","25.0099316666667","6500400","永和區"
"234038","553-UM","2018/08/13 19:19:10","新北市永和區民樂街59巷5號","121.52794","24.9982766666667","6500400","永和區"
"234017","745-BX","2018/08/13 19:19:27","新北市永和區文化路144巷27號","121.512441666667","25.01667","6500400","永和區"
"234030","746-BX","2018/08/13 19:19:10","新北市永和區厚德街68號","121.523893333333","24.998885","6500400","永和區"
"234054","KEA-2590","2018/08/13 19:19:21","新北市永和區中興街61號","121.516675","25.0116983333333","6500400","永和區"
"234013","KEA-2591","2018/08/13 19:19:23","新北市永和區仁愛路99號","121.512741666667","25.012965","6500400","永和區"
"234061","AAD-866","2018/08/13 19:19:09","新北市永和區中正路381號","121.517118333333","25.003655","6500400","永和區"
"234042","862-TW","2018/08/13 19:19:25","新北市永和區保平路203巷33號","121.509728333333","25.0050083333333","6500400","永和區"
"234050","863-TW","2018/08/13 19:19:20","新北市永和區保福路二段78號","121.510561666667","25.0133016666667","6500400","永和區"
"234026","9371-KE","2018/08/13 19:19:16","新北市永和區安樂路144巷29號","121.515118333333","24.9997633333333","6500400","永和區"
"234011","9373-KE","2018/08/13 19:19:11","新北市永和區永平路218巷20號","121.510081666667","25.0110616666667","6500400","永和區"
"249001","173-UM","2018/08/13 19:19:07","新北市八里區中山路一段452號","121.41038","25.1570266666667","6502300","八里區"
"249003","593-UM","2018/08/13 19:19:27","新北市八里區中山路二段440號","121.399416666667","25.147555","6502300","八里區"
"248008","095-VK","2018/08/13 19:19:11","新北市五股區中興路二段63巷17號","121.460265","25.0752466666667","6501500","五股區"
"248018","225-UY","2018/08/13 19:19:12","新北市五股區民義路一段255-6號","121.426098333333","25.091445","6501500","五股區"
"248012","247-BX","2018/08/13 19:19:23","新北市五股區中興路四段48巷16號","121.438633333333","25.08341","6501500","五股區"
"248004","677-BX","2018/08/13 19:19:21","新北市五股區五福路116號","121.432385","25.0909233333333","6501500","五股區"
"248002","678-BX","2018/08/13 19:19:08","新北市五股區凌雲路一段158巷14-1號","121.447806666667","25.1034566666667","6501500","五股區"
"248010","682-TV","2018/08/13 19:19:14","新北市五股區水碓一路23號","121.430556666667","25.071355","6501500","五股區"
"234023","9380-KE","2018/08/13 19:19:17","新北市永和區竹林路109巷8號","121.520361666667","25.0119416666667","6500400","永和區"
"234077","969-R7","2018/08/13 19:19:10","新北市永和區民族街27巷15號","121.519738333333","24.9995833333333","6500400","永和區"
"234074","AAC-211","2018/08/13 19:19:09","新北市永和區竹林路106號","121.519701666667","25.0118633333333","6500400","永和區"
"234067","AAC-212","2018/08/13 19:19:12","新北市永和區保平路44號","121.511415","25.007055","6500400","永和區"
"234003","AAC-295","2018/08/13 19:19:10","新北市永和區中山路一段151號","121.509996666667","25.0094316666667","6500400","永和區"
"244019","403-UM","2018/08/13 19:19:23","新北市林口區中山路569號","121.381151666667","25.0818766666667","6501700","林口區"
"244013","KEA-2802","2018/08/13 19:19:11","新北市林口區仁愛路二段201-1號","121.377355","25.074085","6501700","林口區"
"244023","483-VK","2018/08/13 19:19:20","新北市林口區文化三路一段555巷50號","121.36984","25.0769633333333","6501700","林口區"
"243013","AAD-798","2018/08/13 19:19:19","新北市泰山區明志路三段145巷2弄3號","121.425346666667","25.03977","6501600","泰山區"
"243009","297-R6","2018/08/13 19:19:14","新北市泰山區和平街9-2號","121.434131666667","25.0645933333333","6501600","泰山區"
"243016","KEA-2801","2018/08/13 19:19:27","新北市泰山區明志路三段135號","121.425031666667","25.0403566666667","6501600","泰山區"
"243015","421-VK","2018/08/13 19:19:12","新北市泰山區公園路11號","121.429488333333","25.0540983333333","6501600","泰山區"
"243011","KEA-2215","2018/08/13 19:19:23","新北市泰山區中央路36巷1號","121.426258333333","25.0427483333333","6501600","泰山區"
"243010","KEA-2216","2018/08/13 19:19:18","新北市泰山區明志路一段492巷5號","121.430125","25.0546983333333","6501600","泰山區"
"243012","646-TV","2018/08/13 19:19:15","新北市泰山區仁愛路100巷35號","121.43395","25.0550116666667","6501600","泰山區"
"243014","680-BX","2018/08/13 19:19:19","新北市泰山區泰林路二段23號","121.436321666667","25.0563366666667","6501600","泰山區"
"222003","436-BY","2018/08/13 19:19:16","新北市深坑區深南路204號","121.62663","25.0160383333333","6501800","深坑區"
"222002","659-BX","2018/08/13 19:19:20","新北市深坑區紅葉街8巷2號","121.633161666667","25.011585","6501800","深坑區"
"231045","001-UM","2018/08/13 19:19:15","新北市新店區北宜路一段272-1號","121.546121666667","24.9527033333333","6500600","新店區"
"231041","002-UM","2018/08/13 19:19:13","新北市新店區溪園路247號","121.525436666667","24.983285","6500600","新店區"
"231059","046-UY","2018/08/13 19:19:22","新北市新店區安和路二段155號","121.519008333333","24.9742616666667","6500600","新店區"
"231040","047-UY","2018/08/13 19:19:19","新北市新店區三民路20巷2號","121.537576666667","24.9706583333333","6500600","新店區"
"231044","106-UY","2018/08/13 19:19:22","新北市新店區中興路三段326號","121.542013333333","24.9863166666667","6500600","新店區"
"231046","107-UY","2018/08/13 19:19:21","新北市新店區華城路5-3號","121.529283333333","24.9578983333333","6500600","新店區"
"231052","110-UY","2018/08/13 19:19:25","新北市新店區櫻花街206號","121.548083333333","24.9196616666667","6500600","新店區"
"231047","187-VK","2018/08/13 19:19:23","新北市新店區中興路二段81號","121.546831666667","24.9711333333333","6500600","新店區"
"231054","KEA-2219","2018/08/13 19:19:20","新北市新店區國校路59號","121.538203333333","24.9543166666667","6500600","新店區"
"221031","KEA-2785","2018/08/13 19:19:19","新北市汐止區汐萬路一段301號","121.64927","25.0759083333333","6501100","汐止區"
"231042","268-BY","2018/08/13 19:19:06","新北市新店區中興路一段112-1號","121.540601666667","24.961375","6500600","新店區"
"231051","278-BY","2018/08/13 19:19:22","新北市新店區中央路63號","121.53264","24.9771183333333","6500600","新店區"
"231050","AAD-862","2018/08/13 19:19:15","新北市新店區竹林路25巷10號","121.552321666667","24.9513333333333","6500600","新店區"
"231043","355-BY","2018/08/13 19:19:18","新北市新店區寶橋路2號","121.543105","24.9735283333333","6500600","新店區"
"231058","3713-VJ","2018/08/13 19:19:10","新北市新店區北新路二段98號","121.542951666667","24.9732083333333","6500600","新店區"
"231066","4716-K9","2018/08/13 19:19:16","新北市新店區安康路三段359巷12弄2號","121.484533333333","24.950085","6500600","新店區"
"231056","4715-K9","2018/08/13 19:19:22","新北市新店區溪園路401號","121.523816666667","24.978025","6500600","新店區"
"231067","4772-VM","2018/08/13 19:19:07","新北市新店區安康路一段247巷29號","121.52458","24.962","6500600","新店區"
"231065","512-UM","2018/08/13 19:19:22","新北市新店區安祥路140號","121.474298333333","24.9558666666667","6500600","新店區"
"231049","513-UM","2018/08/13 19:19:07","新北市新店區明德路111號","121.54151","24.9794183333333","6500600","新店區"
"231061","619-UM","2018/08/13 19:19:25","新北市新店區安康路一段75-1號","121.530178333333","24.9611166666667","6500600","新店區"
"231063","641-BX","2018/08/13 19:19:12","新北市新店區達觀路14巷7號","121.503331666667","24.9431216666667","6500600","新店區"
"231064","719-UM","2018/08/13 19:19:10","新北市新店區安忠路57巷26弄2號","121.513023333333","24.9587516666667","6500600","新店區"
"231062","720-UM","2018/08/13 19:19:16","新北市新店區安康路一段229號","121.525465","24.9630833333333","6500600","新店區"
"231060","897-TW","2018/08/13 19:19:11","新北市新店區安康路二段138號","121.512511666667","24.9618416666667","6500600","新店區"
"231055","AKT-0513","2018/08/13 19:19:12","新北市新店區安和路三段4巷3號","121.519368333333","24.9808816666667","6500600","新店區"
"241022","060-VK","2018/08/13 19:19:11","新北市三重區中正北路60號","121.486876666667","25.0644016666667","6500200","三重區"
"241031","061-VK","2018/08/13 19:19:22","新北市三重區重新路四段242-1號","121.485683333333","25.0536966666667","6500200","三重區"
"241017","063-VK","2018/08/13 19:19:16","新北市三重區大同北路213號","121.49198","25.0656733333333","6500200","三重區"
"241026","066-VK","2018/08/13 19:19:21","新北市三重區中正南路214號","121.493903333333","25.0551166666667","6500200","三重區"
"241035","265-UM","2018/08/13 19:19:14","新北市三重區信義西街138號","121.495441666667","25.0643316666667","6500200","三重區"
"241009","267-UM","2018/08/13 19:19:13","新北市三重區溪尾街230巷46號","121.485958333333","25.0810733333333","6500200","三重區"
"241032","269-UM","2018/08/13 19:19:15","新北市三重區新生街93-4號","121.483605","25.059435","6500200","三重區"
"241007","398-BY","2018/08/13 19:19:19","新北市三重區慈愛街47號","121.485983333333","25.0790583333333","6500200","三重區"
"241020","478-VK","2018/08/13 19:19:10","新北市三重區後竹圍街89號","121.489561666667","25.0730216666667","6500200","三重區"
"241030","480-VK","2018/08/13 19:19:11","新北市三重區新興路40號","121.491586666667","25.05352","6500200","三重區"
"241006","AAD-863","2018/08/13 19:19:16","新北市三重區車路頭街182號","121.483658333333","25.0770933333333","6500200","三重區"
"241029","942-UM","2018/08/13 19:19:15","新北市三重區重安街27號","121.491005","25.0571466666667","6500200","三重區"
"235066","003-UY","2018/08/13 19:19:24","新北市中和區中和路137號","121.501881666667","24.99987","6500300","中和區"
"235064","005-UY","2018/08/13 19:19:11","新北市中和區中和路40巷16號","121.499433333333","25.0012183333333","6500300","中和區"
"235063","006-UY","2018/08/13 19:19:07","新北市中和區圓通路198巷11號","121.495463333333","24.9943616666667","6500300","中和區"
"235056","096-UM","2018/08/13 19:19:11","新北市中和區員山路529號","121.479586666667","25.0069216666667","6500300","中和區"
"235039","097-UM","2018/08/13 19:19:21","新北市中和區秀峰街121號","121.519986666667","24.9908066666667","6500300","中和區"
"235065","098-UM","2018/08/13 19:19:24","新北市中和區中山路二段2巷3弄2號","121.504746666667","25.0061266666667","6500300","中和區"
"235004","150-BY","2018/08/13 19:19:17","新北市中和區保健路50巷5號","121.51036","24.9966016666667","6500300","中和區"
"235058","151-BY","2018/08/13 19:19:25","新北市中和區連城路469巷79弄2號","121.483531666667","24.9936683333333","6500300","中和區"
"235055","183-VK","2018/08/13 19:19:13","新北市中和區莒光路120巷2弄7號","121.472","25.002095","6500300","中和區"
"235038","185-VK","2018/08/13 19:19:10","新北市中和區大仁街108號","121.52049","24.9926983333333","6500300","中和區"
"235049","186-VK","2018/08/13 19:19:21","新北市中和區景新街267號","121.50895","24.99389","6500300","中和區"
"235067","255-BX","2018/08/13 19:19:18","新北市中和區民樂路54號","121.483195","25.0013083333333","6500300","中和區"
"235044","293-VK","2018/08/13 19:19:13","新北市中和區中興街239號","121.500486666667","24.9891533333333","6500300","中和區"
"235043","352-BY","2018/08/13 19:19:11","新北市中和區景平路420號","121.507746666667","24.99325","6500300","中和區"
"235042","KEA-2878","2018/08/13 19:19:21","新北市中和區安樂路143巷2弄5號","121.514083333333","24.9978033333333","6500300","中和區"
"235050","4979-A6","2018/08/13 19:19:07","新北市中和區景安路208巷11號","121.503453333333","24.99122","6500300","中和區"
"235069","4980-A6","2018/08/13 19:19:25","新北市中和區莊敬路33巷2-2號","121.500596666667","25.0049766666667","6500300","中和區"
"235070","558-UM","2018/08/13 19:19:08","新北市中和區中山路二段205號","121.499536666667","25.0025666666667","6500300","中和區"
"235045","565-BX","2018/08/13 19:19:10","新北市中和區景新街423巷35弄15號","121.513911666667","24.9902616666667","6500300","中和區"
"235054","640-BX","2018/08/13 19:19:10","新北市中和區國光街109巷18號","121.469665","24.9999116666667","6500300","中和區"
"235060","647-TV","2018/08/13 19:19:24","新北市中和區員山路467號","121.480358333333","25.0045183333333","6500300","中和區"
"235047","732-UM","2018/08/13 19:19:20","新北市中和區和平街54巷1弄2號","121.508711666667","24.9911233333333","6500300","中和區"
"235046","733-UM","2018/08/13 19:19:17","新北市中和區華新街136號","121.508076666667","24.982595","6500300","中和區"
"235071","783-BX","2018/08/13 19:19:25","新北市中和區連城路469巷73號","121.483486666667","24.9941916666667","6500300","中和區"
"235062","800-TS","2018/08/13 19:19:08","新北市中和區中正路860號","121.484195","25.0051983333333","6500300","中和區"
"235057","801-TS","2018/08/13 19:19:13","新北市中和區員山路315號","121.481246666667","25.0003916666667","6500300","中和區"
"235041","802-TS","2018/08/13 19:19:11","新北市永和區中和路381號","121.50851","24.9998733333333","6500300","中和區"
"235052","805-TS","2018/08/13 19:19:20","新北市中和區華新街137號","121.506581666667","24.98175","6500300","中和區"
"235048","896-TW","2018/08/13 19:19:24","新北市中和區忠孝街112號","121.512168333333","24.98529","6500300","中和區"
"235053","900-TW","2018/08/13 19:19:22","新北市中和區民德路218號","121.468165","24.997895","6500300","中和區"
"235051","157-BY","2018/08/13 19:19:27","新北市中和區和平街2巷4弄2號","121.510006666667","24.9905733333333","6500300","中和區"
"235037","AAC-213","2018/08/13 19:19:13","新北市中和區秀朗路三段10巷37弄4號","121.524018333333","24.99576","6500300","中和區"
"235059","AAC-215","2018/08/13 19:19:21","新北市中和區錦和路201號","121.490758333333","24.9904716666667","6500300","中和區"
"220106","013-TV","2018/08/13 19:19:14","新北市板橋區長江路二段280-1號","121.46997","25.0328083333333","6500100","板橋區"
"220065","015-TV","2018/08/13 19:19:23","新北市板橋區民族路172號","121.467468333333","25.0076583333333","6500100","板橋區"
"220086","073-UY","2018/08/13 19:19:25","新北市板橋區國光路31巷17號","121.456753333333","25.0184866666667","6500100","板橋區"
"220069","AAD-861","2018/08/13 19:19:10","新北市板橋區貴興路39號","121.4575","25.0036983333333","6500100","板橋區"
"226004","312-R5","2018/08/13 19:19:06","新北市平溪區十分里十分街239號","121.778005","25.044155","6502400","平溪區"
"228003","097-TW","2018/08/13 19:19:20","新北市貢寮區和美里和美街22-1號","121.912813333333","25.0826133333333","6502600","貢寮區"
"228001","212-TW","2018/08/13 19:19:18","新北市貢寮區真理里新港街10號","121.925498333333","25.0543516666667","6502600","貢寮區"
"228002","663-BX","2018/08/13 19:19:12","新北市貢寮區雙玉里田寮洋街21號","121.92707","25.0240433333333","6502600","貢寮區"
"224010","AGQ-8101","2018/08/13 19:13:52","新北市瑞芳區金光路334號","121.84841","25.1098766666667","6501200","瑞芳區"
"224008","285-BY","2018/08/13 19:19:13","新北市瑞芳區瑞芳街82-1號","121.802835","25.1100533333333","6501200","瑞芳區"
"227001","642-TC","2018/08/13 19:19:26","新北市雙溪區平林里梅竹蹊66-1號","121.860166666667","25.0358","6502500","雙溪區"
"227008","400-TW","2018/08/13 19:19:25","新北市雙溪區新基里新基北街40號","121.869051666667","25.03827","6502500","雙溪區"
"253005","032-BX","2018/08/13 19:19:10","新北市石門區阿里荖4-7號","121.612311666667","25.2792333333333","6502200","石門區"
"253006","295-VK","2018/08/13 19:19:13","新北市石門區崁子腳61-1號","121.532411666667","25.2876066666667","6502200","石門區"
"222001","KEA-2212","2018/08/13 19:19:25","新北市深坑區北深路二段103號","121.61754","25.0033916666667","6501800","深坑區"
"208002","KEA-2872","2018/08/13 19:19:24","新北市金山區中正路73號","121.633813333333","25.2217516666667","6502700","金山區"
"208003","665-BX","2018/08/13 19:19:21","新北市金山區中山路158號","121.638513333333","25.2208733333333","6502700","金山區"
"208001","761-BX","2018/08/13 19:19:28","新北市金山區慈護街24號","121.639458333333","25.2200716666667","6502700","金山區"
"251005","010-UM","2018/08/13 19:19:14","新北市淡水區水源街一段34巷2號","121.443291666667","25.1721883333333","6501000","淡水區"
"251001","011-UM","2018/08/13 19:19:18","新北市淡水區民權路92巷35-1號","121.462106666667","25.1267033333333","6501000","淡水區"
"251013","KEA-2871","2018/08/13 19:19:22","新北市淡水區安子內12-1號","121.481545","25.2190966666667","6501000","淡水區"
"251016","179-VK","2018/08/13 19:19:21","新北市淡水區下圭柔山119-51號","121.450708333333","25.208485","6501000","淡水區"
"251014","180-VK","2018/08/13 19:19:23","新北市淡水區小中寮19-7號","121.484758333333","25.2296166666667","6501000","淡水區"
"251015","181-VK","2018/08/13 19:19:20","新北市淡水區山子邊5-2號","121.483476666667","25.1843416666667","6501000","淡水區"
"251010","413-VK","2018/08/13 19:19:20","新北市淡水區沙崙路30號","121.42147","25.1814583333333","6501000","淡水區"
"251006","561-UM","2018/08/13 19:19:10","新北市淡水區大信街38號","121.442168333333","25.17727","6501000","淡水區"
"251009","575-R6","2018/08/13 19:19:19","新北市淡水區中正路23號","121.442605","25.1695966666667","6501000","淡水區"
"251007","577-R6","2018/08/13 19:19:22","新北市淡水區民生路117巷43弄1號","121.46484","25.1400566666667","6501000","淡水區"
"251002","672-BX","2018/08/13 19:19:05","新北市淡水區中正路362號","121.434166666667","25.1742266666667","6501000","淡水區"
"251003","766-UM","2018/08/13 19:19:07","新北市淡水區中山北路一段166號","121.44419","25.1783916666667","6501000","淡水區"
"207003","550-UM","2018/08/13 19:19:24","新北市萬里區大鵬里萬里加投79-3號","121.647336666667","25.2123516666667","6502800","萬里區"
"207004","225-TW","2018/08/13 19:19:19","新北市萬里區萬里里成功新村44號","121.687725","25.1746316666667","6502800","萬里區"
"252002","178-VK","2018/08/13 19:19:10","新北市三芝區淡金路二段18-1號","121.502688333333","25.25948","6502100","三芝區"
"252001","292-VK","2018/08/13 19:19:19","新北市三芝區長勤街9巷11弄1號","121.501796666667","25.2546433333333","6502100","三芝區"
"237007","153-BY","2018/08/13 19:19:21","新北市三峽區二鬮路83-1號","121.359328333333","24.9067666666667","6500900","三峽區"
"237009","210-TH","2018/08/13 19:19:17","新北市三峽區民生街223號","121.37133","24.9348033333333","6500900","三峽區"
"237013","252-BX","2018/08/13 19:19:17","新北市三峽區光明路75巷23號","121.377458333333","24.9282183333333","6500900","三峽區"
"237012","275-BY","2018/08/13 19:19:13","新北市三峽區三樹路222巷236弄8-3號","121.391356666667","24.9430383333333","6500900","三峽區"
"237008","302-VK","2018/08/13 19:19:24","新北市三峽區大同路121號","121.374146666667","24.9267816666667","6500900","三峽區"
"237014","433-BY","2018/08/13 19:19:24","新北市三峽區中山路257巷39號","121.362106666667","24.9365033333333","6500900","三峽區"
"237006","5529-G3","2018/08/13 19:19:25","新北市三峽區大同路138號","121.373621666667","24.9267033333333","6500900","三峽區"
"237011","KEA-2596","2018/08/13 19:19:28","新北市三峽區介壽路二段163號","121.393758333333","24.935875","6500900","三峽區"
"237015","649-BX","2018/08/13 19:19:24","新北市三峽區建安83號","121.453673333333","24.9204933333333","6500900","三峽區"
"237010","706-TV","2018/08/13 19:19:10","新北市三峽區國光街36號","121.374803333333","24.937725","6500900","三峽區"
"237005","AKY-6261","2018/08/13 19:19:17","新北市三峽區隆恩街247號","121.357561666667","24.9408616666667","6500900","三峽區"
"236069","105-UM","2018/08/13 19:19:14","新北市土城區中央路一段73號","121.44772","24.989545","6501300","土城區"
"236042","107-UM","2018/08/13 19:19:19","新北市土城區學府路一段239號","121.450365","24.98333","6501300","土城區"
"236078","166-UM","2018/08/13 19:19:24","新北市土城區龍泉路10-1號","121.409635","24.9491783333333","6501300","土城區"
"236026","269-VK","2018/08/13 19:19:18","新北市土城區中央路二段177巷25號","121.443971666667","24.976195","6501300","土城區"
"236014","270-VK","2018/08/13 19:19:21","新北市土城區學府路一段52號","121.457435","24.98857","6501300","土城區"
"236020","401-BY","2018/08/13 19:19:22","新北市土城區峰廷街18號","121.468991666667","24.9872883333333","6501300","土城區"
"236059","912-UM","2018/08/13 19:19:21","新北市土城區中央路二段237號","121.440235","24.972085","6501300","土城區"
"236048","913-UM","2018/08/13 19:19:10","新北市土城區明德路一段365-1號","121.453665","24.979075","6501300","土城區"
"242048","172-VK","2018/08/13 19:19:11","新北市新莊區後港一路1號","121.42399","25.0263866666667","6500500","新莊區"
"238015","755-BX","2018/08/13 19:19:21","新北市樹林區大安路553號","121.412313333333","24.9839183333333","6500700","樹林區"
"238023","601-UM","2018/08/13 19:19:21","新北市樹林區三興路51號","121.395505","25.0143766666667","6500700","樹林區"
"238019","599-UM","2018/08/13 19:19:18","新北市樹林區東榮街90號","121.41596","24.982615","6500700","樹林區"
"238024","5061-A6","2018/08/13 19:19:21","新北市樹林區中山路二段237號","121.40206","24.9760116666667","6500700","樹林區"
"238022","KEA-2213","2018/08/13 19:19:20","新北市樹林區名園街45號","121.419716666667","24.97866","6500700","樹林區"
"238021","KEA-2539","2018/08/13 19:19:19","新北市樹林區柑園街二段303巷22號","121.373845","24.9496566666667","6500700","樹林區"
"238025","303-VK","2018/08/13 19:19:18","新北市樹林區中山路二段64號","121.41575","24.9841583333333","6500700","樹林區"
"238017","283-BY","2018/08/13 19:19:21","新北市樹林區光興街63巷1號","121.410855","25.002565","6500700","樹林區"
"238014","282-BY","2018/08/13 19:19:07","新北市樹林區保安二街55號","121.424681666667","24.9947016666667","6500700","樹林區"
"238020","268-VK","2018/08/13 19:19:24","新北市樹林區俊英街155巷43弄11號","121.422903333333","25.0116433333333","6500700","樹林區"
"238026","172-UY","2018/08/13 19:19:22","新北市樹林區佳園路三段26號","121.388053333333","24.95405","6500700","樹林區"
"238016","169-UY","2018/08/13 19:19:09","新北市樹林區復興路474號","121.413533333333","24.9834633333333","6500700","樹林區"
"239007","AAC-297","2018/08/13 19:17:13","新北市鶯歌區中山路138巷19-1號","121.3517","24.9601633333333","6500800","鶯歌區"
"239006","891-R6","2018/08/13 19:19:16","新北市鶯歌區鶯桃路294-1號","121.334986666667","24.96042","6500800","鶯歌區"
"239008","527-UM","2018/08/13 19:19:26","新北市鶯歌區國際二路6巷18號","121.339153333333","24.9738133333333","6500800","鶯歌區"
"239005","526-UM","2018/08/13 19:19:23","新北市鶯歌區中湖街16號","121.346871666667","24.9728616666667","6500800","鶯歌區"
"239001","417-VK","2018/08/13 19:19:14","新北市鶯歌區建國路608號","121.34053","24.9528416666667","6500800","鶯歌區"
"239003","360-BY","2018/08/13 19:19:24","新北市鶯歌區中正二路3號","121.35183","24.95168","6500800","鶯歌區"
"239002","359-BY","2018/08/13 19:19:10","新北市鶯歌區西湖街182-1號","121.338396666667","24.9649416666667","6500800","鶯歌區"
"239004","193-VK","2018/08/13 19:19:12","新北市鶯歌區中正三路318巷39號","121.327181666667","24.9364833333333","6500800","鶯歌區"
"221008","489-VK","2018/08/13 19:19:23","新北市汐止區康寧街328號","121.627386666667","25.0673516666667","6501100","汐止區"
"221036","130-UY","2018/08/13 19:19:09","新北市汐止區康寧街901號","121.650791666667","25.0752233333333","6501100","汐止區"
"221015","131-UY","2018/08/13 19:16:03","新北市汐止區忠孝東路500巷24弄7號","121.667435","25.0749783333333","6501100","汐止區"
"221010","269-BY","2018/08/13 19:19:24","新北市汐止區康寧街901號","121.651561666667","25.0749383333333","6501100","汐止區"
"221012","278-VK","2018/08/13 19:19:09","新北市汐止區汐萬路一段312號","121.650625","25.0753916666667","6501100","汐止區"
"221023","279-VK","2018/08/13 19:19:14","新北市汐止區康寧街901號","121.650975","25.0751916666667","6501100","汐止區"
"221027","281-BY","2018/08/13 19:19:22","新北市汐止區汐萬路一段312號","121.650661666667","25.0753633333333","6501100","汐止區"
"221029","298-VK","2018/08/13 19:19:14","新北市汐止區康寧街901號","121.651566666667","25.074875","6501100","汐止區"
"221021","299-VK","2018/08/13 19:19:23","新北市汐止區康寧街901號","121.651388333333","25.075005","6501100","汐止區"
"221002","129-UY","2018/08/13 19:19:17","新北市汐止區大同路一段340號","121.637985","25.0590233333333","6501100","汐止區"
"221025","623-UM","2018/08/13 19:19:09","新北市汐止區康寧街901號","121.651463333333","25.074975","6501100","汐止區"
"221038","646-BX","2018/08/13 19:19:25","新北市汐止區康寧街901號","121.650716666667","25.075315","6501100","汐止區"
"221033","647-BX","2018/08/13 19:19:11","新北市汐止區南勢街3號","121.627126666667","25.0373166666667","6501100","汐止區"
"220079","145-BY","2018/08/13 19:19:27","新北市板橋區公館街110號","121.460898333333","25.0167816666667","6500100","板橋區"
"220080","200-UY","2018/08/13 19:19:20","新北市板橋區大觀路二段19巷79號","121.449051666667","25.0029233333333","6500100","板橋區"
"220082","610-BX","2018/08/13 19:19:12","新北市板橋區篤行路三段98號","121.425898333333","24.9846833333333","6500100","板橋區"
"220101","245-BX","2018/08/13 19:19:07","新北市板橋區莊敬路31號","121.473511666667","25.0273233333333","6500100","板橋區"
"220091","267-BY","2018/08/13 19:19:21","新北市板橋區萬板路472號","121.47995","25.0258466666667","6500100","板橋區"
"220056","276-BY","2018/08/13 19:19:13","新北市板橋區信義路113號","121.457681666667","24.9934066666667","6500100","板橋區"
"220072","277-BY","2018/08/13 19:19:13","新北市板橋區金門街337巷9弄1號","121.430476666667","24.9846266666667","6500100","板橋區"
"220071","283-VK","2018/08/13 19:19:10","新北市板橋區忠孝路48巷36號","121.460891666667","25.0004383333333","6500100","板橋區"
"220094","285-UM","2018/08/13 19:19:23","新北市板橋區吳鳳路82號","121.467006666667","25.03126","6500100","板橋區"
"220053","285-VK","2018/08/13 19:19:14","新北市板橋區永豐街146號","121.478151666667","25.021255","6500100","板橋區"
"220083","286-VK","2018/08/13 19:19:23","新北市板橋區大觀路二段174巷188號","121.44218","25.0038216666667","6500100","板橋區"
"220081","287-VK","2018/08/13 19:19:11","新北市板橋區南雅東路89號","121.453213333333","25.0087283333333","6500100","板橋區"
"220090","288-VK","2018/08/13 19:19:27","新北市板橋區長江路一段106巷13弄33號","121.461303333333","25.029735","6500100","板橋區"
"220061","293-UM","2018/08/13 19:19:23","新北市板橋區中山路二段318巷18號","121.480435","25.0188016666667","6500100","板橋區"
"220084","296-UM","2018/08/13 19:19:21","新北市板橋區滿平街136巷6弄11號","121.42758","24.9878083333333","6500100","板橋區"
"220075","303-R5","2018/08/13 19:19:20","新北市板橋區中正路275巷93號","121.451331666667","25.01875","6500100","板橋區"
"220062","305-R5","2018/08/13 19:19:09","新北市板橋區三民路二段153巷32弄2號","121.48101","25.0145866666667","6500100","板橋區"
"220092","307-R5","2018/08/13 19:19:22","新北市板橋區松江街41號","121.468646666667","25.0272616666667","6500100","板橋區"
"220098","317-R6","2018/08/13 19:19:29","新北市板橋區民有街65號","121.465213333333","25.0268416666667","6500100","板橋區"
"220064","486-VK","2018/08/13 19:19:25","新北市板橋區縣民大道二段82號","121.465675","25.0147916666667","6500100","板橋區"
"220088","491-VK","2018/08/13 19:19:23","新北市板橋區雙十路二段4-1號","121.477133333333","25.0254766666667","6500100","板橋區"
"220035","560-BX","2018/08/13 19:19:21","新北市板橋區中正路360巷48號","121.456168333333","25.0228283333333","6500100","板橋區"
"220103","561-BX","2018/08/13 19:19:24","新北市板橋區介壽街47號","121.46884","25.019735","6500100","板橋區"
"220063","609-BX","2018/08/13 19:19:21","新北市板橋區三民路二段76號","121.4792","25.0169","6500100","板橋區"
"220054","630-UY","2018/08/13 19:19:13","新北市板橋區校前街38號","121.460985","25.003145","6500100","板橋區"
"220057","686-BX","2018/08/13 19:19:14","新北市板橋區五權街26號","121.464493333333","24.9936816666667","6500100","板橋區"
"220077","687-BX","2018/08/13 19:19:21","新北市板橋區大觀路一段28巷88號","121.449746666667","25.0109666666667","6500100","板橋區"
"220093","689-BX","2018/08/13 19:19:23","新北市板橋區文化路一段305號","121.465185","25.0191833333333","6500100","板橋區"
"220102","KEA-2699","2018/08/13 19:19:23","新北市板橋區田單街2巷39-3號","121.4824","25.0276016666667","6500100","板橋區"
"220055","827-TW","2018/08/13 19:19:19","新北市板橋區館前東路156巷9號","121.46435","25.0071916666667","6500100","板橋區"
"220067","829-TW","2018/08/13 19:19:22","新北市板橋區長安街138巷1弄56號","121.47398","25.0102233333333","6500100","板橋區"
"220068","830-TW","2018/08/13 19:19:23","新北市板橋區三民路一段1巷49-1號","121.480831666667","25.0248066666667","6500100","板橋區"
"220096","831-TW","2018/08/13 19:19:14","新北市板橋區大同街35巷9號","121.477603333333","25.0276283333333","6500100","板橋區"
"220089","833-TW","2018/08/13 19:19:11","新北市板橋區文化路一段479巷44號","121.467931666667","25.0229383333333","6500100","板橋區"
"220074","895-R6","2018/08/13 19:19:12","新北市板橋區中正路自強新村43號","121.455156666667","25.0138216666667","6500100","板橋區"
"220073","985-R7","2018/08/13 19:19:19","新北市板橋區中正路307號","121.455108333333","25.0197583333333","6500100","板橋區"
"220097","AAC-210","2018/08/13 19:19:17","新北市板橋區幸福路60巷15號","121.46073","25.0206783333333","6500100","板橋區"
"220070","AAC-253","2018/08/13 19:19:20","新北市板橋區忠孝路147號","121.463455","25.0023666666667","6500100","板橋區"
"235068","KEA-2873","2018/08/13 19:19:16","新北市中和區景平路545巷1弄1號","121.498435","24.9991416666667","6500300","中和區"
"235061","KEA-2875","2018/08/13 19:19:00","新北市中和區連城路428巷3號","121.479835","24.9952566666667","6500300","中和區"
