"lineid","car","time","location","longitude","latitude","cityid","cityname"
"234046","148-BY","2018/08/13 19:29:21","新北市永和區秀朗路二段163號","121.5252","25.001645","6500400","永和區"
"234007","207-UY","2018/08/13 19:29:20","新北市永和區永和路二段35號","121.514345","25.0104133333333","6500400","永和區"
"234081","298-R6","2018/08/13 19:29:25","新北市永和區環河東路三段52巷2弄2號","121.526485","25.0061583333333","6500400","永和區"
"234064","337-UY","2018/08/13 19:29:22","新北市永和區中正路368巷1弄86號","121.520405","25.000735","6500400","永和區"
"234086","338-UY","2018/08/13 19:29:20","新北市永和區林森路68號","121.523793333333","25.0040433333333","6500400","永和區"
"234070","552-UM","2018/08/13 19:29:15","新北市永和區警光街31號","121.518531666667","25.009065","6500400","永和區"
"234038","553-UM","2018/08/13 19:29:10","新北市永和區成功路二段65號","121.527353333333","25.0000183333333","6500400","永和區"
"234017","745-BX","2018/08/13 19:29:07","新北市永和區環河西路一段87號","121.512336666667","25.017925","6500400","永和區"
"234030","746-BX","2018/08/13 19:29:10","新北市永和區民生路69號","121.522595","24.9972283333333","6500400","永和區"
"234054","KEA-2590","2018/08/13 19:29:21","新北市永和區復興街23號","121.516173333333","25.0130966666667","6500400","永和區"
"234013","KEA-2591","2018/08/13 19:29:14","新北市永和區中山路一段64號","121.512741666667","25.0107633333333","6500400","永和區"
"234061","AAD-866","2018/08/13 19:29:19","新北市永和區中正路437號","121.51717","25.0051766666667","6500400","永和區"
"234042","862-TW","2018/08/13 19:29:25","新北市永和區水源街39巷6號","121.510461666667","25.003975","6500400","永和區"
"234050","863-TW","2018/08/13 19:29:20","新北市永和區信義路120號","121.51246","25.01468","6500400","永和區"
"234026","9371-KE","2018/08/13 19:29:16","新北市永和區安樂路64號","121.514915","24.9981533333333","6500400","永和區"
"234011","9373-KE","2018/08/13 19:29:11","新北市永和區保福路二段163巷13弄16號","121.509131666667","25.0142316666667","6500400","永和區"
"249002","305-UY","2018/08/13 19:29:19","新北市八里區頂寮二街138號","121.449383333333","25.12941","6502300","八里區"
"249003","593-UM","2018/08/13 19:29:20","新北市八里區商港六路23號","121.396661666667","25.1485983333333","6502300","八里區"
"248016","026-BX","2018/08/13 19:29:09","新北市五股區凌雲路一段30號","121.452071666667","25.1006633333333","6501500","五股區"
"248008","095-VK","2018/08/13 19:29:11","新北市五股區中興路一段93號","121.466696666667","25.0729283333333","6501500","五股區"
"248018","225-UY","2018/08/13 19:28:52","新北市五股區壟路16號","121.415256666667","25.0854966666667","6501500","五股區"
"248012","247-BX","2018/08/13 19:29:23","新北市五股區成泰路二段97號","121.43792","25.084305","6501500","五股區"
"248014","261-SL","2018/08/13 19:29:06","新北市五股區民義路一段157-10號","121.432165","25.0872966666667","6501500","五股區"
"248004","677-BX","2018/08/13 19:29:21","新北市五股區工商路118號","121.436726666667","25.0856816666667","6501500","五股區"
"248002","678-BX","2018/08/13 19:29:28","新北市五股區凌雲路一段158巷14-1號","121.447836666667","25.1034616666667","6501500","五股區"
"248010","682-TV","2018/08/13 19:29:14","新北市五股區水碓二路1號","121.430541666667","25.0713283333333","6501500","五股區"
"234023","9380-KE","2018/08/13 19:29:17","新北市永和區竹林路91巷43弄2號","121.521301666667","25.0128583333333","6500400","永和區"
"234077","969-R7","2018/08/13 19:29:25","新北市永和區民治街60號","121.51819","24.9979283333333","6500400","永和區"
"234074","AAC-211","2018/08/13 19:29:29","新北市永和區竹林路5號","121.5164","25.0149233333333","6500400","永和區"
"234067","AAC-212","2018/08/13 19:29:23","新北市永和區永貞路335號","121.509665","25.00703","6500400","永和區"
"234003","AAC-295","2018/08/13 19:29:15","新北市永和區福和路387號","121.514173333333","25.0076866666667","6500400","永和區"
"244019","403-UM","2018/08/13 19:29:23","新北市林口區嘉寶里69號","121.334741666667","25.1147","6501700","林口區"
"244013","KEA-2802","2018/08/13 19:29:11","新北市林口區頂福里34號","121.354788333333","25.0997583333333","6501700","林口區"
"244023","483-VK","2018/08/13 19:29:20","新北市林口區民有街76號","121.373196666667","25.0768733333333","6501700","林口區"
"243013","AAD-798","2018/08/13 19:29:20","新北市泰山區明志路三段123巷1弄6號","121.425763333333","25.0407266666667","6501600","泰山區"
"243009","297-R6","2018/08/13 19:29:14","新北市泰山區半山雅6號","121.43146","25.0674016666667","6501600","泰山區"
"243016","KEA-2801","2018/08/13 19:29:22","新北市泰山區工專路9號","121.42371","25.039605","6501600","泰山區"
"243015","421-VK","2018/08/13 19:29:12","新北市泰山區明志路二段136巷8號","121.427325","25.0512316666667","6501600","泰山區"
"243011","KEA-2215","2018/08/13 19:29:23","新北市泰山區貴子路120號","121.42829","25.04062","6501600","泰山區"
"243010","KEA-2216","2018/08/13 19:29:18","新北市泰山區民生路17巷63號","121.429288333333","25.050905","6501600","泰山區"
"243012","646-TV","2018/08/13 19:29:16","新北市泰山區仁愛路6巷4弄2號","121.431045","25.0538633333333","6501600","泰山區"
"243014","680-BX","2018/08/13 19:29:19","新北市泰山區仁愛路41號","121.432156666667","25.0552416666667","6501600","泰山區"
"222003","436-BY","2018/08/13 19:29:16","新北市深坑區深南路88巷1號","121.620983333333","25.0116833333333","6501800","深坑區"
"222002","659-BX","2018/08/13 19:29:08","新北市深坑區北深路一段177號","121.632573333333","25.0108566666667","6501800","深坑區"
"231045","001-UM","2018/08/13 19:29:15","新北市新店區北宜路二段213號","121.553228333333","24.9533733333333","6500600","新店區"
"231041","002-UM","2018/08/13 19:29:17","新北市新店區中正路602號","121.533971666667","24.98819","6500600","新店區"
"231059","046-UY","2018/08/13 19:29:14","新北市新店區安和路三段7號","121.518085","24.9805666666667","6500600","新店區"
"231040","047-UY","2018/08/13 19:29:19","新北市新店區北新路一段303號","121.541283333333","24.9674383333333","6500600","新店區"
"231044","106-UY","2018/08/13 19:29:21","新北市新店區中興路三段141號","121.544493333333","24.979835","6500600","新店區"
"231046","107-UY","2018/08/13 19:29:21","新北市新店區安康路一段3-1號","121.535063333333","24.9608366666667","6500600","新店區"
"231052","110-UY","2018/08/13 19:29:24","新北市新店區新烏路二段212-1號","121.547761666667","24.9148233333333","6500600","新店區"
"231047","187-VK","2018/08/13 19:29:23","新北市新店區五峰路149號","121.54496","24.9656783333333","6500600","新店區"
"231054","KEA-2219","2018/08/13 19:29:20","新北市新店區文中路45號","121.539633333333","24.9566433333333","6500600","新店區"
"221031","KEA-2785","2018/08/13 19:29:19","新北市汐止區康寧街901號","121.650886666667","25.0752683333333","6501100","汐止區"
"231057","256-BX","2018/08/13 19:29:19","新北市新店區花園一路二段25號","121.551216666667","24.9324766666667","6500600","新店區"
"231042","268-BY","2018/08/13 19:29:26","新北市新店區中興路一段34號","121.538668333333","24.95852","6500600","新店區"
"231051","278-BY","2018/08/13 19:29:22","新北市新店區中央五街22-1號","121.52917","24.9745283333333","6500600","新店區"
"231050","AAD-862","2018/08/13 19:29:15","新北市新店區竹林路157-1號","121.556801666667","24.94778","6500600","新店區"
"231043","355-BY","2018/08/13 19:29:18","新北市新店區北新路二段177號","121.542723333333","24.9772566666667","6500600","新店區"
"231058","3713-VJ","2018/08/13 19:29:10","新北市新店區寶橋路80號","121.546146666667","24.97554","6500600","新店區"
"231066","4716-K9","2018/08/13 19:29:16","新北市新店區安康路三段355巷1號","121.484338333333","24.9507283333333","6500600","新店區"
"231065","512-UM","2018/08/13 19:29:22","新北市新店區安祥路109巷1弄91號","121.478746666667","24.960305","6500600","新店區"
"231049","513-UM","2018/08/13 19:29:07","新北市新店區二十張路1巷2弄3號","121.540171666667","24.9819816666667","6500600","新店區"
"231061","619-UM","2018/08/13 19:29:25","新北市新店區安康路一段285號","121.523281666667","24.9636166666667","6500600","新店區"
"231063","641-BX","2018/08/13 19:29:12","新北市新店區達觀路16號","121.503036666667","24.94087","6500600","新店區"
"231068","718-UY","2018/08/13 19:28:59","新北市新店區安一路一段1-1號","121.519441666667","24.96117","6500600","新店區"
"231064","719-UM","2018/08/13 19:29:10","新北市新店區安康路二段85巷13號","121.513826666667","24.9621583333333","6500600","新店區"
"231062","720-UM","2018/08/13 19:29:16","新北市新店區莒光路67號","121.523761666667","24.95662","6500600","新店區"
"231060","897-TW","2018/08/13 19:29:11","新北市新店區安康路二段1-3號","121.516763333333","24.9638216666667","6500600","新店區"
"231055","AKT-0513","2018/08/13 19:29:12","新北市新店區新生街5巷18號","121.539546666667","24.9655916666667","6500600","新店區"
"241028","022-UY","2018/08/13 19:29:14","新北市三重區中寮街90號","121.493193333333","25.0580516666667","6500200","三重區"
"241008","059-VK","2018/08/13 19:29:29","新北市三重區永福街135巷36號","121.477366666667","25.0772316666667","6500200","三重區"
"241022","060-VK","2018/08/13 19:29:11","新北市三重區三民街151號","121.484296666667","25.0643083333333","6500200","三重區"
"241031","061-VK","2018/08/13 19:29:22","新北市三重區重新路四段184巷40號","121.48822","25.0550483333333","6500200","三重區"
"241017","063-VK","2018/08/13 19:29:15","新北市三重區大仁街59號","121.493646666667","25.0660466666667","6500200","三重區"
"241026","066-VK","2018/08/13 19:29:21","新北市三重區文化南路47巷35號","121.499396666667","25.0611583333333","6500200","三重區"
"241035","265-UM","2018/08/13 19:29:14","新北市三重區信義西街1號","121.498105","25.0647966666667","6500200","三重區"
"241009","267-UM","2018/08/13 19:29:13","新北市三重區溪尾街242巷41號","121.486635","25.0816066666667","6500200","三重區"
"241032","269-UM","2018/08/13 19:29:15","新北市三重區三陽路25號","121.485618333333","25.0587833333333","6500200","三重區"
"241013","270-UM","2018/08/13 19:29:16","新北市三重區仁愛街104號","121.495371666667","25.07412","6500200","三重區"
"241025","271-UM","2018/08/13 19:29:13","新北市三重區頂崁街210巷27號","121.475795","25.06813","6500200","三重區"
"241007","398-BY","2018/08/13 19:29:19","新北市三重區溪尾街150號","121.489005","25.079945","6500200","三重區"
"241020","478-VK","2018/08/13 19:29:10","新北市三重區三和路四段44巷4號","121.49022","25.0743116666667","6500200","三重區"
"241030","480-VK","2018/08/13 19:29:11","新北市三重區成功路41巷13號","121.490286666667","25.0515416666667","6500200","三重區"
"241006","AAD-863","2018/08/13 19:29:16","新北市三重區車路頭街107號","121.48443","25.0747683333333","6500200","三重區"
"241029","942-UM","2018/08/13 19:29:16","新北市三重區中正南路216號","121.493878333333","25.0551283333333","6500200","三重區"
"235066","003-UY","2018/08/13 19:29:24","新北市中和區景新街43號","121.504061666667","24.9992416666667","6500300","中和區"
"235064","005-UY","2018/08/13 19:29:11","新北市中和區南山路13號","121.502125","24.9992866666667","6500300","中和區"
"235063","006-UY","2018/08/13 19:29:27","新北市中和區連城路219巷17號","121.494853333333","24.996185","6500300","中和區"
"235056","096-UM","2018/08/13 19:29:11","新北市中和區民富街7號","121.476613333333","25.0072083333333","6500300","中和區"
"235039","097-UM","2018/08/13 19:29:21","新北市中和區秀峰街103巷4弄1號","121.520385","24.9899366666667","6500300","中和區"
"235065","098-UM","2018/08/13 19:29:24","新北市中和區中山路二段2巷17號","121.503728333333","25.00674","6500300","中和區"
"235004","150-BY","2018/08/13 19:29:17","新北市中和區景安路79巷36號","121.507238333333","24.9961883333333","6500300","中和區"
"235058","151-BY","2018/08/13 19:29:25","新北市中和區連城路372-2號","121.481656666667","24.9953416666667","6500300","中和區"
"235055","183-VK","2018/08/13 19:29:13","新北市中和區民享街56號","121.474015","25.0024466666667","6500300","中和區"
"235038","185-VK","2018/08/13 19:29:10","新北市中和區自立路125號","121.52194","24.994185","6500300","中和區"
"235049","186-VK","2018/08/13 19:29:12","新北市中和區景新街273巷8號","121.50978","24.9938166666667","6500300","中和區"
"235067","255-BX","2018/08/13 19:29:18","新北市中和區連城路340巷3號","121.482786666667","24.99597","6500300","中和區"
"235044","293-VK","2018/08/13 19:29:13","新北市中和區捷運路122號","121.505413333333","24.99151","6500300","中和區"
"235043","352-BY","2018/08/13 19:29:11","新北市中和區南華路73號","121.504883333333","24.9973466666667","6500300","中和區"
"235042","KEA-2878","2018/08/13 19:29:22","新北市中和區中和路350巷8弄14號","121.51033","25.00021","6500300","中和區"
"235050","4979-A6","2018/08/13 19:29:27","新北市中和區中正路448號","121.490903333333","24.9941516666667","6500300","中和區"
"235070","558-UM","2018/08/13 19:29:28","新北市中和區景平路634-13號","121.49825","24.9999016666667","6500300","中和區"
"235045","565-BX","2018/08/13 19:29:10","新北市中和區景新街399巷8號","121.513006666667","24.9898133333333","6500300","中和區"
"235054","640-BX","2018/08/13 19:29:10","新北市中和區國光街112巷18弄20號","121.470555","25.001815","6500300","中和區"
"235060","647-TV","2018/08/13 19:29:24","新北市中和區民樂路15號","121.481945","25.001785","6500300","中和區"
"235047","732-UM","2018/08/13 19:29:20","新北市中和區景平路241巷28號","121.508765","24.9924833333333","6500300","中和區"
"235046","733-UM","2018/08/13 19:29:17","新北市中和區忠孝街37巷67號","121.51065","24.9846283333333","6500300","中和區"
"235071","783-BX","2018/08/13 19:29:25","新北市中和區中正路637巷18弄20號","121.484311666667","24.995085","6500300","中和區"
"235057","801-TS","2018/08/13 19:29:13","新北市中和區中山路三段37巷35號","121.479591666667","25.0047883333333","6500300","中和區"
"235041","802-TS","2018/08/13 19:29:11","新北市中和區中安街98-1號","121.511773333333","25.0013016666667","6500300","中和區"
"235052","805-TS","2018/08/13 19:29:20","新北市中和區華新街143巷69弄37號","121.507821666667","24.9790666666667","6500300","中和區"
"235048","896-TW","2018/08/13 19:29:24","新北市中和區忠孝街154號","121.51283","24.9875883333333","6500300","中和區"
"235053","900-TW","2018/08/13 19:29:22","新北市中和區華順街2巷2號","121.467656666667","24.998805","6500300","中和區"
"235051","157-BY","2018/08/13 19:29:27","新北市中和區景新街230-5號","121.508515","24.9940766666667","6500300","中和區"
"235037","AAC-213","2018/08/13 19:29:13","新北市中和區秀朗路三段10巷14弄16號","121.524963333333","24.9966066666667","6500300","中和區"
"235059","AAC-215","2018/08/13 19:29:11","新北市中和區圓通路252巷18弄1號","121.492295","24.9925566666667","6500300","中和區"
"220106","013-TV","2018/08/13 19:29:14","新北市板橋區江寧路三段131巷2號","121.473643333333","25.033305","6500100","板橋區"
"220065","015-TV","2018/08/13 19:29:23","新北市板橋區國泰街75巷28弄58號","121.467655","25.0045266666667","6500100","板橋區"
"220086","073-UY","2018/08/13 19:29:27","新北市板橋區中正路236巷35號","121.457403333333","25.019285","6500100","板橋區"
"220069","AAD-861","2018/08/13 19:29:10","新北市板橋區稚暉街1號","121.455988333333","25.0044916666667","6500100","板橋區"
"226004","312-R5","2018/08/13 19:29:26","新北市平溪區靜安路三段388號","121.782156666667","25.0484166666667","6502400","平溪區"
"228003","097-TW","2018/08/13 19:29:20","新北市貢寮區和美里和美街19-2號","121.912818333333","25.082605","6502600","貢寮區"
"228001","212-TW","2018/08/13 19:29:18","新北市貢寮區真理里大澳街60號","121.925476666667","25.0568","6502600","貢寮區"
"228002","663-BX","2018/08/13 19:29:12","新北市貢寮區龍門里龍門街60-1號","121.932593333333","25.0266566666667","6502600","貢寮區"
"224010","AGQ-8101","2018/08/13 19:29:12","新北市瑞芳區基山街127號","121.84409","25.108535","6501200","瑞芳區"
"224002","639-TC","2018/08/13 19:29:15","新北市瑞芳區三爪子坑路41號","121.813176666667","25.1074516666667","6501200","瑞芳區"
"224008","285-BY","2018/08/13 19:29:13","新北市瑞芳區一坑路146號","121.802065","25.1088083333333","6501200","瑞芳區"
"227001","642-TC","2018/08/13 19:29:26","新北市雙溪區雙溪里光復街14號","121.865045","25.03539","6502500","雙溪區"
"227008","400-TW","2018/08/13 19:29:25","新北市雙溪區新基里新基北街43號","121.868181666667","25.0396816666667","6502500","雙溪區"
"253005","032-BX","2018/08/13 19:29:10","新北市石門區小坑9號","121.594295","25.2886083333333","6502200","石門區"
"253006","295-VK","2018/08/13 19:29:18","新北市石門區楓林17-10號","121.53642","25.292915","6502200","石門區"
"222001","KEA-2212","2018/08/13 19:29:25","新北市深坑區深坑街10號","121.615816666667","25.0028483333333","6501800","深坑區"
"208002","KEA-2872","2018/08/13 19:29:24","新北市金山區中華路106號","121.633861666667","25.2201383333333","6502700","金山區"
"208003","665-BX","2018/08/13 19:29:21","新北市金山區中山路263巷14號","121.636396666667","25.221605","6502700","金山區"
"208001","761-BX","2018/08/13 19:29:08","新北市金山區金包里街93號","121.63788","25.2221183333333","6502700","金山區"
"251005","010-UM","2018/08/13 19:29:12","新北市淡水區水源街一段71巷11號","121.444438333333","25.1728766666667","6501000","淡水區"
"251001","011-UM","2018/08/13 19:29:18","新北市淡水區民權路161號","121.459996666667","25.1360116666667","6501000","淡水區"
"251013","KEA-2871","2018/08/13 19:29:22","新北市淡水區安子內16-1號","121.477478333333","25.21899","6501000","淡水區"
"251016","179-VK","2018/08/13 19:29:21","新北市淡水區下圭柔山119-51號","121.450678333333","25.20847","6501000","淡水區"
"251014","180-VK","2018/08/13 19:29:23","新北市淡水區小中寮15-1號","121.485691666667","25.2303616666667","6501000","淡水區"
"251015","181-VK","2018/08/13 19:29:20","新北市淡水區山子頂24-1號","121.491478333333","25.1872616666667","6501000","淡水區"
"251010","413-VK","2018/08/13 19:29:20","新北市淡水區淡海路252號","121.420426666667","25.1869933333333","6501000","淡水區"
"251012","441-VK","2018/08/13 19:29:09","新北市淡水區崁頂108號","121.433158333333","25.2042583333333","6501000","淡水區"
"251008","442-VK","2018/08/13 19:29:13","新北市淡水區中正路一段156巷1號","121.42113","25.1796316666667","6501000","淡水區"
"251006","561-UM","2018/08/13 19:29:15","新北市淡水區大義街43號","121.441836666667","25.1783066666667","6501000","淡水區"
"251009","575-R6","2018/08/13 19:29:19","新北市淡水區大忠街5巷9號","121.443381666667","25.1765516666667","6501000","淡水區"
"251007","577-R6","2018/08/13 19:29:22","新北市淡水區淡金路33-11號","121.457196666667","25.1619833333333","6501000","淡水區"
"251011","650-BX","2018/08/13 19:29:12","新北市淡水區中正東路二段143巷2弄1號","121.46059","25.1473366666667","6501000","淡水區"
"251002","672-BX","2018/08/13 19:29:26","新北市淡水區濱海路三段148巷50弄76號","121.43108","25.19126","6501000","淡水區"
"207003","550-UM","2018/08/13 19:29:24","新北市萬里區大鵬里萬里加投193號","121.64446","25.214525","6502800","萬里區"
"207004","225-TW","2018/08/13 19:29:13","新北市萬里區萬里里瑪鋉路127-8號","121.688876666667","25.1778616666667","6502800","萬里區"
"252002","178-VK","2018/08/13 19:29:10","新北市三芝區淡金路二段18-1號","121.502678333333","25.2595","6502100","三芝區"
"252001","292-VK","2018/08/13 19:29:19","新北市三芝區長勤街63-3號","121.500083333333","25.25568","6502100","三芝區"
"237007","153-BY","2018/08/13 19:29:21","新北市三峽區二鬮路136巷43號","121.358136666667","24.9088233333333","6500900","三峽區"
"237009","210-TH","2018/08/13 19:29:17","新北市三峽區長福街2號","121.369878333333","24.9337633333333","6500900","三峽區"
"237013","252-BX","2018/08/13 19:29:17","新北市三峽區介壽路一段276巷90號","121.379846666667","24.928845","6500900","三峽區"
"237012","275-BY","2018/08/13 19:29:13","新北市三峽區三樹路110號","121.37833","24.939225","6500900","三峽區"
"237008","302-VK","2018/08/13 19:29:24","新北市三峽區中正路一段105號","121.374231666667","24.929455","6500900","三峽區"
"237014","433-BY","2018/08/13 19:29:24","新北市三峽區中山路124號","121.365523333333","24.9359666666667","6500900","三峽區"
"237006","5529-G3","2018/08/13 19:29:25","新北市三峽區中正路一段336巷15弄2號","121.369958333333","24.9249433333333","6500900","三峽區"
"237011","KEA-2596","2018/08/13 19:29:08","新北市三峽區介壽路二段163號","121.393763333333","24.9358716666667","6500900","三峽區"
"237015","649-BX","2018/08/13 19:29:24","新北市三峽區建安22號","121.446193333333","24.9274133333333","6500900","三峽區"
"237010","706-TV","2018/08/13 19:29:20","新北市三峽區民生街68號","121.374665","24.9359566666667","6500900","三峽區"
"237005","AKY-6261","2018/08/13 19:29:17","新北市三峽區復興路367巷1弄2號","121.363911666667","24.938085","6500900","三峽區"
"236069","105-UM","2018/08/13 19:29:14","新北市土城區學府路一段161號","121.453131666667","24.98586","6501300","土城區"
"236042","107-UM","2018/08/13 19:29:19","新北市土城區學府路一段239號","121.450366666667","24.9833483333333","6501300","土城區"
"236078","166-UM","2018/08/13 19:29:24","新北市土城區中州路3巷43號","121.413431666667","24.956255","6501300","土城區"
"236026","269-VK","2018/08/13 19:29:18","新北市土城區中央路二段61巷22號","121.443185","24.9786533333333","6501300","土城區"
"236014","270-VK","2018/08/13 19:29:27","新北市土城區廣明街41巷38號","121.45393","24.9925733333333","6501300","土城區"
"236020","401-BY","2018/08/13 19:29:22","新北市土城區峰廷街18號","121.46898","24.98726","6501300","土城區"
"236048","913-UM","2018/08/13 19:29:26","新北市土城區清水路186號","121.460205","24.9817183333333","6501300","土城區"
"242023","362-BY","2018/08/13 19:29:18","新北市新莊區新泰路357巷3弄1號","121.442376666667","25.0413366666667","6500500","新莊區"
"242031","135-UY","2018/08/13 19:29:18","新北市新莊區新泰路225巷22弄8號","121.445025","25.0393066666667","6500500","新莊區"
"242048","172-VK","2018/08/13 19:29:11","新北市新莊區後港一路3號","121.424083333333","25.0263016666667","6500500","新莊區"
"242004","176-VK","2018/08/13 19:29:21","新北市新莊區化成路11巷83號","121.462355","25.0434933333333","6500500","新莊區"
"242013","347-TH","2018/08/13 19:29:13","新北市新莊區新泰路357巷3弄57號","121.442165","25.0395833333333","6500500","新莊區"
"238015","755-BX","2018/08/13 19:29:18","新北市樹林區中興街48號","121.421093333333","24.9911716666667","6500700","樹林區"
"238023","601-UM","2018/08/13 19:29:24","新北市樹林區三福街13號","121.408868333333","25.016725","6500700","樹林區"
"238019","599-UM","2018/08/13 19:29:18","新北市樹林區大同街15號","121.418383333333","24.982645","6500700","樹林區"
"238024","5061-A6","2018/08/13 19:29:21","新北市樹林區福德街48-15號","121.398806666667","24.9744516666667","6500700","樹林區"
"238022","KEA-2213","2018/08/13 19:29:20","新北市樹林區太元街110巷1號","121.41956","24.977535","6500700","樹林區"
"238021","KEA-2539","2018/08/13 19:29:19","新北市樹林區大成路155-1號","121.381741666667","24.9485283333333","6500700","樹林區"
"238025","303-VK","2018/08/13 19:29:18","新北市樹林區中山路一段115-3號","121.422813333333","24.990285","6500700","樹林區"
"238017","283-BY","2018/08/13 19:29:26","新北市樹林區保安街二段54號","121.415406666667","25.00239","6500700","樹林區"
"238014","282-BY","2018/08/13 19:29:07","新北市樹林區保安二街64巷17號","121.424436666667","24.9964916666667","6500700","樹林區"
"238020","268-VK","2018/08/13 19:29:24","新北市樹林區俊英街125巷9號","121.423841666667","25.010815","6500700","樹林區"
"238026","172-UY","2018/08/13 19:29:22","新北市樹林區佳園路二段121號","121.390243333333","24.958155","6500700","樹林區"
"238016","169-UY","2018/08/13 19:29:09","新北市樹林區大安路593號","121.411665","24.983255","6500700","樹林區"
"239007","AAC-297","2018/08/13 19:29:13","新北市鶯歌區大湖路余厝巷11號","121.341985","24.96152","6500800","鶯歌區"
"239006","891-R6","2018/08/13 19:29:16","新北市鶯歌區鶯桃路91巷42弄2號","121.336931666667","24.9520916666667","6500800","鶯歌區"
"239008","527-UM","2018/08/13 19:29:11","新北市鶯歌區大湖路333號","121.341443333333","24.9724466666667","6500800","鶯歌區"
"239005","526-UM","2018/08/13 19:29:23","新北市鶯歌區東湖路30號","121.35547","24.9718716666667","6500800","鶯歌區"
"239001","417-VK","2018/08/13 19:29:25","新北市鶯歌區鶯桃路16號","121.342253333333","24.9515816666667","6500800","鶯歌區"
"239003","360-BY","2018/08/13 19:29:24","新北市鶯歌區光明街206號","121.342913333333","24.955935","6500800","鶯歌區"
"239002","359-BY","2018/08/13 19:29:10","新北市鶯歌區湖山路54號","121.339551666667","24.974995","6500800","鶯歌區"
"239004","193-VK","2018/08/13 19:29:12","新北市鶯歌區二甲路106巷2號","121.333931666667","24.9313066666667","6500800","鶯歌區"
"221008","489-VK","2018/08/13 19:29:24","新北市汐止區康寧街237號","121.624213333333","25.0667483333333","6501100","汐止區"
"221036","130-UY","2018/08/13 19:29:09","新北市汐止區康寧街901號","121.650701666667","25.0753216666667","6501100","汐止區"
"221015","131-UY","2018/08/13 19:29:23","新北市汐止區汐萬路一段256巷3號","121.652925","25.0744166666667","6501100","汐止區"
"221010","269-BY","2018/08/13 19:29:24","新北市汐止區連峰街5巷2號","121.646503333333","25.0768516666667","6501100","汐止區"
"221012","278-VK","2018/08/13 19:26:30","新北市汐止區長興街一段35號","121.669691666667","25.0794266666667","6501100","汐止區"
"221023","279-VK","2018/08/13 19:29:14","新北市汐止區康寧街611號","121.63622","25.0709866666667","6501100","汐止區"
"221027","281-BY","2018/08/13 19:29:22","新北市汐止區忠孝東路9號","121.658315","25.0658833333333","6501100","汐止區"
"221029","298-VK","2018/08/13 19:29:14","新北市汐止區康寧街901號","121.651503333333","25.0748916666667","6501100","汐止區"
"221021","299-VK","2018/08/13 19:29:23","新北市汐止區康寧街901號","121.651398333333","25.0750016666667","6501100","汐止區"
"221002","129-UY","2018/08/13 19:29:17","新北市汐止區大同路一段337巷17弄2號","121.63713","25.059755","6501100","汐止區"
"221025","623-UM","2018/08/13 19:29:24","新北市汐止區秀峰路57號","121.65975","25.065055","6501100","汐止區"
"221038","646-BX","2018/08/13 19:29:25","新北市汐止區汐萬路一段24號","121.65577","25.0679566666667","6501100","汐止區"
"221033","647-BX","2018/08/13 19:29:11","新北市汐止區南勢街3號","121.627136666667","25.037435","6501100","汐止區"
"220079","145-BY","2018/08/13 19:29:26","新北市板橋區建國街5號","121.457256666667","25.0168983333333","6500100","板橋區"
"220080","200-UY","2018/08/13 19:29:20","新北市板橋區大觀路二段3巷74號","121.449648333333","25.0032733333333","6500100","板橋區"
"220082","610-BX","2018/08/13 19:29:12","新北市板橋區金門街100-2號","121.433078333333","24.9923233333333","6500100","板橋區"
"220101","245-BX","2018/08/13 19:29:27","新北市板橋區縣民大道三段133巷19號","121.477118333333","25.0238383333333","6500100","板橋區"
"220091","267-BY","2018/08/13 19:29:24","新北市板橋區文聖街149巷23弄7號","121.479275","25.0287266666667","6500100","板橋區"
"220056","276-BY","2018/08/13 19:29:13","新北市板橋區信義路1巷26弄41號","121.459255","24.9966866666667","6500100","板橋區"
"220072","277-BY","2018/08/13 19:29:13","新北市板橋區篤行路二段151巷12號","121.430393333333","24.9874566666667","6500100","板橋區"
"220071","283-VK","2018/08/13 19:29:10","新北市板橋區忠孝路2號","121.459416666667","25.001705","6500100","板橋區"
"220094","285-UM","2018/08/13 19:29:23","新北市板橋區吳鳳路50巷12號","121.46892","25.0301783333333","6500100","板橋區"
"220053","285-VK","2018/08/13 19:29:24","新北市板橋區永豐街116號","121.476223333333","25.0208","6500100","板橋區"
"220083","286-VK","2018/08/13 19:29:23","新北市板橋區龍興街73巷9號","121.443385","25.0022916666667","6500100","板橋區"
"220081","287-VK","2018/08/13 19:29:11","新北市板橋區南雅南路一段106號","121.454683333333","25.0044083333333","6500100","板橋區"
"220090","288-VK","2018/08/13 19:29:07","新北市板橋區裕民街94巷1弄2號","121.46003","25.028355","6500100","板橋區"
"220061","293-UM","2018/08/13 19:29:23","新北市板橋區中山路二段265號","121.477558333333","25.0175966666667","6500100","板橋區"
"220084","296-UM","2018/08/13 19:29:24","新北市板橋區滿平街84巷120弄20號","121.426373333333","24.985765","6500100","板橋區"
"220075","303-R5","2018/08/13 19:29:20","新北市板橋區大勇街10巷21號","121.453456666667","25.017425","6500100","板橋區"
"220062","305-R5","2018/08/13 19:29:09","新北市板橋區三民路二段123巷15號","121.480013333333","25.0156133333333","6500100","板橋區"
"220092","307-R5","2018/08/13 19:29:22","新北市板橋區光武街4巷11號","121.4682","25.0254966666667","6500100","板橋區"
"220098","317-R6","2018/08/13 19:29:12","新北市板橋區民有街133號","121.464175","25.02878","6500100","板橋區"
"220064","486-VK","2018/08/13 19:29:25","新北市板橋區中山路一段88號","121.461998333333","25.01009","6500100","板橋區"
"220088","491-VK","2018/08/13 19:29:22","新北市板橋區文化路二段446號","121.474553333333","25.032385","6500100","板橋區"
"220035","560-BX","2018/08/13 19:29:21","新北市板橋區中正路399巷17號","121.452865","25.0227316666667","6500100","板橋區"
"220103","561-BX","2018/08/13 19:29:16","新北市板橋區文化路一段212巷2弄1號","121.466565","25.0199866666667","6500100","板橋區"
"220063","609-BX","2018/08/13 19:29:22","新北市板橋區三民路一段31巷82號","121.481106666667","25.02324","6500100","板橋區"
"220054","630-UY","2018/08/13 19:29:13","新北市板橋區光明街54號","121.4609","25.0026416666667","6500100","板橋區"
"220057","686-BX","2018/08/13 19:29:26","新北市板橋區和平路31號","121.460135","24.9957966666667","6500100","板橋區"
"220077","687-BX","2018/08/13 19:29:21","新北市板橋區僑中二街114巷2號","121.44578","25.0068183333333","6500100","板橋區"
"220093","689-BX","2018/08/13 19:29:23","新北市板橋區英士路51號","121.46097","25.024545","6500100","板橋區"
"220102","KEA-2699","2018/08/13 19:29:23","新北市板橋區雙十路二段112號","121.474558333333","25.028835","6500100","板橋區"
"220055","827-TW","2018/08/13 19:29:26","新北市板橋區重慶路278巷18-1號","121.462391666667","24.9996116666667","6500100","板橋區"
"220067","829-TW","2018/08/13 19:29:22","新北市板橋區漢生東路313巷12號","121.472575","25.0083816666667","6500100","板橋區"
"220068","830-TW","2018/08/13 19:29:23","新北市板橋區翠華街6巷119號","121.481815","25.0249766666667","6500100","板橋區"
"220096","831-TW","2018/08/13 19:29:14","新北市板橋區萬板路165號","121.474048333333","25.0235","6500100","板橋區"
"220089","833-TW","2018/08/13 19:29:14","新北市板橋區文化路一段135號","121.462173333333","25.015195","6500100","板橋區"
"220074","895-R6","2018/08/13 19:29:16","新北市板橋區中正路25巷13號","121.454873333333","25.0125533333333","6500100","板橋區"
"220073","985-R7","2018/08/13 19:29:18","新北市板橋區新生街41號","121.456978333333","25.0210966666667","6500100","板橋區"
"220097","AAC-210","2018/08/13 19:29:22","新北市板橋區陽明街29巷1弄42號","121.463093333333","25.0224983333333","6500100","板橋區"
"220070","AAC-253","2018/08/13 19:29:20","新北市板橋區四川路一段36號","121.459573333333","25.0060933333333","6500100","板橋區"
"235068","KEA-2873","2018/08/13 19:29:26","新北市中和區景平路493巷12弄23號","121.49867","24.997025","6500300","中和區"
"235061","KEA-2875","2018/08/13 19:29:23","新北市中和區民利街9巷2弄6號","121.480476666667","24.998745","6500300","中和區"
