"lineid","car","time","location","longitude","latitude","cityid","cityname"
"234046","148-BY","2018/08/13 19:49:21","新北市永和區秀朗路二段173巷8弄7號","121.525983333333","25.0023783333333","6500400","永和區"
"234007","207-UY","2018/08/13 19:49:26","新北市中和區中和路236號","121.506986666667","24.9995266666667","6500400","永和區"
"234081","298-R6","2018/08/13 19:49:25","新北市永和區林森路24號","121.525843333333","25.0052116666667","6500400","永和區"
"234064","337-UY","2018/08/13 19:49:22","新北市永和區中正路368巷27號","121.518505","25.0008616666667","6500400","永和區"
"234086","338-UY","2018/08/13 19:49:28","新北市永和區中正路566號","121.5172","25.006115","6500400","永和區"
"234070","552-UM","2018/08/13 19:49:15","新北市永和區竹林路78號","121.519311666667","25.0127483333333","6500400","永和區"
"234038","553-UM","2018/08/13 19:49:10","新北市永和區民樂街59巷5號","121.52792","24.99848","6500400","永和區"
"234017","745-BX","2018/08/13 19:49:07","新北市永和區忠孝街26巷8號","121.515338333333","25.01668","6500400","永和區"
"234030","746-BX","2018/08/13 19:49:10","新北市永和區民生路67巷56號","121.525491666667","24.9975383333333","6500400","永和區"
"234054","KEA-2590","2018/08/13 19:49:20","新北市永和區竹林路39巷28弄21號","121.520013333333","25.014455","6500400","永和區"
"234013","KEA-2591","2018/08/13 19:49:14","新北市永和區仁愛路206號","121.509256666667","25.012255","6500400","永和區"
"234061","AAD-866","2018/08/13 19:49:29","新北市永和區中正路170號","121.515151666667","24.99671","6500400","永和區"
"234042","862-TW","2018/08/13 19:49:25","新北市永和區中和路389巷8號","121.508096666667","25.0009466666667","6500400","永和區"
"234050","863-TW","2018/08/13 19:49:20","新北市永和區保安路77號","121.508616666667","25.014885","6500400","永和區"
"234026","9371-KE","2018/08/13 19:49:16","新北市永和區雙和街20巷1號","121.509135","25.0021783333333","6500400","永和區"
"234011","9373-KE","2018/08/13 19:49:11","新北市永和區仁愛路352巷94號","121.501193333333","25.0080833333333","6500400","永和區"
"249001","173-UM","2018/08/13 19:49:26","新北市八里區中華路二段252號","121.405405","25.149695","6502300","八里區"
"249004","303-UY","2018/08/13 19:49:16","新北市八里區仁愛路21號","121.413321666667","25.160925","6502300","八里區"
"249002","305-UY","2018/08/13 19:49:21","新北市八里區頂寮三街46號","121.451258333333","25.126015","6502300","八里區"
"249003","593-UM","2018/08/13 19:49:07","新北市八里區中華路二段558號","121.39871","25.14525","6502300","八里區"
"248016","026-BX","2018/08/13 19:49:28","新北市五股區成泰路三段601巷17-1號","121.451756666667","25.1033083333333","6501500","五股區"
"248008","095-VK","2018/08/13 19:49:28","新北市五股區四維路155巷34號","121.466771666667","25.0744416666667","6501500","五股區"
"248018","225-UY","2018/08/13 19:49:12","新北市五股區外寮路189巷41號","121.428681666667","25.0759583333333","6501500","五股區"
"248012","247-BX","2018/08/13 19:49:23","新北市五股區蓬萊路1-3號","121.434495","25.0796466666667","6501500","五股區"
"248014","261-SL","2018/08/13 19:49:26","新北市五股區五福路32巷26號","121.435046666667","25.0897166666667","6501500","五股區"
"248004","677-BX","2018/08/13 19:49:21","新北市五股區成泰路一段34巷1號","121.435115","25.0684033333333","6501500","五股區"
"248002","678-BX","2018/08/13 19:49:28","新北市五股區成泰路四段15-6號","121.453403333333","25.1069133333333","6501500","五股區"
"248010","682-TV","2018/08/13 19:49:14","新北市五股區登林路貿商巷1弄1號","121.43048","25.0696133333333","6501500","五股區"
"234077","969-R7","2018/08/13 19:49:10","新北市永和區民權路33號","121.520046666667","24.9977416666667","6500400","永和區"
"234074","AAC-211","2018/08/13 19:49:28","新北市永和區竹林路213巷30號","121.522446666667","25.0089983333333","6500400","永和區"
"234067","AAC-212","2018/08/13 19:49:11","新北市永和區保平路236巷24弄15號","121.508515","25.0070416666667","6500400","永和區"
"234003","AAC-295","2018/08/13 19:49:20","新北市永和區福和路318號","121.515788333333","25.0072716666667","6500400","永和區"
"244013","KEA-2802","2018/08/13 19:49:11","新北市八里區下罟子1-5號","121.388776666667","25.1422666666667","6501700","林口區"
"243013","AAD-798","2018/08/13 19:39:28","新北市泰山區應化街7號","121.42389","25.043705","6501600","泰山區"
"243009","297-R6","2018/08/13 19:49:14","新北市泰山區美寧街68號","121.431076666667","25.06469","6501600","泰山區"
"243016","KEA-2801","2018/08/13 19:49:22","新北市泰山區新北大道七段97號","121.41784","25.032025","6501600","泰山區"
"243015","421-VK","2018/08/13 19:49:12","新北市泰山區明志路二段214巷9號","121.426755","25.0489333333333","6501600","泰山區"
"243011","KEA-2215","2018/08/13 19:49:23","新北市泰山區明志路三段196巷21弄11號","121.422835","25.0385316666667","6501600","泰山區"
"243010","KEA-2216","2018/08/13 19:49:18","新北市泰山區民生路33號","121.430841666667","25.0521816666667","6501600","泰山區"
"243012","646-TV","2018/08/13 19:49:15","新北市泰山區全興路7巷2號","121.432358333333","25.0590416666667","6501600","泰山區"
"243014","680-BX","2018/08/13 19:49:19","新北市泰山區泰林路二段33-8號","121.435151666667","25.0565516666667","6501600","泰山區"
"222003","436-BY","2018/08/13 19:49:16","新北市深坑區深南路51-1號","121.621128333333","25.0097616666667","6501800","深坑區"
"222002","659-BX","2018/08/13 19:49:08","新北市深坑區北深路一段300號","121.62369","25.0054933333333","6501800","深坑區"
"231045","001-UM","2018/08/13 19:49:15","新北市新店區北宜路二段384號","121.564566666667","24.9528016666667","6500600","新店區"
"231041","002-UM","2018/08/13 19:49:20","新北市新店區中央路222號","121.529688333333","24.9729533333333","6500600","新店區"
"231059","046-UY","2018/08/13 19:49:24","新北市新店區安和路二段175號","121.518528333333","24.9746966666667","6500600","新店區"
"231040","047-UY","2018/08/13 19:49:19","新北市新店區中正路75巷71號","121.543171666667","24.9687783333333","6500600","新店區"
"231044","106-UY","2018/08/13 19:49:21","新北市新店區中正路602號","121.534131666667","24.9880366666667","6500600","新店區"
"231046","107-UY","2018/08/13 19:49:21","新北市新店區三民路159巷19弄46號","121.532225","24.9732216666667","6500600","新店區"
"231052","110-UY","2018/08/13 19:49:24","新北市新店區新烏路三段140號","121.552128333333","24.9030166666667","6500600","新店區"
"231047","187-VK","2018/08/13 19:49:23","新北市新店區中興路二段100巷1號","121.547671666667","24.9715233333333","6500600","新店區"
"231054","KEA-2219","2018/08/13 19:49:20","新北市新店區光明街73號","121.538831666667","24.9606166666667","6500600","新店區"
"221031","KEA-2785","2018/08/13 19:49:19","新北市汐止區福德三路95號","121.635995","25.0689266666667","6501100","汐止區"
"231057","256-BX","2018/08/13 19:49:18","新北市新店區花園二路三段21-2號","121.556823333333","24.9313116666667","6500600","新店區"
"231042","268-BY","2018/08/13 19:49:06","新北市新店區中興路一段267-4號","121.545125","24.9679233333333","6500600","新店區"
"231051","278-BY","2018/08/13 19:49:22","新北市新店區中央二街60號","121.526701666667","24.97461","6500600","新店區"
"231050","AAD-862","2018/08/13 19:49:15","新北市新店區郵政路99號","121.554438333333","24.9513833333333","6500600","新店區"
"231043","355-BY","2018/08/13 19:49:18","新北市新店區中正路282號","121.538531666667","24.973885","6500600","新店區"
"231066","4716-K9","2018/08/13 19:49:16","新北市新店區安康路二段341巷21號","121.497128333333","24.954625","6500600","新店區"
"231056","4715-K9","2018/08/13 19:49:23","新北市新店區民權路70號","121.538233333333","24.9831633333333","6500600","新店區"
"231067","4772-VM","2018/08/13 19:49:07","新北市新店區精忠路10-1號","121.532675","24.959065","6500600","新店區"
"231065","512-UM","2018/08/13 19:49:22","新北市新店區安祥路109巷137號","121.477155","24.958185","6500600","新店區"
"231049","513-UM","2018/08/13 19:49:27","新北市新店區民權路127巷1-1號","121.53531","24.9820583333333","6500600","新店區"
"231061","619-UM","2018/08/13 19:49:25","新北市新店區安民街153號","121.51661","24.9698233333333","6500600","新店區"
"231063","641-BX","2018/08/13 19:49:12","新北市新店區車子路11號","121.503001666667","24.9519733333333","6500600","新店區"
"231068","718-UY","2018/08/13 19:49:11","新北市新店區安一路一段1-1號","121.519545","24.9611366666667","6500600","新店區"
"231064","719-UM","2018/08/13 19:49:10","新北市新店區安和路二段113巷1弄2號","121.518351666667","24.9702116666667","6500600","新店區"
"231062","720-UM","2018/08/13 19:49:16","新北市新店區永業路53號","121.531806666667","24.9546133333333","6500600","新店區"
"231060","897-TW","2018/08/13 19:49:16","新北市新店區安康路二段223號","121.508616666667","24.95872","6500600","新店區"
"231055","AKT-0513","2018/08/13 19:49:12","新北市新店區中華路83巷67號","121.538338333333","24.9672716666667","6500600","新店區"
"241011","013-R5","2018/08/13 19:49:12","新北市三重區介壽路41號","121.49867","25.0701116666667","6500200","三重區"
"241028","022-UY","2018/08/13 19:49:14","新北市三重區中正南路131號","121.493988333333","25.057015","6500200","三重區"
"241008","059-VK","2018/08/13 19:49:09","新北市三重區永福街101號","121.479306666667","25.0773416666667","6500200","三重區"
"241022","060-VK","2018/08/13 19:49:11","新北市三重區新北大道一段7號","121.489711666667","25.061545","6500200","三重區"
"241031","061-VK","2018/08/13 19:49:22","新北市三重區重新路四段244巷4號","121.486115","25.05363","6500200","三重區"
"241015","062-VK","2018/08/13 19:49:17","新北市三重區三和路一段2號","121.504","25.0642816666667","6500200","三重區"
"241017","063-VK","2018/08/13 19:49:16","新北市三重區重陽路三段27巷1號","121.489636666667","25.0665566666667","6500200","三重區"
"241026","066-VK","2018/08/13 19:49:21","新北市三重區文化南路42號","121.500301666667","25.06022","6500200","三重區"
"241003","091-VK","2018/08/13 19:49:19","新北市三重區五華街130號","121.491606666667","25.0834566666667","6500200","三重區"
"241035","265-UM","2018/08/13 19:49:14","新北市三重區文化北路22-2號","121.499208333333","25.06429","6500200","三重區"
"241016","266-UM","2018/08/13 19:49:21","新北市三重區正德街55號","121.495743333333","25.0630766666667","6500200","三重區"
"241009","267-UM","2018/08/13 19:49:13","新北市三重區三和路四段396巷8號","121.480891666667","25.0790766666667","6500200","三重區"
"241018","268-UM","2018/08/13 19:49:06","新北市三重區雙園街57巷34弄6號","121.49431","25.0683483333333","6500200","三重區"
"241032","269-UM","2018/08/13 19:49:15","新北市三重區三陽路1號","121.48646","25.05883","6500200","三重區"
"241013","270-UM","2018/08/13 19:49:16","新北市三重區仁賢街12-1號","121.495641666667","25.0748566666667","6500200","三重區"
"241025","271-UM","2018/08/13 19:49:12","新北市三重區忠孝路三段52號","121.480703333333","25.0656366666667","6500200","三重區"
"241007","398-BY","2018/08/13 19:49:19","新北市三重區三和路四段133號","121.48463","25.0780333333333","6500200","三重區"
"241004","475-VK","2018/08/13 19:49:13","新北市三重區五華街74號","121.493343333333","25.0819783333333","6500200","三重區"
"241020","478-VK","2018/08/13 19:49:28","新北市三重區後竹圍街1號","121.491506666667","25.0736733333333","6500200","三重區"
"241030","480-VK","2018/08/13 19:49:11","新北市三重區環河南路254巷22號","121.490231666667","25.0509283333333","6500200","三重區"
"241014","543-UM","2018/08/13 19:49:21","新北市三重區長元街98巷18弄28號","121.50184","25.067395","6500200","三重區"
"241023","545-UM","2018/08/13 19:49:07","新北市三重區頂崁街168號","121.477526666667","25.0658966666667","6500200","三重區"
"241001","547-UM","2018/08/13 19:49:21","新北市三重區仁愛街327巷21號","121.492938333333","25.0797816666667","6500200","三重區"
"241019","KEA-2593","2018/08/13 19:49:12","新北市三重區自強路二段74巷23-1號","121.487815","25.0697933333333","6500200","三重區"
"241006","AAD-863","2018/08/13 19:49:16","新北市三重區力行路二段78號","121.481588333333","25.0736616666667","6500200","三重區"
"241012","941-UM","2018/08/13 19:49:16","新北市三重區仁興街56巷42號","121.498141666667","25.075445","6500200","三重區"
"241029","942-UM","2018/08/13 19:49:15","新北市三重區光明路11號","121.490885","25.0586533333333","6500200","三重區"
"241033","AAC-255","2018/08/13 19:49:15","新北市三重區中興南街66號","121.470643333333","25.0439933333333","6500200","三重區"
"235066","003-UY","2018/08/13 19:49:24","新北市中和區南工路22巷1號","121.505646666667","25.0007866666667","6500300","中和區"
"235064","005-UY","2018/08/13 19:49:11","新北市中和區南山路58號","121.50203","24.9973383333333","6500300","中和區"
"235056","096-UM","2018/08/13 19:49:28","新北市中和區中山路三段136巷10弄13號","121.474045","25.0074916666667","6500300","中和區"
"235039","097-UM","2018/08/13 19:49:21","新北市中和區大勇街27巷3號","121.517161666667","24.99357","6500300","中和區"
"235065","098-UM","2018/08/13 19:49:24","新北市中和區莊敬路7號","121.499828333333","25.0044233333333","6500300","中和區"
"235004","150-BY","2018/08/13 19:49:17","新北市中和區安平路38號","121.509776666667","24.9948616666667","6500300","中和區"
"235058","151-BY","2018/08/13 19:49:25","新北市中和區員山路150-15號","121.481298333333","24.9977366666667","6500300","中和區"
"235055","183-VK","2018/08/13 19:49:13","新北市中和區德光路15巷12號","121.47125","25.0037833333333","6500300","中和區"
"235038","185-VK","2018/08/13 19:49:10","新北市中和區自立路7號","121.52255","24.9964966666667","6500300","中和區"
"235049","186-VK","2018/08/13 19:49:12","新北市中和區景平路385巷28號","121.501818333333","24.99453","6500300","中和區"
"235067","255-BX","2018/08/13 19:49:18","新北市中和區新生街186巷1弄23號","121.48339","24.99883","6500300","中和區"
"235044","293-VK","2018/08/13 19:49:13","新北市中和區南山路130號","121.503738333333","24.9927233333333","6500300","中和區"
"235043","352-BY","2018/08/13 19:49:11","新北市中和區華新街230號","121.506088333333","24.9817133333333","6500300","中和區"
"235050","4979-A6","2018/08/13 19:49:11","新北市中和區和平街164巷4號","121.505965","24.99237","6500300","中和區"
"235070","558-UM","2018/08/13 19:49:08","新北市中和區圓通路135號","121.498985","24.9958833333333","6500300","中和區"
"235045","565-BX","2018/08/13 19:49:10","新北市中和區景平路288號","121.513263333333","24.992705","6500300","中和區"
"235054","640-BX","2018/08/13 19:49:10","新北市中和區民享街86巷38號","121.472738333333","25.0005283333333","6500300","中和區"
"235060","647-TV","2018/08/13 19:49:24","新北市中和區員山路390號","121.480661666667","25.004555","6500300","中和區"
"235047","732-UM","2018/08/13 19:49:20","新北市中和區興南路一段86號","121.510031666667","24.9893766666667","6500300","中和區"
"235046","733-UM","2018/08/13 19:49:17","新北市中和區仁愛街70號","121.51132","24.987675","6500300","中和區"
"235057","801-TS","2018/08/13 19:49:13","新北市中和區員山路130號","121.48123","24.99628","6500300","中和區"
"235041","802-TS","2018/08/13 19:49:11","新北市中和區永貞路239巷17號","121.51256","25.0031266666667","6500300","中和區"
"235052","805-TS","2018/08/13 19:49:21","新北市中和區興南路二段79-2號","121.506678333333","24.984735","6500300","中和區"
"235048","896-TW","2018/08/13 19:49:24","新北市中和區興南路一段137號","121.508926666667","24.9875566666667","6500300","中和區"
"235053","900-TW","2018/08/13 19:49:22","新北市中和區國光街171巷6號","121.467588333333","25.00137","6500300","中和區"
"235064","911-UM","2018/08/13 19:49:12","新北市中和區景平路719號","121.496435","25.00393","6500300","中和區"
"235051","157-BY","2018/08/13 19:49:07","新北市中和區中興街132巷11號","121.498871666667","24.99166","6500300","中和區"
"235037","AAC-213","2018/08/13 19:49:13","新北市中和區秀朗路三段175巷2號","121.524443333333","24.9912716666667","6500300","中和區"
"235059","AAC-215","2018/08/13 19:49:11","新北市中和區圓通路305巷13弄2號","121.494141666667","24.98973","6500300","中和區"
"220106","013-TV","2018/08/13 19:49:14","新北市板橋區民治街57巷26號","121.480043333333","25.0338866666667","6500100","板橋區"
"220065","015-TV","2018/08/13 19:49:23","新北市板橋區民族路276巷1弄1號","121.46987","25.0066216666667","6500100","板橋區"
"220069","AAD-861","2018/08/13 19:49:22","新北市板橋區貴興路105號","121.456011666667","25.002655","6500100","板橋區"
"247014","546-UM","2018/08/13 19:49:08","新北市蘆洲區中央路91號","121.472666666667","25.0842183333333","6501400","蘆洲區"
"247004","337-TH","2018/08/13 19:49:16","新北市蘆洲區中原路45號","121.459395","25.08229","6501400","蘆洲區"
"247008","056-VK","2018/08/13 19:49:17","新北市蘆洲區信義路133號","121.47888","25.08045","6501400","蘆洲區"
"247002","002-UY","2018/08/13 19:49:24","新北市蘆洲區永平街28號","121.458843333333","25.09083","6501400","蘆洲區"
"226004","312-R5","2018/08/13 19:49:26","新北市平溪區望古里灰3號","121.760453333333","25.031175","6502400","平溪區"
"228003","097-TW","2018/08/13 19:49:20","新北市貢寮區真理里美艷山街5-1號","121.92667","25.059675","6502600","貢寮區"
"228001","212-TW","2018/08/13 19:49:18","新北市貢寮區真理里新港街78號","121.927235","25.0557666666667","6502600","貢寮區"
"224010","AGQ-8101","2018/08/13 19:45:12","新北市瑞芳區山尖路209號","121.849273333333","25.11153","6501200","瑞芳區"
"224002","639-TC","2018/08/13 19:49:25","新北市瑞芳區三爪子坑路309-2號","121.818696666667","25.1051833333333","6501200","瑞芳區"
"227001","642-TC","2018/08/13 19:49:26","新北市雙溪區雙溪里內挖路36號","121.863163333333","25.0367916666667","6502500","雙溪區"
"227008","400-TW","2018/08/13 19:49:25","新北市雙溪區新基里自強路7號","121.866228333333","25.039045","6502500","雙溪區"
"222001","KEA-2212","2018/08/13 19:49:05","新北市深坑區北深路三段110號","121.60682","25.001635","6501800","深坑區"
"208002","KEA-2872","2018/08/13 19:49:24","新北市金山區四維路31號","121.634688333333","25.22281","6502700","金山區"
"208003","665-BX","2018/08/13 19:49:21","新北市金山區清泉里清水路60巷1號","121.629456666667","25.23576","6502700","金山區"
"208001","761-BX","2018/08/13 19:49:28","新北市金山區重和里六股林口23號","121.603528333333","25.2193816666667","6502700","金山區"
"251005","010-UM","2018/08/13 19:49:12","新北市淡水區中正東路43號","121.446261666667","25.1677233333333","6501000","淡水區"
"251001","011-UM","2018/08/13 19:49:18","新北市淡水區中正東路二段37號","121.45925","25.1562283333333","6501000","淡水區"
"251013","KEA-2871","2018/08/13 19:49:22","新北市淡水區頂田寮17號","121.461696666667","25.2141583333333","6501000","淡水區"
"251016","179-VK","2018/08/13 19:49:21","新北市淡水區三塊厝3-2號","121.456155","25.2091366666667","6501000","淡水區"
"251014","180-VK","2018/08/13 19:49:23","新北市淡水區番社前1-7號","121.468241666667","25.2360216666667","6501000","淡水區"
"251015","181-VK","2018/08/13 19:49:20","新北市淡水區北新路二段61號","121.478751666667","25.18568","6501000","淡水區"
"251010","413-VK","2018/08/13 19:49:20","新北市淡水區崁頂139號","121.43113","25.2057166666667","6501000","淡水區"
"251012","441-VK","2018/08/13 19:49:29","新北市淡水區淡金路三段70巷1號","121.448351666667","25.2005233333333","6501000","淡水區"
"251008","442-VK","2018/08/13 19:49:13","新北市淡水區中正路一段62巷8號","121.425765","25.1773233333333","6501000","淡水區"
"251006","561-UM","2018/08/13 19:49:10","新北市淡水區水碓街15號","121.443476666667","25.1769633333333","6501000","淡水區"
"251009","575-R6","2018/08/13 19:49:19","新北市淡水區中正路36號","121.443821666667","25.1693533333333","6501000","淡水區"
"251007","577-R6","2018/08/13 19:49:22","新北市淡水區竿蓁一街101號","121.454711666667","25.1664033333333","6501000","淡水區"
"251011","650-BX","2018/08/13 19:49:12","新北市淡水區埤島3-20號","121.446896666667","25.1917866666667","6501000","淡水區"
"251002","672-BX","2018/08/13 19:48:46","新北市淡水區下圭柔山90-8號","121.431806666667","25.212035","6501000","淡水區"
"251003","766-UM","2018/08/13 19:49:07","新北市淡水區崁頂75-2號","121.436335","25.20365","6501000","淡水區"
"207003","550-UM","2018/08/13 19:49:24","新北市萬里區磺潭里公館崙4-1號","121.642156666667","25.214515","6502800","萬里區"
"207004","225-TW","2018/08/13 19:49:13","新北市萬里區萬里里瑪鋉路261號","121.689806666667","25.1798033333333","6502800","萬里區"
"252002","178-VK","2018/08/13 19:49:10","新北市三芝區三民街33號","121.504695","25.2585816666667","6502100","三芝區"
"252001","292-VK","2018/08/13 19:49:19","新北市三芝區公正街66號","121.499838333333","25.257455","6502100","三芝區"
"237007","153-BY","2018/08/13 19:49:21","新北市三峽區二鬮路136巷43號","121.358115","24.9087983333333","6500900","三峽區"
"237009","210-TH","2018/08/13 19:49:17","新北市三峽區清水街420號","121.368803333333","24.9263933333333","6500900","三峽區"
"237013","252-BX","2018/08/13 19:49:17","新北市三峽區橫溪路44號","121.396668333333","24.9354516666667","6500900","三峽區"
"237012","275-BY","2018/08/13 19:49:13","新北市三峽區光明路1-12號","121.372813333333","24.9321633333333","6500900","三峽區"
"237008","302-VK","2018/08/13 19:49:24","新北市三峽區中正路一段292巷14號","121.370925","24.9259633333333","6500900","三峽區"
"237014","433-BY","2018/08/13 19:49:24","新北市三峽區嘉添109-11號","121.369296666667","24.9096516666667","6500900","三峽區"
"237006","5529-G3","2018/08/13 19:49:25","新北市三峽區中正路一段460號","121.370583333333","24.92163","6500900","三峽區"
"237011","KEA-2596","2018/08/13 19:49:08","新北市三峽區介壽路一段498號","121.385795","24.9325383333333","6500900","三峽區"
"237015","649-BX","2018/08/13 19:49:24","新北市三峽區成福路3號","121.416628333333","24.928085","6500900","三峽區"
"237010","706-TV","2018/08/13 19:49:10","新北市三峽區復興路49號","121.37341","24.937005","6500900","三峽區"
"237005","AKY-6261","2018/08/13 19:49:17","新北市三峽區民生街92號","121.37412","24.9356633333333","6500900","三峽區"
"236069","105-UM","2018/08/13 19:49:14","新北市土城區水源街30號","121.440863333333","24.975625","6501300","土城區"
"236042","107-UM","2018/08/13 19:49:19","新北市土城區裕民路233巷5號","121.454911666667","24.9835216666667","6501300","土城區"
"236078","166-UM","2018/08/13 19:49:26","新北市土城區溪頭路29號","121.412436666667","24.95527","6501300","土城區"
"236030","253-BX","2018/08/13 19:49:27","新北市土城區中央路一段290號","121.443395","24.9824033333333","6501300","土城區"
"236026","269-VK","2018/08/13 19:49:18","新北市土城區中央路二段61巷26號","121.443256666667","24.97873","6501300","土城區"
"236014","270-VK","2018/08/13 19:49:27","新北市土城區德興街101號","121.454083333333","24.99236","6501300","土城區"
"236039","271-VK","2018/08/13 19:49:11","新北市土城區國際路158巷54號","121.467985","24.974845","6501300","土城區"
"236020","401-BY","2018/08/13 19:49:22","新北市土城區延吉街165巷14號","121.470038333333","24.9855016666667","6501300","土城區"
"236059","912-UM","2018/08/13 19:49:21","新北市土城區中央路一段227號","121.445585","24.9863166666667","6501300","土城區"
"236048","913-UM","2018/08/13 19:49:14","新北市土城區青雲路309號","121.459068333333","24.979225","6501300","土城區"
"236063","915-UM","2018/08/13 19:49:08","新北市土城區延和路105巷4弄2號","121.467473333333","24.9906616666667","6501300","土城區"
"236055","AAC-216","2018/08/13 19:49:12","新北市土城區延和路160號","121.468216666667","24.9903566666667","6501300","土城區"
"242046","497-BY","2018/08/13 19:49:23","新北市新莊區裕民街19巷4號","121.41962","25.0252083333333","6500500","新莊區"
"242053","442-UM","2018/08/13 19:49:10","新北市新莊區民安西路415巷3號","121.430795","25.0091583333333","6500500","新莊區"
"242056","440-UM","2018/08/13 19:49:24","新北市新莊區新泰路53號","121.449501666667","25.0338866666667","6500500","新莊區"
"242036","415-TV","2018/08/13 19:49:10","新北市新莊區建安街85號","121.42724","25.02466","6500500","新莊區"
"242007","413-TV","2018/08/13 19:49:11","新北市新莊區思源路593巷30號","121.457593333333","25.0597266666667","6500500","新莊區"
"242023","362-BY","2018/08/13 19:49:18","新北市新莊區化成路224號","121.465626666667","25.0467366666667","6500500","新莊區"
"242060","353-BY","2018/08/13 19:49:24","新北市新莊區瓊林路59-75號","121.444165","25.0272566666667","6500500","新莊區"
"242039","133-UY","2018/08/13 19:49:26","新北市新莊區民安路299巷51號","121.429618333333","25.0237133333333","6500500","新莊區"
"242031","135-UY","2018/08/13 19:49:18","新北市新莊區中正路352號","121.443953333333","25.0344916666667","6500500","新莊區"
"242048","172-VK","2018/08/13 19:49:12","新北市新莊區建安街92巷15號","121.425811666667","25.024365","6500500","新莊區"
"242011","173-VK","2018/08/13 19:48:51","新北市新莊區幸福路914號","121.442535","25.04912","6500500","新莊區"
"242004","176-VK","2018/08/13 19:49:25","新北市新莊區化成路63巷24弄23號","121.462498333333","25.04596","6500500","新莊區"
"242013","347-TH","2018/08/13 19:49:13","新北市新莊區中誠街71號","121.450658333333","25.0478316666667","6500500","新莊區"
"242021","348-TH","2018/08/13 19:49:27","新北市新莊區建中街52號","121.448481666667","25.0372583333333","6500500","新莊區"
"242019","350-TH","2018/08/13 19:49:25","新北市新莊區中華路一段136巷28號","121.453513333333","25.0413033333333","6500500","新莊區"
"238015","755-BX","2018/08/13 19:49:18","新北市樹林區中山路二段230號","121.409038333333","24.980265","6500700","樹林區"
"238023","601-UM","2018/08/13 19:49:21","新北市樹林區中正路755號","121.41052","25.015195","6500700","樹林區"
"238024","5061-A6","2018/08/13 19:49:21","新北市樹林區八德街1172號","121.390155","24.9683666666667","6500700","樹林區"
"238021","KEA-2539","2018/08/13 19:49:19","新北市樹林區佳園路三段181巷110弄1號","121.39276","24.94861","6500700","樹林區"
"238025","303-VK","2018/08/13 19:49:18","新北市樹林區育德街68號","121.389485","24.9682366666667","6500700","樹林區"
"238014","282-BY","2018/08/13 19:49:07","新北市樹林區中正路22-1號","121.427741666667","24.99942","6500700","樹林區"
"238020","268-VK","2018/08/13 19:49:24","新北市樹林區俊英街33-1號","121.428193333333","25.0037116666667","6500700","樹林區"
"239006","891-R6","2018/08/13 19:49:16","新北市鶯歌區尖山埔路237號","121.344405","24.9501616666667","6500800","鶯歌區"
"239002","359-BY","2018/08/13 19:49:30","新北市鶯歌區大湖路18號","121.342891666667","24.9608116666667","6500800","鶯歌區"
"239004","193-VK","2018/08/13 19:49:12","新北市鶯歌區二甲路43-29號","121.336618333333","24.9342266666667","6500800","鶯歌區"
"221008","489-VK","2018/08/13 19:49:23","新北市汐止區康寧街145號","121.621605","25.066735","6501100","汐止區"
"221036","130-UY","2018/08/13 19:49:09","新北市汐止區汐萬路一段81號","121.65466","25.06998","6501100","汐止區"
"221015","131-UY","2018/08/13 19:49:23","新北市汐止區茄苳路43號","121.665881666667","25.0708866666667","6501100","汐止區"
"221010","269-BY","2018/08/13 19:49:24","新北市汐止區康寧街885巷1號","121.650016666667","25.076135","6501100","汐止區"
"221012","278-VK","2018/08/13 19:49:09","新北市汐止區大同路三段426號","121.682883333333","25.072575","6501100","汐止區"
"221023","279-VK","2018/08/13 19:49:14","新北市汐止區民族六街6巷2號","121.629705","25.0698416666667","6501100","汐止區"
"221032","280-BY","2018/08/13 19:49:15","新北市汐止區橫科路403巷18號","121.625441666667","25.0475183333333","6501100","汐止區"
"221027","281-BY","2018/08/13 19:49:26","新北市汐止區中正路7號","121.663071666667","25.0701066666667","6501100","汐止區"
"221029","298-VK","2018/08/13 19:49:14","新北市汐止區康寧街901號","121.651523333333","25.074905","6501100","汐止區"
"221021","299-VK","2018/08/13 19:49:23","新北市汐止區新興路84巷2號","121.657875","25.061575","6501100","汐止區"
"221035","622-UM","2018/08/13 19:49:27","新北市汐止區長江街13巷6弄1號","121.654691666667","25.0717166666667","6501100","汐止區"
"221025","623-UM","2018/08/13 19:49:09","新北市汐止區秀峰路81巷36號","121.66138","25.06454","6501100","汐止區"
"221038","646-BX","2018/08/13 19:49:25","新北市汐止區忠孝東路403號","121.665716666667","25.071075","6501100","汐止區"
"221033","647-BX","2018/08/13 19:49:29","新北市汐止區東勢街76巷97號","121.63605","25.0390066666667","6501100","汐止區"
"221018","753-BX","2018/08/13 19:49:15","新北市汐止區茄苳路3號","121.664683333333","25.0707266666667","6501100","汐止區"
"220079","145-BY","2018/08/13 19:49:26","新北市板橋區中正路183巷16號","121.455983333333","25.0164633333333","6500100","板橋區"
"220080","200-UY","2018/08/13 19:49:20","新北市板橋區大觀路二段37巷49號","121.449113333333","25.002665","6500100","板橋區"
"220082","610-BX","2018/08/13 19:49:12","新北市板橋區存德街49號","121.431095","24.99139","6500100","板橋區"
"220101","245-BX","2018/08/13 19:49:27","新北市板橋區縣民大道三段93巷28號","121.474873333333","25.0225416666667","6500100","板橋區"
"220091","267-BY","2018/08/13 19:49:21","新北市板橋區懷德街127巷23弄9號","121.479308333333","25.03159","6500100","板橋區"
"220056","276-BY","2018/08/13 19:49:13","新北市板橋區四川路二段99巷7號","121.45295","24.9942216666667","6500100","板橋區"
"220072","277-BY","2018/08/13 19:49:13","新北市板橋區金門街173號","121.432623333333","24.9900983333333","6500100","板橋區"
"220071","283-VK","2018/08/13 19:49:10","新北市板橋區五權街32巷22號","121.464068333333","24.992865","6500100","板橋區"
"220094","285-UM","2018/08/13 19:49:23","新北市板橋區長江路一段118號","121.459985","25.0297483333333","6500100","板橋區"
"220053","285-VK","2018/08/13 19:49:14","新北市板橋區民享街9號","121.475025","25.0144066666667","6500100","板橋區"
"220083","286-VK","2018/08/13 19:49:23","新北市板橋區龍興街63巷36號","121.44226","25.00167","6500100","板橋區"
"220081","287-VK","2018/08/13 19:49:11","新北市板橋區大觀路一段29巷131弄31號","121.450578333333","25.0046083333333","6500100","板橋區"
"220090","288-VK","2018/08/13 19:49:07","新北市板橋區裕民街151號","121.45852","25.0270916666667","6500100","板橋區"
"220061","293-UM","2018/08/13 19:49:23","新北市板橋區板新路200巷22號","121.468653333333","25.016605","6500100","板橋區"
"220084","296-UM","2018/08/13 19:49:27","新北市板橋區溪崑二街96巷16號","121.42643","24.9894533333333","6500100","板橋區"
"220075","303-R5","2018/08/13 19:49:20","新北市板橋區金華街10巷48弄14號","121.457465","25.01985","6500100","板橋區"
"220062","305-R5","2018/08/13 19:49:18","新北市板橋區中山路二段416巷52-4號","121.482811666667","25.01929","6500100","板橋區"
"220092","307-R5","2018/08/13 19:49:22","新北市板橋區四維路259巷11號","121.462735","25.0277983333333","6500100","板橋區"
"220098","317-R6","2018/08/13 19:49:12","新北市板橋區四維路269巷77號","121.460163333333","25.026885","6500100","板橋區"
"220064","486-VK","2018/08/13 19:49:25","新北市板橋區實踐路84號","121.463945","25.0052383333333","6500100","板橋區"
"242034","280-VK","2018/08/13 19:49:17","新北市新莊區仁愛街54巷1號","121.44495","25.0372716666667","6500500","新莊區"
"220088","491-VK","2018/08/13 19:49:16","新北市板橋區大同街69號","121.479463333333","25.0279166666667","6500100","板橋區"
"220035","560-BX","2018/08/13 19:49:21","新北市板橋區金華街77號","121.457648333333","25.020785","6500100","板橋區"
"220103","561-BX","2018/08/13 19:49:16","新北市板橋區陽明街29巷2號","121.465245","25.0216966666667","6500100","板橋區"
"220063","609-BX","2018/08/13 19:49:25","新北市板橋區三民路一段140號","121.479201666667","25.02035","6500100","板橋區"
"220054","630-UY","2018/08/13 19:49:20","新北市板橋區忠孝路忠義巷15弄21號","121.465683333333","25.0041983333333","6500100","板橋區"
"220057","686-BX","2018/08/13 19:49:26","新北市板橋區四川路二段82號","121.452148333333","24.99472","6500100","板橋區"
"220077","687-BX","2018/08/13 19:49:21","新北市板橋區僑中一街150號","121.444801666667","25.0121016666667","6500100","板橋區"
"220093","689-BX","2018/08/13 19:49:23","新北市板橋區長江路二段299號","121.470603333333","25.0331766666667","6500100","板橋區"
"220102","KEA-2699","2018/08/13 19:49:23","新北市板橋區松柏街57-4號","121.475711666667","25.0303033333333","6500100","板橋區"
"220055","827-TW","2018/08/13 19:49:25","新北市板橋區國慶路149巷4弄20-4號","121.462055","24.997045","6500100","板橋區"
"220067","829-TW","2018/08/13 19:49:21","新北市板橋區民生路一段21號","121.474978333333","25.011475","6500100","板橋區"
"220068","830-TW","2018/08/13 19:49:23","新北市板橋區中山路二段416巷47弄7號","121.483405","25.0194966666667","6500100","板橋區"
"220096","831-TW","2018/08/13 19:49:14","新北市板橋區莒光路27巷18號","121.47072","25.0254933333333","6500100","板橋區"
"220089","833-TW","2018/08/13 19:49:11","新北市板橋區綠堤街41-2號","121.455346666667","25.0262066666667","6500100","板橋區"
"220074","895-R6","2018/08/13 19:49:23","新北市板橋區府中路111號","121.456421666667","25.0095966666667","6500100","板橋區"
"220073","985-R7","2018/08/13 19:49:18","新北市板橋區國光路67巷14號","121.459085","25.018815","6500100","板橋區"
"220097","AAC-210","2018/08/13 19:49:19","新北市板橋區文化路一段285巷2弄1號","121.464625","25.0191533333333","6500100","板橋區"
"220070","AAC-253","2018/08/13 19:49:20","新北市板橋區民族路65號","121.46527","25.0087266666667","6500100","板橋區"
"235068","KEA-2873","2018/08/13 19:49:26","新北市中和區莊敬路1-6號","121.499536666667","25.0043266666667","6500300","中和區"
