"lineid","car","time","location","longitude","latitude","cityid","cityname"
"234046","148-BY","2018/08/13 20:19:21","新北市永和區永元路120號","121.522731666667","25.0027383333333","6500400","永和區"
"234081","298-R6","2018/08/13 20:19:25","新北市永和區國中路104巷3號","121.524388333333","25.006725","6500400","永和區"
"234064","337-UY","2018/08/13 20:19:22","新北市永和區得和路104巷1弄1號","121.518298333333","24.999965","6500400","永和區"
"234086","338-UY","2018/08/13 20:19:20","新北市永和區永和路二段135號","121.515123333333","25.0124666666667","6500400","永和區"
"234070","552-UM","2018/08/13 20:19:15","新北市永和區永安街14號","121.51902","25.006175","6500400","永和區"
"234038","553-UM","2018/08/13 20:19:24","新北市永和區成功路一段93巷11-1號","121.527691666667","25.0027583333333","6500400","永和區"
"234017","745-BX","2018/08/13 20:19:07","新北市永和區文化路7號","121.515473333333","25.0150066666667","6500400","永和區"
"234030","746-BX","2018/08/13 20:19:19","新北市永和區民有街75巷10弄33號","121.519261666667","24.9960533333333","6500400","永和區"
"234054","KEA-2590","2018/08/13 20:19:21","新北市永和區光復街2巷16弄15號","121.51762","25.0163466666667","6500400","永和區"
"234013","KEA-2591","2018/08/13 20:19:14","新北市永和區保生路5巷3號","121.506026666667","25.0070283333333","6500400","永和區"
"234061","AAD-866","2018/08/13 20:19:09","新北市永和區安樂路132號","121.514126666667","25.00014","6500400","永和區"
"234042","862-TW","2018/08/13 20:19:25","新北市中和區中安街166號","121.510846666667","25.000125","6500400","永和區"
"234050","863-TW","2018/08/13 20:19:20","新北市永和區環河西路二段5號","121.509945","25.0172616666667","6500400","永和區"
"234011","9373-KE","2018/08/13 20:19:11","新北市永和區保生路55-1號","121.504563333333","25.0108833333333","6500400","永和區"
"249005","172-UM","2018/08/13 20:19:11","新北市八里區下罟子8號","121.385596666667","25.1397216666667","6502300","八里區"
"249001","173-UM","2018/08/13 20:19:26","新北市八里區中華路二段538-1號","121.399058333333","25.145025","6502300","八里區"
"249004","303-UY","2018/08/13 20:19:16","新北市八里區中山路一段322號","121.412956666667","25.1591683333333","6502300","八里區"
"249002","305-UY","2018/08/13 20:19:19","新北市八里區龍米路一段100巷16號","121.453956666667","25.1250416666667","6502300","八里區"
"249003","593-UM","2018/08/13 20:19:27","新北市八里區中山路二段447巷16號","121.396895","25.1453666666667","6502300","八里區"
"248016","026-BX","2018/08/13 20:19:28","新北市五股區天乙路16號","121.448468333333","25.1034383333333","6501500","五股區"
"248012","247-BX","2018/08/13 20:19:23","新北市五股區民義路一段206號","121.430535","25.08916","6501500","五股區"
"248014","261-SL","2018/08/13 20:19:06","新北市八里區荖阡坑路7-2號","121.398601666667","25.14165","6501500","五股區"
"248002","678-BX","2018/08/13 20:19:28","新北市五股區成泰路三段105號","121.444158333333","25.09045","6501500","五股區"
"234023","9380-KE","2018/08/13 20:19:21","新北市永和區永和路二段264號","121.515971666667","25.0151216666667","6500400","永和區"
"234077","969-R7","2018/08/13 20:19:10","新北市永和區民光街20巷1號","121.515841666667","24.9958433333333","6500400","永和區"
"234074","AAC-211","2018/08/13 20:19:09","新北市永和區竹林路201巷22弄1號","121.522098333333","25.0094016666667","6500400","永和區"
"234067","AAC-212","2018/08/13 20:19:11","新北市永和區保平路270號","121.508411666667","25.00521","6500400","永和區"
"234003","AAC-295","2018/08/13 20:19:14","新北市永和區自強街2號","121.514068333333","25.008005","6500400","永和區"
"243013","AAD-798","2018/08/13 20:19:23","新北市泰山區新民路12號","121.426366666667","25.0446066666667","6501600","泰山區"
"243009","297-R6","2018/08/13 20:19:22","新北市泰山區福泰街30號","121.433641666667","25.0596966666667","6501600","泰山區"
"243016","KEA-2801","2018/08/13 20:19:23","新北市泰山區明志路三段257號","121.423336666667","25.03734","6501600","泰山區"
"243015","421-VK","2018/08/13 20:19:14","新北市泰山區仁德路82號","121.433068333333","25.0563683333333","6501600","泰山區"
"243011","KEA-2215","2018/08/13 20:19:23","新北市新莊區壽山路160巷21號","121.417381666667","25.0318316666667","6501600","泰山區"
"243010","KEA-2216","2018/08/13 20:19:18","新北市泰山區明志路二段254巷16弄4號","121.42621","25.0481016666667","6501600","泰山區"
"243012","646-TV","2018/08/13 20:19:15","新北市泰山區楓江路58-5號","121.436195","25.0627783333333","6501600","泰山區"
"243014","680-BX","2018/08/13 20:19:19","新北市泰山區泰林路二段464-1號","121.425588333333","25.0641033333333","6501600","泰山區"
"222003","436-BY","2018/08/13 20:19:25","新北市深坑區文化街43號","121.617731666667","25.0018166666667","6501800","深坑區"
"222002","659-BX","2018/08/13 20:19:28","新北市深坑區萬福路69-1號","121.601356666667","25.0093716666667","6501800","深坑區"
"231045","001-UM","2018/08/13 20:19:15","新北市新店區新坡一街72號","121.548916666667","24.9645516666667","6500600","新店區"
"231041","002-UM","2018/08/13 20:19:24","新北市新店區民權路42-1號","121.540283333333","24.9829116666667","6500600","新店區"
"231059","046-UY","2018/08/13 20:19:22","新北市新店區安德街100號","121.509445","24.9610066666667","6500600","新店區"
"231040","047-UY","2018/08/13 20:19:19","新北市新店區中正路193號","121.540478333333","24.9724","6500600","新店區"
"231044","106-UY","2018/08/13 20:19:25","新北市新店區北新路三段132號","121.541565","24.98196","6500600","新店區"
"231052","110-UY","2018/08/13 20:19:24","新北市新店區新烏路三段140號","121.552106666667","24.90286","6500600","新店區"
"231047","187-VK","2018/08/13 20:19:23","新北市新店區寶橋路80號","121.546306666667","24.975545","6500600","新店區"
"231054","KEA-2219","2018/08/13 20:19:20","新北市新店區檳榔路174號","121.543943333333","24.96205","6500600","新店區"
"221031","KEA-2785","2018/08/13 20:19:19","新北市汐止區中興路150巷15號","121.633131666667","25.0650766666667","6501100","汐止區"
"231057","256-BX","2018/08/13 20:19:18","新北市新店區花園五路二段27號","121.554725","24.93469","6500600","新店區"
"231042","268-BY","2018/08/13 20:19:26","新北市新店區中興路二段192號","121.548316666667","24.9733866666667","6500600","新店區"
"231051","278-BY","2018/08/13 20:19:22","新北市新店區中央六街6號","121.530281666667","24.974435","6500600","新店區"
"231050","AAD-862","2018/08/13 20:19:15","新北市新店區博愛街11巷2號","121.541005","24.9732533333333","6500600","新店區"
"231043","355-BY","2018/08/13 20:19:18","新北市新店區建國路131號","121.539433333333","24.9781666666667","6500600","新店區"
"231058","3713-VJ","2018/08/13 20:19:10","新北市新店區中正路347號","121.53539","24.975835","6500600","新店區"
"231066","4716-K9","2018/08/13 20:19:16","新北市新店區柴埕路60巷1-1號","121.510226666667","24.9635266666667","6500600","新店區"
"231056","4715-K9","2018/08/13 20:19:22","新北市新店區中正路328巷32號","121.537908333333","24.9760466666667","6500600","新店區"
"231067","4772-VM","2018/08/13 20:19:27","新北市新店區溪洲路54號","121.532755","24.961395","6500600","新店區"
"231065","512-UM","2018/08/13 20:19:22","新北市新店區安祥路106巷24號","121.477896666667","24.9622666666667","6500600","新店區"
"231049","513-UM","2018/08/13 20:19:27","新北市新店區北新路一段319號","121.541631666667","24.9681083333333","6500600","新店區"
"231061","619-UM","2018/08/13 20:19:25","新北市新店區安興路33-1號","121.515836666667","24.9704333333333","6500600","新店區"
"231063","641-BX","2018/08/13 20:19:12","新北市新店區薏仁坑路自強巷6號","121.497225","24.958765","6500600","新店區"
"231068","718-UY","2018/08/13 20:19:11","新北市新店區寶安街32號","121.542231666667","24.9824316666667","6500600","新店區"
"231064","719-UM","2018/08/13 20:16:10","新北市新店區安和路二段148號","121.519711666667","24.9728433333333","6500600","新店區"
"231062","720-UM","2018/08/13 20:19:16","新北市新店區安泰路7巷11號","121.485808333333","24.9510866666667","6500600","新店區"
"231060","897-TW","2018/08/13 20:19:11","新北市新店區錦秀路11巷96弄2號","121.48018","24.942165","6500600","新店區"
"231055","AKT-0513","2018/08/13 20:19:12","新北市新店區新明街9號","121.54097","24.968185","6500600","新店區"
"241011","013-R5","2018/08/13 20:19:12","新北市三重區龍門路202號","121.499788333333","25.0734483333333","6500200","三重區"
"241028","022-UY","2018/08/13 20:19:14","新北市三重區大同南路135號","121.496481666667","25.0576616666667","6500200","三重區"
"241008","059-VK","2018/08/13 20:19:09","新北市三重區永福街211巷18號","121.479328333333","25.07403","6500200","三重區"
"241022","060-VK","2018/08/13 20:19:11","新北市三重區市前街14號","121.489166666667","25.0624766666667","6500200","三重區"
"241031","061-VK","2018/08/13 20:19:22","新北市三重區三寧街15號","121.489518333333","25.059835","6500200","三重區"
"241015","062-VK","2018/08/13 20:19:17","新北市三重區重新路一段116號","121.500536666667","25.06312","6500200","三重區"
"241017","063-VK","2018/08/13 20:19:15","新北市三重區大智街45-2號","121.493336666667","25.06654","6500200","三重區"
"241024","065-VK","2018/08/13 20:19:09","新北市三重區中正北路254號","121.481438333333","25.0682333333333","6500200","三重區"
"241026","066-VK","2018/08/13 20:19:20","新北市三重區福德南路1號","121.502601666667","25.0636916666667","6500200","三重區"
"241002","090-VK","2018/08/13 20:19:14","新北市三重區仁義街101巷2號","121.497636666667","25.080065","6500200","三重區"
"241003","091-VK","2018/08/13 20:19:20","新北市三重區富華街55-3號","121.491066666667","25.08343","6500200","三重區"
"241005","262-UM","2018/08/13 20:19:17","新北市三重區分子尾街92號","121.488818333333","25.0825083333333","6500200","三重區"
"241035","265-UM","2018/08/13 20:19:14","新北市三重區正義北路33巷32號","121.498535","25.0638333333333","6500200","三重區"
"241016","266-UM","2018/08/13 20:19:20","新北市三重區大同北路54巷1號","121.494213333333","25.0636483333333","6500200","三重區"
"241009","267-UM","2018/08/13 20:19:13","新北市三重區三和路四段382巷57號","121.481045","25.0784833333333","6500200","三重區"
"241018","268-UM","2018/08/13 20:19:26","新北市三重區雙園街71號","121.494348333333","25.0674266666667","6500200","三重區"
"241032","269-UM","2018/08/13 20:19:15","新北市三重區捷運路19巷8弄19號","121.484135","25.0572516666667","6500200","三重區"
"241013","270-UM","2018/08/13 20:19:16","新北市三重區三和路三段167巷2號","121.492043333333","25.07411","6500200","三重區"
"241025","271-UM","2018/08/13 20:19:12","新北市三重區三民街224號","121.480026666667","25.0673866666667","6500200","三重區"
"241007","398-BY","2018/08/13 20:19:19","新北市三重區溪尾街108巷69號","121.487185","25.0782","6500200","三重區"
"241004","475-VK","2018/08/13 20:19:13","新北市三重區仁政街198號","121.490615","25.080375","6500200","三重區"
"241020","478-VK","2018/08/13 20:19:10","新北市三重區三和路三段170巷28號","121.491581666667","25.072655","6500200","三重區"
"241030","480-VK","2018/08/13 20:19:11","新北市三重區集美街89巷7號","121.488516666667","25.052955","6500200","三重區"
"241014","543-UM","2018/08/13 20:19:21","新北市三重區長樂街135巷2號","121.503533333333","25.0699066666667","6500200","三重區"
"241023","545-UM","2018/08/13 20:19:07","新北市三重區自由街39巷14號","121.478311666667","25.0669766666667","6500200","三重區"
"241001","547-UM","2018/08/13 20:19:21","新北市三重區自強路四段3巷21號","121.48961","25.0763483333333","6500200","三重區"
"241019","KEA-2593","2018/08/13 20:19:27","新北市三重區忠孝路一段60號","121.490453333333","25.07196","6500200","三重區"
"241006","AAD-863","2018/08/13 20:19:16","新北市三重區車路頭街135-1號","121.484258333333","25.0761416666667","6500200","三重區"
"241012","941-UM","2018/08/13 20:19:16","新北市三重區河邊北街262號","121.50171","25.076395","6500200","三重區"
"241029","942-UM","2018/08/13 20:19:15","新北市三重區重安街98號","121.492558333333","25.0560516666667","6500200","三重區"
"241033","AAC-255","2018/08/13 20:19:26","新北市三重區五谷王北街50巷2號","121.475951666667","25.0512033333333","6500200","三重區"
"235066","003-UY","2018/08/13 20:19:24","新北市中和區光華街85號","121.506981666667","25.0026616666667","6500300","中和區"
"235039","097-UM","2018/08/13 20:19:21","新北市中和區自強路58號","121.520135","24.994545","6500300","中和區"
"235065","098-UM","2018/08/13 20:19:24","新北市中和區橋和路298號","121.496941666667","25.0068716666667","6500300","中和區"
"247010","KEA-2869","2018/08/13 20:19:10","新北市蘆洲區信義路222巷32弄16號","121.480496666667","25.08464","6501400","蘆洲區"
"235050","4979-A6","2018/08/13 20:19:07","新北市中和區景平路398-1號","121.509691666667","24.9931416666667","6500300","中和區"
"235069","4980-A6","2018/08/13 20:19:26","新北市中和區板南路247-1號","121.496416666667","24.9947266666667","6500300","中和區"
"235057","801-TS","2018/08/13 20:19:13","新北市樹林區柑園街二段237號","121.374695","24.9529433333333","6500300","中和區"
"235051","157-BY","2018/08/13 20:19:27","新北市中和區中興街118巷8號","121.499946666667","24.9935383333333","6500300","中和區"
"235059","AAC-215","2018/08/13 20:19:11","新北市中和區圓通路367巷6號","121.491438333333","24.989235","6500300","中和區"
"247024","893-R6","2018/08/13 20:19:19","新北市蘆洲區光榮路120巷8弄41號","121.464451666667","25.08783","6501400","蘆洲區"
"247014","546-UM","2018/08/13 20:19:07","新北市蘆洲區中山二路134號","121.471531666667","25.0814616666667","6501400","蘆洲區"
"247022","500-BY","2018/08/13 20:19:16","新北市蘆洲區民族路570號","121.467251666667","25.0886733333333","6501400","蘆洲區"
"247012","339-TH","2018/08/13 20:19:15","新北市蘆洲區中興街24號","121.48067","25.086925","6501400","蘆洲區"
"247004","337-TH","2018/08/13 20:19:16","新北市蘆洲區長安街297號","121.457955","25.0847783333333","6501400","蘆洲區"
"247006","336-TH","2018/08/13 20:19:19","新北市蘆洲區九芎街153巷12號","121.465508333333","25.07873","6501400","蘆洲區"
"247018","057-VK","2018/08/13 20:19:24","新北市蘆洲區民族路408巷16號","121.475015","25.0920516666667","6501400","蘆洲區"
"247008","056-VK","2018/08/13 20:19:17","新北市蘆洲區集賢路209號","121.483388333333","25.087195","6501400","蘆洲區"
"247002","002-UY","2018/08/13 20:19:24","新北市蘆洲區長安街331巷21號","121.455798333333","25.0865383333333","6501400","蘆洲區"
"247020","001-UY","2018/08/13 20:19:11","新北市蘆洲區仁愛街57號","121.471793333333","25.093285","6501400","蘆洲區"
"224010","AGQ-8101","2018/08/13 20:19:12","新北市瑞芳區烏勢巷52號","121.845895","25.1086816666667","6501200","瑞芳區"
"222001","KEA-2212","2018/08/13 20:19:25","新北市深坑區北深路三段215巷2弄6號","121.599913333333","25.00373","6501800","深坑區"
"208002","KEA-2872","2018/08/13 20:19:24","新北市金山區環金路462號","121.630123333333","25.2247966666667","6502700","金山區"
"251001","011-UM","2018/08/13 20:19:18","新北市淡水區新市二路四段265號","121.44573","25.192465","6501000","淡水區"
"251013","KEA-2871","2018/08/13 20:19:22","新北市淡水區奎柔山路752巷31號","121.474466666667","25.20544","6501000","淡水區"
"251016","179-VK","2018/08/13 20:19:21","新北市淡水區淡金路五段20號","121.453408333333","25.232415","6501000","淡水區"
"251014","180-VK","2018/08/13 20:19:23","新北市淡水區石頭厝1號","121.45873","25.2355133333333","6501000","淡水區"
"251015","181-VK","2018/08/13 20:19:20","新北市淡水區淡金路四段215號","121.45182","25.2223033333333","6501000","淡水區"
"251010","413-VK","2018/08/13 20:19:20","新北市淡水區新民街一段155號","121.4274","25.18881","6501000","淡水區"
"251012","441-VK","2018/08/13 20:19:29","新北市淡水區下圭柔山431-1號","121.449803333333","25.21032","6501000","淡水區"
"251008","442-VK","2018/08/13 20:19:13","新北市淡水區沙崙路131巷11號","121.421955","25.1829533333333","6501000","淡水區"
"251006","561-UM","2018/08/13 20:19:10","新北市淡水區北新路169巷35號","121.449376666667","25.18033","6501000","淡水區"
"251007","577-R6","2018/08/13 20:19:22","新北市淡水區淡金路一段69號","121.458086666667","25.1734633333333","6501000","淡水區"
"251002","672-BX","2018/08/13 20:19:05","新北市淡水區中正路190號","121.44007","25.1699983333333","6501000","淡水區"
"251003","766-UM","2018/08/13 20:19:27","新北市淡水區中山北路一段196號","121.444625","25.17952","6501000","淡水區"
"207004","225-TW","2018/08/13 20:19:18","新北市萬里區北基里大仁路4號","121.682023333333","25.1753016666667","6502800","萬里區"
"252002","178-VK","2018/08/13 20:19:10","新北市三芝區中正路一段39號","121.503171666667","25.2583083333333","6502100","三芝區"
"252001","292-VK","2018/08/13 20:19:19","新北市三芝區中山路一段14號","121.50084","25.25813","6502100","三芝區"
"237006","5529-G3","2018/08/13 20:19:25","新北市三峽區中園街86巷1號","121.3675","24.9247933333333","6500900","三峽區"
"237015","649-BX","2018/08/13 20:19:24","新北市三峽區橫溪路42巷22號","121.395686666667","24.9349133333333","6500900","三峽區"
"237005","AKY-6261","2018/08/13 20:19:17","新北市三峽區三樹路98巷74弄91號","121.385075","24.9384783333333","6500900","三峽區"
"236069","105-UM","2018/08/13 20:19:14","新北市土城區中山路47號","121.420708333333","24.962975","6501300","土城區"
"236042","107-UM","2018/08/13 20:19:19","新北市土城區裕民路78號","121.449845","24.9872783333333","6501300","土城區"
"236078","166-UM","2018/08/13 20:19:24","新北市土城區金安街71號","121.420361666667","24.9653633333333","6501300","土城區"
"236030","253-BX","2018/08/13 20:19:27","新北市土城區學成路108巷13弄11號","121.449598333333","24.9901066666667","6501300","土城區"
"236026","269-VK","2018/08/13 20:19:27","新北市土城區中央路一段249巷8號","121.445743333333","24.9855733333333","6501300","土城區"
"236014","270-VK","2018/08/13 20:19:07","新北市土城區廣明街90巷23號","121.455455","24.9945866666667","6501300","土城區"
"236039","271-VK","2018/08/13 20:19:11","新北市土城區延吉街280號","121.465218333333","24.9842083333333","6501300","土城區"
"236059","912-UM","2018/08/13 20:19:21","新北市土城區中央路三段140號","121.433161666667","24.9655666666667","6501300","土城區"
"242058","986-R7","2018/08/13 20:19:19","新北市新莊區龍安路266巷3號","121.42166","25.0190933333333","6500500","新莊區"
"242025","705-TV","2018/08/13 20:19:23","新北市新莊區五工二路70巷2號","121.460385","25.065885","6500500","新莊區"
"242027","615-BX","2018/08/13 20:19:07","新北市新莊區幸福路591號","121.453583333333","25.0492566666667","6500500","新莊區"
"242042","566-BX","2018/08/13 20:19:23","新北市新莊區青山路一段8號","121.411941666667","25.0275166666667","6500500","新莊區"
"242046","497-BY","2018/08/13 20:19:23","新北市新莊區中正路新生巷5號","121.417081666667","25.024185","6500500","新莊區"
"242053","442-UM","2018/08/13 20:19:21","新北市新莊區民安西路265-1號","121.426456666667","25.01301","6500500","新莊區"
"242050","441-UM","2018/08/13 20:19:15","新北市新莊區民安西路240號","121.42601","25.0141583333333","6500500","新莊區"
"242056","440-UM","2018/08/13 20:19:24","新北市新莊區豐年街28巷27號","121.445326666667","25.032235","6500500","新莊區"
"242036","415-TV","2018/08/13 20:19:10","新北市新莊區建安街59號","121.428281666667","25.02527","6500500","新莊區"
"242007","413-TV","2018/08/13 20:19:11","新北市新莊區福壽街142巷38號","121.459251666667","25.0518633333333","6500500","新莊區"
"242044","400-BY","2018/08/13 20:19:22","新北市新莊區中正路895-25號","121.41233","25.02182","6500500","新莊區"
"242023","362-BY","2018/08/13 20:19:18","新北市新莊區化成路812號","121.464978333333","25.05962","6500500","新莊區"
"242060","353-BY","2018/08/13 20:19:24","新北市新莊區新樹路178號","121.434375","25.0213483333333","6500500","新莊區"
"242039","133-UY","2018/08/13 20:19:27","新北市新莊區成功街75號","121.424648333333","25.019835","6500500","新莊區"
"242031","135-UY","2018/08/13 20:19:26","新北市新莊區三和路32號","121.438275","25.0380766666667","6500500","新莊區"
"242048","172-VK","2018/08/13 20:19:24","新北市新莊區龍安路236號","121.420631666667","25.01977","6500500","新莊區"
"242011","173-VK","2018/08/13 19:53:54","新北市新莊區中信街47號","121.44987","25.0508016666667","6500500","新莊區"
"242017","175-VK","2018/08/13 20:19:17","新北市新莊區中港一街133號","121.448195","25.0451133333333","6500500","新莊區"
"242004","176-VK","2018/08/13 20:19:20","新北市新莊區化成路540-2號","121.46632","25.0533733333333","6500500","新莊區"
"242013","347-TH","2018/08/13 20:19:13","新北市新莊區中信街63巷4弄11號","121.448493333333","25.0500233333333","6500500","新莊區"
"242021","348-TH","2018/08/13 20:19:17","新北市新莊區和興街3號","121.447606666667","25.0389733333333","6500500","新莊區"
"242002","349-TH","2018/08/13 20:19:26","新北市新莊區中正路1號","121.465185","25.0415766666667","6500500","新莊區"
"242019","350-TH","2018/08/13 20:19:25","新北市新莊區復興路二段181號","121.458951666667","25.0444633333333","6500500","新莊區"
"221008","489-VK","2018/08/13 20:19:23","新北市汐止區康寧街145號","121.621935","25.066665","6501100","汐止區"
"221036","130-UY","2018/08/13 20:19:22","新北市汐止區福安街61巷15號","121.66472","25.063865","6501100","汐止區"
"221015","131-UY","2018/08/13 20:19:23","新北市汐止區建成路160巷16號","121.661906666667","25.073945","6501100","汐止區"
"221010","269-BY","2018/08/13 20:19:24","新北市汐止區八連路二段36巷10號","121.637391666667","25.0943516666667","6501100","汐止區"
"221012","278-VK","2018/08/13 20:19:09","新北市汐止區保新街267號","121.69142","25.0682566666667","6501100","汐止區"
"221023","279-VK","2018/08/13 20:19:14","新北市汐止區明峰街101號","121.63136","25.071055","6501100","汐止區"
"221032","280-BY","2018/08/13 20:19:25","新北市汐止區橫科路52巷9弄5號","121.619518333333","25.0501683333333","6501100","汐止區"
"221027","281-BY","2018/08/13 20:19:22","新北市汐止區大同路二段391號","121.657796666667","25.0672633333333","6501100","汐止區"
"221029","298-VK","2018/08/13 20:19:15","新北市汐止區樟樹一路99巷7弄1號","121.64123","25.0635983333333","6501100","汐止區"
"221021","299-VK","2018/08/13 20:19:23","新北市汐止區水源路一段284號","121.6542","25.05833","6501100","汐止區"
"221002","129-UY","2018/08/13 20:19:17","新北市汐止區福德三路67號","121.636803333333","25.0693216666667","6501100","汐止區"
"221035","622-UM","2018/08/13 20:19:27","新北市汐止區長江街97號","121.658195","25.0727633333333","6501100","汐止區"
"221025","623-UM","2018/08/13 20:19:09","新北市汐止區水源路二段70號","121.65589","25.0563733333333","6501100","汐止區"
"221038","646-BX","2018/08/13 20:19:25","新北市汐止區忠孝東路482號","121.666368333333","25.0738333333333","6501100","汐止區"
"221033","647-BX","2018/08/13 20:19:11","新北市汐止區東勢街215巷3弄1號","121.634238333333","25.04285","6501100","汐止區"
"221018","753-BX","2018/08/13 20:19:15","新北市汐止區茄興街12號","121.673523333333","25.06724","6501100","汐止區"
"220101","245-BX","2018/08/13 20:19:27","新北市板橋區莊敬路75巷2號","121.473101666667","25.0266","6500100","板橋區"
"220083","286-VK","2018/08/13 20:19:23","新北市板橋區僑中二街92巷34號","121.44442","25.0091716666667","6500100","板橋區"
"220081","287-VK","2018/08/13 20:19:11","新北市板橋區僑中一街80巷7弄11號","121.447303333333","25.01274","6500100","板橋區"
"220061","293-UM","2018/08/13 20:19:23","新北市板橋區四川路一段148號","121.459976666667","25.0035","6500100","板橋區"
"242015","281-VK","2018/08/13 20:19:10","新北市新莊區中平路26巷47號","121.447063333333","25.043685","6500500","新莊區"
"242034","280-VK","2018/08/13 20:19:10","新北市新莊區建中街90巷3弄9號","121.446326666667","25.0371283333333","6500500","新莊區"
"220088","491-VK","2018/08/13 20:19:16","新北市五股區新城三路61號","121.449101666667","25.093605","6500100","板橋區"
"220103","561-BX","2018/08/13 20:19:16","新北市板橋區陽明街251號","121.462733333333","25.0251933333333","6500100","板橋區"
"220057","686-BX","2018/08/13 20:19:26","新北市八里區商港路50號","121.3954","25.146245","6500100","板橋區"
"220102","KEA-2699","2018/08/13 20:19:23","新北市板橋區漢生東路83巷8號","121.467298333333","25.01603","6500100","板橋區"
"220055","827-TW","2018/08/13 20:19:19","新北市板橋區仁愛路30號","121.458935","24.9993783333333","6500100","板橋區"
"220089","833-TW","2018/08/13 20:19:11","新北市板橋區四維路175-1號","121.464565","25.0262833333333","6500100","板橋區"
"220074","895-R6","2018/08/13 20:19:12","新北市板橋區館前西路122號","121.456633333333","25.00764","6500100","板橋區"
"220097","AAC-210","2018/08/13 20:19:17","新北市板橋區民權路202巷18弄12號","121.461221666667","25.0163483333333","6500100","板橋區"
"220070","AAC-253","2018/08/13 20:19:20","新北市板橋區四川路二段253號","121.450425","24.9931416666667","6500100","板橋區"
"235068","KEA-2873","2018/08/13 20:19:26","新北市中和區福美路269號","121.49821","25.0050066666667","6500300","中和區"
