"lineid","car","time","location","longitude","latitude","cityid","cityname"
"234081","298-R6","2018/08/13 20:39:25","新北市永和區永貞路76號","121.520243333333","25.00518","6500400","永和區"
"234064","337-UY","2018/08/13 20:39:22","新北市永和區環河西路二段219號","121.501211666667","25.0103933333333","6500400","永和區"
"234030","746-BX","2018/08/13 20:39:10","新北市板橋區民生路二段56-6號","121.471013333333","25.018785","6500400","永和區"
"234061","AAD-866","2018/08/13 20:39:29","新北市永和區秀朗路一段175號","121.51699","25.003565","6500400","永和區"
"234042","862-TW","2018/08/13 20:39:25","新北市永和區自由街20號","121.514415","25.00661","6500400","永和區"
"234050","863-TW","2018/08/13 20:39:20","新北市永和區保福路二段163巷19號","121.50877","25.0145516666667","6500400","永和區"
"249001","173-UM","2018/08/13 20:39:25","新北市八里區下罟子23號","121.377151666667","25.1387216666667","6502300","八里區"
"249004","303-UY","2018/08/13 20:39:16","新北市八里區中山路一段129巷29號","121.414066666667","25.1585616666667","6502300","八里區"
"249002","305-UY","2018/08/13 20:39:18","新北市八里區大崁腳48-53號","121.424993333333","25.159265","6502300","八里區"
"249003","593-UM","2018/08/13 20:39:27","新北市八里區商港路105巷15號","121.38969","25.1478683333333","6502300","八里區"
"248002","678-BX","2018/08/13 20:39:08","新北市五股區中直路21號","121.421603333333","25.11187","6501500","五股區"
"234023","9380-KE","2018/08/13 20:39:21","新北市永和區竹林路23號","121.517318333333","25.0147533333333","6500400","永和區"
"234077","969-R7","2018/08/13 20:39:10","新北市中和區中正路448號","121.49089","24.994095","6500400","永和區"
"234074","AAC-211","2018/08/13 20:39:09","新北市永和區竹林路119巷22弄3-3號","121.52197","25.0115733333333","6500400","永和區"
"234067","AAC-212","2018/08/13 20:39:11","新北市永和區中山路一段281巷3號","121.507236666667","25.006775","6500400","永和區"
"243016","KEA-2801","2018/08/13 20:39:25","新北市泰山區文程路19號","121.428158333333","25.04939","6501600","泰山區"
"243011","KEA-2215","2018/08/13 20:39:23","新北市泰山區明志路二段12號","121.42992","25.0535733333333","6501600","泰山區"
"243012","646-TV","2018/08/13 20:39:15","新北市泰山區橫窠雅36號","121.403771666667","25.0729233333333","6501600","泰山區"
"222003","436-BY","2018/08/13 20:39:16","新北市深坑區阿柔洋3-1號","121.612861666667","25.0001083333333","6501800","深坑區"
"222002","659-BX","2018/08/13 20:39:28","新北市深坑區萬福路45號","121.599495","25.00673","6501800","深坑區"
"231045","001-UM","2018/08/13 20:39:15","新北市新店區長春路41號","121.549885","24.9575666666667","6500600","新店區"
"231041","002-UM","2018/08/13 20:39:13","新北市新店區中正路698號","121.534033333333","24.990675","6500600","新店區"
"231059","046-UY","2018/08/13 20:39:14","新北市新店區僑愛二路5號","121.500103333333","24.9452316666667","6500600","新店區"
"231040","047-UY","2018/08/13 20:39:19","新北市新店區中正路276號","121.538871666667","24.9737133333333","6500600","新店區"
"231044","106-UY","2018/08/13 20:39:21","新北市新店區建國路291巷1號","121.536985","24.9853383333333","6500600","新店區"
"231052","107-UY","2018/08/13 20:39:21","新北市新店區桂山路87號","121.554135","24.90404","6500600","新店區"
"231047","187-VK","2018/08/13 20:39:23","新北市新店區寶慶街34號","121.543071666667","24.9868083333333","6500600","新店區"
"231054","KEA-2219","2018/08/13 20:39:20","新北市新店區行政街22號","121.543086666667","24.9656933333333","6500600","新店區"
"221031","KEA-2785","2018/08/13 20:39:19","新北市汐止區中興路27巷21號","121.634115","25.060865","6501100","汐止區"
"231057","256-BX","2018/08/13 20:39:18","新北市新店區花園二路一段9-6號","121.556333333333","24.9328433333333","6500600","新店區"
"231042","268-BY","2018/08/13 20:39:26","新北市新店區寶橋路210號","121.550803333333","24.978595","6500600","新店區"
"231051","278-BY","2018/08/13 20:39:22","新北市新店區中央七街29號","121.529523333333","24.9753883333333","6500600","新店區"
"231050","AAD-862","2018/08/13 20:39:15","新北市新店區中正路263-5號","121.538206666667","24.9739066666667","6500600","新店區"
"231043","355-BY","2018/08/13 20:39:18","新北市新店區建國路29號","121.54024","24.9740866666667","6500600","新店區"
"231058","3713-VJ","2018/08/13 20:39:10","新北市新店區平等街55號","121.536148333333","24.9728483333333","6500600","新店區"
"231066","4716-K9","2018/08/13 20:39:16","新北市新店區安興路56號","121.516426666667","24.97462","6500600","新店區"
"231056","4715-K9","2018/08/13 20:39:22","新北市新店區中央七街61巷3號","121.528353333333","24.9765766666667","6500600","新店區"
"231067","4772-VM","2018/08/13 20:39:27","新北市新店區安華路28-1號","121.51978","24.960885","6500600","新店區"
"231065","512-UM","2018/08/13 20:39:24","新北市新店區安祥路102巷46弄51號","121.48625","24.9637683333333","6500600","新店區"
"231049","513-UM","2018/08/13 20:39:27","新北市新店區永業路81巷5弄28號","121.53091","24.9496666666667","6500600","新店區"
"231061","619-UM","2018/08/13 20:39:25","新北市新店區新和街36號","121.519348333333","24.98486","6500600","新店區"
"231063","641-BX","2018/08/13 20:39:12","新北市新店區玫瑰路4-1號","121.493585","24.9514116666667","6500600","新店區"
"231068","718-UY","2018/08/13 20:39:28","新北市新店區寶慶街34號","121.543083333333","24.9867983333333","6500600","新店區"
"231064","719-UM","2018/08/13 20:39:22","新北市新店區安和路三段167號","121.516081666667","24.9859216666667","6500600","新店區"
"231062","720-UM","2018/08/13 20:39:16","新北市新店區安泰路60巷55弄97號","121.484636666667","24.945995","6500600","新店區"
"231060","897-TW","2018/08/13 20:39:11","新北市新店區安康路三段738號","121.47392","24.9419383333333","6500600","新店區"
"241011","013-R5","2018/08/13 20:39:12","新北市三重區龍濱路190號","121.501103333333","25.0733","6500200","三重區"
"241028","022-UY","2018/08/13 20:39:14","新北市三重區光興街89號","121.497468333333","25.0599783333333","6500200","三重區"
"241008","059-VK","2018/08/13 20:39:28","新北市三重區下竹圍街91號","121.481113333333","25.0748633333333","6500200","三重區"
"241022","060-VK","2018/08/13 20:39:16","新北市三重區民生街61巷6弄3號","121.488743333333","25.0621983333333","6500200","三重區"
"241031","061-VK","2018/08/13 20:39:22","新北市三重區重陽路一段113巷1弄51號","121.488113333333","25.0585283333333","6500200","三重區"
"241015","062-VK","2018/08/13 20:39:17","新北市三重區文化北路105號","121.497868333333","25.068465","6500200","三重區"
"241017","063-VK","2018/08/13 20:39:15","新北市三重區安慶街268號","121.49075","25.0676233333333","6500200","三重區"
"241024","065-VK","2018/08/13 20:39:09","新北市三重區忠孝路三段24號","121.481461666667","25.066975","6500200","三重區"
"241026","066-VK","2018/08/13 20:39:21","新北市三重區文化南路3號","121.500015","25.0624916666667","6500200","三重區"
"241002","090-VK","2018/08/13 20:39:14","新北市三重區仁義街167巷33號","121.498098333333","25.082055","6500200","三重區"
"241003","091-VK","2018/08/13 20:39:20","新北市三重區五華街141巷60號","121.493543333333","25.0868216666667","6500200","三重區"
"241005","262-UM","2018/08/13 20:39:17","新北市三重區富福街89號","121.492881666667","25.0851666666667","6500200","三重區"
"241035","265-UM","2018/08/13 20:39:14","新北市三重區正義北路275-1號","121.4953","25.0699916666667","6500200","三重區"
"241016","266-UM","2018/08/13 20:39:20","新北市三重區自強路一段210號","121.494285","25.066515","6500200","三重區"
"241009","267-UM","2018/08/13 20:39:13","新北市三重區碧華街55號","121.484716666667","25.0813816666667","6500200","三重區"
"241018","268-UM","2018/08/13 20:39:26","新北市三重區自強路一段320號","121.491006666667","25.0685333333333","6500200","三重區"
"241032","269-UM","2018/08/13 20:39:15","新北市三重區重陽路一段120巷39號","121.484991666667","25.0603966666667","6500200","三重區"
"241013","270-UM","2018/08/13 20:39:15","新北市三重區三和路四段3號","121.491605","25.0741266666667","6500200","三重區"
"241025","271-UM","2018/08/13 20:39:13","新北市三重區頂崁街210巷28弄2號","121.475665","25.0677466666667","6500200","三重區"
"241007","398-BY","2018/08/13 20:39:19","新北市三重區三和路四段95-1號","121.488023333333","25.0761033333333","6500200","三重區"
"241004","475-VK","2018/08/13 20:39:13","新北市三重區分子尾街45號","121.489246666667","25.0820366666667","6500200","三重區"
"241020","478-VK","2018/08/13 20:39:10","新北市三重區忠孝路一段101號","121.489521666667","25.0720983333333","6500200","三重區"
"241030","480-VK","2018/08/13 20:39:11","新北市三重區成功路73巷18號","121.48939","25.0520066666667","6500200","三重區"
"241014","543-UM","2018/08/13 20:39:21","新北市三重區介壽路1號","121.498963333333","25.0689083333333","6500200","三重區"
"241023","545-UM","2018/08/13 20:39:27","新北市三重區自由街35巷2號","121.479005","25.0669","6500200","三重區"
"241001","547-UM","2018/08/13 20:39:21","新北市三重區自強路三段110巷3號","121.486766666667","25.0748583333333","6500200","三重區"
"241019","KEA-2593","2018/08/13 20:39:12","新北市三重區大智街129-1號","121.491286666667","25.070475","6500200","三重區"
"241006","AAD-863","2018/08/13 20:39:16","新北市三重區車路頭街139巷12號","121.484258333333","25.0762633333333","6500200","三重區"
"241012","941-UM","2018/08/13 20:39:16","新北市三重區秀江街26號","121.502496666667","25.0730016666667","6500200","三重區"
"241029","942-UM","2018/08/13 20:39:15","新北市三重區集美街200號","121.490983333333","25.0538916666667","6500200","三重區"
"241033","AAC-255","2018/08/13 20:39:15","新北市三重區神農街467號","121.474271666667","25.0579366666667","6500200","三重區"
"247010","KEA-2869","2018/08/13 20:39:30","新北市蘆洲區集賢路224巷27號","121.481673333333","25.0871333333333","6501400","蘆洲區"
"235069","4980-A6","2018/08/13 20:39:25","新北市中和區新生街287號","121.48387","24.9973716666667","6500300","中和區"
"235059","AAC-215","2018/08/13 20:39:15","新北市中和區員山路72號","121.480868333333","24.9934566666667","6500300","中和區"
"247024","893-R6","2018/08/13 20:39:19","新北市蘆洲區長樂路61號","121.462858333333","25.0864283333333","6501400","蘆洲區"
"247014","546-UM","2018/08/13 20:39:28","新北市蘆洲區中山一路225號","121.473793333333","25.0808316666667","6501400","蘆洲區"
"247022","500-BY","2018/08/13 20:39:16","新北市蘆洲區光華路22巷63號","121.467786666667","25.0853783333333","6501400","蘆洲區"
"247012","339-TH","2018/08/13 20:39:15","新北市蘆洲區民族路236巷36號","121.481106666667","25.0886683333333","6501400","蘆洲區"
"247004","337-TH","2018/08/13 20:39:16","新北市蘆洲區長安街295號","121.45814","25.08475","6501400","蘆洲區"
"247006","336-TH","2018/08/13 20:39:19","新北市蘆洲區和平路189號","121.466281666667","25.0813616666667","6501400","蘆洲區"
"247008","056-VK","2018/08/13 20:39:17","新北市蘆洲區重陽街18號","121.480766666667","25.0815366666667","6501400","蘆洲區"
"247002","002-UY","2018/08/13 20:39:24","新北市蘆洲區長安街375巷3號","121.456936666667","25.0877933333333","6501400","蘆洲區"
"247020","001-UY","2018/08/13 20:39:11","新北市蘆洲區民族路331-2號","121.473933333333","25.0916316666667","6501400","蘆洲區"
"222001","KEA-2212","2018/08/13 20:39:05","新北市深坑區北深路三段230號","121.600688333333","25.0039666666667","6501800","深坑區"
"251001","011-UM","2018/08/13 20:39:18","新北市淡水區淡金路218-1號","121.46073","25.1678233333333","6501000","淡水區"
"251013","KEA-2871","2018/08/13 20:39:22","新北市淡水區下圭柔山28巷17號","121.457828333333","25.2038916666667","6501000","淡水區"
"251016","179-VK","2018/08/13 20:39:21","新北市淡水區後洲子8-2號","121.449696666667","25.2240066666667","6501000","淡水區"
"251014","180-VK","2018/08/13 20:39:23","新北市淡水區公埔子32-5號","121.462871666667","25.2327133333333","6501000","淡水區"
"251015","181-VK","2018/08/13 20:39:20","新北市淡水區淡金路四段542巷17號","121.45279","25.22707","6501000","淡水區"
"251010","413-VK","2018/08/13 20:39:20","新北市淡水區沙崙路181巷15號","121.42397","25.1844366666667","6501000","淡水區"
"251012","441-VK","2018/08/13 20:39:09","新北市淡水區興仁路99號","121.451613333333","25.2181183333333","6501000","淡水區"
"251008","442-VK","2018/08/13 20:39:13","新北市淡水區淡海路189巷10號","121.419621666667","25.1845166666667","6501000","淡水區"
"251006","561-UM","2018/08/13 20:39:30","新北市淡水區商工路173號","121.44795","25.188325","6501000","淡水區"
"251007","577-R6","2018/08/13 20:39:22","新北市淡水區忠愛街3-1號","121.45793","25.1716283333333","6501000","淡水區"
"251002","672-BX","2018/08/13 20:39:26","新北市淡水區中正路32號","121.443956666667","25.1692966666667","6501000","淡水區"
"251003","766-UM","2018/08/13 20:39:27","新北市淡水區新民街152巷6弄20號","121.438641666667","25.1784416666667","6501000","淡水區"
"252002","178-VK","2018/08/13 20:39:30","新北市三芝區淡金路二段47-2號","121.503686666667","25.2605566666667","6502100","三芝區"
"252001","292-VK","2018/08/13 20:39:19","新北市三芝區中山路一段87號","121.501176666667","25.2566516666667","6502100","三芝區"
"242058","986-R7","2018/08/13 20:39:19","新北市新莊區四維路123-1號","121.42304","25.0229416666667","6500500","新莊區"
"242025","705-TV","2018/08/13 20:39:23","新北市新莊區化成路579巷1號","121.464365","25.0660383333333","6500500","新莊區"
"242027","615-BX","2018/08/13 20:39:07","新北市新莊區思源路59號","121.45984","25.04032","6500500","新莊區"
"242042","566-BX","2018/08/13 20:39:23","新北市新莊區中正路694巷84號","121.41735","25.02951","6500500","新莊區"
"242046","497-BY","2018/08/13 20:39:23","新北市新莊區龍安路108號","121.41849","25.0204016666667","6500500","新莊區"
"242053","442-UM","2018/08/13 20:39:10","新北市新莊區西盛街325號","121.428161666667","25.01465","6500500","新莊區"
"242050","441-UM","2018/08/13 20:39:17","新北市新莊區民安西路189巷10弄2號","121.426196666667","25.0153316666667","6500500","新莊區"
"242056","440-UM","2018/08/13 20:39:24","新北市新莊區瓊泰路109號","121.44321","25.0300883333333","6500500","新莊區"
"242036","415-TV","2018/08/13 20:39:10","新北市新莊區後港一路46巷4號","121.42613","25.0259066666667","6500500","新莊區"
"242007","413-TV","2018/08/13 20:39:11","新北市新莊區福壽街56巷21號","121.459256666667","25.0488966666667","6500500","新莊區"
"242044","400-BY","2018/08/13 20:39:25","新北市新莊區中正路新建巷15弄10號","121.41444","25.0221816666667","6500500","新莊區"
"242023","362-BY","2018/08/13 20:39:18","新北市新莊區化成路205號","121.465896666667","25.05086","6500500","新莊區"
"242060","353-BY","2018/08/13 20:39:24","新北市新莊區新樹路260-2號","121.432388333333","25.0151633333333","6500500","新莊區"
"242009","132-UY","2018/08/13 20:39:19","新北市新莊區幸福路78巷1弄10號","121.456365","25.0497266666667","6500500","新莊區"
"242039","133-UY","2018/08/13 20:39:26","新北市新莊區瓊林路204-16號","121.436956666667","25.0214483333333","6500500","新莊區"
"242031","135-UY","2018/08/13 20:39:18","新北市新莊區中正路508巷5弄2號","121.435063333333","25.03389","6500500","新莊區"
"242048","172-VK","2018/08/13 20:39:28","新北市新莊區中正路596號","121.426616666667","25.03022","6500500","新莊區"
"242011","173-VK","2018/08/13 20:38:51","新北市新莊區中信街99巷9號","121.447318333333","25.053345","6500500","新莊區"
"242017","175-VK","2018/08/13 20:39:17","新北市新莊區中港一街153號","121.447601666667","25.04512","6500500","新莊區"
"242013","347-TH","2018/08/13 20:39:13","新北市新莊區中和街175巷11號","121.447201666667","25.0505083333333","6500500","新莊區"
"242021","348-TH","2018/08/13 20:39:26","新北市新莊區中正路206號","121.449286666667","25.035445","6500500","新莊區"
"242002","349-TH","2018/08/13 20:39:26","新北市新莊區中正路149號","121.456461666667","25.0368733333333","6500500","新莊區"
"242019","350-TH","2018/08/13 20:39:25","新北市新莊區銘德街138號","121.454711666667","25.0429883333333","6500500","新莊區"
"221008","489-VK","2018/08/13 20:39:23","新北市汐止區康寧街861巷1號","121.64532","25.0760866666667","6501100","汐止區"
"221036","130-UY","2018/08/13 20:39:29","新北市汐止區新昌路50號","121.662605","25.06808","6501100","汐止區"
"221015","131-UY","2018/08/13 20:39:23","新北市汐止區大同路二段663號","121.664771666667","25.0718016666667","6501100","汐止區"
"221012","278-VK","2018/08/13 20:39:09","新北市汐止區汐萬路一段39號","121.654923333333","25.06896","6501100","汐止區"
"221023","279-VK","2018/08/13 20:39:14","新北市汐止區民族二街7-1號","121.635098333333","25.0716833333333","6501100","汐止區"
"221032","280-BY","2018/08/13 20:39:14","新北市汐止區橫科路119號","121.619776666667","25.0504016666667","6501100","汐止區"
"221027","281-BY","2018/08/13 20:39:22","新北市汐止區大同路二段563-1號","121.662808333333","25.0698916666667","6501100","汐止區"
"221029","298-VK","2018/08/13 20:39:24","新北市汐止區新台五路一段79-12號","121.645468333333","25.06216","6501100","汐止區"
"221021","299-VK","2018/08/13 20:39:23","新北市汐止區水源路一段284號","121.65415","25.058255","6501100","汐止區"
"221002","129-UY","2018/08/13 20:39:17","新北市汐止區福德二路123號","121.631251666667","25.06528","6501100","汐止區"
"221035","622-UM","2018/08/13 20:39:27","新北市汐止區長江街101-5號","121.659016666667","25.0733433333333","6501100","汐止區"
"221025","623-UM","2018/08/13 20:39:09","新北市汐止區水源路二段283巷1號","121.659203333333","25.0497833333333","6501100","汐止區"
"221038","646-BX","2018/08/13 20:39:25","新北市汐止區汐萬路一段225號","121.651896666667","25.072565","6501100","汐止區"
"221033","647-BX","2018/08/13 20:39:11","新北市汐止區合順街18巷8弄5號","121.620366666667","25.0418033333333","6501100","汐止區"
"221018","753-BX","2018/08/13 20:39:15","新北市汐止區茄苳路98號","121.667423333333","25.07038","6501100","汐止區"
"220083","286-VK","2018/08/13 20:39:23","新北市板橋區僑中二街112巷1號","121.445691666667","25.0070133333333","6500100","板橋區"
"242015","281-VK","2018/08/13 20:39:10","新北市新莊區中和街32號","121.448191666667","25.04382","6500500","新莊區"
"242034","280-VK","2018/08/13 20:39:30","新北市新莊區中正路336號","121.445755","25.0346916666667","6500500","新莊區"
"220103","561-BX","2018/08/13 20:39:16","新北市板橋區漢生東路83巷20號","121.467466666667","25.0165566666667","6500100","板橋區"
"220070","AAC-253","2018/08/13 20:39:20","新北市五股區凌雲路三段24巷22號","121.432676666667","25.1078783333333","6500100","板橋區"
