"lineid","car","time","location","longitude","latitude","cityid","cityname"
"249002","305-UY","2018/08/13 21:19:18","新北市八里區中山路三段390號","121.368251666667","25.13526","6502300","八里區"
"234077","969-R7","2018/08/13 21:19:30","新北市八里區中山路三段409號","121.368608333333","25.1345133333333","6500400","永和區"
"231059","046-UY","2018/08/13 21:19:14","新北市新店區安豐路30-1號","121.500695","24.9568866666667","6500600","新店區"
"231040","047-UY","2018/08/13 21:19:22","新北市新店區北新路一段217號","121.540523333333","24.965215","6500600","新店區"
"231047","187-VK","2018/08/13 21:19:23","新北市新店區中正路384號","121.534671666667","24.9771","6500600","新店區"
"231054","KEA-2219","2018/08/13 21:19:20","新北市新店區檳榔路2號","121.540916666667","24.964975","6500600","新店區"
"231051","278-BY","2018/08/13 21:19:22","新北市新店區中正路700巷79號","121.536036666667","24.9934066666667","6500600","新店區"
"231050","AAD-862","2018/08/13 21:19:15","新北市新店區中華路147號","121.538356666667","24.9705466666667","6500600","新店區"
"231063","641-BX","2018/08/13 21:19:27","新北市新店區吉祥街13巷2號","121.497781666667","24.945835","6500600","新店區"
"231060","897-TW","2018/08/13 21:19:30","新北市新店區薏仁坑路自強巷6號","121.496395","24.9582483333333","6500600","新店區"
"241011","013-R5","2018/08/13 21:19:12","新北市三重區龍濱路120-3號","121.501865","25.0713","6500200","三重區"
"241028","022-UY","2018/08/13 21:19:14","新北市三重區同安東街82號","121.499098333333","25.0575533333333","6500200","三重區"
"241008","059-VK","2018/08/13 21:19:28","新北市三重區自強路一段64號","121.497216666667","25.066745","6500200","三重區"
"241031","061-VK","2018/08/13 21:19:22","新北市三重區五谷王南街46巷37號","121.47574","25.045505","6500200","三重區"
"241017","063-VK","2018/08/13 21:19:15","新北市三重區大同北路130號","121.492656666667","25.0646216666667","6500200","三重區"
"241024","065-VK","2018/08/13 21:19:09","新北市三重區中正北路145巷14號","121.484133333333","25.06782","6500200","三重區"
"241026","066-VK","2018/08/13 21:19:20","新北市三重區大同南路218號","121.496801666667","25.056355","6500200","三重區"
"241002","090-VK","2018/08/13 21:19:14","新北市三重區五華街60號","121.494126666667","25.081395","6500200","三重區"
"241003","091-VK","2018/08/13 21:19:19","新北市三重區仁義街319號","121.495466666667","25.084375","6500200","三重區"
"241005","262-UM","2018/08/13 21:19:17","新北市三重區五華街180巷15號","121.488293333333","25.085895","6500200","三重區"
"241016","266-UM","2018/08/13 21:19:30","新北市三重區自強路一段95號","121.49586","25.0663333333333","6500200","三重區"
"241009","267-UM","2018/08/13 21:19:13","新北市三重區洛陽街43號","121.482146666667","25.063335","6500200","三重區"
"241018","268-UM","2018/08/13 21:19:26","新北市三重區忠孝路二段51號","121.48542","25.0707483333333","6500200","三重區"
"241032","269-UM","2018/08/13 21:19:15","新北市三重區光華路2-2號","121.471425","25.0598083333333","6500200","三重區"
"241013","270-UM","2018/08/13 21:19:15","新北市三重區仁愛街81-2號","121.49604","25.073265","6500200","三重區"
"241025","271-UM","2018/08/13 21:19:12","新北市三重區中正北路208巷10弄6號","121.482456666667","25.066865","6500200","三重區"
"241007","398-BY","2018/08/13 21:19:19","新北市三重區車路頭街135-1號","121.484245","25.0760233333333","6500200","三重區"
"241004","475-VK","2018/08/13 21:19:13","新北市三重區碧華街315號","121.490966666667","25.0842","6500200","三重區"
"241030","480-VK","2018/08/13 21:19:30","新北市三重區五谷王北街181-1號","121.477376666667","25.0542333333333","6500200","三重區"
"241014","543-UM","2018/08/13 21:19:21","新北市三重區萬全街16號","121.499265","25.06978","6500200","三重區"
"241023","545-UM","2018/08/13 21:19:27","新北市三重區忠孝路三段40巷21號","121.482568333333","25.0658383333333","6500200","三重區"
"241019","KEA-2593","2018/08/13 21:19:18","新北市三重區重陽路三段142號","121.489296666667","25.06701","6500200","三重區"
"241006","AAD-863","2018/08/13 21:19:16","新北市三重區新北大道一段156號","121.484245","25.06155","6500200","三重區"
"241029","942-UM","2018/08/13 21:19:15","新北市三重區仁化街109號","121.4945","25.0579283333333","6500200","三重區"
"241033","AAC-255","2018/08/13 21:19:21","新北市三重區光復路二段102巷23號","121.470268333333","25.0580766666667","6500200","三重區"
"247010","KEA-2869","2018/08/13 21:19:29","新北市蘆洲區鷺江街16-1號","121.478833333333","25.0825966666667","6501400","蘆洲區"
"247024","893-R6","2018/08/13 21:19:19","新北市蘆洲區光榮路2號","121.460091666667","25.0862816666667","6501400","蘆洲區"
"247014","546-UM","2018/08/13 21:19:28","新北市蘆洲區保和街50-5號","121.469813333333","25.086335","6501400","蘆洲區"
"247022","500-BY","2018/08/13 21:19:16","新北市蘆洲區三民路241-15號","121.468726666667","25.0887066666667","6501400","蘆洲區"
"247012","339-TH","2018/08/13 21:19:14","新北市蘆洲區集賢路224巷46弄58-1號","121.480923333333","25.08783","6501400","蘆洲區"
"247004","337-TH","2018/08/13 21:19:16","新北市蘆洲區永安南路二段324號","121.456968333333","25.08277","6501400","蘆洲區"
"247006","336-TH","2018/08/13 21:19:19","新北市蘆洲區長安街63號","121.462843333333","25.0799116666667","6501400","蘆洲區"
"247018","057-VK","2018/08/13 21:19:24","新北市蘆洲區復興路105巷11號","121.47638","25.08841","6501400","蘆洲區"
"247008","056-VK","2018/08/13 21:19:24","新北市蘆洲區中山一路161號","121.475628333333","25.0814133333333","6501400","蘆洲區"
"247002","002-UY","2018/08/13 21:19:24","新北市蘆洲區永樂街40號","121.458051666667","25.0883983333333","6501400","蘆洲區"
"247020","001-UY","2018/08/13 21:19:31","新北市蘆洲區民族路422巷116號","121.472621666667","25.0941733333333","6501400","蘆洲區"
"251005","010-UM","2018/08/13 21:19:12","新北市淡水區水源街一段122巷40號","121.447","25.170425","6501000","淡水區"
"251001","011-UM","2018/08/13 21:19:18","新北市淡水區濱海路一段308號","121.441086666667","25.1893566666667","6501000","淡水區"
"251013","KEA-2871","2018/08/13 21:19:22","新北市淡水區行忠路328號","121.460533333333","25.199595","6501000","淡水區"
"251016","179-VK","2018/08/13 21:19:21","新北市淡水區前洲子11號","121.441071666667","25.219375","6501000","淡水區"
"251014","180-VK","2018/08/13 21:19:23","新北市淡水區六塊厝2-1號","121.45014","25.2404416666667","6501000","淡水區"
"251015","181-VK","2018/08/13 21:19:20","新北市淡水區淡金路四段542巷83弄20號","121.456461666667","25.226675","6501000","淡水區"
"251010","413-VK","2018/08/13 21:19:20","新北市淡水區中正路一段156巷51號","121.42176","25.1809483333333","6501000","淡水區"
"251012","441-VK","2018/08/13 21:19:09","新北市淡水區淡金路五段35巷46號","121.45248","25.23475","6501000","淡水區"
"251008","442-VK","2018/08/13 21:19:13","新北市淡水區北投子81號","121.46215","25.178445","6501000","淡水區"
"251006","561-UM","2018/08/13 21:19:30","新北市淡水區中正路一段8巷1弄11號","121.428048333333","25.175615","6501000","淡水區"
"251009","575-R6","2018/08/13 21:19:19","新北市淡水區民族路33號","121.462366666667","25.1356883333333","6501000","淡水區"
"251011","650-BX","2018/08/13 21:19:12","新北市淡水區新民街120巷29號","121.439023333333","25.1787716666667","6501000","淡水區"
"251002","672-BX","2018/08/13 21:19:25","新北市淡水區學府路172巷21號","121.448101666667","25.1753083333333","6501000","淡水區"
"251003","766-UM","2018/08/13 21:19:27","新北市淡水區崁頂15-5號","121.438988333333","25.1859033333333","6501000","淡水區"
"242011","173-VK","2018/08/13 21:18:31","新北市樹林區中山路三段214號","121.380013333333","24.96745","6500500","新莊區"
"220070","AAC-253","2018/08/13 21:19:20","新北市八里區下罟子1-16號","121.389701666667","25.1421616666667","6500100","板橋區"
