"lineid","car","time","location","longitude","latitude","cityid","cityname"
"247005","336-TH","2018/08/13 22:26:02","新北市五股區中興路三段2巷10號","121.449058333333","25.0808583333333","6501400","蘆洲區"
"251010","413-VK","2018/08/13 22:29:20","新北市淡水區沙崙路200號","121.424698333333","25.1839233333333","6501000","淡水區"
"251008","442-VK","2018/08/13 22:29:13","新北市淡水區學府路104號","121.449906666667","25.171815","6501000","淡水區"
"251004","443-VK","2018/08/13 22:29:29","新北市淡水區民族路33號","121.462248333333","25.1357133333333","6501000","淡水區"
"251007","577-R6","2018/08/13 22:29:22","新北市淡水區北新路186號","121.449731666667","25.1788366666667","6501000","淡水區"
"251011","650-BX","2018/08/13 22:29:12","新北市淡水區水碓街7號","121.443171666667","25.1771833333333","6501000","淡水區"
"251002","672-BX","2018/08/13 22:29:20","新北市淡水區下圭柔山90-8號","121.431385","25.2104583333333","6501000","淡水區"
