"lineid","car","time","location","longitude","latitude","cityid","cityname"
"232001","290-BY","2018/04/26 07:19:20","新北市坪林區桶盤嶼8-2號","121.706481666667","24.9565583333333","6502000","坪林區"
"232014","291-BY","2018/04/26 07:19:21","新北市坪林區金瓜寮13-2號","121.681251666667","24.9152283333333","6502000","坪林區"
"232011","375-UM","2018/04/26 07:19:32","新北市坪林區水聳淒坑8號","121.725526666667","24.92822","6502000","坪林區"
"232018","705-BZ","2018/04/26 07:19:33","新北市坪林區樟空子4號","121.72653","24.968055","6502000","坪林區"
"232007","758-BX","2018/04/26 07:19:34","新北市坪林區魚堀48-3號","121.70181","24.93353","6502000","坪林區"
"244003","248-BX","2018/04/26 07:19:37","新北市林口區忠福路352號","121.356011666667","25.0795283333333","6501700","林口區"
"222006","289-BY","2018/04/26 07:16:12","新北市深坑區文化街110號","121.616321666667","25.0018633333333","6501800","深坑區"
"235044","293-VK","2018/04/26 07:19:22","新北市中和區和平街29-1號","121.507416666667","24.9910283333333","6500300","中和區"
"235001","611-BX","2018/04/26 07:19:35","新北市中和區圓通路367巷6號","121.491573333333","24.989215","6500300","中和區"
"226005","5620-A6","2018/04/26 07:17:44","新北市平溪區菁桐里二坑路1號","121.721171666667","25.024275","6502400","平溪區"
"226002","7418-A5","2018/04/26 07:19:29","新北市平溪區南山里南山坪6號","121.764678333333","25.03182","6502400","平溪區"
"226003","AGD-0702","2018/04/26 07:19:19","新北市平溪區嶺腳里嶺腳寮68-1號","121.748038333333","25.03168","6502400","平溪區"
"223006","022-BY","2018/04/26 07:19:31","新北市石碇區靜安路一段102號","121.64813","25.0100216666667","6501900","石碇區"
"223002","KEA-2673","2018/04/26 07:19:28","新北市石碇區碇格路二段42號","121.636698333333","24.95529","6501900","石碇區"
"223001","205-TH","2018/04/26 07:12:46","新北市石碇區烏塗窟8號","121.655831666667","24.9751716666667","6501900","石碇區"
"223008","406-TH","2018/04/26 07:19:27","新北市石碇區番子坑22號","121.678921666667","25.0008083333333","6501900","石碇區"
"223001","592-UM","2018/04/26 07:19:21","新北市石碇區蓬菜寮7號","121.65343","24.97589","6501900","石碇區"
"223004","660-BX","2018/04/26 07:19:28","新北市石碇區新興坑4號","121.65356","25.0168183333333","6501900","石碇區"
"223007","661-BX","2018/04/26 07:19:34","新北市石碇區蚯蚓坑19-6號","121.68611","25.00109","6501900","石碇區"
"223005","677-TV","2018/04/26 07:19:20","新北市石碇區靜安路一段61號","121.647943333333","25.0102916666667","6501900","石碇區"
"227007","282-VK","2018/04/26 07:19:38","新北市雙溪區新基里自強路5號","121.86633","25.0390366666667","6502500","雙溪區"
"252004","249-BX","2018/04/26 07:19:18","新北市三芝區福德里大湖10號","121.504611666667","25.223165","6502100","三芝區"
"252007","AAC-283","2018/04/26 07:19:20","新北市三芝區錫板里海尾33號","121.490265","25.251225","6502100","三芝區"
"237001","159-UY","2018/04/26 07:19:18","新北市三峽區中山路459巷163-3號","121.349075","24.9332766666667","6500900","三峽區"
"236009","165-UM","2018/04/26 07:19:27","新北市土城區中央路一段53號","121.447876666667","24.9903133333333","6501300","土城區"
"236003","339-SR","2018/04/26 07:19:28","新北市土城區和平路103-1號","121.44962","24.968675","6501300","土城區"
"242052","751-BX","2018/04/26 07:19:26","新北市新莊區三和路18-25號","121.441698333333","25.03913","6500500","新莊區"
"242026","615-BX","2018/04/26 07:19:29","新北市新莊區新泰路255巷83號","121.442176666667","25.0388083333333","6500500","新莊區"
"242028","612-BX","2018/04/26 07:19:18","新北市新莊區新泰路357巷3弄57號","121.442116666667","25.0391","6500500","新莊區"
"242043","400-BY","2018/04/26 07:19:29","新北市新莊區新泰路357巷3弄57號","121.442228333333","25.0395066666667","6500500","新莊區"
"242022","362-BY","2018/04/26 07:19:19","新北市新莊區三和路12-21號","121.442141666667","25.0386583333333","6500500","新莊區"
"242012","351-TH","2018/04/26 07:19:28","新北市新莊區新泰路357巷3弄57號","121.441998333333","25.0395583333333","6500500","新莊區"
"220070","282-UM","2018/04/26 07:19:18","新北市板橋區國光路51號","121.458068333333","25.0179866666667","6500100","板橋區"
