"lineid","car","time","location","longitude","latitude","cityid","cityname"
"232001","290-BY","2018/04/26 07:49:34","新北市坪林區下坑子口6-15號","121.711185","24.9434266666667","6502000","坪林區"
"232014","291-BY","2018/04/26 07:49:21","新北市坪林區九芎根10號","121.66477","24.8817983333333","6502000","坪林區"
"232010","375-UM","2018/04/26 07:49:32","新北市坪林區磨壁潭10號","121.722461666667","24.9383566666667","6502000","坪林區"
"232007","758-BX","2018/04/26 07:49:34","新北市坪林區九芎林32號","121.702611666667","24.9214833333333","6502000","坪林區"
"244003","248-BX","2018/04/26 07:49:37","新北市林口區頂福里28號","121.352676666667","25.09739","6501700","林口區"
"244020","838-TS","2018/04/26 07:49:22","新北市林口區粉寮69號","121.404855","25.0908266666667","6501700","林口區"
"222006","289-BY","2018/04/26 07:48:48","新北市深坑區文化街52號","121.61894","25.0016866666667","6501800","深坑區"
"231069","188-VK","2018/04/26 07:49:29","新北市新店區安華路28-1號","121.519816666667","24.9614666666667","6500600","新店區"
"231008","192-VK","2018/04/26 07:49:30","新北市新店區安華路28-1號","121.519195","24.9613666666667","6500600","新店區"
"235044","293-VK","2018/04/26 07:49:22","新北市中和區和平街29-1號","121.507451666667","24.9910983333333","6500300","中和區"
"235001","611-BX","2018/04/26 07:49:15","新北市中和區圓通路367巷4號","121.491311666667","24.9891833333333","6500300","中和區"
"226005","5620-A6","2018/04/26 07:49:24","新北市平溪區嶺腳里中華街52號","121.739128333333","25.0248366666667","6502400","平溪區"
"226002","7418-A5","2018/04/26 07:49:29","新北市平溪區平湖里大厝1號","121.77941","25.0357083333333","6502400","平溪區"
"226003","AGD-0702","2018/04/26 07:36:19","新北市平溪區嶺腳里嶺腳寮83-2號","121.751078333333","25.0353866666667","6502400","平溪區"
"223006","022-BY","2018/04/26 07:49:31","新北市石碇區雙溪33-2號","121.650435","25.0086733333333","6501900","石碇區"
"223002","KEA-2673","2018/04/26 07:49:28","新北市石碇區北宜路五段大湖巷6-1號","121.632886666667","24.942985","6501900","石碇區"
"223001","205-TH","2018/04/26 07:49:19","新北市石碇區四分子6號","121.664476666667","24.96147","6501900","石碇區"
"223008","406-TH","2018/04/26 07:28:13","新北市石碇區靜安路一段337號","121.698766666667","25.0146766666667","6501900","石碇區"
"223001","592-UM","2018/04/26 07:49:21","新北市石碇區四分子6號","121.663968333333","24.960505","6501900","石碇區"
"223004","660-BX","2018/04/26 07:49:28","新北市石碇區楓子林30號","121.642288333333","25.0095066666667","6501900","石碇區"
"223005","677-TV","2018/04/26 07:46:33","新北市石碇區靜安路一段5號","121.641551666667","25.0115683333333","6501900","石碇區"
"227007","282-VK","2018/04/26 07:49:37","新北市雙溪區雙溪里大同街11號","121.864681666667","25.0349916666667","6502500","雙溪區"
"252004","249-BX","2018/04/26 07:49:38","新北市三芝區店子里菜公坑75號","121.509871666667","25.2062033333333","6502100","三芝區"
"252007","AAC-283","2018/04/26 07:49:20","新北市三芝區古庄里四棧橋48-1號","121.482758333333","25.264195","6502100","三芝區"
"237001","159-UY","2018/04/26 07:49:18","新北市三峽區學成路256號","121.375155","24.94226","6500900","三峽區"
"236009","165-UM","2018/04/26 07:49:27","新北市土城區延吉街377號","121.463613333333","24.983875","6501300","土城區"
"236003","339-SR","2018/04/26 07:47:48","新北市土城區南天母路139號","121.450551666667","24.9512033333333","6501300","土城區"
"242033","AAC-296","2018/04/26 07:49:26","新北市新莊區新莊路664-2號","121.442171666667","25.03305","6500500","新莊區"
"242057","986-R7","2018/04/26 07:49:30","新北市新莊區中正路400號","121.441638333333","25.0339133333333","6500500","新莊區"
"242052","751-BX","2018/04/26 07:49:26","新北市新莊區環河路636-7號","121.436703333333","25.0108233333333","6500500","新莊區"
"242026","615-BX","2018/04/26 07:49:29","新北市新莊區中港路286號","121.452943333333","25.0444233333333","6500500","新莊區"
"242028","612-BX","2018/04/26 07:48:58","新北市新莊區中和街145號","121.447336666667","25.049085","6500500","新莊區"
"242040","566-BX","2018/04/26 07:49:36","新北市新莊區新樹路13號","121.440778333333","25.03304","6500500","新莊區"
"242045","497-BY","2018/04/26 07:49:32","新北市新莊區新樹路65-5號","121.439441666667","25.030795","6500500","新莊區"
"242049","441-UM","2018/04/26 07:49:30","新北市新莊區瓊林南路42巷1-1號","121.435941666667","25.0178516666667","6500500","新莊區"
"242055","440-UM","2018/04/26 07:49:32","新北市新莊區新莊路773號","121.442036666667","25.0325933333333","6500500","新莊區"
"242035","415-TV","2018/04/26 07:49:23","新北市新莊區中正路400號","121.441653333333","25.03384","6500500","新莊區"
"242006","413-TV","2018/04/26 07:49:28","新北市新莊區中和街59巷2號","121.447336666667","25.04691","6500500","新莊區"
"242043","400-BY","2018/04/26 07:49:29","新北市新莊區民安路98巷29號","121.42332","25.0249883333333","6500500","新莊區"
"242022","362-BY","2018/04/26 07:49:19","新北市新莊區新泰路486號","121.442546666667","25.0457216666667","6500500","新莊區"
"242059","353-BY","2018/04/26 07:49:38","新北市新莊區新泰路357巷3弄49號","121.442003333333","25.0400866666667","6500500","新莊區"
"242038","133-UY","2018/04/26 07:49:32","新北市新莊區民安路430號","121.433806666667","25.0225383333333","6500500","新莊區"
"242030","135-UY","2018/04/26 07:49:27","新北市新莊區公園一路75巷13號","121.442441666667","25.0379166666667","6500500","新莊區"
"242047","172-VK","2018/04/26 07:49:28","新北市新莊區龍安路249-1號","121.419311666667","25.021895","6500500","新莊區"
"242016","175-VK","2018/04/26 07:49:20","新北市新莊區中平路82巷29號","121.446011666667","25.0448783333333","6500500","新莊區"
"242003","176-VK","2018/04/26 07:49:28","新北市新莊區新泰路255巷83號","121.442288333333","25.03898","6500500","新莊區"
"242014","346-TH","2018/04/26 07:49:29","新北市新莊區復興路一段101號","121.448996666667","25.0429383333333","6500500","新莊區"
"242020","348-TH","2018/04/26 07:49:31","新北市新莊區公園路224號","121.456458333333","25.0405233333333","6500500","新莊區"
"242012","351-TH","2018/04/26 07:49:28","新北市新莊區中環路二段392-1號","121.442431666667","25.0455383333333","6500500","新莊區"
"242001","KEA-2550","2018/04/26 07:49:26","新北市新莊區新泰路226號","121.446543333333","25.0391333333333","6500500","新莊區"
"220070","282-UM","2018/04/26 07:49:20","新北市板橋區南雅南路一段53號","121.455981666667","25.0060633333333","6500100","板橋區"
"242008","281-VK","2018/04/26 07:49:34","新北市新莊區新泰路488號","121.442671666667","25.0458833333333","6500500","新莊區"
"242018","280-VK","2018/04/26 07:49:18","新北市新莊區新泰路488號","121.442403333333","25.0458416666667","6500500","新莊區"
