"lineid","car","time","location","longitude","latitude","cityid","cityname"
"248005","653-BX","2018/03/09 09:29:37","新北市五股區登林路貿商巷1弄1號","121.430488333333","25.0695883333333","6501500","五股區"
"222005","289-BY","2018/03/09 09:29:35","新北市深坑區北深路一段132號","121.634706666667","25.0107016666667","6501800","深坑區"
"231007","189-VK","2018/03/09 09:29:29","新北市新店區新潭路三段215巷25號","121.508121666667","24.9040816666667","6500600","新店區"
"231009","192-VK","2018/03/09 09:28:42","新北市新店區平廣路一段185號","121.517535","24.8891216666667","6500600","新店區"
"235001","611-BX","2018/03/09 09:29:28","新北市中和區連城路607號","121.47849","24.9931666666667","6500300","中和區"
"223001","205-TH","2018/03/09 09:28:58","新北市石碇區北宜路四段30號","121.623856666667","24.9563166666667","6501900","石碇區"
"223007","661-BX","2018/03/09 09:29:23","新北市石碇區小粗坑(潭邊里)9-2號","121.678543333333","24.9858216666667","6501900","石碇區"
"224007","275-VK","2018/03/09 09:29:26","新北市瑞芳區月眉路7號","121.760286666667","25.105305","6501200","瑞芳區"
"227005","030-BX","2018/03/09 09:28:06","新北市雙溪區泰平里溪尾寮1號","121.820693333333","24.96073","6502500","雙溪區"
"237001","159-UY","2018/03/09 09:29:38","新北市三峽區大觀路80號","121.374353333333","24.94602","6500900","三峽區"
"236010","165-UM","2018/03/09 09:29:17","新北市土城區中央路四段46巷28號","121.421695","24.9616466666667","6501300","土城區"
"236004","339-SR","2018/03/09 09:29:28","新北市土城區中央路三段134號","121.433766666667","24.9656633333333","6501300","土城區"
"236006","498-BY","2018/03/09 09:29:21","新北市土城區承天路71巷4弄5號","121.440946666667","24.9632583333333","6501300","土城區"
"220027","461-BY","2018/03/09 09:04:06","新北市板橋區華東街1-9號","121.448111666667","24.99478","6500100","板橋區"
