"lineid","car","time","location","longitude","latitude","cityid","cityname"
"248005","653-BX","2018/03/09 09:39:37","新北市五股區成泰路一段2-1號","121.433896666667","25.0668483333333","6501500","五股區"
"222005","289-BY","2018/03/09 09:39:35","新北市深坑區昇高坑路30號","121.627288333333","25.0001866666667","6501800","深坑區"
"231007","189-VK","2018/03/09 09:39:29","新北市新店區新潭路三段215巷25號","121.508121666667","24.9040666666667","6500600","新店區"
"231009","192-VK","2018/03/09 09:32:44","新北市新店區平廣路一段256號","121.507878333333","24.888295","6500600","新店區"
"223001","205-TH","2018/03/09 09:39:38","新北市石碇區北宜路四段26號","121.623176666667","24.9579216666667","6501900","石碇區"
"224007","275-VK","2018/03/09 09:39:26","新北市瑞芳區大寮路108號","121.781565","25.0977883333333","6501200","瑞芳區"
"227005","030-BX","2018/03/09 09:39:05","新北市雙溪區泰平里烏山路60號","121.828491666667","24.92976","6502500","雙溪區"
"237001","159-UY","2018/03/09 09:39:38","新北市三峽區大觀路301號","121.373611666667","24.9467016666667","6500900","三峽區"
"236010","165-UM","2018/03/09 09:39:37","新北市土城區中央路四段323號","121.41038","24.9509783333333","6501300","土城區"
"236004","339-SR","2018/03/09 09:39:28","新北市土城區永平街50-1號","121.426956666667","24.95908","6501300","土城區"
"236006","498-BY","2018/03/09 09:39:21","新北市土城區千歲路19號","121.441466666667","24.9691816666667","6501300","土城區"
