"lineid","car","time","location","longitude","latitude","cityid","cityname"
"234044","148-BY","2018/03/09 13:49:39","新北市永和區永元路120號","121.522823333333","25.002645","6500400","永和區"
"234005","207-UY","2018/03/09 13:49:30","新北市永和區永和路一段4號","121.512781666667","25.004495","6500400","永和區"
"234078","298-R6","2018/03/09 13:49:24","新北市永和區永利路81巷19號","121.5222","25.00382","6500400","永和區"
"234036","336-UY","2018/03/09 13:49:33","新北市永和區成功路二段76號","121.526565","24.9990633333333","6500400","永和區"
"234062","337-UY","2018/03/09 13:49:36","新北市永和區中正路368巷2號","121.517923333333","25.00084","6500400","永和區"
"234084","338-UY","2018/03/09 13:49:32","新北市永和區中正路612號","121.517043333333","25.0073833333333","6500400","永和區"
"234068","552-UM","2018/03/09 13:49:38","新北市永和區竹林路81號","121.519548333333","25.0125516666667","6500400","永和區"
"234015","745-BX","2018/03/09 13:49:43","新北市永和區文化路53號","121.514271666667","25.0149983333333","6500400","永和區"
"234028","746-BX","2018/03/09 13:49:36","新北市永和區民生路18號","121.522616666667","24.99746","6500400","永和區"
"234052","KEA-2590","2018/03/09 13:49:33","新北市永和區竹林路39巷28弄21號","121.519935","25.0145183333333","6500400","永和區"
"234012","KEA-2591","2018/03/09 13:49:26","新北市永和區保生路55號","121.504795","25.010595","6500400","永和區"
"234060","AAD-866","2018/03/09 13:49:36","新北市永和區中正路281號","121.51761","25.0011366666667","6500400","永和區"
"234040","862-TW","2018/03/09 13:49:38","新北市永和區中和路389巷1弄1號","121.508466666667","25.00026","6500400","永和區"
"234048","863-TW","2018/03/09 13:49:34","新北市永和區保安路75號","121.508643333333","25.014935","6500400","永和區"
"234025","9371-KE","2018/03/09 13:49:40","新北市永和區自由街58號","121.513775","25.005965","6500400","永和區"
"234010","9373-KE","2018/03/09 13:49:24","新北市永和區保生路55號","121.50469","25.0106733333333","6500400","永和區"
"248019","225-UY","2018/03/09 13:49:17","新北市五股區凌雲路三段104號","121.426193333333","25.1231983333333","6501500","五股區"
"234022","9380-KE","2018/03/09 13:49:34","新北市永和區中正路643號","121.515295","25.0100966666667","6500400","永和區"
"234076","969-R7","2018/03/09 13:49:36","新北市永和區民族街41巷2號","121.518498333333","24.9987216666667","6500400","永和區"
"234072","AAC-211","2018/03/09 13:49:25","新北市永和區豫溪街207巷22號","121.523398333333","25.0103366666667","6500400","永和區"
"234066","AAC-212","2018/03/09 13:49:27","新北市永和區保平路236巷24弄5號","121.508228333333","25.0069666666667","6500400","永和區"
"234001","AAC-295","2018/03/09 13:49:39","新北市永和區永和路一段83號","121.513305","25.0072566666667","6500400","永和區"
"244004","248-BX","2018/03/09 13:49:26","新北市林口區頂福里13號","121.358786666667","25.0838483333333","6501700","林口區"
"231029","001-UM","2018/03/09 13:49:44","新北市新店區安康路二段136號","121.512435","24.962","6500600","新店區"
"231002","002-UM","2018/03/09 13:49:33","新北市新店區溪園路245-6號","121.525233333333","24.9831316666667","6500600","新店區"
"231037","0291-UT","2018/03/09 13:49:44","新北市新店區安康路三段359巷12弄3號","121.48429","24.9497316666667","6500600","新店區"
"231025","0293-UT","2018/03/09 13:49:39","新北市新店區中央路131號","121.530376666667","24.973935","6500600","新店區"
"231028","046-UY","2018/03/09 13:49:40","新北市新店區安和路二段232號","121.516718333333","24.9773433333333","6500600","新店區"
"231030","047-UY","2018/03/09 13:49:31","新北市新店區安康路一段226-2號","121.523475","24.9636483333333","6500600","新店區"
"231018","107-UY","2018/03/09 13:49:43","新北市新店區中正路399巷24號","121.533893333333","24.9766383333333","6500600","新店區"
"231012","108-UY","2018/03/09 13:49:26","新北市新店區中興路二段65號","121.546633333333","24.9707933333333","6500600","新店區"
"231022","187-VK","2018/03/09 13:46:10","新北市新店區新烏路二段7號","121.543771666667","24.929595","6500600","新店區"
"231016","KEA-2219","2018/03/09 13:49:28","新北市新店區竹林路75號","121.5538","24.95107","6500600","新店區"
"231026","256-BX","2018/03/09 13:49:39","新北市新店區三民路159巷19弄48號","121.532211666667","24.97318","6500600","新店區"
"231010","278-BY","2018/03/09 13:49:22","新北市新店區平等街48巷6號","121.53589","24.97304","6500600","新店區"
"231023","AAD-862","2018/03/09 13:49:40","新北市新店區北宜路一段28號","121.538118333333","24.957005","6500600","新店區"
"231027","3712-VJ","2018/03/09 13:49:40","新北市新店區北宜路一段3號","121.538456666667","24.95837","6500600","新店區"
"231024","4716-K9","2018/03/09 13:49:43","新北市新店區北新路一段271巷35號","121.539516666667","24.9669483333333","6500600","新店區"
"231038","4715-K9","2018/03/09 13:49:34","新北市新店區安康路一段105號","121.529108333333","24.9615333333333","6500600","新店區"
"231036","512-UM","2018/03/09 13:49:28","新北市新店區安祥路108巷51號","121.474448333333","24.9571566666667","6500600","新店區"
"231035","515-UM","2018/03/09 13:49:31","新北市新店區安忠路57巷1-2號","121.513266666667","24.959665","6500600","新店區"
"231006","617-UM","2018/03/09 13:49:26","新北市新店區北宜路一段196號","121.54324","24.9529683333333","6500600","新店區"
"231001","619-UM","2018/03/09 13:49:39","新北市新店區三民路64號","121.5351","24.97221","6500600","新店區"
"231003","641-BX","2018/03/09 13:49:36","新北市新店區北宜路一段3號","121.538453333333","24.95841","6500600","新店區"
"231034","645-TV","2018/03/09 13:49:35","新北市新店區達觀路12號","121.504941666667","24.94056","6500600","新店區"
"231013","719-UM","2018/03/09 13:49:24","新北市新店區二十張路11巷8弄3號","121.539648333333","24.982105","6500600","新店區"
"231032","720-UM","2018/03/09 13:49:35","新北市新店區莒光路44巷21弄11-3號","121.518383333333","24.9521083333333","6500600","新店區"
"231005","897-TW","2018/03/09 13:49:39","新北市新店區寶中路98號","121.549575","24.979365","6500600","新店區"
"231004","899-TW","2018/03/09 13:49:43","新北市新店區寶橋路69-1號","121.545476666667","24.9750516666667","6500600","新店區"
"235030","003-UY","2018/03/09 13:49:30","新北市中和區水源路18巷5號","121.504081666667","25.0030816666667","6500300","中和區"
"235028","005-UY","2018/03/09 13:49:30","新北市中和區連城路75巷6弄1號","121.498203333333","24.9986683333333","6500300","中和區"
"235027","006-UY","2018/03/09 13:49:39","新北市中和區連城路319巷3弄7號","121.489423333333","24.9956633333333","6500300","中和區"
"235016","031-BX","2018/03/09 13:49:35","新北市中和區興南路二段399巷2-2號","121.498653333333","24.9793966666667","6500300","中和區"
"235020","096-UM","2018/03/09 13:49:34","新北市中和區中正路1192號","121.480493333333","25.0103816666667","6500300","中和區"
"235003","097-UM","2018/03/09 13:49:26","新北市中和區景平路64巷13弄22號","121.521443333333","24.9914916666667","6500300","中和區"
"235029","098-UM","2018/03/09 13:49:29","新北市中和區勝利路35巷3弄17號","121.49967","25.0073283333333","6500300","中和區"
"235004","150-BY","2018/03/09 13:49:12","新北市中和區保健路48巷1號","121.510118333333","24.996915","6500300","中和區"
"235022","151-BY","2018/03/09 13:49:22","新北市中和區連城路518巷8號","121.476535","24.9924583333333","6500300","中和區"
"235019","183-VK","2018/03/09 13:49:25","新北市中和區民生街85巷3弄2號","121.46913","25.0043133333333","6500300","中和區"
"235002","185-VK","2018/03/09 13:49:37","新北市中和區大勇街31巷4號","121.517316666667","24.9942516666667","6500300","中和區"
"235013","186-VK","2018/03/09 13:49:33","新北市中和區景安路177巷29號","121.50671","24.9945483333333","6500300","中和區"
"235031","255-BX","2018/03/09 13:49:38","新北市中和區新生街242巷1弄9號","121.483408333333","24.9974183333333","6500300","中和區"
"235008","293-VK","2018/03/09 13:49:39","新北市中和區中興街143號","121.500006666667","24.9912366666667","6500300","中和區"
"235036","301-VK","2018/03/09 13:49:31","新北市中和區連城路2號","121.499245","25.0024083333333","6500300","中和區"
"235007","352-BY","2018/03/09 13:49:35","新北市中和區成功路8號","121.526211666667","24.993815","6500300","中和區"
"235032","377-QA","2018/03/09 13:49:39","新北市中和區圓通路291巷3號","121.495353333333","24.9926216666667","6500300","中和區"
"235025","378-QA","2018/03/09 13:49:35","新北市中和區民治街132巷6號","121.475061666667","25.0023716666667","6500300","中和區"
"235035","269-TV","2018/03/09 13:49:26","新北市中和區立德街7巷10號","121.489788333333","25.0059766666667","6500300","中和區"
"235014","4979-A6","2018/03/09 13:49:36","新北市中和區忠孝街64號","121.511983333333","24.9838333333333","6500300","中和區"
"235033","4980-A6","2018/03/09 13:49:38","新北市中和區南山路111巷5號","121.502753333333","24.9977866666667","6500300","中和區"
"235006","551-UM","2018/03/09 13:49:24","新北市中和區秀朗路三段70巷41號","121.525248333333","24.994365","6500300","中和區"
"235009","565-BX","2018/03/09 13:49:41","新北市中和區復興路44號","121.504593333333","24.99008","6500300","中和區"
"235018","640-BX","2018/03/09 13:49:30","新北市中和區民享街58號","121.4741","25.0023366666667","6500300","中和區"
"235024","647-TV","2018/03/09 13:49:33","新北市中和區中山路三段170巷152-1號","121.473426666667","25.0063883333333","6500300","中和區"
"235011","732-UM","2018/03/09 13:49:44","新北市中和區興南路二段34巷24弄2號","121.50573","24.9864266666667","6500300","中和區"
"235010","733-UM","2018/03/09 13:49:30","新北市中和區仁愛街36巷44號","121.511381666667","24.9862816666667","6500300","中和區"
"235026","800-TS","2018/03/09 13:49:46","新北市中和區中山路二段342號","121.493615","25.00238","6500300","中和區"
"235021","801-TS","2018/03/09 13:49:35","新北市中和區員山路327巷22號","121.480753333333","25.0014666666667","6500300","中和區"
"235005","802-TS","2018/03/09 13:49:23","新北市中和區永貞路249巷12號","121.51254","25.0036916666667","6500300","中和區"
"235012","896-TW","2018/03/09 13:49:28","新北市中和區南山路250巷2號","121.507693333333","24.9889783333333","6500300","中和區"
"235017","900-TW","2018/03/09 13:49:38","新北市中和區民德路290巷19號","121.466443333333","24.995965","6500300","中和區"
"235034","911-UM","2018/03/09 13:49:32","新北市中和區南山路24號","121.502028333333","24.998275","6500300","中和區"
"235015","157-BY","2018/03/09 13:49:38","新北市中和區忠孝街106巷45號","121.513766666667","24.9843483333333","6500300","中和區"
"235001","AAC-213","2018/03/09 13:49:34","新北市中和區秀朗路三段128巷2號","121.524681666667","24.992395","6500300","中和區"
"235023","AAC-215","2018/03/09 13:49:41","新北市中和區圓通路393巷1號","121.489693333333","24.988955","6500300","中和區"
"220016","013-TV","2018/03/09 13:49:36","新北市板橋區民生路二段89-6號","121.470706666667","25.0189216666667","6500100","板橋區"
"220013","072-UY","2018/03/09 13:49:39","新北市板橋區漢生東路282號","121.47126","25.008995","6500100","板橋區"
"220034","073-UY","2018/03/09 13:49:30","新北市板橋區大智街29號","121.454856666667","25.0151716666667","6500100","板橋區"
"220105","075-UY","2018/03/09 13:49:28","新北市板橋區民生路二段161巷9號","121.470283333333","25.019635","6500100","板橋區"
"220017","AAD-861","2018/03/09 13:49:35","新北市板橋區四川路一段10巷23號","121.45887","25.0063133333333","6500100","板橋區"
"247003","337-TH","2018/03/09 13:49:26","新北市蘆洲區中原路32號","121.45998","25.082795","6501400","蘆洲區"
"247005","336-TH","2018/03/09 13:49:46","新北市蘆洲區中山二路281號","121.46934","25.0789966666667","6501400","蘆洲區"
"247007","056-VK","2018/03/09 13:49:25","新北市蘆洲區重陽街112號","121.482576666667","25.0853916666667","6501400","蘆洲區"
"207002","749-BX","2018/03/09 13:49:42","新北市萬里區崁腳里崁腳路166號","121.645113333333","25.1557733333333","6502800","萬里區"
"207001","662-BX","2018/03/09 13:49:26","新北市萬里區磺潭里清水1號","121.637876666667","25.2021033333333","6502800","萬里區"
"236067","105-UM","2018/03/09 13:49:25","新北市土城區城林路6巷80號","121.438166666667","24.9795266666667","6501300","土城區"
"236041","107-UM","2018/03/09 13:49:38","新北市土城區城林路6巷80號","121.438701666667","24.979645","6501300","土城區"
"236077","166-UM","2018/03/09 13:49:28","新北市土城區中央路三段130號","121.434731666667","24.9659083333333","6501300","土城區"
"236024","269-VK","2018/03/09 13:49:41","新北市土城區中華路二段133號","121.438911666667","24.9764383333333","6501300","土城區"
"236013","270-VK","2018/03/09 13:49:25","新北市土城區城林路6巷80號","121.43877","24.9797416666667","6501300","土城區"
"236035","271-VK","2018/03/09 13:49:33","新北市土城區城林路6巷80號","121.438693333333","24.9797433333333","6501300","土城區"
"236019","401-BY","2018/03/09 13:49:36","新北市土城區城林路6巷80號","121.438723333333","24.9796133333333","6501300","土城區"
"236006","498-BY","2018/03/09 13:49:42","新北市土城區中華路二段61號","121.439525","24.9788316666667","6501300","土城區"
"236057","912-UM","2018/03/09 13:49:26","新北市土城區城林路6巷80號","121.438625","24.9799633333333","6501300","土城區"
"236061","915-UM","2018/03/09 13:49:25","新北市土城區城林路6巷80號","121.438713333333","24.9797016666667","6501300","土城區"
"236054","AAC-216","2018/03/09 13:49:36","新北市土城區城林路6巷80號","121.438748333333","24.9796633333333","6501300","土城區"
"221032","280-BY","2018/03/09 13:49:45","新北市汐止區仁愛路10號","121.65938","25.0636183333333","6501100","汐止區"
"220027","145-BY","2018/03/09 13:49:40","新北市板橋區民權路202巷2弄1號","121.45954","25.0142033333333","6500100","板橋區"
"220028","200-UY","2018/03/09 13:49:37","新北市板橋區大觀路二段265巷60弄2號","121.442738333333","24.998115","6500100","板橋區"
"220030","610-BX","2018/03/09 13:49:42","新北市板橋區篤行路三段87號","121.426623333333","24.98497","6500100","板橋區"
"220047","257-TC","2018/03/09 13:49:41","新北市板橋區民生路二段120號","121.47043","25.0195483333333","6500100","板橋區"
"220004","276-BY","2018/03/09 13:49:40","新北市板橋區四川路二段14號","121.455925","24.9962683333333","6500100","板橋區"
"220020","277-BY","2018/03/09 13:49:39","新北市板橋區金門街21號","121.433561666667","24.9947216666667","6500100","板橋區"
"220043","280-UM","2018/03/09 13:49:39","新北市板橋區民生路二段161巷1號","121.470168333333","25.0198666666667","6500100","板橋區"
"220019","283-VK","2018/03/09 13:49:42","新北市板橋區忠孝路176巷7號","121.464825","25.0018566666667","6500100","板橋區"
"220001","285-VK","2018/03/09 13:49:33","新北市板橋區民生路二段123號","121.47071","25.0185833333333","6500100","板橋區"
"220031","286-VK","2018/03/09 13:49:38","新北市板橋區僑中二街88巷18號","121.44552","25.00963","6500100","板橋區"
"220029","287-VK","2018/03/09 13:49:42","新北市板橋區光華街13巷26號","121.453401666667","25.01137","6500100","板橋區"
"220039","288-VK","2018/03/09 13:49:44","新北市板橋區民生路二段161巷5號","121.470223333333","25.0197066666667","6500100","板橋區"
"220009","293-UM","2018/03/09 13:49:27","新北市板橋區太和街4巷7號","121.474116666667","25.0199383333333","6500100","板橋區"
"220010","295-UM","2018/03/09 13:49:34","新北市板橋區中山路二段40巷16號","121.473306666667","25.0148066666667","6500100","板橋區"
"220032","296-UM","2018/03/09 13:49:44","新北市板橋區大觀路二段156巷21號","121.441375","24.999305","6500100","板橋區"
"220023","303-R5","2018/03/09 13:49:33","新北市板橋區南雅西路一段174巷11號","121.453231666667","25.0079433333333","6500100","板橋區"
"220041","307-R5","2018/03/09 13:49:33","新北市板橋區民生路二段120號","121.47042","25.019675","6500100","板橋區"
"220012","486-VK","2018/03/09 13:49:44","新北市板橋區民生路二段36-1號","121.472188333333","25.0167666666667","6500100","板橋區"
"220037","491-VK","2018/03/09 13:49:25","新北市板橋區民生路二段171號","121.469856666667","25.0201283333333","6500100","板橋區"
"220104","560-BX","2018/03/09 13:49:39","新北市板橋區中正路325巷3弄15號","121.453895","25.0187283333333","6500100","板橋區"
"220003","568-UM","2018/03/09 13:49:35","新北市板橋區館前西路49號","121.457835","25.00673","6500100","板橋區"
"220011","609-BX","2018/03/09 13:49:24","新北市板橋區民生路二段56-6號","121.470795","25.0187383333333","6500100","板橋區"
"220040","637-BX","2018/03/09 13:49:43","新北市板橋區民生路二段161巷1號","121.469953333333","25.0199483333333","6500100","板橋區"
"220005","686-BX","2018/03/09 13:49:31","新北市板橋區南雅南路二段120-24號","121.451748333333","24.9988266666667","6500100","板橋區"
"220025","687-BX","2018/03/09 13:49:23","新北市板橋區金門街141號","121.432838333333","24.9909516666667","6500100","板橋區"
"220042","689-BX","2018/03/09 13:49:33","新北市板橋區民生路二段161巷1號","121.470258333333","25.0201183333333","6500100","板橋區"
"220002","741-BX","2018/03/09 13:49:24","新北市板橋區縣民大道一段98號","121.456955","25.0055983333333","6500100","板橋區"
"220051","KEA-2699","2018/03/09 13:49:39","新北市板橋區民生路二段161巷1號","121.470183333333","25.020035","6500100","板橋區"
"220045","831-TW","2018/03/09 13:49:40","新北市板橋區民生路二段161巷5號","121.470271666667","25.019735","6500100","板橋區"
"220022","895-R6","2018/03/09 13:49:26","新北市板橋區府中路67號","121.45807","25.009505","6500100","板橋區"
"220021","985-R7","2018/03/09 13:49:38","新北市板橋區府中路32號","121.458256666667","25.0095666666667","6500100","板橋區"
"220018","AAC-253","2018/03/09 13:49:29","新北市板橋區館前西路17巷2號","121.458853333333","25.0069516666667","6500100","板橋區"
