"lineid","car","time","location","longitude","latitude","cityid","cityname"
"234044","148-BY","2018/03/09 14:19:39","新北市永和區環河東路一段126號","121.520843333333","25.015465","6500400","永和區"
"234005","207-UY","2018/03/09 14:19:30","新北市永和區中正路638號","121.517018333333","25.0082333333333","6500400","永和區"
"234078","298-R6","2018/03/09 14:19:44","新北市永和區福和路61號","121.522936666667","25.0077233333333","6500400","永和區"
"234036","336-UY","2018/03/09 14:19:33","新北市永和區成功路一段1號","121.527218333333","25.005265","6500400","永和區"
"234062","337-UY","2018/03/09 14:19:41","新北市永和區得和路124號","121.518741666667","25.0002266666667","6500400","永和區"
"234084","338-UY","2018/03/09 14:19:32","新北市永和區永和路二段201號","121.515371666667","25.0135166666667","6500400","永和區"
"234068","552-UM","2018/03/09 14:19:38","新北市永和區福和路263巷7弄1號","121.517963333333","25.0069716666667","6500400","永和區"
"234028","746-BX","2018/03/09 14:19:25","新北市永和區民權路49巷35號","121.521878333333","24.9975833333333","6500400","永和區"
"234052","KEA-2590","2018/03/09 14:19:33","新北市永和區光復街2巷16弄9號","121.517565","25.0163616666667","6500400","永和區"
"234012","KEA-2591","2018/03/09 14:19:46","新北市永和區仁愛路295號","121.505105","25.0091733333333","6500400","永和區"
"234060","AAD-866","2018/03/09 14:19:35","新北市永和區安樂路194巷24號","121.51648","25.0011233333333","6500400","永和區"
"234040","862-TW","2018/03/09 14:19:38","新北市永和區安樂路222號","121.514988333333","25.00234","6500400","永和區"
"234048","863-TW","2018/03/09 14:19:34","新北市永和區保福路三段17號","121.508148333333","25.0156983333333","6500400","永和區"
"234025","9371-KE","2018/03/09 14:19:40","新北市永和區得和路42巷23號","121.51531","24.9996383333333","6500400","永和區"
"234010","9373-KE","2018/03/09 14:19:24","新北市永和區保生路55-1號","121.504523333333","25.01091","6500400","永和區"
"248019","225-UY","2018/03/09 14:00:27","新北市五股區凌雲路三段57號","121.42531","25.1250166666667","6501500","五股區"
"234022","9380-KE","2018/03/09 14:19:34","新北市永和區竹林路30號","121.517131666667","25.0147033333333","6500400","永和區"
"234076","969-R7","2018/03/09 14:19:36","新北市永和區民權路110號","121.519686666667","24.996575","6500400","永和區"
"234072","AAC-211","2018/03/09 14:19:45","新北市永和區竹林路119巷30弄2號","121.522031666667","25.0115716666667","6500400","永和區"
"234066","AAC-212","2018/03/09 14:19:26","新北市永和區保平路292巷13弄2號","121.50721","25.0053333333333","6500400","永和區"
"234001","AAC-295","2018/03/09 14:19:39","新北市永和區中正路618-1號","121.517103333333","25.0077716666667","6500400","永和區"
"244004","248-BX","2018/03/09 14:19:46","新北市林口區中山路143號","121.387361666667","25.0791516666667","6501700","林口區"
"231029","001-UM","2018/03/09 14:19:44","新北市新店區安康路二段208號","121.510148333333","24.9596233333333","6500600","新店區"
"231002","002-UM","2018/03/09 14:19:33","新北市新店區中央路151號","121.529435","24.972375","6500600","新店區"
"231037","0291-UT","2018/03/09 14:19:43","新北市新店區車子路67號","121.503668333333","24.9513216666667","6500600","新店區"
"231025","0293-UT","2018/03/09 14:19:39","新北市新店區二十張路129巷1弄1號","121.535963333333","24.9791833333333","6500600","新店區"
"231028","046-UY","2018/03/09 14:19:40","新北市新店區安和路二段77號","121.518441666667","24.9688716666667","6500600","新店區"
"231030","047-UY","2018/03/09 14:19:31","新北市新店區安民街11號","121.515275","24.9644666666667","6500600","新店區"
"231018","107-UY","2018/03/09 14:19:43","新北市新店區中央四街68號","121.526871666667","24.975425","6500600","新店區"
"231012","108-UY","2018/03/09 14:19:37","新北市新店區中興路二段100巷2號","121.547491666667","24.9712233333333","6500600","新店區"
"231022","187-VK","2018/03/09 14:19:30","新北市新店區桂山路151號","121.567786666667","24.8871966666667","6500600","新店區"
"231016","KEA-2219","2018/03/09 14:19:28","新北市新店區北宜路三段51號","121.571793333333","24.9505783333333","6500600","新店區"
"231023","AAD-862","2018/03/09 14:19:41","新北市新店區光明街109號","121.539145","24.9613116666667","6500600","新店區"
"231027","3712-VJ","2018/03/09 14:19:40","新北市新店區北新路二段2號","121.54261","24.97073","6500600","新店區"
"231024","4716-K9","2018/03/09 14:19:43","新北市新店區新生街13巷42號","121.538925","24.96657","6500600","新店區"
"231038","4715-K9","2018/03/09 14:19:34","新北市新店區溪洲路6巷86號","121.533435","24.9633983333333","6500600","新店區"
"231036","512-UM","2018/03/09 14:19:28","新北市新店區安祥路109巷151弄16號","121.477781666667","24.9587916666667","6500600","新店區"
"231035","515-UM","2018/03/09 14:19:31","新北市新店區碧安街15巷8號","121.517213333333","24.9691616666667","6500600","新店區"
"231006","617-UM","2018/03/09 14:19:26","新北市新店區北宜路二段599號","121.568133333333","24.9555933333333","6500600","新店區"
"231001","619-UM","2018/03/09 14:19:39","新北市新店區北新路一段90號","121.541908333333","24.9685883333333","6500600","新店區"
"231003","641-BX","2018/03/09 14:19:36","新北市新店區中興路一段216號","121.54382","24.965835","6500600","新店區"
"231034","645-TV","2018/03/09 14:19:35","新北市新店區黎明路3號","121.503525","24.952425","6500600","新店區"
"231013","719-UM","2018/03/09 14:19:24","新北市新店區建國路249號","121.537578333333","24.9826166666667","6500600","新店區"
"231032","720-UM","2018/03/09 14:19:35","新北市新店區溪洲路182號","121.528403333333","24.9654716666667","6500600","新店區"
"231005","897-TW","2018/03/09 14:19:39","新北市新店區中興路三段219-1號","121.543428333333","24.9823883333333","6500600","新店區"
"231004","899-TW","2018/03/09 14:19:43","新北市新店區中正路213號","121.539823333333","24.97285","6500600","新店區"
"235030","003-UY","2018/03/09 14:19:30","新北市中和區中和路155號","121.502691666667","24.9999633333333","6500300","中和區"
"235028","005-UY","2018/03/09 14:19:30","新北市中和區連城路2號","121.499245","25.0024383333333","6500300","中和區"
"235027","006-UY","2018/03/09 14:19:39","新北市中和區連勝街121巷18弄5號","121.49505","24.9943633333333","6500300","中和區"
"235016","031-BX","2018/03/09 14:19:35","新北市中和區興南路二段142巷17弄1號","121.50341","24.98328","6500300","中和區"
"235020","096-UM","2018/03/09 14:19:33","新北市中和區員山路466號","121.479928333333","25.0064116666667","6500300","中和區"
"235003","097-UM","2018/03/09 14:19:26","新北市中和區秀峰街119巷6弄24號","121.518376666667","24.9899416666667","6500300","中和區"
"235029","098-UM","2018/03/09 14:17:09","新北市中和區莊敬路33號","121.501123333333","25.0050233333333","6500300","中和區"
"235004","150-BY","2018/03/09 14:19:12","新北市中和區安平路36巷17號","121.510255","24.9951816666667","6500300","中和區"
"235022","151-BY","2018/03/09 14:19:42","新北市中和區連城路469巷22弄5號","121.483228333333","24.9951616666667","6500300","中和區"
"235019","183-VK","2018/03/09 14:19:25","新北市中和區中山路三段209號","121.471963333333","25.0064366666667","6500300","中和區"
"235002","185-VK","2018/03/09 14:19:37","新北市中和區大仁街10巷27弄3號","121.519186666667","24.99275","6500300","中和區"
"235013","186-VK","2018/03/09 14:19:33","新北市中和區景新街230巷3號","121.508213333333","24.9941166666667","6500300","中和區"
"235031","255-BX","2018/03/09 14:19:38","新北市中和區新生街162號","121.483656666667","25.00031","6500300","中和區"
"235008","293-VK","2018/03/09 14:19:39","新北市中和區中興街256號","121.499175","24.9878116666667","6500300","中和區"
"235036","301-VK","2018/03/09 14:19:31","新北市中和區莊敬路31巷32-1號","121.500031666667","25.0057616666667","6500300","中和區"
"235007","352-BY","2018/03/09 14:19:35","新北市中和區景平路300號","121.512653333333","24.99281","6500300","中和區"
"235032","377-QA","2018/03/09 14:19:39","新北市中和區景平路493巷12弄27號","121.49845","24.9969083333333","6500300","中和區"
"235025","378-QA","2018/03/09 14:19:36","新北市中和區民利街52號","121.479271666667","24.9987733333333","6500300","中和區"
"235035","269-TV","2018/03/09 14:19:26","新北市中和區建三路71號","121.486083333333","25.00119","6500300","中和區"
"235014","4979-A6","2018/03/09 14:19:36","新北市中和區中興街149號","121.499898333333","24.9911033333333","6500300","中和區"
"235033","4980-A6","2018/03/09 14:19:38","新北市中和區福美路301巷27號","121.497725","25.0039083333333","6500300","中和區"
"235006","551-UM","2018/03/09 14:19:44","新北市中和區安樂路143巷2弄5號","121.514021666667","24.9978033333333","6500300","中和區"
"235009","565-BX","2018/03/09 14:19:41","新北市中和區景新街423巷30號","121.514506666667","24.9896233333333","6500300","中和區"
"235018","640-BX","2018/03/09 14:19:30","新北市中和區國光街109巷4號","121.469803333333","25.0004433333333","6500300","中和區"
"235024","647-TV","2018/03/09 14:19:33","新北市中和區員山路294巷4號","121.481741666667","25.002415","6500300","中和區"
"235011","732-UM","2018/03/09 14:19:24","新北市中和區景平路239巷53弄2號","121.508833333333","24.9921016666667","6500300","中和區"
"235010","733-UM","2018/03/09 14:19:30","新北市中和區忠孝街2巷13弄2號","121.510425","24.9818533333333","6500300","中和區"
"235026","800-TS","2018/03/09 14:19:29","新北市中和區中山路二段458號","121.488616666667","25.004495","6500300","中和區"
"235021","801-TS","2018/03/09 14:19:35","新北市中和區員山路214號","121.481325","25.0008733333333","6500300","中和區"
"235005","802-TS","2018/03/09 14:19:43","新北市中和區安平路100號","121.511615","24.9971533333333","6500300","中和區"
"235012","896-TW","2018/03/09 14:19:28","新北市中和區華新街109巷5號","121.50922","24.98192","6500300","中和區"
"235017","900-TW","2018/03/09 14:19:38","新北市中和區華安街17巷24號","121.467618333333","24.9982516666667","6500300","中和區"
"235034","911-UM","2018/03/09 14:19:38","新北市中和區連城路67號","121.497578333333","25.001375","6500300","中和區"
"235015","157-BY","2018/03/09 14:19:38","新北市中和區和平街36號","121.509228333333","24.9904466666667","6500300","中和區"
"235001","AAC-213","2018/03/09 14:19:38","新北市中和區自立路15巷25號","121.523188333333","24.9959566666667","6500300","中和區"
"235023","AAC-215","2018/03/09 14:19:41","新北市中和區圓通路286巷16-5號","121.491571666667","24.9913266666667","6500300","中和區"
"220016","013-TV","2018/03/09 14:19:35","新北市板橋區翠華街6巷121號","121.48179","25.0247483333333","6500100","板橋區"
"220013","072-UY","2018/03/09 14:19:39","新北市板橋區實踐路93巷89號","121.467698333333","25.0058683333333","6500100","板橋區"
"220034","073-UY","2018/03/09 14:19:36","新北市板橋區中正路250巷17號","121.456345","25.019475","6500100","板橋區"
"220105","075-UY","2018/03/09 14:19:32","新北市板橋區雙十路三段70巷3號","121.470281666667","25.0325933333333","6500100","板橋區"
"220017","AAD-861","2018/03/09 14:19:40","新北市板橋區貴興路24號","121.457498333333","25.0038716666667","6500100","板橋區"
"247023","893-R6","2018/03/09 14:19:28","新北市蘆洲區長榮路703號","121.460973333333","25.0928933333333","6501400","蘆洲區"
"247013","546-UM","2018/03/09 14:19:30","新北市蘆洲區中山一路253號","121.473011666667","25.08034","6501400","蘆洲區"
"247021","500-BY","2018/03/09 14:19:38","新北市蘆洲區仁愛街212巷28-1號","121.464131666667","25.0947133333333","6501400","蘆洲區"
"247009","341-TH","2018/03/09 14:19:36","新北市蘆洲區三民路26巷2弄1號","121.476181666667","25.082695","6501400","蘆洲區"
"247011","339-TH","2018/03/09 14:19:26","新北市蘆洲區民權路3巷26號","121.47517","25.0855566666667","6501400","蘆洲區"
"247003","337-TH","2018/03/09 14:19:26","新北市蘆洲區中原路12巷24號","121.4608","25.083955","6501400","蘆洲區"
"247005","336-TH","2018/03/09 14:19:46","新北市蘆洲區長安街16號","121.46416","25.0792166666667","6501400","蘆洲區"
"247017","057-VK","2018/03/09 14:19:32","新北市蘆洲區民權路100號","121.473941666667","25.0879816666667","6501400","蘆洲區"
"247007","056-VK","2018/03/09 14:19:45","新北市蘆洲區民生街10號","121.475563333333","25.0791033333333","6501400","蘆洲區"
"247019","053-VK","2018/03/09 14:19:46","新北市蘆洲區仁愛街35巷14弄1號","121.471426666667","25.09271","6501400","蘆洲區"
"247015","007-UY","2018/03/09 14:19:39","新北市蘆洲區中正路185巷25弄18號","121.467183333333","25.0838266666667","6501400","蘆洲區"
"247001","002-UY","2018/03/09 14:19:35","新北市蘆洲區永樂街60號","121.457325","25.0884683333333","6501400","蘆洲區"
"207002","749-BX","2018/03/09 14:19:41","新北市萬里區溪底里溪底路21號","121.612766666667","25.1488583333333","6502800","萬里區"
"207001","662-BX","2018/03/09 14:19:25","新北市萬里區磺潭里清水18號","121.63787","25.19768","6502800","萬里區"
"236067","105-UM","2018/03/09 14:19:25","新北市土城區明德路一段128巷2號","121.463206666667","24.9790633333333","6501300","土城區"
"236041","107-UM","2018/03/09 14:19:37","新北市土城區裕生路21巷6弄19號","121.448828333333","24.9868683333333","6501300","土城區"
"236077","166-UM","2018/03/09 14:19:28","新北市土城區中央路三段281巷23弄19號","121.426348333333","24.961565","6501300","土城區"
"236029","253-BX","2018/03/09 14:19:25","新北市土城區順風路30號","121.44011","24.9771283333333","6501300","土城區"
"236024","269-VK","2018/03/09 14:00:21","新北市土城區承天路18號","121.439453333333","24.9634183333333","6501300","土城區"
"236013","270-VK","2018/03/09 14:19:25","新北市土城區青雲路39巷7號","121.460313333333","24.987545","6501300","土城區"
"236035","271-VK","2018/03/09 14:19:33","新北市土城區青雲路483巷9號","121.459398333333","24.973645","6501300","土城區"
"236019","401-BY","2018/03/09 14:19:36","新北市土城區明德路一段107號","121.465625","24.9825233333333","6501300","土城區"
"236006","498-BY","2018/03/09 14:19:42","新北市土城區中華路一段56巷22號","121.444636666667","24.98953","6501300","土城區"
"236057","912-UM","2018/03/09 14:19:26","新北市土城區中央路四段213號","121.413913333333","24.9558116666667","6501300","土城區"
"236046","913-UM","2018/03/09 14:19:39","新北市土城區明德路一段361-3號","121.456105","24.9777883333333","6501300","土城區"
"236061","915-UM","2018/03/09 14:19:25","新北市土城區延壽路44巷11號","121.47144","24.992965","6501300","土城區"
"236054","AAC-216","2018/03/09 14:19:36","新北市土城區中華路二段110號","121.437985","24.9741166666667","6501300","土城區"
"220027","145-BY","2018/03/09 14:19:40","新北市板橋區民權路202巷18弄1號","121.460791666667","25.0165866666667","6500100","板橋區"
"220028","200-UY","2018/03/09 14:19:35","新北市板橋區大觀路二段37巷89號","121.45032","25.00245","6500100","板橋區"
"220030","610-BX","2018/03/09 14:19:42","新北市板橋區金門街363號","121.42852","24.9849","6500100","板橋區"
"220050","245-BX","2018/03/09 14:19:25","新北市板橋區莊敬路31-1號","121.47358","25.0276016666667","6500100","板橋區"
"220047","257-TC","2018/03/09 14:19:41","新北市板橋區四維路266巷2弄27號","121.46417","25.0281233333333","6500100","板橋區"
"220004","276-BY","2018/03/09 14:19:40","新北市板橋區干城路20巷1號","121.459288333333","24.9935383333333","6500100","板橋區"
"220020","277-BY","2018/03/09 14:19:33","新北市板橋區篤行路二段161巷18-1號","121.42983","24.9873733333333","6500100","板橋區"
"220043","280-UM","2018/03/09 14:19:39","新北市板橋區吳鳳路21巷2號","121.466886666667","25.0311633333333","6500100","板橋區"
"220019","283-VK","2018/03/09 14:19:40","新北市板橋區忠孝路48巷9弄2-1號","121.461243333333","25.000075","6500100","板橋區"
"220001","285-VK","2018/03/09 14:19:37","新北市板橋區富山街12號","121.478555","25.0217816666667","6500100","板橋區"
"220031","286-VK","2018/03/09 14:19:38","新北市板橋區龍興街73巷9號","121.44338","25.0022933333333","6500100","板橋區"
"220029","287-VK","2018/03/09 14:19:45","新北市板橋區南雅西路一段7巷11號","121.454146666667","25.004255","6500100","板橋區"
"220039","288-VK","2018/03/09 14:19:24","新北市板橋區長江路一段106巷13弄35號","121.461378333333","25.0297833333333","6500100","板橋區"
"220009","293-UM","2018/03/09 14:19:47","新北市板橋區中山路二段255巷7號","121.477015","25.0179633333333","6500100","板橋區"
"220010","295-UM","2018/03/09 14:19:34","新北市板橋區三民路二段153巷4號","121.479688333333","25.0148233333333","6500100","板橋區"
"220032","296-UM","2018/03/09 14:19:46","新北市板橋區篤行路三段玉平巷68弄15號","121.427125","24.9861883333333","6500100","板橋區"
"220023","303-R5","2018/03/09 14:19:33","新北市板橋區南雅南路一段5巷19號","121.456465","25.0054833333333","6500100","板橋區"
"220041","307-R5","2018/03/09 14:19:33","新北市板橋區松江街59號","121.468536666667","25.0278316666667","6500100","板橋區"
"220012","486-VK","2018/03/09 14:19:44","新北市板橋區縣民大道二段1號","121.461988333333","25.0116666666667","6500100","板橋區"
"220038","487-VK","2018/03/09 14:19:32","新北市板橋區文化路一段351號","121.466706666667","25.0210133333333","6500100","板橋區"
"220037","491-VK","2018/03/09 14:19:25","新北市板橋區文化路二段182巷1弄2號","121.471126666667","25.0274033333333","6500100","板橋區"
"220104","560-BX","2018/03/09 14:19:37","新北市板橋區中正路399巷26號","121.453303333333","25.02262","6500100","板橋區"
"220052","561-BX","2018/03/09 14:19:37","新北市板橋區文化路一段188巷7弄20號","121.46775","25.0196533333333","6500100","板橋區"
"220003","568-UM","2018/03/09 14:19:35","新北市板橋區館前東路156巷18號","121.464213333333","25.0069233333333","6500100","板橋區"
"220011","609-BX","2018/03/09 14:19:44","新北市板橋區三民路二段203-9號","121.479053333333","25.0134","6500100","板橋區"
"220040","637-BX","2018/03/09 14:19:43","新北市板橋區縣民大道三段223號","121.480593333333","25.025475","6500100","板橋區"
"220005","686-BX","2018/03/09 14:19:31","新北市板橋區和平路153號","121.463315","24.9956416666667","6500100","板橋區"
"220025","687-BX","2018/03/09 14:19:23","新北市板橋區大觀路二段93號","121.44628","25.0019066666667","6500100","板橋區"
"220042","689-BX","2018/03/09 14:19:33","新北市板橋區文化路一段154號","121.465486666667","25.0192133333333","6500100","板橋區"
"220002","741-BX","2018/03/09 14:19:44","新北市板橋區四川路一段154號","121.460003333333","25.003375","6500100","板橋區"
"220051","KEA-2699","2018/03/09 14:19:39","新北市板橋區文聖街91號","121.477586666667","25.0297683333333","6500100","板橋區"
"220014","830-TW","2018/03/09 14:19:27","新北市板橋區長安街138巷3弄37號","121.473938333333","25.009635","6500100","板橋區"
"220045","831-TW","2018/03/09 14:19:40","新北市板橋區文聖街156-1號","121.478735","25.0273866666667","6500100","板橋區"
"220022","895-R6","2018/03/09 14:19:44","新北市板橋區北門街23-2號","121.45674","25.0110833333333","6500100","板橋區"
"220021","985-R7","2018/03/09 14:19:39","新北市板橋區中正路370號","121.454358333333","25.0242833333333","6500100","板橋區"
"220046","AAC-210","2018/03/09 14:19:30","新北市板橋區幸福路60巷4號","121.460721666667","25.0209183333333","6500100","板橋區"
"220018","AAC-253","2018/03/09 14:19:39","新北市板橋區忠孝路127號","121.46302","25.002475","6500100","板橋區"
