"lineid","car","time","location","longitude","latitude","cityid","cityname"
"234044","148-BY","2018/03/09 14:49:39","新北市八里區中山路三段382號","121.368573333333","25.135705","6500400","永和區"
"234068","552-UM","2018/03/09 14:49:38","新北市永和區福和路1號","121.52616","25.0096966666667","6500400","永和區"
"234028","746-BX","2018/03/09 14:49:45","新北市三重區大有街23號","121.466948333333","25.0649633333333","6500400","永和區"
"234025","9371-KE","2018/03/09 14:49:40","新北市永和區雙和街52巷1號","121.508971666667","25.003185","6500400","永和區"
"248019","225-UY","2018/03/09 14:49:38","新北市五股區中直路25號","121.421591666667","25.1138516666667","6501500","五股區"
"244004","248-BX","2018/03/09 14:23:48","新北市林口區林口路76號","121.389693333333","25.0806866666667","6501700","林口區"
"231029","001-UM","2018/03/09 14:49:44","新北市新店區錦秀路11巷81號","121.48052","24.944635","6500600","新店區"
"231002","002-UM","2018/03/09 14:49:36","新北市新店區民權路98號","121.536466666667","24.98296","6500600","新店區"
"231037","0291-UT","2018/03/09 14:49:24","新北市新店區安民街172號","121.516875","24.97075","6500600","新店區"
"231025","0293-UT","2018/03/09 14:49:39","新北市新店區建國路196號","121.53788","24.9805283333333","6500600","新店區"
"231028","046-UY","2018/03/09 14:49:40","新北市新店區安德街171號","121.50863","24.9590366666667","6500600","新店區"
"231030","047-UY","2018/03/09 14:49:31","新北市新店區安民街341-1號","121.516881666667","24.9748983333333","6500600","新店區"
"231018","107-UY","2018/03/09 14:49:23","新北市新店區中央路153號","121.529956666667","24.9730433333333","6500600","新店區"
"231012","108-UY","2018/03/09 14:49:26","新北市新店區寶橋路77號","121.545806666667","24.9753933333333","6500600","新店區"
"231022","187-VK","2018/03/09 14:49:30","新北市新店區永福路42號","121.555375","24.9284533333333","6500600","新店區"
"231016","KEA-2219","2018/03/09 14:49:28","新北市新店區北宜路三段329號","121.60962","24.957015","6500600","新店區"
"231023","AAD-862","2018/03/09 14:49:40","新北市新店區檳榔路109號","121.544485","24.9616766666667","6500600","新店區"
"231027","3712-VJ","2018/03/09 14:49:40","新北市新店區民權路117號","121.53604","24.9828933333333","6500600","新店區"
"231024","4716-K9","2018/03/09 14:49:43","新北市新店區新生街1號","121.540428333333","24.96561","6500600","新店區"
"231036","512-UM","2018/03/09 14:49:28","新北市新店區安祥路104巷6弄36號","121.483101666667","24.9629683333333","6500600","新店區"
"231035","515-UM","2018/03/09 14:49:31","新北市新店區安利街26號","121.519221666667","24.97465","6500600","新店區"
"231006","617-UM","2018/03/09 14:49:46","新北市新店區北宜路一段116號","121.53917","24.955255","6500600","新店區"
"231001","619-UM","2018/03/09 14:49:39","新北市新店區三民路127號","121.534603333333","24.9723766666667","6500600","新店區"
"231003","641-BX","2018/03/09 14:49:36","新北市新店區中興路一段294號","121.546008333333","24.969295","6500600","新店區"
"231034","645-TV","2018/03/09 14:49:35","新北市新店區安康路二段362號","121.501838333333","24.9574583333333","6500600","新店區"
"231039","718-UY","2018/03/09 14:49:34","新北市新店區安康路一段266巷4號","121.519916666667","24.9639883333333","6500600","新店區"
"231032","720-UM","2018/03/09 14:49:35","新北市新店區安泰路22-1號","121.48536","24.9484066666667","6500600","新店區"
"231005","897-TW","2018/03/09 14:49:39","新北市新店區復興路94號","121.532335","24.9883366666667","6500600","新店區"
"231004","899-TW","2018/03/09 14:49:43","新北市新店區建國路133號","121.5393","24.97829","6500600","新店區"
"235030","003-UY","2018/03/09 14:49:30","新北市中和區南工路70號","121.506506666667","25.0020983333333","6500300","中和區"
"235027","006-UY","2018/03/09 14:49:39","新北市中和區連城路263巷7弄2號","121.492233333333","24.9957283333333","6500300","中和區"
"235016","031-BX","2018/03/09 14:49:35","新北市中和區華新街144巷9號","121.507548333333","24.9831233333333","6500300","中和區"
"235020","096-UM","2018/03/09 14:49:33","新北市中和區中山路三段100號","121.477028333333","25.0058416666667","6500300","中和區"
"235003","097-UM","2018/03/09 14:49:26","新北市中和區宜安路20號","121.51325","24.9957516666667","6500300","中和區"
"235029","098-UM","2018/03/09 14:49:30","新北市中和區永和路67-3號","121.496795","25.0055066666667","6500300","中和區"
"235004","150-BY","2018/03/09 14:49:32","新北市中和區安平路59號","121.50957","24.994945","6500300","中和區"
"235022","151-BY","2018/03/09 14:49:42","新北市中和區員山路150巷2弄22號","121.481636666667","24.9976083333333","6500300","中和區"
"235019","183-VK","2018/03/09 14:49:25","新北市中和區民德路23號","121.468835","25.0027316666667","6500300","中和區"
"235002","185-VK","2018/03/09 14:49:37","新北市永和區民生路46巷56號","121.520616666667","24.996415","6500300","中和區"
"235013","186-VK","2018/03/09 14:49:32","新北市中和區景平路385-2號","121.50292","24.9941783333333","6500300","中和區"
"235031","255-BX","2018/03/09 14:49:38","新北市中和區新生街186巷1弄19號","121.48341","24.9989416666667","6500300","中和區"
"235008","293-VK","2018/03/09 14:49:39","新北市中和區南山路170號","121.504883333333","24.9913783333333","6500300","中和區"
"235036","301-VK","2018/03/09 14:49:31","新北市中和區景平路668號","121.497268333333","25.0010066666667","6500300","中和區"
"235007","352-BY","2018/03/09 14:49:35","新北市中和區安和路9號","121.511578333333","24.9935683333333","6500300","中和區"
"235032","377-QA","2018/03/09 14:49:39","新北市中和區中山路二段248號","121.497763333333","25.0026733333333","6500300","中和區"
"235035","269-TV","2018/03/09 14:49:29","新北市中和區錦和路30號","121.486888333333","25.0014316666667","6500300","中和區"
"235014","4979-A6","2018/03/09 14:49:36","新北市中和區圓通路208號","121.496","24.9939666666667","6500300","中和區"
"235018","640-BX","2018/03/09 14:49:30","新北市中和區莒光路175-4號","121.472741666667","24.9994016666667","6500300","中和區"
"235024","647-TV","2018/03/09 14:49:33","新北市中和區新生街30巷7號","121.482863333333","25.00378","6500300","中和區"
"235011","732-UM","2018/03/09 14:49:44","新北市中和區和平街158號","121.505996666667","24.9920216666667","6500300","中和區"
"235010","733-UM","2018/03/09 14:49:30","新北市中和區仁愛街10號","121.510561666667","24.9890883333333","6500300","中和區"
"235021","801-TS","2018/03/09 14:49:34","新北市中和區員山路130號","121.481186666667","24.9962866666667","6500300","中和區"
"235005","802-TS","2018/03/09 14:49:43","新北市中和區安平路101號","121.511276666667","24.9972383333333","6500300","中和區"
"235012","896-TW","2018/03/09 14:49:28","新北市中和區忠孝街46號","121.51105","24.9834866666667","6500300","中和區"
"235017","900-TW","2018/03/09 14:49:46","新北市中和區國光街215巷29號","121.467355","25.00052","6500300","中和區"
"235034","911-UM","2018/03/09 14:49:32","新北市中和區連城路127巷35號","121.497385","24.99714","6500300","中和區"
"235015","157-BY","2018/03/09 14:49:38","新北市中和區中興街180巷45號","121.49816","24.9895316666667","6500300","中和區"
"235001","AAC-213","2018/03/09 14:49:34","新北市中和區自立路66號","121.523946666667","24.991325","6500300","中和區"
"235023","AAC-215","2018/03/09 14:49:41","新北市中和區圓通路305巷5弄2號","121.493565","24.9902366666667","6500300","中和區"
"220016","013-TV","2018/03/09 14:49:35","新北市板橋區光復街133巷1號","121.485171666667","25.0197533333333","6500100","板橋區"
"220013","072-UY","2018/03/09 14:49:39","新北市板橋區民族路87號","121.46598","25.00844","6500100","板橋區"
"220105","075-UY","2018/03/09 14:49:27","新北市板橋區民治街71巷33號","121.480575","25.0333366666667","6500100","板橋區"
"220017","AAD-861","2018/03/09 14:49:46","新北市板橋區貴興路79號","121.456796666667","25.003","6500100","板橋區"
"247013","546-UM","2018/03/09 14:49:30","新北市蘆洲區中山二路72號","121.47334","25.0821666666667","6501400","蘆洲區"
"247005","336-TH","2018/03/09 14:49:26","新北市五股區更洲路47-1號","121.456753333333","25.0793416666667","6501400","蘆洲區"
"247001","002-UY","2018/03/09 14:49:35","新北市蘆洲區永康街2巷6號","121.459453333333","25.0861616666667","6501400","蘆洲區"
"207002","749-BX","2018/03/09 14:49:41","新北市萬里區崁腳里崁腳路73號","121.647538333333","25.1596116666667","6502800","萬里區"
"207001","662-BX","2018/03/09 14:49:25","新北市萬里區雙興里二坪路1-1號","121.650783333333","25.1764766666667","6502800","萬里區"
"236067","105-UM","2018/03/09 14:49:45","新北市土城區永豐路185號","121.470115","24.9783633333333","6501300","土城區"
"236041","107-UM","2018/03/09 14:49:38","新北市土城區裕民路136巷2弄2號","121.451416666667","24.9860666666667","6501300","土城區"
"236077","166-UM","2018/03/09 14:49:28","新北市土城區中央路四段97號","121.417041666667","24.95766","6501300","土城區"
"236029","253-BX","2018/03/09 14:49:45","新北市土城區忠義路26巷10號","121.43981","24.9698833333333","6501300","土城區"
"236024","269-VK","2018/03/09 14:49:42","新北市土城區慶安街37號","121.441333333333","24.9732783333333","6501300","土城區"
"236013","270-VK","2018/03/09 14:49:45","新北市土城區金城路二段356號","121.461538333333","24.9850566666667","6501300","土城區"
"236035","271-VK","2018/03/09 14:49:33","新北市土城區仁愛路42號","121.461723333333","24.9793116666667","6501300","土城區"
"236019","401-BY","2018/03/09 14:49:39","新北市土城區明峰街37號","121.466406666667","24.986115","6501300","土城區"
"236057","912-UM","2018/03/09 14:49:26","新北市土城區中央路三段149號","121.43221","24.9654016666667","6501300","土城區"
"236046","913-UM","2018/03/09 14:49:44","新北市土城區青雲路107-1號","121.45902","24.98523","6501300","土城區"
"236061","915-UM","2018/03/09 14:49:25","新北市土城區延壽路11號","121.471321666667","24.9905133333333","6501300","土城區"
"236054","AAC-216","2018/03/09 14:49:36","新北市土城區裕民路145-1號","121.451671666667","24.9862833333333","6501300","土城區"
"242005","176-VK","2018/03/09 14:49:38","新北市新莊區瓊林路59-87號","121.443193333333","25.024255","6500500","新莊區"
"220027","145-BY","2018/03/09 14:49:40","新北市板橋區中正路135巷12-2號","121.455738333333","25.015595","6500100","板橋區"
"220028","200-UY","2018/03/09 14:49:31","新北市板橋區大觀路二段185號","121.444763333333","24.9998283333333","6500100","板橋區"
"220030","610-BX","2018/03/09 14:49:42","新北市板橋區篤行路二段105號","121.431681666667","24.99127","6500100","板橋區"
"220050","245-BX","2018/03/09 14:49:43","新北市板橋區縣民大道三段93巷28號","121.474811666667","25.022445","6500100","板橋區"
"220047","257-TC","2018/03/09 14:49:41","新北市板橋區英士路199號","121.458663333333","25.0234616666667","6500100","板橋區"
"220020","277-BY","2018/03/09 14:49:33","新北市板橋區金門街109巷21號","121.433651666667","24.9916016666667","6500100","板橋區"
"220043","280-UM","2018/03/09 14:49:39","新北市板橋區長江路一段11號","121.45787","25.0291633333333","6500100","板橋區"
"220019","283-VK","2018/03/09 14:49:40","新北市板橋區五權街1-9號","121.463566666667","24.9953033333333","6500100","板橋區"
"220001","285-VK","2018/03/09 14:49:33","新北市板橋區中山路二段60巷1弄8號","121.474625","25.01544","6500100","板橋區"
"220031","286-VK","2018/03/09 14:49:38","新北市板橋區僑中二街12巷22號","121.44586","25.0108016666667","6500100","板橋區"
"220029","287-VK","2018/03/09 14:49:46","新北市板橋區僑中一街80巷3弄1號","121.44766","25.0122116666667","6500100","板橋區"
"220039","288-VK","2018/03/09 14:49:44","新北市板橋區龍泉街72巷13號","121.456096666667","25.02629","6500100","板橋區"
"220009","293-UM","2018/03/09 14:49:32","新北市板橋區觀光街80號","121.469688333333","25.0167883333333","6500100","板橋區"
"220010","295-UM","2018/03/09 14:49:34","新北市板橋區光復街106號","121.483223333333","25.0183616666667","6500100","板橋區"
"220032","296-UM","2018/03/09 14:49:46","新北市板橋區溪崑二街120號","121.426125","24.988215","6500100","板橋區"
"220023","303-R5","2018/03/09 14:49:33","新北市板橋區金華街1號","121.455426666667","25.0200216666667","6500100","板橋區"
"220041","307-R5","2018/03/09 14:49:44","新北市板橋區四維路259巷49號","121.461411666667","25.0271733333333","6500100","板橋區"
"220012","486-VK","2018/03/09 14:49:24","新北市板橋區實踐路92號","121.46399","25.00494","6500100","板橋區"
"220038","487-VK","2018/03/09 14:49:32","新北市板橋區龍泉街157號","121.458046666667","25.0242416666667","6500100","板橋區"
"220037","491-VK","2018/03/09 14:49:45","新北市板橋區仁化街103號","121.476531666667","25.0322833333333","6500100","板橋區"
"220104","560-BX","2018/03/09 14:49:17","新北市板橋區新生街53巷3弄2號","121.457538333333","25.0215383333333","6500100","板橋區"
"220052","561-BX","2018/03/09 14:49:47","新北市板橋區陽明街29巷17號","121.464611666667","25.0220916666667","6500100","板橋區"
"220003","568-UM","2018/03/09 14:49:34","新北市板橋區仁愛路64號","121.459946666667","24.9994616666667","6500100","板橋區"
"220011","609-BX","2018/03/09 14:49:17","新北市板橋區三民路一段31巷39-1號","121.48061","25.0231966666667","6500100","板橋區"
"220040","637-BX","2018/03/09 14:49:43","新北市板橋區懷德街201巷2號","121.480716666667","25.02918","6500100","板橋區"
"220005","686-BX","2018/03/09 14:49:46","新北市板橋區信義路200號","121.459806666667","24.99101","6500100","板橋區"
"220025","687-BX","2018/03/09 14:49:43","新北市板橋區僑中一街122號","121.44598","25.0117566666667","6500100","板橋區"
"220042","689-BX","2018/03/09 14:49:33","新北市板橋區長江路一段373號","121.461888333333","25.0306716666667","6500100","板橋區"
"220002","741-BX","2018/03/09 14:49:43","新北市板橋區忠孝路忠義巷18弄1號","121.466351666667","25.00381","6500100","板橋區"
"220051","KEA-2699","2018/03/09 14:49:39","新北市板橋區文化路二段410巷17號","121.474546666667","25.03087","6500100","板橋區"
"220014","830-TW","2018/03/09 14:49:38","新北市板橋區漢生東路193巷71號","121.472466666667","25.0118866666667","6500100","板橋區"
"220045","831-TW","2018/03/09 14:49:40","新北市板橋區文化路二段124巷34弄2號","121.471275","25.0252666666667","6500100","板橋區"
"220022","895-R6","2018/03/09 14:49:35","新北市板橋區文化路一段46巷33號","121.460941666667","25.0110183333333","6500100","板橋區"
"220021","985-R7","2018/03/09 14:49:39","新北市板橋區南雅西路二段237號","121.451528333333","25.0142083333333","6500100","板橋區"
"220046","AAC-210","2018/03/09 14:49:30","新北市板橋區漢生西路58巷1弄2號","121.463485","25.019015","6500100","板橋區"
"220018","AAC-253","2018/03/09 14:49:29","新北市板橋區民族路215號","121.469415","25.0072683333333","6500100","板橋區"
