"lineid","car","time","location","longitude","latitude","cityid","cityname"
"241031","841-RS","2018/03/09 15:17:31","新北市永和區保生路55-8號","121.504061666667","25.0103416666667","6500200","三重區"
"231029","001-UM","2018/03/09 15:39:44","新北市新店區安康路二段387-1號","121.494686666667","24.9544033333333","6500600","新店區"
"231002","002-UM","2018/03/09 15:39:33","新北市新店區安和路一段39號","121.517205","24.9652616666667","6500600","新店區"
"231037","0291-UT","2018/03/09 15:39:43","新北市新店區安興路105-1號","121.51456","24.97769","6500600","新店區"
"231028","046-UY","2018/03/09 15:39:40","新北市新店區僑信路2巷2號","121.49985","24.9536533333333","6500600","新店區"
"231030","047-UY","2018/03/09 15:39:42","新北市新店區永安街97號","121.520393333333","24.986095","6500600","新店區"
"231018","107-UY","2018/03/09 15:39:23","新北市新店區民生路126號","121.52978","24.9825416666667","6500600","新店區"
"231012","108-UY","2018/03/09 15:39:46","新北市新店區文化路92號","121.544948333333","24.9825516666667","6500600","新店區"
"231022","187-VK","2018/03/09 15:39:30","新北市新店區新烏路一段85巷6-6號","121.549701666667","24.9427116666667","6500600","新店區"
"231016","KEA-2219","2018/03/09 15:39:28","新北市新店區北宜路一段314號","121.547396666667","24.9521383333333","6500600","新店區"
"231026","256-BX","2018/03/09 15:39:37","新北市新店區三民路75巷2弄1號","121.535688333333","24.9710966666667","6500600","新店區"
"231023","AAD-862","2018/03/09 15:39:40","新北市新店區中興路一段267-3號","121.545041666667","24.9677933333333","6500600","新店區"
"231038","4715-K9","2018/03/09 15:39:34","新北市新店區吉安街2號","121.517326666667","24.96557","6500600","新店區"
"231035","515-UM","2018/03/09 15:39:33","新北市新店區安興路83-3號","121.515243333333","24.9755033333333","6500600","新店區"
"231003","641-BX","2018/03/09 15:39:36","新北市新店區寶興路49-1號","121.549406666667","24.9729933333333","6500600","新店區"
"231034","645-TV","2018/03/09 15:39:35","新北市新店區玫瑰路58巷17號","121.494568333333","24.9466233333333","6500600","新店區"
"231039","718-UY","2018/03/09 15:39:34","新北市新店區寶中路77號","121.547665","24.9806933333333","6500600","新店區"
"231013","719-UM","2018/03/09 15:39:38","新北市新店區永業路81巷5弄14號","121.530576666667","24.9492966666667","6500600","新店區"
"231032","720-UM","2018/03/09 15:39:35","新北市新店區雙城路155號","121.495351666667","24.9442516666667","6500600","新店區"
"231005","897-TW","2018/03/09 15:39:39","新北市新店區建國路114號","121.53939","24.9785116666667","6500600","新店區"
"231004","899-TW","2018/03/09 15:39:43","新北市新店區民族路108號","121.538075","24.9773966666667","6500600","新店區"
"241028","022-UY","2018/03/09 15:33:17","新北市三重區重新路四段121號","121.48478","25.0525566666667","6500200","三重區"
"241015","062-VK","2018/03/09 15:39:44","新北市三重區重新路四段121號","121.485155","25.05195","6500200","三重區"
"241017","063-VK","2018/03/09 15:39:35","新北市三重區重新路三段130號","121.491715","25.05997","6500200","三重區"
"241026","066-VK","2018/03/09 15:39:34","新北市三重區成功路98號","121.487791666667","25.0514283333333","6500200","三重區"
"241020","156-TC","2018/03/09 15:39:42","新北市三重區中正北路185號","121.47759","25.069565","6500200","三重區"
"241005","262-UM","2018/03/09 15:39:31","新北市三重區成功路100號","121.487835","25.051395","6500200","三重區"
"241016","265-UM","2018/03/09 15:39:33","新北市三重區重新路四段121號","121.485183333333","25.0520916666667","6500200","三重區"
"241013","270-UM","2018/03/09 15:39:48","新北市三重區正義北路326號","121.494795","25.0705016666667","6500200","三重區"
"241014","543-UM","2018/03/09 15:39:32","新北市三重區重新路四段121號","121.485091666667","25.0520383333333","6500200","三重區"
"241006","887-TS","2018/03/09 15:39:45","新北市三重區重新路四段121號","121.48507","25.05217","6500200","三重區"
"241029","942-UM","2018/03/09 15:39:27","新北市三重區大同南路202號","121.496768333333","25.05671","6500200","三重區"
"241033","AAC-255","2018/03/09 15:39:26","新北市三重區後埔街61號","121.479348333333","25.0486283333333","6500200","三重區"
"235033","4980-A6","2018/03/09 15:39:38","新北市中和區員山路381巷1弄2號","121.480896666667","25.0024116666667","6500300","中和區"
"235046","733-UM","2018/03/09 15:21:54","新北市中和區員山路36巷13號","121.484188333333","24.9908183333333","6500300","中和區"
"235023","AAC-215","2018/03/09 15:39:41","新北市中和區員山路28-29號","121.480911666667","24.9868833333333","6500300","中和區"
"224007","275-VK","2018/03/09 15:39:28","新北市瑞芳區大寮路356-1號","121.785185","25.1033983333333","6501200","瑞芳區"
"227003","400-TW","2018/03/09 15:39:44","新北市雙溪區牡丹里頂坪5-1號","121.86276","25.0386933333333","6502500","雙溪區"
"236067","105-UM","2018/03/09 15:39:25","新北市土城區中央路三段112號","121.435308333333","24.966275","6501300","土城區"
"236077","166-UM","2018/03/09 15:39:42","新北市土城區中山路45-1號","121.42037","24.9628","6501300","土城區"
"236029","253-BX","2018/03/09 15:39:45","新北市土城區中央路一段45巷20號","121.449071666667","24.9899666666667","6501300","土城區"
"236024","269-VK","2018/03/09 15:39:41","新北市土城區裕生路67巷6弄1號","121.44776","24.984455","6501300","土城區"
"236013","270-VK","2018/03/09 15:39:45","新北市土城區廣福街181號","121.456126666667","24.9955683333333","6501300","土城區"
"236019","401-BY","2018/03/09 15:39:44","新北市土城區延吉街74號","121.471073333333","24.9866366666667","6501300","土城區"
"236057","912-UM","2018/03/09 15:39:26","新北市土城區中央路一段166號","121.445826666667","24.9867883333333","6501300","土城區"
"236046","913-UM","2018/03/09 15:39:36","新北市中和區連城路631-2號","121.475593333333","24.9913733333333","6501300","土城區"
"236054","AAC-216","2018/03/09 15:39:36","新北市土城區學成路15號","121.453191666667","24.9866","6501300","土城區"
"242005","176-VK","2018/03/09 15:39:38","新北市新莊區新泰路357巷2-2號","121.44204","25.041125","6500500","新莊區"
"220052","561-BX","2018/03/09 15:39:47","新北市板橋區漢生東路83巷25號","121.467415","25.0168133333333","6500100","板橋區"
