"lineid","car","time","location","longitude","latitude","cityid","cityname"
"249005","172-UM","2018/03/09 17:09:31","新北市八里區華富山6-1號","121.419571666667","25.14249","6502300","八里區"
"249001","173-UM","2018/03/09 17:09:37","新北市八里區中華路二段201-27號","121.405863333333","25.1499033333333","6502300","八里區"
"249004","303-UY","2018/03/09 17:09:36","新北市八里區忠孝路152號","121.423893333333","25.16076","6502300","八里區"
"249002","305-UY","2018/03/09 17:09:46","新北市八里區米倉13-2號","121.438535","25.1495966666667","6502300","八里區"
"249003","593-UM","2018/03/09 17:09:33","新北市八里區中山路二段401號","121.397891666667","25.14667","6502300","八里區"
"244007","080-UY","2018/03/09 17:09:43","新北市林口區菁埔路23號","121.377643333333","25.096925","6501700","林口區"
"244019","402-UM","2018/03/09 17:09:27","新北市林口區仁愛路二段162號","121.381346666667","25.0740416666667","6501700","林口區"
"244025","742-UY","2018/03/09 17:09:34","新北市林口區工四路42號","121.400473333333","25.08396","6501700","林口區"
"244023","483-VK","2018/03/09 17:09:39","新北市林口區仁愛路一段382號","121.38798","25.0767016666667","6501700","林口區"
"244021","838-TS","2018/03/09 17:09:45","新北市林口區粉寮一街150-2號","121.403681666667","25.0868716666667","6501700","林口區"
"231046","278-BY","2018/03/09 17:09:32","新北市新店區直潭路92號","121.530926666667","24.9376183333333","6500600","新店區"
"241011","013-R5","2018/03/09 17:09:32","新北市三重區秀江街1號","121.502895","25.0732233333333","6500200","三重區"
"241028","022-UY","2018/03/09 17:09:37","新北市三重區重新路三段110號","121.492213333333","25.0602983333333","6500200","三重區"
"241008","059-VK","2018/03/09 17:09:45","新北市三重區力行路二段132號","121.482256666667","25.0754766666667","6500200","三重區"
"241009","060-VK","2018/03/09 17:09:32","新北市三重區三和路四段215巷48號","121.483395","25.0802933333333","6500200","三重區"
"241015","062-VK","2018/03/09 17:09:44","新北市三重區長生街39號","121.499803333333","25.066385","6500200","三重區"
"241017","063-VK","2018/03/09 17:09:35","新北市三重區中正北路25巷14號","121.493483333333","25.0628533333333","6500200","三重區"
"241024","065-VK","2018/03/09 17:09:35","新北市三重區中正北路193巷11弄2號","121.476956666667","25.0702783333333","6500200","三重區"
"241026","066-VK","2018/03/09 17:09:34","新北市三重區重新路二段12號","121.499616666667","25.0627916666667","6500200","三重區"
"241002","090-VK","2018/03/09 17:09:48","新北市三重區五華街37號","121.494658333333","25.080995","6500200","三重區"
"241003","091-VK","2018/03/09 17:09:38","新北市三重區富福街105號","121.49338","25.0855216666667","6500200","三重區"
"241020","156-TC","2018/03/09 17:09:42","新北市三重區自強路三段29號","121.48702","25.072425","6500200","三重區"
"241005","262-UM","2018/03/09 17:09:31","新北市三重區仁愛街664號","121.482455","25.0804916666667","6500200","三重區"
"241016","265-UM","2018/03/09 17:09:33","新北市三重區中正北路25巷2號","121.493188333333","25.062695","6500200","三重區"
"241022","267-UM","2018/03/09 17:09:47","新北市三重區中華路123巷29號","121.484778333333","25.0637583333333","6500200","三重區"
"241018","268-UM","2018/03/09 17:09:33","新北市三重區六張街46號","121.494411666667","25.070335","6500200","三重區"
"241032","269-UM","2018/03/09 17:09:37","新北市三重區三陽路3號","121.486226666667","25.0588583333333","6500200","三重區"
"241013","270-UM","2018/03/09 17:09:28","新北市三重區仁愛街104號","121.495328333333","25.07414","6500200","三重區"
"241025","271-UM","2018/03/09 17:09:48","新北市三重區中正北路560巷89號","121.470945","25.068375","6500200","三重區"
"241007","398-BY","2018/03/09 17:09:30","新北市三重區三和路四段163巷51號","121.484825","25.0790466666667","6500200","三重區"
"241004","475-VK","2018/03/09 17:09:39","新北市三重區五華街92巷6號","121.492491666667","25.08207","6500200","三重區"
"241001","478-VK","2018/03/09 17:09:30","新北市三重區仁愛街269巷58號","121.494758333333","25.079765","6500200","三重區"
"241030","480-VK","2018/03/09 17:09:35","新北市三重區集成路21號","121.489018333333","25.052265","6500200","三重區"
"241014","543-UM","2018/03/09 17:09:32","新北市三重區龍濱路187號","121.502118333333","25.0709933333333","6500200","三重區"
"241023","545-UM","2018/03/09 17:09:29","新北市三重區忠孝路三段84巷1號","121.480208333333","25.06453","6500200","三重區"
"241019","KEA-2593","2018/03/09 17:09:35","新北市三重區三張街150號","121.48617","25.0693966666667","6500200","三重區"
"241006","887-TS","2018/03/09 17:09:39","新北市三重區三和路四段274巷18號","121.484805","25.07685","6500200","三重區"
"241012","941-UM","2018/03/09 17:09:45","新北市三重區仁和街154號","121.501725","25.0755766666667","6500200","三重區"
"241029","942-UM","2018/03/09 17:09:47","新北市三重區重新路四段116號","121.48702","25.0568066666667","6500200","三重區"
"241033","AAC-255","2018/03/09 17:09:46","新北市三重區中興北街271號","121.469175","25.06054","6500200","三重區"
"235062","800-TS","2018/03/09 16:41:34","新北市中和區員山路36巷16-3號","121.484798333333","24.9916633333333","6500300","中和區"
"247024","893-R6","2018/03/09 17:09:42","新北市蘆洲區長興路62號","121.463323333333","25.0838166666667","6501400","蘆洲區"
"247014","546-UM","2018/03/09 17:09:31","新北市蘆洲區中央路2-1號","121.47325","25.0824516666667","6501400","蘆洲區"
"247022","500-BY","2018/03/09 17:09:41","新北市蘆洲區三民路226號","121.468581666667","25.0893966666667","6501400","蘆洲區"
"247010","341-TH","2018/03/09 17:09:45","新北市蘆洲區三民路52號","121.475345","25.083615","6501400","蘆洲區"
"247012","339-TH","2018/03/09 17:09:28","新北市蘆洲區信義路347號","121.477781666667","25.087255","6501400","蘆洲區"
"247004","337-TH","2018/03/09 17:09:29","新北市蘆洲區長安街209號","121.459866666667","25.0821583333333","6501400","蘆洲區"
"247006","336-TH","2018/03/09 17:09:29","新北市蘆洲區長安街108巷20號","121.461863333333","25.08209","6501400","蘆洲區"
"247018","057-VK","2018/03/09 17:09:31","新北市蘆洲區信義路363號","121.477306666667","25.0875816666667","6501400","蘆洲區"
"247008","056-VK","2018/03/09 17:09:32","新北市蘆洲區信義路30巷141號","121.475426666667","25.0764966666667","6501400","蘆洲區"
"247020","053-VK","2018/03/09 17:09:31","新北市蘆洲區仁愛街36巷15號","121.472775","25.0936516666667","6501400","蘆洲區"
"247016","007-UY","2018/03/09 17:09:40","新北市蘆洲區光華路71號","121.468096666667","25.0827066666667","6501400","蘆洲區"
"247002","002-UY","2018/03/09 17:09:32","新北市蘆洲區永樂街108號","121.455551666667","25.0888883333333","6501400","蘆洲區"
"228002","663-BX","2018/03/09 17:09:43","新北市貢寮區龍崗里泮宮路51-1號","121.908255","25.01663","6502600","貢寮區"
"228001","670-TC","2018/03/09 17:09:43","新北市貢寮區仁理村研海街62-2號","121.925651666667","25.0449533333333","6502600","貢寮區"
"228003","828-UM","2018/03/09 17:09:33","新北市貢寮區福隆里東興街60號","121.948198333333","25.01767","6502600","貢寮區"
"224006","676-BX","2018/03/09 17:09:28","新北市瑞芳區大寮路69號","121.781168333333","25.09765","6501200","瑞芳區"
"224008","285-BY","2018/03/09 17:09:42","新北市瑞芳區柴寮路60號","121.827625","25.08726","6501200","瑞芳區"
"224007","275-VK","2018/03/09 17:09:48","新北市瑞芳區楓子瀨路11號","121.76814","25.1010283333333","6501200","瑞芳區"
"224009","273-VK","2018/03/09 17:09:38","新北市瑞芳區輕便路32號","121.843951666667","25.1105833333333","6501200","瑞芳區"
"224005","271-BY","2018/03/09 17:09:30","新北市瑞芳區鼻頭路127號","121.916468333333","25.1221033333333","6501200","瑞芳區"
"227011","642-TC","2018/03/09 17:09:41","新北市雙溪區三貂里子崙坑1-5號","121.849771666667","25.05761","6502500","雙溪區"
"227003","400-TW","2018/03/09 17:09:44","新北市雙溪區外柑里外柑腳35號","121.811283333333","25.018995","6502500","雙溪區"
"251004","009-UM","2018/03/09 17:09:34","新北市淡水區中正路1號","121.44538","25.1684683333333","6501000","淡水區"
"251008","181-VK","2018/03/09 17:09:41","新北市淡水區樹梅坑15號","121.471156666667","25.143485","6501000","淡水區"
"251010","413-VK","2018/03/09 17:09:35","新北市淡水區沙崙路305號","121.427246666667","25.186995","6501000","淡水區"
"251012","441-VK","2018/03/09 17:09:41","新北市淡水區沙崙路341號","121.427886666667","25.18785","6501000","淡水區"
"251005","443-VK","2018/03/09 17:09:43","新北市淡水區水源街一段34巷1號","121.443223333333","25.172245","6501000","淡水區"
"251006","561-UM","2018/03/09 17:09:32","新北市淡水區新民街21號","121.439331666667","25.1752383333333","6501000","淡水區"
"251009","575-R6","2018/03/09 17:09:28","新北市淡水區三民街22號","121.439158333333","25.1716966666667","6501000","淡水區"
"251007","577-R6","2018/03/09 17:09:28","新北市淡水區民權路41號","121.459626666667","25.1404616666667","6501000","淡水區"
"251011","650-BX","2018/03/09 17:09:38","新北市淡水區坪頂路50號","121.457933333333","25.1624233333333","6501000","淡水區"
"251003","673-BX","2018/03/09 17:09:27","新北市淡水區中正路二段31號","121.419561666667","25.1815833333333","6501000","淡水區"
"252002","178-VK","2018/03/09 17:09:39","新北市三芝區埔坪里埔頭坑169-2號","121.506025","25.2529433333333","6502100","三芝區"
"252001","292-VK","2018/03/09 17:09:37","新北市三芝區淡金路一段4-5號","121.497963333333","25.260005","6502100","三芝區"
"242034","AAC-296","2018/03/09 17:07:31","新北市新莊區新泰路357巷3弄57號","121.441931666667","25.03971","6500500","新莊區"
"242054","751-BX","2018/03/09 17:09:29","新北市新莊區新泰路357巷3弄45號","121.44236","25.0401866666667","6500500","新莊區"
"242027","615-BX","2018/03/09 17:09:37","新北市新莊區新泰路255巷83號","121.44217","25.0387566666667","6500500","新莊區"
"242029","612-BX","2018/03/09 17:09:31","新北市新莊區新泰路357巷3弄57號","121.441768333333","25.0393316666667","6500500","新莊區"
"242046","497-BY","2018/03/09 17:09:46","新北市新莊區三和路12-21號","121.442301666667","25.0380766666667","6500500","新莊區"
"242050","441-UM","2018/03/09 17:09:44","新北市新莊區新泰路357巷3弄1號","121.442315","25.0413866666667","6500500","新莊區"
"242037","415-TV","2018/03/09 17:09:45","新北市新莊區新泰路357巷3弄57號","121.441831666667","25.0392783333333","6500500","新莊區"
"242007","413-TV","2018/03/09 17:09:35","新北市新莊區新泰路357巷3弄57號","121.441936666667","25.03944","6500500","新莊區"
"242044","400-BY","2018/03/09 17:09:35","新北市新莊區中正路513-1號","121.440183333333","25.0335566666667","6500500","新莊區"
"242023","362-BY","2018/03/09 17:09:32","新北市新莊區三和路12-21號","121.44222","25.0386233333333","6500500","新莊區"
"242060","353-BY","2018/03/09 17:09:45","新北市新莊區新泰路255巷83號","121.442251666667","25.0389266666667","6500500","新莊區"
"242009","132-UY","2018/03/09 17:09:46","新北市新莊區三和路12-21號","121.442018333333","25.03878","6500500","新莊區"
"242032","135-UY","2018/03/09 17:09:40","新北市新莊區新泰路255巷83號","121.442111666667","25.0388366666667","6500500","新莊區"
"242048","172-VK","2018/03/09 17:09:28","新北市新莊區中正路671號","121.426451666667","25.030085","6500500","新莊區"
"242005","176-VK","2018/03/09 17:09:39","新北市新莊區三和路12-21號","121.441935","25.0386116666667","6500500","新莊區"
"242021","348-TH","2018/03/09 17:09:16","新北市新莊區三和路12-21號","121.442291666667","25.0385816666667","6500500","新莊區"
"242002","349-TH","2018/03/09 17:09:44","新北市新莊區三和路12-16號","121.441995","25.03739","6500500","新莊區"
"242019","350-TH","2018/03/09 17:09:35","新北市新莊區三和路12-21號","121.442105","25.0387816666667","6500500","新莊區"
"242013","351-TH","2018/03/09 17:09:30","新北市新莊區新泰路357巷3弄57號","121.441938333333","25.039465","6500500","新莊區"
"238015","755-BX","2018/03/09 17:09:26","新北市樹林區八德街502號","121.399453333333","24.9702616666667","6500700","樹林區"
"238023","601-UM","2018/03/09 17:09:40","新北市樹林區保安街二段179-3號","121.415251666667","25.003205","6500700","樹林區"
"238019","599-UM","2018/03/09 17:09:48","新北市樹林區太平路247巷30號","121.420723333333","24.97559","6500700","樹林區"
"238018","571-TV","2018/03/09 17:09:35","新北市樹林區仁愛街92號","121.42493","24.9833166666667","6500700","樹林區"
"238024","5061-A6","2018/03/09 17:09:32","新北市樹林區八德街247巷24-1號","121.420878333333","24.973855","6500700","樹林區"
"238022","KEA-2213","2018/03/09 17:09:46","新北市樹林區國凱街146號","121.423955","24.98069","6500700","樹林區"
"238021","KEA-2539","2018/03/09 17:09:34","新北市樹林區西圳街一段165巷20弄28號","121.395643333333","24.9600916666667","6500700","樹林區"
"238025","303-VK","2018/03/09 17:09:31","新北市樹林區中山路二段121-3號","121.408091666667","24.979765","6500700","樹林區"
"238017","283-BY","2018/03/09 17:09:44","新北市樹林區中洲街18號","121.397366666667","24.972285","6500700","樹林區"
"238014","282-BY","2018/03/09 17:09:26","新北市樹林區中山路二段169號","121.405986666667","24.97867","6500700","樹林區"
"238020","268-VK","2018/03/09 17:08:31","新北市樹林區中正路286-1號","121.416056666667","25.00877","6500700","樹林區"
"238026","172-UY","2018/03/09 17:08:11","新北市樹林區育德街78-1號","121.387515","24.9682466666667","6500700","樹林區"
"238016","169-UY","2018/03/09 16:51:43","新北市樹林區中山路三段204號","121.386868333333","24.9683133333333","6500700","樹林區"
"239007","AAC-297","2018/03/09 17:09:17","新北市鶯歌區信義街105號","121.353643333333","24.9548566666667","6500800","鶯歌區"
"239006","891-R6","2018/03/09 17:09:30","新北市鶯歌區八德路2巷20弄2號","121.336441666667","24.9466516666667","6500800","鶯歌區"
"239008","527-UM","2018/03/09 17:09:46","新北市鶯歌區尖山路57-1號","121.350026666667","24.949715","6500800","鶯歌區"
"239005","526-UM","2018/03/09 17:09:36","新北市鶯歌區德昌二街59號","121.333401666667","24.958365","6500800","鶯歌區"
"239001","417-VK","2018/03/09 17:09:27","新北市鶯歌區尖山路140巷12弄4號","121.34626","24.9495116666667","6500800","鶯歌區"
"239003","360-BY","2018/03/09 17:09:34","新北市鶯歌區八德路16號","121.330705","24.95543","6500800","鶯歌區"
"239002","359-BY","2018/03/09 17:09:48","新北市鶯歌區建國路222號","121.348665","24.9535866666667","6500800","鶯歌區"
"242017","281-VK","2018/03/09 17:09:31","新北市新莊區三和路12-18號","121.441778333333","25.0376716666667","6500500","新莊區"
