"lineid","car","time","location","longitude","latitude","cityid","cityname"
"234026","9371-KE","2018/03/09 18:09:48","新北市永和區永和路一段72巷4號","121.513423333333","25.0060933333333","6500400","永和區"
"249005","172-UM","2018/03/09 18:09:31","新北市八里區荖阡坑路15號","121.401723333333","25.1398516666667","6502300","八里區"
"249001","173-UM","2018/03/09 18:09:37","新北市八里區龍米路二段19號","121.448646666667","25.1395666666667","6502300","八里區"
"249004","303-UY","2018/03/09 18:09:36","新北市八里區龍米路二段206巷2號","121.433275","25.15889","6502300","八里區"
"249002","305-UY","2018/03/09 18:09:46","新北市八里區龍米路一段356巷20號","121.452118333333","25.13072","6502300","八里區"
"249003","593-UM","2018/03/09 18:09:33","新北市八里區中華路二段165巷2號","121.407831666667","25.1506716666667","6502300","八里區"
"248006","077-UY","2018/03/09 18:09:36","新北市五股區中興路二段82號","121.460926666667","25.077215","6501500","五股區"
"248008","095-VK","2018/03/09 18:09:45","新北市五股區中興路二段182巷15弄13號","121.457146666667","25.0813516666667","6501500","五股區"
"248018","225-UY","2018/03/09 18:09:44","新北市五股區新五路二段367號","121.444313333333","25.0879816666667","6501500","五股區"
"248014","261-SL","2018/03/09 18:09:41","新北市五股區成泰路一段189巷18-2號","121.433575","25.0764066666667","6501500","五股區"
"248004","677-BX","2018/03/09 18:09:47","新北市五股區工商路50號","121.439168333333","25.084055","6501500","五股區"
"248002","678-BX","2018/03/09 18:09:42","新北市五股區新五路三段38號","121.444243333333","25.0877916666667","6501500","五股區"
"248010","682-TV","2018/03/09 18:09:45","新北市五股區成泰路一段229-1號","121.434235","25.07767","6501500","五股區"
"232011","375-UM","2018/03/09 18:09:34","新北市坪林區坪雙路一段51號","121.712393333333","24.9434183333333","6502000","坪林區"
"244013","069-UM","2018/03/09 18:09:36","新北市林口區中山路37號","121.39495","25.07846","6501700","林口區"
"244007","080-UY","2018/03/09 18:09:43","新北市林口區林口路113巷47號","121.387945","25.079875","6501700","林口區"
"244019","402-UM","2018/03/09 18:09:47","新北市林口區文化一路一段52號","121.371471666667","25.06974","6501700","林口區"
"244025","742-UY","2018/03/09 18:09:34","新北市林口區文化北路一段293-2號","121.360166666667","25.072785","6501700","林口區"
"244023","483-VK","2018/03/09 18:09:39","新北市林口區東湖路153巷135號","121.382178333333","25.0735516666667","6501700","林口區"
"244017","485-VK","2018/03/09 18:09:29","新北市林口區文化一路一段43號","121.370993333333","25.0698533333333","6501700","林口區"
"244009","656-BX","2018/03/09 18:09:43","新北市林口區佳林路97號","121.385881666667","25.0804266666667","6501700","林口區"
"244011","701-TV","2018/03/09 18:09:42","新北市林口區中正路79號","121.394878333333","25.0772583333333","6501700","林口區"
"244021","838-TS","2018/03/09 18:09:45","新北市林口區自強五街25號","121.400413333333","25.0756983333333","6501700","林口區"
"243013","646-TV","2018/03/09 18:09:49","新北市泰山區南林路99巷1-1號","121.415601666667","25.0509933333333","6501600","泰山區"
"222003","436-BY","2018/03/09 18:09:39","新北市深坑區阿柔洋47號","121.612278333333","24.997345","6501800","深坑區"
"222002","659-BX","2018/03/09 18:09:32","新北市深坑區文化街56號","121.618836666667","25.0017116666667","6501800","深坑區"
"231060","001-UM","2018/03/09 18:09:35","新北市新店區安華路28-1號","121.519505","24.9609816666667","6500600","新店區"
"231041","002-UM","2018/03/09 18:09:47","新北市新店區安華路28-1號","121.51971","24.9609233333333","6500600","新店區"
"231059","046-UY","2018/03/09 18:09:34","新北市新店區安華路28-1號","121.519631666667","24.96085","6500600","新店區"
"231051","107-UY","2018/03/09 18:09:47","新北市新店區安華路28-1號","121.519166666667","24.9612383333333","6500600","新店區"
"231048","108-UY","2018/03/09 18:09:34","新北市新店區安華路28-1號","121.519436666667","24.96122","6500600","新店區"
"231053","187-VK","2018/03/09 18:09:40","新北市新店區安華路28-1號","121.519643333333","24.9612233333333","6500600","新店區"
"231050","KEA-2219","2018/03/09 18:09:32","新北市新店區安華路28-1號","121.519873333333","24.9612633333333","6500600","新店區"
"221015","KEA-2785","2018/03/09 18:08:00","新北市汐止區鄉長路二段90號","121.666506666667","25.0847983333333","6501100","汐止區"
"231057","256-BX","2018/03/09 18:09:49","新北市新店區安華路28-1號","121.519858333333","24.9611416666667","6500600","新店區"
"231046","278-BY","2018/03/09 18:09:32","新北市新店區直潭七街60號","121.532265","24.93993","6500600","新店區"
"231058","3712-VJ","2018/03/09 18:09:40","新北市新店區安華路28-1號","121.519258333333","24.9606616666667","6500600","新店區"
"231056","3713-VJ","2018/03/09 18:09:46","新北市新店區安華路28-1號","121.51918","24.9606783333333","6500600","新店區"
"231055","4716-K9","2018/03/09 18:09:49","新北市新店區安華路28-1號","121.519605","24.9613266666667","6500600","新店區"
"231040","619-UM","2018/03/09 18:09:40","新北市新店區安華路28-1號","121.519486666667","24.960755","6500600","新店區"
"231042","641-BX","2018/03/09 18:09:43","新北市新店區安華路28-1號","121.51966","24.960525","6500600","新店區"
"231063","645-TV","2018/03/09 18:09:29","新北市新店區安華路28-1號","121.51939","24.96057","6500600","新店區"
"231049","719-UM","2018/03/09 18:09:35","新北市新店區安華路28-1號","121.519503333333","24.9612033333333","6500600","新店區"
"231062","720-UM","2018/03/09 18:09:49","新北市新店區安華路28-1號","121.519331666667","24.961205","6500600","新店區"
"231044","897-TW","2018/03/09 18:09:36","新北市新店區安華路28-1號","121.519473333333","24.96067","6500600","新店區"
"231043","899-TW","2018/03/09 18:09:45","新北市新店區安華路28-1號","121.519168333333","24.960895","6500600","新店區"
"231066","AKT-0513","2018/03/09 18:09:41","新北市新店區安華路28-1號","121.519463333333","24.9605883333333","6500600","新店區"
"241033","AAC-255","2018/03/09 18:09:46","新北市三重區中興北街52-1號","121.468811666667","25.0505266666667","6500200","三重區"
"235066","003-UY","2018/03/09 18:09:46","新北市中和區圓通路208號","121.496138333333","24.99406","6500300","中和區"
"235064","005-UY","2018/03/09 18:09:36","新北市中和區中正路277號","121.495326666667","24.9936483333333","6500300","中和區"
"235063","006-UY","2018/03/09 18:09:35","新北市中和區員山路36巷16-3號","121.48499","24.9912866666667","6500300","中和區"
"235052","031-BX","2018/03/09 18:09:43","新北市中和區錦和路350-1號","121.490111666667","24.9935716666667","6500300","中和區"
"235056","096-UM","2018/03/09 18:09:28","新北市中和區新生街7-1號","121.483188333333","25.004555","6500300","中和區"
"235039","097-UM","2018/03/09 18:09:41","新北市中和區和城路一段271巷1號","121.48558","24.991935","6500300","中和區"
"235065","098-UM","2018/03/09 18:09:46","新北市中和區橋和路150號","121.493851666667","25.0061966666667","6500300","中和區"
"235058","151-BY","2018/03/09 18:09:37","新北市中和區圓通路367巷33弄15號","121.495106666667","24.98515","6500300","中和區"
"235038","185-VK","2018/03/09 18:09:48","新北市中和區景平路73號","121.519063333333","24.991585","6500300","中和區"
"235043","352-BY","2018/03/09 18:09:41","新北市中和區中正路637巷52弄1號","121.485441666667","24.99356","6500300","中和區"
"235050","4979-A6","2018/03/09 18:09:36","新北市中和區錦和路350-1號","121.490106666667","24.9935666666667","6500300","中和區"
"235042","551-UM","2018/03/09 18:09:30","新北市中和區景平路159巷29弄3號","121.512965","24.9912566666667","6500300","中和區"
"235045","565-BX","2018/03/09 18:09:44","新北市中和區中正路395號","121.489946666667","24.9935366666667","6500300","中和區"
"235054","640-BX","2018/03/09 18:09:39","新北市土城區延壽路77巷4弄11號","121.469083333333","24.99291","6500300","中和區"
"235060","647-TV","2018/03/09 18:09:42","新北市中和區員山路36巷16-3號","121.484898333333","24.9917866666667","6500300","中和區"
"235062","800-TS","2018/03/09 18:09:34","新北市中和區橋和路77號","121.489253333333","25.0051666666667","6500300","中和區"
"235057","801-TS","2018/03/09 18:09:39","新北市中和區連城路469巷13號","121.483588333333","24.9954083333333","6500300","中和區"
"235053","900-TW","2018/03/09 18:09:39","新北市中和區員山路36巷16-2號","121.4853","24.9914616666667","6500300","中和區"
"235051","157-BY","2018/03/09 18:09:48","新北市中和區復興路300號","121.501505","24.9903066666667","6500300","中和區"
"247010","341-TH","2018/03/09 18:09:45","新北市五股區中興路二段182巷50號","121.456093333333","25.0818183333333","6501400","蘆洲區"
"247016","007-UY","2018/03/09 18:09:31","新北市蘆洲區長榮路269巷28號","121.459508333333","25.0860116666667","6501400","蘆洲區"
"226004","205-ST","2018/03/09 18:09:46","新北市平溪區白石里白石腳43號","121.718366666667","25.0212016666667","6502400","平溪區"
"228002","663-BX","2018/03/09 18:09:43","新北市貢寮區福連里馬崗街1號","121.99714","25.0169883333333","6502600","貢寮區"
"228001","670-TC","2018/03/09 18:09:42","新北市貢寮區真理里新港街26巷55弄2-1號","121.9274","25.0528683333333","6502600","貢寮區"
"228003","828-UM","2018/03/09 18:09:33","新北市貢寮區真理里美艷山街6-2號","121.928821666667","25.0607366666667","6502600","貢寮區"
"224010","AGQ-8101","2018/03/09 18:00:02","新北市瑞芳區崙頂路2-2號","121.846673333333","25.10717","6501200","瑞芳區"
"224006","676-BX","2018/03/09 18:09:28","新北市瑞芳區民權街3-2號","121.808005","25.107485","6501200","瑞芳區"
"224002","639-TC","2018/03/09 18:09:46","新北市瑞芳區三爪子坑路64-8號","121.809676666667","25.1054566666667","6501200","瑞芳區"
"224008","285-BY","2018/03/09 18:09:41","新北市瑞芳區員山子路3-9號","121.819956666667","25.1040666666667","6501200","瑞芳區"
"224007","275-VK","2018/03/09 18:09:28","新北市瑞芳區四腳亭坑路8號","121.777771666667","25.1097233333333","6501200","瑞芳區"
"224009","273-VK","2018/03/09 18:09:38","新北市瑞芳區金光路115號","121.85375","25.10624","6501200","瑞芳區"
"224005","271-BY","2018/03/09 18:09:30","新北市瑞芳區建基路二段110-1號","121.81197","25.13263","6501200","瑞芳區"
"227003","400-TW","2018/03/09 18:09:44","新北市雙溪區共和里東榮街52號","121.866278333333","25.033645","6502500","雙溪區"
"253005","032-BX","2018/03/09 18:09:42","新北市石門區福安街5號","121.568441666667","25.292895","6502200","石門區"
"253006","295-VK","2018/03/09 18:09:49","新北市石門區老梅路52巷21號","121.546395","25.28858","6502200","石門區"
"222001","KEA-2212","2018/03/09 18:09:31","新北市深坑區北深路二段188號","121.614003333333","25.0022216666667","6501800","深坑區"
"208002","KEA-2872","2018/03/09 18:09:48","新北市金山區三界壇路99巷23號","121.618878333333","25.2274016666667","6502700","金山區"
"208003","665-BX","2018/03/09 18:09:50","新北市金山區民生路196號","121.645513333333","25.2217866666667","6502700","金山區"
"208001","761-BX","2018/03/09 18:09:39","新北市金山區磺港里磺港路109號","121.646375","25.2268233333333","6502700","金山區"
"251004","009-UM","2018/03/09 18:09:34","新北市淡水區民族路102號","121.462485","25.13537","6501000","淡水區"
"251001","011-UM","2018/03/09 18:09:40","新北市淡水區自立路1巷19號","121.462653333333","25.129655","6501000","淡水區"
"251002","012-UM","2018/03/09 18:09:33","新北市淡水區中正東路一段129號","121.455523333333","25.159245","6501000","淡水區"
"251008","181-VK","2018/03/09 18:09:41","新北市淡水區淡金路16巷62弄1號","121.460006666667","25.16101","6501000","淡水區"
"251010","413-VK","2018/03/09 18:09:35","新北市淡水區中正路二段50巷10號","121.41985","25.1833133333333","6501000","淡水區"
"251012","441-VK","2018/03/09 18:09:41","新北市淡水區泉洲厝20號","121.490575","25.1909583333333","6501000","淡水區"
"251005","443-VK","2018/03/09 18:09:43","新北市淡水區水源街一段141號","121.44727","25.1718716666667","6501000","淡水區"
"251006","561-UM","2018/03/09 18:09:32","新北市淡水區新民街76巷2號","121.438785","25.1764783333333","6501000","淡水區"
"251009","575-R6","2018/03/09 18:09:28","新北市淡水區大忠街34巷25號","121.444376666667","25.1758666666667","6501000","淡水區"
"251011","650-BX","2018/03/09 18:09:38","新北市淡水區三空泉9-1號","121.47471","25.16288","6501000","淡水區"
"251003","673-BX","2018/03/09 18:09:28","新北市淡水區大忠街113巷22號","121.447316666667","25.17746","6501000","淡水區"
"207003","550-UM","2018/03/09 18:09:30","新北市萬里區野柳里港西路70-3號","121.685418333333","25.2046916666667","6502800","萬里區"
"207004","225-TW","2018/03/09 18:09:49","新北市萬里區中幅里中福路116-1號","121.67546","25.1670633333333","6502800","萬里區"
"252002","178-VK","2018/03/09 18:09:39","新北市三芝區中山路二段39號","121.502925","25.255145","6502100","三芝區"
"252003","249-BX","2018/03/09 18:09:42","新北市三芝區埔頭里埔頭39-1號","121.49881","25.26054","6502100","三芝區"
"252001","292-VK","2018/03/09 18:09:37","新北市三芝區中興街二段2號","121.498366666667","25.256665","6502100","三芝區"
"237004","KEA-2597","2018/03/09 18:09:33","新北市三峽區大埔路417號","121.373223333333","24.892675","6500900","三峽區"
"237007","153-BY","2018/03/09 18:09:40","新北市三峽區中正路二段318號","121.365873333333","24.9109183333333","6500900","三峽區"
"237009","210-TH","2018/03/09 18:09:38","新北市三峽區復興路367巷1弄39號","121.364618333333","24.93801","6500900","三峽區"
"237013","252-BX","2018/03/09 18:09:44","新北市三峽區長泰街33巷14弄9號","121.377158333333","24.93177","6500900","三峽區"
"237012","275-BY","2018/03/09 18:09:34","新北市三峽區民生街19巷7弄36-4號","121.377231666667","24.9355333333333","6500900","三峽區"
"237008","302-VK","2018/03/09 18:09:37","新北市三峽區白雞42-1號","121.379023333333","24.9109483333333","6500900","三峽區"
"237014","433-BY","2018/03/09 18:09:45","新北市三峽區國光街63巷6號","121.374021666667","24.93801","6500900","三峽區"
"237006","5529-G3","2018/03/09 18:09:44","新北市三峽區介壽路三段1號","121.395","24.93608","6500900","三峽區"
"237011","KEA-2596","2018/03/09 18:09:44","新北市三峽區橫溪路10號","121.39609","24.936005","6500900","三峽區"
"237010","706-TV","2018/03/09 18:09:46","新北市三峽區民權街132號","121.36853","24.932065","6500900","三峽區"
"237005","AKY-6261","2018/03/09 18:09:47","新北市三峽區民生街146巷19號","121.372073333333","24.93541","6500900","三峽區"
"236072","105-UM","2018/03/09 18:09:29","新北市土城區明德路一段375-3號","121.454351666667","24.9784166666667","6501300","土城區"
"236043","107-UM","2018/03/09 18:09:42","新北市土城區城林路6巷80號","121.43833","24.9795733333333","6501300","土城區"
"236079","166-UM","2018/03/09 18:09:40","新北市土城區永寧路32巷30號","121.428391666667","24.9608783333333","6501300","土城區"
"236031","253-BX","2018/03/09 18:09:34","新北市土城區城林路6巷80號","121.438551666667","24.979595","6501300","土城區"
"236026","269-VK","2018/03/09 18:09:49","新北市土城區中央路三段42號","121.437548333333","24.9681933333333","6501300","土城區"
"236015","270-VK","2018/03/09 18:09:39","新北市土城區學府路一段167號","121.452918333333","24.9857","6501300","土城區"
"236039","271-VK","2018/03/09 18:09:41","新北市土城區青雲路322巷2弄2號","121.45856","24.977135","6501300","土城區"
"236022","401-BY","2018/03/09 18:09:35","新北市土城區城林路6巷80號","121.43841","24.9796016666667","6501300","土城區"
"236059","912-UM","2018/03/09 18:09:30","新北市土城區中央路四段132-1號","121.417656666667","24.9587566666667","6501300","土城區"
"236050","913-UM","2018/03/09 18:09:33","新北市土城區金城路二段39巷2-1號","121.450198333333","24.97801","6501300","土城區"
"236063","915-UM","2018/03/09 18:09:45","新北市土城區中正路69號","121.44466","24.97569","6501300","土城區"
"236055","AAC-216","2018/03/09 18:09:33","新北市土城區城林路6巷80號","121.438545","24.97956","6501300","土城區"
"242034","AAC-296","2018/03/09 18:09:48","新北市新莊區景德路304號","121.44762","25.0336333333333","6500500","新莊區"
"242058","986-R7","2018/03/09 18:09:46","新北市新莊區壽山路49-2號","121.414393333333","25.03091","6500500","新莊區"
"242054","751-BX","2018/03/09 18:09:49","新北市新莊區光華街76號","121.427991666667","25.0122433333333","6500500","新莊區"
"242027","615-BX","2018/03/09 18:09:37","新北市新莊區幸福路513號","121.45568","25.04928","6500500","新莊區"
"242025","613-BX","2018/03/09 18:09:35","新北市新莊區五工二路94巷11號","121.459666666667","25.0673116666667","6500500","新莊區"
"242029","612-BX","2018/03/09 18:09:31","新北市新莊區中平路194號","121.44477","25.0482683333333","6500500","新莊區"
"242041","566-BX","2018/03/09 18:09:44","新北市新莊區壽山路31號","121.419976666667","25.0286283333333","6500500","新莊區"
"242046","497-BY","2018/03/09 18:09:46","新北市新莊區福營路226號","121.427295","25.0293666666667","6500500","新莊區"
"242050","441-UM","2018/03/09 18:09:44","新北市新莊區民本街11巷35號","121.429108333333","25.0202816666667","6500500","新莊區"
"242056","440-UM","2018/03/09 18:09:31","新北市新莊區豐年街豐1巷28號","121.44755","25.03123","6500500","新莊區"
"242037","415-TV","2018/03/09 18:09:45","新北市新莊區後港一路65號","121.426478333333","25.0265666666667","6500500","新莊區"
"242007","413-TV","2018/03/09 18:09:43","新北市新莊區中華路二段88號","121.453631666667","25.047045","6500500","新莊區"
"242044","400-BY","2018/03/09 18:09:36","新北市新莊區天泉二街11號","121.415055","25.024915","6500500","新莊區"
"242023","362-BY","2018/03/09 18:09:32","新北市泰山區泰林路一段2-1號","121.442008333333","25.0480566666667","6500500","新莊區"
"242060","353-BY","2018/03/09 18:09:45","新北市新莊區新樹路79號","121.437771666667","25.0275233333333","6500500","新莊區"
"242009","132-UY","2018/03/09 18:09:46","新北市新莊區昌平街41巷3號","121.45441","25.0524383333333","6500500","新莊區"
"242039","133-UY","2018/03/09 18:09:31","新北市新莊區民安西路38巷2號","121.42715","25.0209383333333","6500500","新莊區"
"242032","135-UY","2018/03/09 18:09:40","新北市新莊區新泰路277巷7號","121.44536","25.0402583333333","6500500","新莊區"
"242048","172-VK","2018/03/09 18:09:48","新北市新莊區民安路98巷3號","121.42372","25.0256433333333","6500500","新莊區"
"242011","173-VK","2018/03/09 18:09:44","新北市新莊區中榮街22號","121.450325","25.0528666666667","6500500","新莊區"
"242005","176-VK","2018/03/09 18:09:39","新北市新莊區自立街81號","121.454438333333","25.0453983333333","6500500","新莊區"
"242015","346-TH","2018/03/09 18:09:47","新北市新莊區中平路152巷45號","121.446736666667","25.0474316666667","6500500","新莊區"
"242021","348-TH","2018/03/09 18:09:47","新北市新莊區新興街98巷1號","121.450655","25.0388","6500500","新莊區"
"242002","349-TH","2018/03/09 18:09:44","新北市新莊區新莊路126號","121.455753333333","25.03587","6500500","新莊區"
"242019","350-TH","2018/03/09 18:09:35","新北市新莊區中港路132巷12號","121.455916666667","25.040625","6500500","新莊區"
"238015","755-BX","2018/03/09 18:09:46","新北市樹林區大安路407號","121.415616666667","24.9889283333333","6500700","樹林區"
"238023","601-UM","2018/03/09 18:09:40","新北市樹林區龍興街48號","121.403103333333","25.01551","6500700","樹林區"
"238019","599-UM","2018/03/09 18:09:48","新北市樹林區國凱街140巷13號","121.424146666667","24.9801333333333","6500700","樹林區"
"238018","571-TV","2018/03/09 18:09:43","新北市樹林區保安街一段16巷40號","121.428918333333","24.9944883333333","6500700","樹林區"
"238022","KEA-2213","2018/03/09 18:09:46","新北市樹林區太平路174巷31弄1號","121.417395","24.9765133333333","6500700","樹林區"
"238021","KEA-2539","2018/03/09 18:09:34","新北市樹林區柑園街一段115號","121.401191666667","24.9600466666667","6500700","樹林區"
"238025","303-VK","2018/03/09 18:09:51","新北市樹林區保安街二段136號","121.413386666667","25.0041816666667","6500700","樹林區"
"238017","283-BY","2018/03/09 18:09:44","新北市樹林區中正路546號","121.411523333333","25.0141733333333","6500700","樹林區"
"238014","282-BY","2018/03/09 18:09:46","新北市樹林區潭興街107巷21弄18號","121.423813333333","24.998865","6500700","樹林區"
"238020","268-VK","2018/03/09 18:01:51","新北市樹林區三俊街199巷31-1號","121.420405","25.017545","6500700","樹林區"
"238026","172-UY","2018/03/09 18:09:31","新北市樹林區佳園路一段82-1號","121.393191666667","24.96964","6500700","樹林區"
"239007","AAC-297","2018/03/09 18:09:37","新北市鶯歌區尖山埔路153號","121.346303333333","24.9510116666667","6500800","鶯歌區"
"239006","891-R6","2018/03/09 18:09:50","新北市鶯歌區鶯桃路365巷70號","121.331451666667","24.9623066666667","6500800","鶯歌區"
"239008","527-UM","2018/03/09 18:09:46","新北市鶯歌區朝陽街53巷2號","121.33814","24.9780316666667","6500800","鶯歌區"
"239005","526-UM","2018/03/09 18:09:36","新北市鶯歌區鶯桃路668巷73號","121.329875","24.9717916666667","6500800","鶯歌區"
"239001","417-VK","2018/03/09 18:09:47","新北市鶯歌區中正三路福德巷21號","121.339688333333","24.9405416666667","6500800","鶯歌區"
"239003","360-BY","2018/03/09 18:09:34","新北市鶯歌區福安街9巷1號","121.335133333333","24.96491","6500800","鶯歌區"
"239002","359-BY","2018/03/09 18:09:28","新北市鶯歌區光明街96號","121.346296666667","24.9557966666667","6500800","鶯歌區"
"221008","489-VK","2018/03/09 18:09:48","新北市汐止區康寧街338號","121.627798333333","25.06746","6501100","汐止區"
"221036","130-UY","2018/03/09 18:09:44","新北市汐止區大同路三段121號","121.668786666667","25.0776766666667","6501100","汐止區"
"221010","269-BY","2018/03/09 18:09:45","新北市汐止區祥雲街2-1號","121.645778333333","25.08961","6501100","汐止區"
"221012","278-VK","2018/03/09 18:09:34","新北市汐止區保長路37巷42號","121.674176666667","25.0798566666667","6501100","汐止區"
"221023","279-VK","2018/03/09 18:09:49","新北市汐止區明峰街190號","121.628095","25.0698983333333","6501100","汐止區"
"221032","280-BY","2018/03/09 18:09:39","新北市汐止區橫科路73巷2-2號","121.619396666667","25.0506233333333","6501100","汐止區"
"221027","281-BY","2018/03/09 18:09:35","新北市汐止區大同路二段536號","121.661396666667","25.068655","6501100","汐止區"
"221033","297-VK","2018/03/09 18:09:46","新北市汐止區宜興街20巷21號","121.62234","25.0409466666667","6501100","汐止區"
"221029","298-VK","2018/03/09 18:09:36","新北市汐止區樟樹二路134號","121.640011666667","25.0656666666667","6501100","汐止區"
"221021","299-VK","2018/03/09 18:09:49","新北市汐止區龍安路202巷8號","121.652755","25.0631566666667","6501100","汐止區"
"221031","353-TW","2018/03/09 18:09:44","新北市汐止區中興路216號","121.631045","25.0663183333333","6501100","汐止區"
"221035","622-UM","2018/03/09 18:09:34","新北市汐止區大同路二段207號","121.652756666667","25.0645016666667","6501100","汐止區"
"221025","623-UM","2018/03/09 18:09:48","新北市汐止區勤進路8號","121.659731666667","25.0616333333333","6501100","汐止區"
"221038","646-BX","2018/03/09 18:09:46","新北市汐止區勤進路1號","121.660395","25.062175","6501100","汐止區"
"221002","707-TV","2018/03/09 18:09:33","新北市汐止區福德一路205號","121.635351666667","25.0656283333333","6501100","汐止區"
"221018","753-BX","2018/03/09 18:09:47","新北市汐止區忠孝東路351號","121.665621666667","25.0704583333333","6501100","汐止區"
"242017","281-VK","2018/03/09 18:09:45","新北市新莊區中港路294號","121.45296","25.044835","6500500","新莊區"
