"lineid","car","time","location","longitude","latitude","cityid","cityname"
"234046","148-BY","2018/03/09 18:49:34","新北市永和區秀朗路二段165號","121.525296666667","25.00159","6500400","永和區"
"234007","207-UY","2018/03/09 18:49:47","新北市永和區文化路42號","121.51483","25.015095","6500400","永和區"
"234081","298-R6","2018/03/09 18:49:33","新北市永和區永利路108號","121.52123","25.0033566666667","6500400","永和區"
"234038","336-UY","2018/03/09 18:49:29","新北市永和區福和路8巷1號","121.525021666667","25.0090733333333","6500400","永和區"
"234064","337-UY","2018/03/09 18:49:39","新北市永和區福和路1號","121.526241666667","25.009805","6500400","永和區"
"234086","338-UY","2018/03/09 18:49:38","新北市永和區中正路170號","121.515136666667","24.99681","6500400","永和區"
"234070","552-UM","2018/03/09 18:49:38","新北市永和區竹林路179巷37號","121.522273333333","25.0104383333333","6500400","永和區"
"234017","745-BX","2018/03/09 18:49:45","新北市永和區永和路二段299號","121.515945","25.01629","6500400","永和區"
"234030","746-BX","2018/03/09 18:49:36","新北市永和區得和路321號","121.523455","24.9995583333333","6500400","永和區"
"234054","KEA-2590","2018/03/09 18:49:42","新北市永和區豫溪街189巷3號","121.522676666667","25.010285","6500400","永和區"
"234013","KEA-2591","2018/03/09 18:49:42","新北市永和區保福路二段133巷2號","121.509496666667","25.0138016666667","6500400","永和區"
"234061","AAD-866","2018/03/09 18:49:50","新北市永和區福和路297號","121.516536666667","25.00721","6500400","永和區"
"234042","862-TW","2018/03/09 18:49:46","新北市永和區永貞路271號","121.511651666667","25.0047716666667","6500400","永和區"
"234050","863-TW","2018/03/09 18:49:44","新北市永和區環河東路二段8號","121.522198333333","25.013625","6500400","永和區"
"234026","9371-KE","2018/03/09 18:49:48","新北市永和區自由街58號","121.513941666667","25.0059916666667","6500400","永和區"
"234011","9373-KE","2018/03/09 18:49:49","新北市永和區永和路二段425巷37弄2-1號","121.514268333333","25.017535","6500400","永和區"
"249005","172-UM","2018/03/09 18:49:31","新北市八里區長道坑17號","121.396263333333","25.1156","6502300","八里區"
"249001","173-UM","2018/03/09 18:49:37","新北市八里區龍米路二段58號","121.44816","25.1408166666667","6502300","八里區"
"248016","026-BX","2018/03/09 18:49:44","新北市五股區凌雲路一段149巷42號","121.448676666667","25.1009583333333","6501500","五股區"
"248006","077-UY","2018/03/09 18:49:36","新北市五股區四維路2號","121.467148333333","25.0700333333333","6501500","五股區"
"248008","095-VK","2018/03/09 18:49:45","新北市五股區中興路一段151巷3號","121.465061666667","25.07287","6501500","五股區"
"248018","225-UY","2018/03/09 18:49:44","新北市五股區民義路二段23-3號","121.417336666667","25.0986216666667","6501500","五股區"
"248012","247-BX","2018/03/09 18:49:36","新北市五股區成泰路二段145號","121.438925","25.0851933333333","6501500","五股區"
"248014","261-SL","2018/03/09 18:49:41","新北市五股區成泰路二段252號","121.440583333333","25.0872083333333","6501500","五股區"
"248004","677-BX","2018/03/09 18:49:47","新北市五股區民義路二段41號","121.413911666667","25.1014516666667","6501500","五股區"
"248002","678-BX","2018/03/09 18:49:42","新北市五股區成泰路三段460號","121.451445","25.1004483333333","6501500","五股區"
"248010","682-TV","2018/03/09 18:49:45","新北市五股區水碓七路168號","121.430901666667","25.0740083333333","6501500","五股區"
"234023","9380-KE","2018/03/09 18:49:38","新北市永和區竹林路119巷45號","121.52192","25.0119066666667","6500400","永和區"
"234077","969-R7","2018/03/09 18:49:49","新北市永和區中正路42巷6弄1號","121.513335","24.99411","6500400","永和區"
"234067","AAC-212","2018/03/09 18:49:34","新北市永和區中和路625號","121.513048333333","25.0049533333333","6500400","永和區"
"234003","AAC-295","2018/03/09 18:49:51","新北市永和區中正路637號","121.515433333333","25.010095","6500400","永和區"
"232011","375-UM","2018/03/09 18:49:40","新北市坪林區坪雙路一段5號","121.711233333333","24.9397333333333","6502000","坪林區"
"244013","069-UM","2018/03/09 18:49:36","新北市林口區文化一路一段120號","121.374161666667","25.0719516666667","6501700","林口區"
"244019","402-UM","2018/03/09 18:49:46","新北市林口區忠孝路623號","121.379566666667","25.06889","6501700","林口區"
"244025","742-UY","2018/03/09 18:49:50","新北市林口區南勢二街412號","121.359806666667","25.0771033333333","6501700","林口區"
"244023","483-VK","2018/03/09 18:49:39","新北市林口區民權路24號","121.371636666667","25.0805383333333","6501700","林口區"
"244017","485-VK","2018/03/09 18:49:29","新北市林口區文化二路一段20巷27號","121.365383333333","25.0670683333333","6501700","林口區"
"244009","656-BX","2018/03/09 18:49:42","新北市林口區竹林路358巷13號","121.392386666667","25.084155","6501700","林口區"
"244011","701-TV","2018/03/09 18:49:42","新北市林口區粉寮路一段39號","121.396598333333","25.07721","6501700","林口區"
"243012","AAD-798","2018/03/09 18:49:44","新北市泰山區泰林路二段73巷29號","121.43442","25.0578466666667","6501600","泰山區"
"243014","421-VK","2018/03/09 18:49:35","新北市泰山區犁頭窠3-1號","121.422515","25.060645","6501600","泰山區"
"243013","646-TV","2018/03/09 18:31:36","新北市泰山區明志路三段206巷3號","121.423253333333","25.0379316666667","6501600","泰山區"
"243016","680-BX","2018/03/09 18:49:47","新北市泰山區明志路一段290號","121.431945","25.0598183333333","6501600","泰山區"
"222003","436-BY","2018/03/09 18:49:39","新北市深坑區北深路一段300號","121.622598333333","25.0062383333333","6501800","深坑區"
"222002","659-BX","2018/03/09 18:49:52","新北市深坑區文山路一段69號","121.627031666667","25.0019016666667","6501800","深坑區"
"231060","001-UM","2018/03/09 18:49:35","新北市新店區安華路28-1號","121.519505","24.9608766666667","6500600","新店區"
"231041","002-UM","2018/03/09 18:49:47","新北市新店區安華路28-1號","121.519563333333","24.9608633333333","6500600","新店區"
"231059","046-UY","2018/03/09 18:49:34","新北市新店區安華路28-1號","121.51955","24.960905","6500600","新店區"
"231061","047-UY","2018/03/09 18:49:48","新北市新店區安華路28-1號","121.519155","24.9609733333333","6500600","新店區"
"231051","107-UY","2018/03/09 18:49:47","新北市新店區中央路67號","121.532535","24.97695","6500600","新店區"
"231048","108-UY","2018/03/09 18:49:34","新北市新店區德正街19巷1號","121.543811666667","24.972545","6500600","新店區"
"231053","187-VK","2018/03/09 18:49:40","新北市新店區永興路41號","121.543835","24.9378566666667","6500600","新店區"
"231050","KEA-2219","2018/03/09 18:49:32","新北市新店區安康路一段44號","121.530796666667","24.9610116666667","6500600","新店區"
"221015","KEA-2785","2018/03/09 18:49:41","新北市汐止區鄉長路一段43號","121.66537","25.0750316666667","6501100","汐止區"
"231046","278-BY","2018/03/09 18:49:32","新北市新店區直潭路71號","121.532416666667","24.94221","6500600","新店區"
"231054","AAD-862","2018/03/09 18:49:50","新北市新店區安康路一段35-5號","121.531921666667","24.96069","6500600","新店區"
"231058","3712-VJ","2018/03/09 18:49:40","新北市新店區中正路7號","121.545815","24.9691866666667","6500600","新店區"
"231056","3713-VJ","2018/03/09 18:49:46","新北市新店區建國路128巷3-1號","121.539018333333","24.9792733333333","6500600","新店區"
"231055","4716-K9","2018/03/09 18:49:49","新北市新店區北新路一段271巷35號","121.539581666667","24.9669866666667","6500600","新店區"
"231067","4772-VM","2018/03/09 18:49:36","新北市新店區安康路一段281巷21號","121.523761666667","24.9626133333333","6500600","新店區"
"231065","512-UM","2018/03/09 18:49:42","新北市新店區安豐路48號","121.500345","24.954135","6500600","新店區"
"231064","515-UM","2018/03/09 18:49:45","新北市新店區安華路28-1號","121.51967","24.9612483333333","6500600","新店區"
"231045","617-UM","2018/03/09 18:49:32","新北市新店區安康路一段50號","121.530268333333","24.961105","6500600","新店區"
"231040","619-UM","2018/03/09 18:49:40","新北市新店區秀山路72號","121.531455","24.9608766666667","6500600","新店區"
"231042","641-BX","2018/03/09 18:49:48","新北市新店區北新路一段275號","121.541168333333","24.9667966666667","6500600","新店區"
"231063","645-TV","2018/03/09 18:49:29","新北市新店區車子路115-11號","121.507315","24.954675","6500600","新店區"
"231049","719-UM","2018/03/09 18:49:15","新北市新店區中正路454-5號","121.534431666667","24.9790983333333","6500600","新店區"
"231062","720-UM","2018/03/09 18:49:49","新北市新店區安豐路49號","121.50011","24.9541033333333","6500600","新店區"
"231044","897-TW","2018/03/09 18:49:36","新北市新店區寶中路72號","121.547913333333","24.980655","6500600","新店區"
"231043","899-TW","2018/03/09 18:49:45","新北市新店區安康路一段113號","121.528575","24.9617366666667","6500600","新店區"
"231066","AKT-0513","2018/03/09 18:49:41","新北市新店區安豐路22巷11號","121.502748333333","24.9553633333333","6500600","新店區"
"235066","003-UY","2018/03/09 18:49:46","新北市中和區水源路18巷3號","121.504105","25.003225","6500300","中和區"
"235064","005-UY","2018/03/09 18:49:36","新北市中和區景平路597號","121.49697","25.0005633333333","6500300","中和區"
"235063","006-UY","2018/03/09 18:49:35","新北市中和區連城路319巷11弄7號","121.489588333333","24.9950083333333","6500300","中和區"
"235052","031-BX","2018/03/09 18:49:43","新北市中和區興南路二段399巷98弄70號","121.497931666667","24.9763966666667","6500300","中和區"
"235056","096-UM","2018/03/09 18:49:48","新北市中和區員山路611巷5弄3號","121.478001666667","25.0112633333333","6500300","中和區"
"235039","097-UM","2018/03/09 18:49:41","新北市中和區宜安路32-1號","121.513008333333","24.9962566666667","6500300","中和區"
"235065","098-UM","2018/03/09 18:49:46","新北市中和區中山路二段2巷17號","121.503871666667","25.0069316666667","6500300","中和區"
"235058","151-BY","2018/03/09 18:49:34","新北市中和區連城路532巷34弄18號","121.47521","24.99281","6500300","中和區"
"235055","183-VK","2018/03/09 18:49:36","新北市中和區民生街53號","121.469628333333","25.0051616666667","6500300","中和區"
"235038","185-VK","2018/03/09 18:49:48","新北市中和區大勇街108號","121.517993333333","24.9949833333333","6500300","中和區"
"235049","186-VK","2018/03/09 18:49:35","新北市中和區景安路177巷19號","121.50612","24.9944266666667","6500300","中和區"
"235067","255-BX","2018/03/09 18:49:35","新北市中和區中正路851號","121.48478","25.00286","6500300","中和區"
"235044","293-VK","2018/03/09 18:49:38","新北市中和區中興街169號","121.499946666667","24.9904533333333","6500300","中和區"
"235072","301-VK","2018/03/09 18:49:37","新北市中和區中山路二段191號","121.5","25.0027016666667","6500300","中和區"
"235043","352-BY","2018/03/09 18:49:40","新北市中和區成功路139號","121.526101666667","24.9904966666667","6500300","中和區"
"235068","377-QA","2018/03/09 18:49:25","新北市中和區中正路167巷3號","121.4984","24.993175","6500300","中和區"
"235061","378-QA","2018/03/09 18:49:34","新北市中和區民享街51號","121.474055","25.0027666666667","6500300","中和區"
"235050","4979-A6","2018/03/09 18:49:36","新北市中和區忠孝街62巷9弄10號","121.51313","24.9839633333333","6500300","中和區"
"235069","4980-A6","2018/03/09 18:49:49","新北市中和區連城路63號","121.497658333333","25.001395","6500300","中和區"
"235042","551-UM","2018/03/09 18:49:51","新北市中和區秀朗路三段100巷4號","121.525593333333","24.993345","6500300","中和區"
"235045","565-BX","2018/03/09 18:49:44","新北市中和區復興路42號","121.504671666667","24.9900516666667","6500300","中和區"
"235054","640-BX","2018/03/09 18:49:39","新北市中和區民享街77號","121.47428","25.0018733333333","6500300","中和區"
"235060","647-TV","2018/03/09 18:49:42","新北市中和區中山路三段208號","121.471533333333","25.0064916666667","6500300","中和區"
"235046","733-UM","2018/03/09 18:49:40","新北市中和區仁愛街36巷26號","121.510978333333","24.9870616666667","6500300","中和區"
"235062","800-TS","2018/03/09 18:49:34","新北市中和區景平路703巷4號","121.49606","25.00352","6500300","中和區"
"235057","801-TS","2018/03/09 18:49:42","新北市中和區民安街25巷19號","121.48064","24.99996","6500300","中和區"
"235041","802-TS","2018/03/09 18:49:34","新北市中和區宜安路118巷20號","121.510853333333","24.9986683333333","6500300","中和區"
"235048","896-TW","2018/03/09 18:49:30","新北市中和區華新街49號","121.50791","24.9845683333333","6500300","中和區"
"235053","900-TW","2018/03/09 18:49:39","新北市中和區民德路290巷36號","121.466651666667","24.995995","6500300","中和區"
"235070","911-UM","2018/03/09 18:49:30","新北市中和區南山路27號","121.501883333333","24.999025","6500300","中和區"
"235051","157-BY","2018/03/09 18:49:48","新北市中和區忠孝街106巷45號","121.513851666667","24.9843683333333","6500300","中和區"
"235037","AAC-213","2018/03/09 18:49:45","新北市中和區秀朗路三段128巷2號","121.524696666667","24.9924483333333","6500300","中和區"
"235059","AAC-215","2018/03/09 18:49:43","新北市中和區圓通路373號","121.490773333333","24.9893533333333","6500300","中和區"
"220068","013-TV","2018/03/09 18:49:51","新北市板橋區民生路二段56-6號","121.470875","25.01857","6500100","板橋區"
"220065","072-UY","2018/03/09 18:49:38","新北市板橋區民族路151巷52號","121.470128333333","25.0083566666667","6500100","板橋區"
"220034","073-UY","2018/03/09 18:49:34","新北市板橋區大智街78-3號","121.453745","25.0156083333333","6500100","板橋區"
"220106","075-UY","2018/03/09 18:49:47","新北市板橋區民生路二段161巷3號","121.47021","25.0197966666667","6500100","板橋區"
"220069","AAD-861","2018/03/09 18:49:43","新北市板橋區大華街9號","121.459008333333","25.0062133333333","6500100","板橋區"
"247010","341-TH","2018/03/09 18:49:45","新北市五股區新城三路45號","121.44877","25.0933616666667","6501400","蘆洲區"
"247006","336-TH","2018/03/09 18:49:49","新北市五股區工商路8號","121.440543333333","25.0824","6501400","蘆洲區"
"226004","205-ST","2018/03/09 18:49:46","新北市平溪區嶺腳里田子20號","121.74639","25.0288366666667","6502400","平溪區"
"228002","663-BX","2018/03/09 18:49:43","新北市貢寮區福隆里東興街6-11號","121.950776666667","25.0210683333333","6502600","貢寮區"
"228001","670-TC","2018/03/09 18:49:42","新北市貢寮區仁理村保健街73號","121.923716666667","25.051735","6502600","貢寮區"
"228003","828-UM","2018/03/09 18:49:33","新北市瑞芳區鼻頭路99-1號","121.917525","25.12087","6502600","貢寮區"
"224010","AGQ-8101","2018/03/09 18:49:22","新北市瑞芳區汽車路7-3號","121.847013333333","25.1101233333333","6501200","瑞芳區"
"224006","676-BX","2018/03/09 18:49:48","新北市瑞芳區中正路68-1號","121.806211666667","25.1074883333333","6501200","瑞芳區"
"224002","639-TC","2018/03/09 18:49:46","新北市瑞芳區靜安路四段10號","121.79594","25.0866516666667","6501200","瑞芳區"
"224008","285-BY","2018/03/09 18:49:44","新北市瑞芳區逢甲路321號","121.801155","25.1118333333333","6501200","瑞芳區"
"224007","275-VK","2018/03/09 18:49:48","新北市瑞芳區大埔路東泰新村2號","121.761326666667","25.1012366666667","6501200","瑞芳區"
"224009","273-VK","2018/03/09 18:49:48","新北市瑞芳區祈堂路30號","121.858943333333","25.1109266666667","6501200","瑞芳區"
"224005","271-BY","2018/03/09 18:49:30","新北市瑞芳區濱二路71-1號","121.829116666667","25.12049","6501200","瑞芳區"
"227011","642-TC","2018/03/09 18:49:46","新北市雙溪區牡丹里聖南25號","121.856876666667","25.0528683333333","6502500","雙溪區"
"227003","400-TW","2018/03/09 18:49:44","新北市雙溪區平林里梅竹蹊28號","121.861633333333","25.0360366666667","6502500","雙溪區"
"253005","032-BX","2018/03/09 18:49:42","新北市石門區中山路7號","121.565485","25.2906766666667","6502200","石門區"
"253006","295-VK","2018/03/09 18:49:47","新北市石門區下員坑15-7號","121.5116","25.2850833333333","6502200","石門區"
"222001","KEA-2212","2018/03/09 18:49:51","新北市深坑區松柏街30巷1號","121.638723333333","25.0112366666667","6501800","深坑區"
"208002","KEA-2872","2018/03/09 18:49:31","新北市金山區信義路61號","121.635755","25.2189766666667","6502700","金山區"
"208003","665-BX","2018/03/09 18:49:49","新北市金山區中山路336號","121.633595","25.2251666666667","6502700","金山區"
"208001","761-BX","2018/03/09 18:49:39","新北市金山區文化三路66巷2弄1號","121.634258333333","25.2256883333333","6502700","金山區"
"251001","011-UM","2018/03/09 18:49:40","新北市淡水區自強路82號","121.462776666667","25.128105","6501000","淡水區"
"251002","012-UM","2018/03/09 18:49:33","新北市淡水區學府路71號","121.448446666667","25.169695","6501000","淡水區"
"251010","413-VK","2018/03/09 18:49:34","新北市淡水區沙崙路20號","121.421135","25.1811883333333","6501000","淡水區"
"251012","441-VK","2018/03/09 18:49:41","新北市淡水區新興街9號","121.443591666667","25.180575","6501000","淡水區"
"251009","575-R6","2018/03/09 18:49:48","新北市淡水區重建街140號","121.440563333333","25.1734266666667","6501000","淡水區"
"251011","650-BX","2018/03/09 18:49:38","新北市淡水區學府路20號","121.447596666667","25.16806","6501000","淡水區"
"251003","673-BX","2018/03/09 18:49:48","新北市淡水區北新路65號","121.446288333333","25.1785033333333","6501000","淡水區"
"207003","550-UM","2018/03/09 18:49:30","新北市萬里區大鵬里頂社2-1號","121.660333333333","25.207225","6502800","萬里區"
"207004","225-TW","2018/03/09 18:49:49","新北市萬里區萬里里獅頭路23號","121.693255","25.17825","6502800","萬里區"
"252002","178-VK","2018/03/09 18:49:39","新北市三芝區中正路一段112號","121.504805","25.2564116666667","6502100","三芝區"
"252003","249-BX","2018/03/09 18:49:42","新北市三芝區後厝里大片頭108號","121.458541666667","25.2429116666667","6502100","三芝區"
"252001","292-VK","2018/03/09 18:49:37","新北市三芝區中正路三段9號","121.502813333333","25.2540416666667","6502100","三芝區"
"237004","KEA-2597","2018/03/09 18:49:33","新北市三峽區有木206號","121.439186666667","24.85149","6500900","三峽區"
"237007","153-BY","2018/03/09 18:49:40","新北市三峽區大埔路175號","121.366733333333","24.9052033333333","6500900","三峽區"
"237013","252-BX","2018/03/09 18:49:44","新北市三峽區光明路69巷25號","121.376591666667","24.9291916666667","6500900","三峽區"
"237012","275-BY","2018/03/09 18:49:34","新北市三峽區三樹路340號","121.383966666667","24.9433416666667","6500900","三峽區"
"237008","302-VK","2018/03/09 18:49:37","新北市三峽區白雞33-42號","121.371275","24.9122433333333","6500900","三峽區"
"237014","433-BY","2018/03/09 18:49:45","新北市三峽區隆恩街170號","121.36318","24.9429083333333","6500900","三峽區"
"237006","5529-G3","2018/03/09 18:49:44","新北市三峽區溪東路233巷47弄2號","121.410531666667","24.934645","6500900","三峽區"
"237011","KEA-2596","2018/03/09 18:49:44","新北市三峽區介壽路三段193號","121.401698333333","24.943705","6500900","三峽區"
"237010","706-TV","2018/03/09 18:49:50","新北市三峽區國光街97號","121.373335","24.9388816666667","6500900","三峽區"
"237005","AKY-6261","2018/03/09 18:49:47","新北市三峽區大智路69號","121.360895","24.9357133333333","6500900","三峽區"
"236072","105-UM","2018/03/09 18:49:49","新北市土城區明德路一段14號","121.46495","24.9851083333333","6501300","土城區"
"236043","107-UM","2018/03/09 18:49:42","新北市土城區裕民路114巷19號","121.450521666667","24.9858133333333","6501300","土城區"
"236079","166-UM","2018/03/09 18:49:41","新北市土城區中央路四段67巷60號","121.418","24.95657","6501300","土城區"
"236031","253-BX","2018/03/09 18:49:48","新北市土城區忠義路36巷14號","121.439985","24.9696933333333","6501300","土城區"
"236026","269-VK","2018/03/09 18:49:29","新北市土城區慶安街51號","121.440941666667","24.9730666666667","6501300","土城區"
"236015","270-VK","2018/03/09 18:49:39","新北市土城區金城路二段354巷10號","121.460921666667","24.984445","6501300","土城區"
"236039","271-VK","2018/03/09 18:49:49","新北市土城區明德路一段195巷1弄1號","121.464008333333","24.9786966666667","6501300","土城區"
"236022","401-BY","2018/03/09 18:49:35","新北市土城區德峰街39號","121.467446666667","24.9856916666667","6501300","土城區"
"236059","912-UM","2018/03/09 18:49:50","新北市土城區中央路三段112號","121.435478333333","24.9661333333333","6501300","土城區"
"236050","913-UM","2018/03/09 18:49:35","新北市土城區青雲路14號","121.460075","24.9889216666667","6501300","土城區"
"236063","915-UM","2018/03/09 18:49:45","新北市土城區金城路三段207巷6弄13號","121.470768333333","24.9903266666667","6501300","土城區"
"236055","AAC-216","2018/03/09 18:49:32","新北市土城區裕民路202號","121.453283333333","24.98471","6501300","土城區"
"242058","986-R7","2018/03/09 18:49:46","新北市新莊區中正路887-6號","121.41667","25.0245233333333","6500500","新莊區"
"242054","751-BX","2018/03/09 18:49:48","新北市樹林區八德街247巷24-3號","121.420358333333","24.9735966666667","6500500","新莊區"
"242046","497-BY","2018/03/09 18:49:46","新北市樹林區俊興街209-5號","121.417503333333","25.014275","6500500","新莊區"
"242002","349-TH","2018/03/09 18:49:44","新北市新莊區環河路636-7號","121.437451666667","25.011675","6500500","新莊區"
"238023","601-UM","2018/03/09 18:49:40","桃園市龜山區萬壽路一段424號","121.399528333333","25.016425","6500700","樹林區"
"238019","599-UM","2018/03/09 18:49:48","新北市樹林區東榮街147巷27弄1號","121.414708333333","24.9807483333333","6500700","樹林區"
"238018","571-TV","2018/03/09 18:49:35","新北市樹林區鎮前街165號","121.422263333333","24.987215","6500700","樹林區"
"238024","5061-A6","2018/03/09 18:49:52","新北市樹林區八德街592號","121.397618333333","24.9702216666667","6500700","樹林區"
"238022","KEA-2213","2018/03/09 18:49:46","新北市樹林區東大街6號","121.413908333333","24.9766966666667","6500700","樹林區"
"238025","303-VK","2018/03/09 18:49:31","新北市樹林區中山路三段22號","121.39563","24.97296","6500700","樹林區"
"238017","283-BY","2018/03/09 18:49:44","新北市樹林區光興街50號","121.409851666667","25.0027433333333","6500700","樹林區"
"238014","282-BY","2018/03/09 18:49:46","新北市樹林區大安路111巷11號","121.423116666667","24.9976033333333","6500700","樹林區"
"238020","268-VK","2018/03/09 18:46:11","新北市樹林區俊英街282號","121.423736666667","25.013355","6500700","樹林區"
"238026","172-UY","2018/03/09 18:49:31","新北市樹林區中和街11號","121.392068333333","24.972905","6500700","樹林區"
"239007","AAC-297","2018/03/09 18:49:37","新北市鶯歌區中正一路建德巷18號","121.364921666667","24.9572633333333","6500800","鶯歌區"
"239006","891-R6","2018/03/09 18:49:49","新北市鶯歌區鶯桃路91巷19號","121.338","24.952605","6500800","鶯歌區"
"239008","527-UM","2018/03/09 18:49:46","新北市鶯歌區晨曦街41號","121.33818","24.9771916666667","6500800","鶯歌區"
"239005","526-UM","2018/03/09 18:49:36","新北市鶯歌區大湖路361巷48弄10號","121.330453333333","24.9773916666667","6500800","鶯歌區"
"239001","417-VK","2018/03/09 18:49:47","新北市鶯歌區永明街60巷12號","121.340581666667","24.9556833333333","6500800","鶯歌區"
"239003","360-BY","2018/03/09 18:49:34","新北市鶯歌區鶯桃路609號","121.328971666667","24.9691433333333","6500800","鶯歌區"
"239002","359-BY","2018/03/09 18:49:48","新北市鶯歌區中山路288號","121.343976666667","24.95713","6500800","鶯歌區"
"221008","489-VK","2018/03/09 18:37:22","新北市汐止區康寧街901號","121.651403333333","25.07502","6501100","汐止區"
"221036","130-UY","2018/03/09 18:49:44","新北市汐止區南昌街21號","121.663308333333","25.0694033333333","6501100","汐止區"
"221010","269-BY","2018/03/09 18:49:45","新北市汐止區康寧街901號","121.651655","25.075005","6501100","汐止區"
"221012","278-VK","2018/03/09 18:49:34","新北市汐止區康寧街901號","121.65084","25.0752166666667","6501100","汐止區"
"221023","279-VK","2018/03/09 18:49:29","新北市汐止區康寧街901號","121.650966666667","25.0752216666667","6501100","汐止區"
"221032","280-BY","2018/03/09 18:49:39","新北市汐止區橫科路40-2號","121.62145","25.0505883333333","6501100","汐止區"
"221027","281-BY","2018/03/09 18:49:35","新北市汐止區康寧街901號","121.65167","25.074915","6501100","汐止區"
"221033","297-VK","2018/03/09 18:49:46","新北市汐止區南勢街1巷1號","121.627055","25.0374866666667","6501100","汐止區"
"221029","298-VK","2018/03/09 18:49:36","新北市汐止區工建路66號","121.64045","25.0629966666667","6501100","汐止區"
"221031","353-TW","2018/03/09 18:49:43","新北市汐止區福德二路185號","121.630121666667","25.0648233333333","6501100","汐止區"
"221035","622-UM","2018/03/09 18:49:34","新北市汐止區汐萬路一段37號","121.655643333333","25.0680816666667","6501100","汐止區"
"221025","623-UM","2018/03/09 18:49:48","新北市汐止區秀峰路63號","121.659888333333","25.0646016666667","6501100","汐止區"
"221038","646-BX","2018/03/09 18:49:46","新北市汐止區康寧街901號","121.650731666667","25.0753083333333","6501100","汐止區"
"221002","707-TV","2018/03/09 18:49:33","新北市汐止區大同路一段149號","121.632085","25.05612","6501100","汐止區"
"221018","753-BX","2018/03/09 18:49:47","新北市汐止區茄苳路3號","121.664453333333","25.0709216666667","6501100","汐止區"
"220079","145-BY","2018/03/09 18:49:48","新北市板橋區民權路202巷7弄21號","121.459178333333","25.0149766666667","6500100","板橋區"
"220080","200-UY","2018/03/09 18:49:46","新北市板橋區大觀路二段265巷60弄6號","121.442466666667","24.9980183333333","6500100","板橋區"
"220082","610-BX","2018/03/09 18:49:46","新北市板橋區篤行路三段玉平巷68弄3號","121.427845","24.9859766666667","6500100","板橋區"
"220098","257-TC","2018/03/09 18:49:38","新北市板橋區民生路二段120號","121.47038","25.01979","6500100","板橋區"
"220056","276-BY","2018/03/09 18:49:41","新北市板橋區信義路83號","121.457366666667","24.9945033333333","6500100","板橋區"
"220072","277-BY","2018/03/09 18:49:34","新北市板橋區大觀路三段36巷84號","121.434535","24.9974516666667","6500100","板橋區"
"220094","280-UM","2018/03/09 18:49:32","新北市板橋區民生路二段148號","121.471515","25.01979","6500100","板橋區"
"220071","283-VK","2018/03/09 18:49:47","新北市板橋區忠孝路105號","121.46262","25.00229","6500100","板橋區"
"220053","285-VK","2018/03/09 18:49:44","新北市板橋區民生路二段121號","121.470758333333","25.0183866666667","6500100","板橋區"
"220083","286-VK","2018/03/09 18:49:42","新北市板橋區僑中一街122號","121.445983333333","25.0119383333333","6500100","板橋區"
"220081","287-VK","2018/03/09 18:49:49","新北市板橋區光華街13巷35號","121.452813333333","25.0111833333333","6500100","板橋區"
"220090","288-VK","2018/03/09 18:49:35","新北市板橋區民生路二段120號","121.470345","25.0197533333333","6500100","板橋區"
"220061","293-UM","2018/03/09 18:49:47","新北市板橋區太和街4巷18號","121.474451666667","25.0200466666667","6500100","板橋區"
"220062","295-UM","2018/03/09 18:49:51","新北市板橋區中山路二段50-1號","121.473213333333","25.0156983333333","6500100","板橋區"
"220084","296-UM","2018/03/09 18:49:49","新北市板橋區大觀路二段148巷1-2號","121.441788333333","24.9992183333333","6500100","板橋區"
"220075","303-R5","2018/03/09 18:49:41","新北市板橋區館前西路162號","121.452778333333","25.00859","6500100","板橋區"
"220092","307-R5","2018/03/09 18:49:43","新北市板橋區民生路二段148號","121.471293333333","25.0200483333333","6500100","板橋區"
"220064","486-VK","2018/03/09 18:49:43","新北市板橋區民生路二段36-1號","121.472175","25.0167033333333","6500100","板橋區"
"220088","491-VK","2018/03/09 18:49:38","新北市板橋區民生路二段175號","121.469933333333","25.0202516666667","6500100","板橋區"
"220035","560-BX","2018/03/09 18:49:45","新北市板橋區中正路325巷41號","121.453443333333","25.0193633333333","6500100","板橋區"
"220103","561-BX","2018/03/09 18:49:27","新北市板橋區介壽街112號","121.469836666667","25.0180683333333","6500100","板橋區"
"220055","568-UM","2018/03/09 18:49:45","新北市板橋區縣民大道一段275號","121.460586666667","25.0098366666667","6500100","板橋區"
"220063","609-BX","2018/03/09 18:49:33","新北市板橋區民生路二段121號","121.470706666667","25.0184416666667","6500100","板橋區"
"220091","637-BX","2018/03/09 18:49:49","新北市板橋區民生路二段188號","121.469955","25.0203216666667","6500100","板橋區"
"220057","686-BX","2018/03/09 18:49:42","新北市板橋區華東街11號","121.4514","24.9984283333333","6500100","板橋區"
"220077","687-BX","2018/03/09 18:49:42","新北市板橋區龍興街95巷1號","121.444081666667","25.0023416666667","6500100","板橋區"
"220054","741-BX","2018/03/09 18:49:50","新北市板橋區館前西路4-1號","121.459365","25.0070883333333","6500100","板橋區"
"220102","KEA-2699","2018/03/09 18:49:36","新北市板橋區民生路二段120號","121.470746666667","25.0196466666667","6500100","板橋區"
"220096","831-TW","2018/03/09 18:49:36","新北市板橋區民生路二段120號","121.470428333333","25.0196116666667","6500100","板橋區"
"220074","895-R6","2018/03/09 18:49:49","新北市板橋區南門街35號","121.45743","25.0088133333333","6500100","板橋區"
"220073","985-R7","2018/03/09 18:49:48","新北市板橋區林園街7-1號","121.454105","25.0091866666667","6500100","板橋區"
"220070","AAC-253","2018/03/09 18:49:46","新北市板橋區館前西路5號","121.459096666667","25.007065","6500100","板橋區"
