"lineid","car","time","location","longitude","latitude","cityid","cityname"
"234046","148-BY","2018/03/09 18:59:32","新北市永和區永元路52巷45號","121.524488333333","25.00082","6500400","永和區"
"234007","207-UY","2018/03/09 18:59:47","新北市永和區中山路一段54號","121.513093333333","25.0106766666667","6500400","永和區"
"234081","298-R6","2018/03/09 18:59:45","新北市永和區永亨路59號","121.521008333333","25.0061316666667","6500400","永和區"
"234038","336-UY","2018/03/09 18:59:49","新北市永和區成功路二段199-2號","121.52657","24.9960566666667","6500400","永和區"
"234064","337-UY","2018/03/09 18:59:39","新北市永和區秀朗路一段160號","121.518396666667","25.0034766666667","6500400","永和區"
"234086","338-UY","2018/03/09 18:59:38","新北市永和區永寧街129巷2號","121.518036666667","25.005345","6500400","永和區"
"234070","552-UM","2018/03/09 18:59:38","新北市永和區中興街84巷8號","121.518575","25.0116583333333","6500400","永和區"
"234017","745-BX","2018/03/09 18:59:45","新北市永和區永和路二段290號","121.516065","25.0157316666667","6500400","永和區"
"234030","746-BX","2018/03/09 18:59:36","新北市永和區四維街34號","121.525598333333","24.9980616666667","6500400","永和區"
"234054","KEA-2590","2018/03/09 18:59:45","新北市永和區竹林路66巷2號","121.518133333333","25.01349","6500400","永和區"
"234013","KEA-2591","2018/03/09 18:59:42","新北市永和區信義路19號","121.514143333333","25.0119933333333","6500400","永和區"
"234061","AAD-866","2018/03/09 18:59:50","新北市永和區福和路293號","121.516685","25.0071983333333","6500400","永和區"
"234042","862-TW","2018/03/09 18:59:48","新北市永和區水源街28號","121.511546666667","25.00471","6500400","永和區"
"234050","863-TW","2018/03/09 18:59:44","新北市永和區文化路151號","121.510676666667","25.0162566666667","6500400","永和區"
"234026","9371-KE","2018/03/09 18:59:48","新北市永和區安樂路453號","121.514306666667","25.00499","6500400","永和區"
"234011","9373-KE","2018/03/09 18:59:49","新北市永和區仁愛路141巷3弄1號","121.511653333333","25.0124816666667","6500400","永和區"
"249005","172-UM","2018/03/09 18:59:31","新北市八里區長道坑13-1號","121.394306666667","25.1227116666667","6502300","八里區"
"249001","173-UM","2018/03/09 18:59:37","新北市八里區龍米路二段228-1號","121.432723333333","25.15842","6502300","八里區"
"248016","026-BX","2018/03/09 18:59:44","新北市五股區成泰路三段543巷18號","121.450845","25.1022833333333","6501500","五股區"
"248006","077-UY","2018/03/09 18:59:48","新北市五股區中興路一段68號","121.467335","25.07295","6501500","五股區"
"248008","095-VK","2018/03/09 18:59:45","新北市五股區中興路一段128巷18號","121.465816666667","25.0746666666667","6501500","五股區"
"248018","225-UY","2018/03/09 18:59:44","新北市五股區民義路一段287巷3號","121.425105","25.09215","6501500","五股區"
"248012","247-BX","2018/03/09 18:59:49","新北市五股區中興路四段48巷11號","121.438505","25.0835633333333","6501500","五股區"
"248014","261-SL","2018/03/09 18:59:47","新北市五股區民義路一段107巷21-1號","121.432823333333","25.08455","6501500","五股區"
"248004","677-BX","2018/03/09 18:59:47","新北市五股區民義路二段75號","121.409285","25.105395","6501500","五股區"
"248002","678-BX","2018/03/09 18:59:42","新北市五股區凌雲路一段163號","121.448878333333","25.1025116666667","6501500","五股區"
"248010","682-TV","2018/03/09 18:59:45","新北市五股區水碓九路37號","121.428843333333","25.072035","6501500","五股區"
"234023","9380-KE","2018/03/09 18:59:47","新北市永和區竹林路75巷33弄1號","121.520656666667","25.0142733333333","6500400","永和區"
"234077","969-R7","2018/03/09 18:59:49","新北市永和區得和路104巷9號","121.518016666667","24.999395","6500400","永和區"
"234074","AAC-211","2018/03/09 18:59:30","新北市永和區環河東路二段98號","121.524125","25.010355","6500400","永和區"
"234067","AAC-212","2018/03/09 18:59:34","新北市永和區中和路625號","121.513015","25.0049233333333","6500400","永和區"
"234003","AAC-295","2018/03/09 18:59:40","新北市永和區和平街36號","121.513065","25.0099933333333","6500400","永和區"
"232011","375-UM","2018/03/09 18:59:40","新北市坪林區水聳淒坑27號","121.711356666667","24.9340783333333","6502000","坪林區"
"244013","069-UM","2018/03/09 18:59:36","新北市林口區麗園一街6巷2-3號","121.376428333333","25.0697633333333","6501700","林口區"
"244019","402-UM","2018/03/09 18:59:46","新北市林口區麗園二街51號","121.38105","25.068715","6501700","林口區"
"244025","742-UY","2018/03/09 18:59:49","新北市林口區文化三路一段447巷56號","121.366421666667","25.0752233333333","6501700","林口區"
"244023","483-VK","2018/03/09 18:59:39","新北市林口區文林六街13巷12號","121.370603333333","25.08066","6501700","林口區"
"244017","485-VK","2018/03/09 18:59:49","新北市林口區文化二路一段120巷5號","121.367945","25.0699533333333","6501700","林口區"
"244009","656-BX","2018/03/09 18:59:42","新北市林口區台電新村5號","121.387965","25.086065","6501700","林口區"
"244011","701-TV","2018/03/09 18:59:41","新北市林口區中正路332號","121.387298333333","25.077745","6501700","林口區"
"243012","AAD-798","2018/03/09 18:59:44","新北市泰山區仁德路114號","121.432813333333","25.05699","6501600","泰山區"
"243011","297-R6","2018/03/09 18:59:48","新北市泰山區明志路二段298巷16-1號","121.425721666667","25.0467883333333","6501600","泰山區"
"243015","380-SR","2018/03/09 18:58:45","新北市泰山區美寧街2號","121.430111666667","25.063225","6501600","泰山區"
"243014","421-VK","2018/03/09 18:59:39","新北市泰山區黎明路23號","121.420891666667","25.062615","6501600","泰山區"
"243010","KEA-2215","2018/03/09 18:59:47","新北市泰山區辭修路22號","121.42914","25.0581933333333","6501600","泰山區"
"243009","KEA-2216","2018/03/09 18:59:31","新北市泰山區泰林路二段360號","121.428965","25.06361","6501600","泰山區"
"243013","646-TV","2018/03/09 18:59:39","新北市泰山區明志路三段341巷5弄3號","121.423005","25.0352033333333","6501600","泰山區"
"243016","680-BX","2018/03/09 18:59:47","新北市泰山區明志路二段152-1號","121.427595","25.0507633333333","6501600","泰山區"
"222003","436-BY","2018/03/09 18:59:39","新北市深坑區深南路51-1號","121.621353333333","25.0102116666667","6501800","深坑區"
"222002","659-BX","2018/03/09 18:59:32","新北市深坑區文山路一段31巷2號","121.62992","25.0033283333333","6501800","深坑區"
"231060","001-UM","2018/03/09 18:59:35","新北市新店區安康路二段380號","121.500711666667","24.9571","6500600","新店區"
"231041","002-UM","2018/03/09 18:59:47","新北市新店區環河路62號","121.536963333333","24.9626533333333","6500600","新店區"
"231059","046-UY","2018/03/09 18:59:34","新北市新店區安華路28-1號","121.51957","24.9608366666667","6500600","新店區"
"231061","047-UY","2018/03/09 18:59:48","新北市新店區安康路一段351-1號","121.519565","24.96396","6500600","新店區"
"231051","107-UY","2018/03/09 18:59:47","新北市新店區百忍街1號","121.53499","24.975545","6500600","新店區"
"231048","108-UY","2018/03/09 18:59:34","新北市新店區德正街27巷29弄46-1號","121.545823333333","24.9726533333333","6500600","新店區"
"231053","187-VK","2018/03/09 18:59:49","新北市新店區屈尺路8號","121.549048333333","24.922645","6500600","新店區"
"231050","KEA-2219","2018/03/09 18:59:32","新北市新店區新烏路一段11巷7號","121.547276666667","24.9513233333333","6500600","新店區"
"221015","KEA-2785","2018/03/09 18:59:41","新北市汐止區汐萬路一段114號","121.653893333333","25.0712366666667","6501100","汐止區"
"231046","278-BY","2018/03/09 18:59:40","新北市新店區直潭四街30號","121.533741666667","24.9416166666667","6500600","新店區"
"231054","AAD-862","2018/03/09 18:59:31","新北市新店區北宜路一段168號","121.54031","24.9529733333333","6500600","新店區"
"231058","3712-VJ","2018/03/09 18:59:40","新北市新店區中興路一段139號","121.542076666667","24.96361","6500600","新店區"
"231056","3713-VJ","2018/03/09 18:59:46","新北市新店區大同街8巷23號","121.53898","24.9808833333333","6500600","新店區"
"231055","4716-K9","2018/03/09 18:59:49","新北市新店區北新路一段271巷34號","121.53991","24.9671533333333","6500600","新店區"
"231067","4772-VM","2018/03/09 18:59:36","新北市新店區安康路一段207巷6弄10號","121.525058333333","24.9628383333333","6500600","新店區"
"231065","512-UM","2018/03/09 18:59:42","新北市新店區安祥路147巷46號","121.476571666667","24.957045","6500600","新店區"
"231064","515-UM","2018/03/09 18:59:45","新北市新店區安康路一段266巷4號","121.519805","24.964095","6500600","新店區"
"231045","617-UM","2018/03/09 18:59:51","新北市新店區北新路一段2-16號","121.538441666667","24.959985","6500600","新店區"
"231040","619-UM","2018/03/09 18:59:40","新北市新店區中央路13號","121.533341666667","24.9784383333333","6500600","新店區"
"231042","641-BX","2018/03/09 18:59:43","新北市新店區中興路一段255號","121.544518333333","24.967065","6500600","新店區"
"231063","645-TV","2018/03/09 18:59:49","新北市新店區車子路109號","121.505208333333","24.9521266666667","6500600","新店區"
"231049","719-UM","2018/03/09 18:59:35","新北市新店區中正路454-5號","121.534485","24.979125","6500600","新店區"
"231062","720-UM","2018/03/09 18:59:49","新北市新店區安和路一段52巷2號","121.517593333333","24.9661616666667","6500600","新店區"
"231044","897-TW","2018/03/09 18:59:36","新北市新店區寶中路72號","121.547918333333","24.980665","6500600","新店區"
"231043","899-TW","2018/03/09 18:59:45","新北市新店區北新路二段1號","121.542716666667","24.97126","6500600","新店區"
"231066","AKT-0513","2018/03/09 18:59:21","新北市新店區安祥路96號","121.488438333333","24.960305","6500600","新店區"
"241029","942-UM","2018/03/09 18:59:38","新北市三重區重安街14號","121.490211666667","25.0580583333333","6500200","三重區"
"235066","003-UY","2018/03/09 18:59:46","新北市中和區中山路二段131巷5弄5號","121.502866666667","25.0029166666667","6500300","中和區"
"235064","005-UY","2018/03/09 18:59:36","新北市中和區泰和街25號","121.499368333333","25.0000716666667","6500300","中和區"
"235063","006-UY","2018/03/09 18:59:35","新北市中和區中正路532號","121.487701666667","24.9944366666667","6500300","中和區"
"235052","031-BX","2018/03/09 18:59:43","新北市中和區興南路二段114巷2號","121.504286666667","24.9842366666667","6500300","中和區"
"235056","096-UM","2018/03/09 18:59:48","新北市中和區員山路466巷17弄25號","121.480441666667","25.0072666666667","6500300","中和區"
"235039","097-UM","2018/03/09 18:59:41","新北市中和區安平路192號","121.513286666667","24.99908","6500300","中和區"
"235065","098-UM","2018/03/09 18:59:46","新北市中和區中山路二段2巷93號","121.500563333333","25.0077116666667","6500300","中和區"
"235058","151-BY","2018/03/09 18:59:34","新北市中和區員山路100號","121.480933333333","24.9947816666667","6500300","中和區"
"235055","183-VK","2018/03/09 18:59:35","新北市中和區民德路25巷5弄2號","121.469315","25.00291","6500300","中和區"
"235038","185-VK","2018/03/09 18:59:48","新北市中和區立人街69巷1號","121.519971666667","24.9939933333333","6500300","中和區"
"235049","186-VK","2018/03/09 18:59:35","新北市中和區景安路139號","121.505588333333","24.99561","6500300","中和區"
"235067","255-BX","2018/03/09 18:59:35","新北市中和區新生街211號","121.483876666667","24.9997633333333","6500300","中和區"
"235044","293-VK","2018/03/09 18:59:38","新北市中和區中興街202巷6號","121.499176666667","24.9906616666667","6500300","中和區"
"235072","301-VK","2018/03/09 18:59:37","新北市中和區中山路二段41號","121.50454","25.0051016666667","6500300","中和區"
"235043","352-BY","2018/03/09 18:59:41","新北市中和區成功路53號","121.526283333333","24.9927916666667","6500300","中和區"
"235068","377-QA","2018/03/09 18:59:28","新北市中和區圓通路240巷4號","121.494465","24.9927816666667","6500300","中和區"
"235061","378-QA","2018/03/09 18:59:34","新北市中和區民享街5號","121.47391","25.0057266666667","6500300","中和區"
"235071","269-TV","2018/03/09 18:59:48","新北市中和區員山路36巷16-3號","121.484833333333","24.9913166666667","6500300","中和區"
"235050","4979-A6","2018/03/09 18:59:36","新北市中和區忠孝街1巷2-1號","121.509165","24.9830316666667","6500300","中和區"
"235069","4980-A6","2018/03/09 18:59:49","新北市中和區南山路52巷16號","121.501405","24.99746","6500300","中和區"
"235042","551-UM","2018/03/09 18:59:50","新北市中和區秀朗路三段98號","121.5257","24.9933916666667","6500300","中和區"
"235045","565-BX","2018/03/09 18:59:44","新北市中和區景新街416號","121.512921666667","24.9889883333333","6500300","中和區"
"235054","640-BX","2018/03/09 18:59:39","新北市中和區中山路三段149號","121.473663333333","25.005995","6500300","中和區"
"235060","647-TV","2018/03/09 18:59:42","新北市中和區民治街13巷2號","121.475228333333","25.0040516666667","6500300","中和區"
"235046","733-UM","2018/03/09 18:59:40","新北市中和區興南路一段135巷17號","121.509415","24.98705","6500300","中和區"
"235062","800-TS","2018/03/09 18:59:14","新北市中和區中山路二段347號","121.491976666667","25.00221","6500300","中和區"
"235057","801-TS","2018/03/09 18:59:39","新北市中和區民利街56號","121.479146666667","24.9987333333333","6500300","中和區"
"235041","802-TS","2018/03/09 18:59:32","新北市中和區宜安路127號","121.509785","24.9981416666667","6500300","中和區"
"235048","896-TW","2018/03/09 18:59:30","新北市中和區華新街98號","121.508623333333","24.98289","6500300","中和區"
"235053","900-TW","2018/03/09 18:59:39","新北市中和區和平路200巷33-3號","121.465111666667","24.9944583333333","6500300","中和區"
"235070","911-UM","2018/03/09 18:59:50","新北市中和區安和路201號","121.506113333333","24.998545","6500300","中和區"
"235051","157-BY","2018/03/09 18:59:48","新北市中和區忠孝街15號","121.5101","24.9829066666667","6500300","中和區"
"235037","AAC-213","2018/03/09 18:59:45","新北市中和區自立路17號","121.522251666667","24.9959716666667","6500300","中和區"
"235059","AAC-215","2018/03/09 18:59:51","新北市中和區圓通路367巷6號","121.491468333333","24.98921","6500300","中和區"
"220068","013-TV","2018/03/09 18:59:34","新北市板橋區中山路二段465巷78號","121.481261666667","25.022275","6500100","板橋區"
"220065","072-UY","2018/03/09 18:59:38","新北市板橋區民族路287巷12號","121.47118","25.007165","6500100","板橋區"
"220034","073-UY","2018/03/09 18:59:34","新北市板橋區中正路162號","121.456541666667","25.0168783333333","6500100","板橋區"
"220106","075-UY","2018/03/09 18:59:47","新北市板橋區文化路二段124巷16號","121.470848333333","25.0258816666667","6500100","板橋區"
"220069","AAD-861","2018/03/09 18:59:43","新北市板橋區華興街72號","121.457296666667","25.0050016666667","6500100","板橋區"
"247010","341-TH","2018/03/09 18:58:31","新北市五股區中興路三段163號","121.449285","25.0807483333333","6501400","蘆洲區"
"226004","205-ST","2018/03/09 18:59:46","新北市平溪區靜安路三段52巷6-2號","121.764361666667","25.033335","6502400","平溪區"
"228002","663-BX","2018/03/09 18:59:43","新北市貢寮區福隆里東興街106巷21弄2號","121.946106666667","25.01802","6502600","貢寮區"
"228001","670-TC","2018/03/09 18:59:42","新北市貢寮區仁理村仁義街12號","121.923856666667","25.05177","6502600","貢寮區"
"228003","828-UM","2018/03/09 18:59:33","新北市貢寮區和美里龍洞街26號","121.916955","25.1088016666667","6502600","貢寮區"
"224010","AGQ-8101","2018/03/09 18:59:42","新北市瑞芳區基山街34號","121.844905","25.1083516666667","6501200","瑞芳區"
"224006","676-BX","2018/03/09 18:59:48","新北市瑞芳區明燈路三段1號","121.809273333333","25.1072716666667","6501200","瑞芳區"
"224002","639-TC","2018/03/09 18:59:46","新北市平溪區新寮里五分寮10-2號","121.799845","25.0739983333333","6501200","瑞芳區"
"224008","285-BY","2018/03/09 18:59:42","新北市瑞芳區瑞芳街92號","121.802186666667","25.11032","6501200","瑞芳區"
"224007","275-VK","2018/03/09 18:59:48","新北市瑞芳區大埔路慶安新村42號","121.762053333333","25.1003","6501200","瑞芳區"
"224009","273-VK","2018/03/09 18:59:38","新北市瑞芳區祈堂路2號","121.859468333333","25.11154","6501200","瑞芳區"
"224005","271-BY","2018/03/09 18:59:30","新北市瑞芳區連福新城35號","121.819991666667","25.1184566666667","6501200","瑞芳區"
"227011","642-TC","2018/03/09 18:59:46","新北市雙溪區牡丹里中正路58巷33號","121.86649","25.0417033333333","6502500","雙溪區"
"227003","400-TW","2018/03/09 18:59:44","新北市雙溪區平林里康福家園10號","121.858756666667","25.0373233333333","6502500","雙溪區"
"253005","032-BX","2018/03/09 18:59:42","新北市石門區中央路37-2號","121.568671666667","25.2954983333333","6502200","石門區"
"253006","295-VK","2018/03/09 18:59:29","新北市石門區下員坑30-7號","121.519536666667","25.28182","6502200","石門區"
"222001","KEA-2212","2018/03/09 18:59:30","新北市深坑區北深路一段177號","121.632505","25.0108766666667","6501800","深坑區"
"208002","KEA-2872","2018/03/09 18:59:51","新北市金山區信義路39號","121.635235","25.21956","6502700","金山區"
"208003","665-BX","2018/03/09 18:59:49","新北市金山區中正路53號","121.634578333333","25.2219983333333","6502700","金山區"
"208001","761-BX","2018/03/09 18:59:39","新北市金山區中山路79號","121.64045","25.21854","6502700","金山區"
"251001","011-UM","2018/03/09 18:59:40","新北市淡水區自強路58號","121.463221666667","25.127445","6501000","淡水區"
"251002","012-UM","2018/03/09 18:59:53","新北市淡水區中正東路49號","121.44666","25.1680116666667","6501000","淡水區"
"251010","413-VK","2018/03/09 18:59:37","新北市淡水區中正路二段12號","121.420451666667","25.180675","6501000","淡水區"
"251009","575-R6","2018/03/09 18:59:48","新北市淡水區重建街36號","121.439918333333","25.1712316666667","6501000","淡水區"
"251007","577-R6","2018/03/09 18:59:45","新北市淡水區民生路113巷1弄48號","121.46276","25.1387033333333","6501000","淡水區"
"251003","673-BX","2018/03/09 18:59:48","新北市淡水區中山北路一段149巷28號","121.443031666667","25.1780433333333","6501000","淡水區"
"207003","550-UM","2018/03/09 18:59:49","新北市萬里區大鵬里頂社8號","121.656376666667","25.2096316666667","6502800","萬里區"
"207004","225-TW","2018/03/09 18:59:49","新北市萬里區萬里里獅頭路23號","121.693261666667","25.1783016666667","6502800","萬里區"
"252002","178-VK","2018/03/09 18:59:39","新北市三芝區中正路一段82號","121.504145","25.2573083333333","6502100","三芝區"
"252003","249-BX","2018/03/09 18:59:42","新北市三芝區後厝里北勢子42-6號","121.472561666667","25.252805","6502100","三芝區"
"252001","292-VK","2018/03/09 18:59:37","新北市三芝區中興街二段260號","121.501711666667","25.25313","6502100","三芝區"
"237004","KEA-2597","2018/03/09 18:59:33","新北市三峽區有木203號","121.43929","24.8515016666667","6500900","三峽區"
"237007","153-BY","2018/03/09 18:59:40","新北市三峽區中正路二段83巷17號","121.367193333333","24.9178116666667","6500900","三峽區"
"237013","252-BX","2018/03/09 18:59:44","新北市三峽區光明路69巷25號","121.376716666667","24.929265","6500900","三峽區"
"237012","275-BY","2018/03/09 18:59:34","新北市三峽區三樹路257號","121.379028333333","24.9427633333333","6500900","三峽區"
"237008","302-VK","2018/03/09 18:59:37","新北市三峽區中正路一段224號","121.372181666667","24.92756","6500900","三峽區"
"237014","433-BY","2018/03/09 18:59:45","新北市三峽區大勇路1-3號","121.367048333333","24.9384266666667","6500900","三峽區"
"237006","5529-G3","2018/03/09 18:59:44","新北市三峽區溪東路105-1號","121.40182","24.9345666666667","6500900","三峽區"
"237011","KEA-2596","2018/03/09 18:59:44","新北市三峽區介壽路二段115號","121.392615","24.93563","6500900","三峽區"
"237010","706-TV","2018/03/09 18:59:30","新北市三峽區復興路30-2號","121.374286666667","24.9361533333333","6500900","三峽區"
"237005","AKY-6261","2018/03/09 18:59:47","新北市三峽區中山路459巷163-3號","121.348691666667","24.93291","6500900","三峽區"
"236072","105-UM","2018/03/09 18:59:49","新北市土城區清水路68號","121.456216666667","24.98168","6501300","土城區"
"236043","107-UM","2018/03/09 18:59:42","新北市土城區裕民路214巷18弄10號","121.452323333333","24.9841483333333","6501300","土城區"
"236079","166-UM","2018/03/09 18:59:40","新北市土城區中央路四段448號","121.410495","24.9512983333333","6501300","土城區"
"236031","253-BX","2018/03/09 18:59:34","新北市土城區中華路二段187號","121.438485","24.97463","6501300","土城區"
"236026","269-VK","2018/03/09 18:59:49","新北市土城區金城路一段129巷31號","121.444816666667","24.9746","6501300","土城區"
"236015","270-VK","2018/03/09 18:59:39","新北市土城區延和路13巷14號","121.463688333333","24.9884516666667","6501300","土城區"
"236039","271-VK","2018/03/09 18:59:49","新北市土城區青仁路39號","121.461103333333","24.9791333333333","6501300","土城區"
"236022","401-BY","2018/03/09 18:59:35","新北市土城區延吉街217巷1弄1號","121.468595","24.985045","6501300","土城區"
"236059","912-UM","2018/03/09 18:59:50","新北市土城區明德路一段385-1號","121.45245","24.9797966666667","6501300","土城區"
"236050","913-UM","2018/03/09 18:59:33","新北市土城區青雲路322巷2弄4號","121.458","24.97738","6501300","土城區"
"236063","915-UM","2018/03/09 18:59:45","新北市土城區延和路41巷6弄16號","121.466635","24.990335","6501300","土城區"
"236055","AAC-216","2018/03/09 18:59:32","新北市土城區學成路162號","121.448098333333","24.9891416666667","6501300","土城區"
"242058","986-R7","2018/03/09 18:59:46","新北市新莊區中正路879-5號","121.417758333333","25.026235","6500500","新莊區"
"242002","349-TH","2018/03/09 18:59:44","新北市新莊區環河路636-7號","121.43745","25.01168","6500500","新莊區"
"238023","601-UM","2018/03/09 18:59:40","新北市樹林區大慶街156號","121.396876666667","25.0131416666667","6500700","樹林區"
"238019","599-UM","2018/03/09 18:59:48","新北市樹林區東榮街91巷2弄2號","121.416021666667","24.9823866666667","6500700","樹林區"
"238018","571-TV","2018/03/09 18:59:42","新北市樹林區中華路106號","121.418515","24.9808966666667","6500700","樹林區"
"238024","5061-A6","2018/03/09 18:58:12","新北市樹林區中山路三段214號","121.379871666667","24.9676933333333","6500700","樹林區"
"238022","KEA-2213","2018/03/09 18:59:46","新北市樹林區東興街43-1號","121.410835","24.977395","6500700","樹林區"
"238021","KEA-2539","2018/03/09 18:59:43","新北市樹林區西圳街二段123巷6弄1號","121.384635","24.9569583333333","6500700","樹林區"
"238025","303-VK","2018/03/09 18:59:38","新北市樹林區民和街83巷22號","121.379408333333","24.972635","6500700","樹林區"
"238017","283-BY","2018/03/09 18:59:44","新北市樹林區光興街50號","121.409826666667","25.002745","6500700","樹林區"
"238014","282-BY","2018/03/09 18:59:46","新北市樹林區潭興街92號","121.425566666667","24.999485","6500700","樹林區"
"238020","268-VK","2018/03/09 18:46:11","新北市樹林區俊英街282號","121.423736666667","25.013355","6500700","樹林區"
"238026","172-UY","2018/03/09 18:59:31","新北市樹林區佳園路一段74號","121.39318","24.9699666666667","6500700","樹林區"
"239007","AAC-297","2018/03/09 18:59:37","新北市鶯歌區中正一路337號","121.357386666667","24.95709","6500800","鶯歌區"
"239006","891-R6","2018/03/09 18:59:50","新北市鶯歌區鶯桃路45號","121.342211666667","24.95152","6500800","鶯歌區"
"239008","527-UM","2018/03/09 18:59:46","新北市鶯歌區國際二路20巷38號","121.337813333333","24.9758433333333","6500800","鶯歌區"
"239005","526-UM","2018/03/09 18:59:36","新北市鶯歌區中湖街94-1號","121.34836","24.9729183333333","6500800","鶯歌區"
"239001","417-VK","2018/03/09 18:59:47","新北市鶯歌區永安街80號","121.338601666667","24.9558883333333","6500800","鶯歌區"
"239003","360-BY","2018/03/09 18:59:34","新北市鶯歌區鶯桃路499號","121.331603333333","24.9664916666667","6500800","鶯歌區"
"239002","359-BY","2018/03/09 18:59:48","新北市鶯歌區中山路10號","121.35289","24.9571133333333","6500800","鶯歌區"
"221008","489-VK","2018/03/09 18:59:38","新北市汐止區康寧街753巷2弄12號","121.63947","25.0740233333333","6501100","汐止區"
"221036","130-UY","2018/03/09 18:59:44","新北市汐止區忠孝東路282號","121.663745","25.068225","6501100","汐止區"
"221010","269-BY","2018/03/09 18:59:45","新北市汐止區康寧街901號","121.651435","25.0749466666667","6501100","汐止區"
"221012","278-VK","2018/03/09 18:59:34","新北市汐止區康寧街901號","121.650783333333","25.0752433333333","6501100","汐止區"
"221023","279-VK","2018/03/09 18:59:49","新北市汐止區康寧街901號","121.650973333333","25.0752366666667","6501100","汐止區"
"221032","280-BY","2018/03/09 18:59:39","新北市汐止區橫科路407巷30弄28號","121.627388333333","25.0485416666667","6501100","汐止區"
"221027","281-BY","2018/03/09 18:59:35","新北市汐止區康寧街901號","121.651391666667","25.0750633333333","6501100","汐止區"
"221033","297-VK","2018/03/09 18:59:46","新北市汐止區南勢街1巷1號","121.627028333333","25.0374966666667","6501100","汐止區"
"221029","298-VK","2018/03/09 18:59:36","新北市汐止區樟樹一路258號","121.642436666667","25.0674266666667","6501100","汐止區"
"221031","353-TW","2018/03/09 18:59:44","新北市汐止區中興路181號","121.630226666667","25.06685","6501100","汐止區"
"221035","622-UM","2018/03/09 18:59:34","新北市汐止區汐萬路一段256巷3號","121.653365","25.0748233333333","6501100","汐止區"
"221025","623-UM","2018/03/09 18:55:48","新北市汐止區汐萬路一段167-1號","121.652883333333","25.0711166666667","6501100","汐止區"
"221038","646-BX","2018/03/09 18:59:46","新北市汐止區康寧街901號","121.650728333333","25.0753166666667","6501100","汐止區"
"221002","707-TV","2018/03/09 18:59:33","新北市汐止區大同路一段2號","121.620915","25.055205","6501100","汐止區"
"220079","145-BY","2018/03/09 18:59:48","新北市板橋區民權路202巷16弄1號","121.460756666667","25.01632","6500100","板橋區"
"220080","200-UY","2018/03/09 18:59:46","新北市板橋區大觀路二段力行3巷97-3號","121.448268333333","24.9986433333333","6500100","板橋區"
"220082","610-BX","2018/03/09 18:59:46","新北市板橋區滿平街76號","121.427436666667","24.9892066666667","6500100","板橋區"
"220101","245-BX","2018/03/09 18:59:32","新北市板橋區文化路二段59號","121.469306666667","25.0252866666667","6500100","板橋區"
"220098","257-TC","2018/03/09 18:59:38","新北市板橋區民有街18號","121.466251666667","25.0249666666667","6500100","板橋區"
"220056","276-BY","2018/03/09 18:59:41","新北市板橋區信義路150巷51號","121.457163333333","24.9917766666667","6500100","板橋區"
"220072","277-BY","2018/03/09 18:59:49","新北市板橋區金門街222號","121.430986666667","24.9880433333333","6500100","板橋區"
"220094","280-UM","2018/03/09 18:59:32","新北市板橋區莒光路16巷9號","121.469735","25.0241566666667","6500100","板橋區"
"220071","283-VK","2018/03/09 18:59:49","新北市板橋區重慶路221號","121.463068333333","25.00105","6500100","板橋區"
"220053","285-VK","2018/03/09 18:59:44","新北市板橋區中山路二段104號","121.475761666667","25.016625","6500100","板橋區"
"220083","286-VK","2018/03/09 18:59:42","新北市板橋區大觀路一段38巷1-3號","121.443308333333","25.0043883333333","6500100","板橋區"
"220081","287-VK","2018/03/09 18:59:41","新北市板橋區光華街19巷70號","121.452885","25.01193","6500100","板橋區"
"220090","288-VK","2018/03/09 18:59:35","新北市板橋區四維路175-3號","121.464453333333","25.0263616666667","6500100","板橋區"
"220061","293-UM","2018/03/09 18:59:38","新北市板橋區永豐街120巷2弄9-2號","121.476403333333","25.0203033333333","6500100","板橋區"
"220062","295-UM","2018/03/09 18:59:31","新北市板橋區民享街108號","121.477523333333","25.0159966666667","6500100","板橋區"
"220084","296-UM","2018/03/09 18:59:46","新北市板橋區大觀路二段146-5號","121.441833333333","24.99877","6500100","板橋區"
"220075","303-R5","2018/03/09 18:59:41","新北市板橋區茶館街40號","121.456093333333","25.01053","6500100","板橋區"
"220092","307-R5","2018/03/09 18:59:43","新北市板橋區縣民大道二段106號","121.467031666667","25.015265","6500100","板橋區"
"220064","486-VK","2018/03/09 18:59:43","新北市板橋區中山路一段282-1號","121.468921666667","25.0134266666667","6500100","板橋區"
"220089","487-VK","2018/03/09 18:59:46","新北市板橋區文化路二段246號","121.470961666667","25.0281266666667","6500100","板橋區"
"220088","491-VK","2018/03/09 18:59:38","新北市板橋區民生路二段148號","121.471431666667","25.0199333333333","6500100","板橋區"
"220035","560-BX","2018/03/09 18:59:45","新北市板橋區中正路375巷40號","121.453616666667","25.0205633333333","6500100","板橋區"
"220103","561-BX","2018/03/09 18:59:38","新北市板橋區民生路二段123號","121.470611666667","25.0185716666667","6500100","板橋區"
"220055","568-UM","2018/03/09 18:59:45","新北市板橋區民安街26-1號","121.46693","25.0114033333333","6500100","板橋區"
"220063","609-BX","2018/03/09 18:59:36","新北市板橋區中山路二段179號","121.47622","25.0169516666667","6500100","板橋區"
"220091","637-BX","2018/03/09 18:59:49","新北市板橋區雙十路二段47巷7號","121.476038333333","25.0260233333333","6500100","板橋區"
"220057","686-BX","2018/03/09 18:59:42","新北市板橋區館前西路46巷2號","121.45897","25.00713","6500100","板橋區"
"220077","687-BX","2018/03/09 18:59:33","新北市板橋區大觀路二段140號","121.442895","24.9990433333333","6500100","板橋區"
"220093","689-BX","2018/03/09 18:59:40","新北市板橋區民生路二段236號","121.468218333333","25.023185","6500100","板橋區"
"220054","741-BX","2018/03/09 18:59:50","新北市板橋區重慶路127巷19-1號","121.463538333333","25.0049666666667","6500100","板橋區"
"220102","KEA-2699","2018/03/09 18:59:50","新北市板橋區萬板路818巷5號","121.482963333333","25.0271233333333","6500100","板橋區"
"220067","830-TW","2018/03/09 18:59:52","新北市板橋區三民路二段正隆巷12弄16-1號","121.477731666667","25.013485","6500100","板橋區"
"220096","831-TW","2018/03/09 18:59:36","新北市板橋區莒光路75號","121.471663333333","25.0241883333333","6500100","板橋區"
"220074","895-R6","2018/03/09 18:59:37","新北市板橋區林園街28-2號","121.453826666667","25.0099783333333","6500100","板橋區"
"220073","985-R7","2018/03/09 18:59:48","新北市板橋區民權路186號","121.459255","25.01355","6500100","板橋區"
"220097","AAC-210","2018/03/09 18:59:32","新北市板橋區四維路137巷8號","121.464795","25.025195","6500100","板橋區"
"220070","AAC-253","2018/03/09 18:59:46","新北市板橋區四川路一段337號","121.458536666667","25.0001866666667","6500100","板橋區"
