"lineid","car","time","location","longitude","latitude","cityid","cityname"
"234046","148-BY","2018/03/09 19:09:32","新北市永和區永元路52巷52號","121.524528333333","25.0006566666667","6500400","永和區"
"234007","207-UY","2018/03/09 19:09:47","新北市永和區保平路236巷42號","121.507391666667","25.0070133333333","6500400","永和區"
"234081","298-R6","2018/03/09 19:09:38","新北市永和區永貞路39巷9弄1號","121.521846666667","25.0065833333333","6500400","永和區"
"234038","336-UY","2018/03/09 19:09:49","新北市永和區民樂街71巷1號","121.527391666667","24.9975716666667","6500400","永和區"
"234064","337-UY","2018/03/09 19:09:39","新北市永和區秀朗路二段48號","121.521578333333","25.002145","6500400","永和區"
"234086","338-UY","2018/03/09 19:09:38","新北市永和區永貞路96號","121.51925","25.0046133333333","6500400","永和區"
"234070","552-UM","2018/03/09 19:09:38","新北市永和區豫溪街137巷1弄22號","121.518468333333","25.0104766666667","6500400","永和區"
"234017","745-BX","2018/03/09 19:09:46","新北市永和區文化路90巷15弄1號","121.51383","25.01594","6500400","永和區"
"234030","746-BX","2018/03/09 19:09:36","新北市永和區民生路21號","121.52282","24.99893","6500400","永和區"
"234054","KEA-2590","2018/03/09 19:09:42","新北市永和區竹林路72巷2號","121.519053333333","25.013105","6500400","永和區"
"234013","KEA-2591","2018/03/09 19:09:43","新北市永和區保福路二段62-1號","121.510793333333","25.012505","6500400","永和區"
"234061","AAD-866","2018/03/09 19:09:30","新北市永和區安樂路306-8號","121.514613333333","25.0052633333333","6500400","永和區"
"234042","862-TW","2018/03/09 19:09:46","新北市永和區保平路198號","121.510093333333","25.00615","6500400","永和區"
"234050","863-TW","2018/03/09 19:09:44","新北市永和區保福路二段94巷15號","121.510793333333","25.013845","6500400","永和區"
"234026","9371-KE","2018/03/09 19:09:48","新北市永和區安樂路276號","121.51454","25.0042516666667","6500400","永和區"
"234011","9373-KE","2018/03/09 19:09:29","新北市永和區中山路一段58號","121.512961666667","25.0107833333333","6500400","永和區"
"249005","172-UM","2018/03/09 19:09:31","新北市八里區中華路三段62號","121.39422","25.1403883333333","6502300","八里區"
"249001","173-UM","2018/03/09 19:09:37","新北市八里區龍米路二段230-2號","121.431658333333","25.1586283333333","6502300","八里區"
"248016","026-BX","2018/03/09 19:09:44","新北市五股區成泰路三段543巷41-1號","121.449698333333","25.1030233333333","6501500","五股區"
"248018","225-UY","2018/03/09 19:09:44","新北市五股區民義路一段222號","121.429383333333","25.0905316666667","6501500","五股區"
"248012","247-BX","2018/03/09 19:09:36","新北市五股區中興路四段48巷16號","121.438633333333","25.0834566666667","6501500","五股區"
"248004","677-BX","2018/03/09 19:09:47","新北市五股區六合街3號","121.431823333333","25.08848","6501500","五股區"
"248002","678-BX","2018/03/09 19:09:42","新北市五股區凌雲路一段158巷14-1號","121.44781","25.103485","6501500","五股區"
"248010","682-TV","2018/03/09 19:09:45","新北市五股區水碓一路23號","121.430665","25.0712783333333","6501500","五股區"
"234023","9380-KE","2018/03/09 19:09:38","新北市永和區中興街10巷40號","121.515845","25.0111583333333","6500400","永和區"
"234077","969-R7","2018/03/09 19:09:49","新北市永和區民族街33號","121.518671666667","24.99941","6500400","永和區"
"234074","AAC-211","2018/03/09 19:09:50","新北市永和區竹林路198號","121.520473333333","25.0094766666667","6500400","永和區"
"234067","AAC-212","2018/03/09 19:09:34","新北市永和區保平路23號","121.512626666667","25.0073616666667","6500400","永和區"
"234003","AAC-295","2018/03/09 19:09:51","新北市永和區保福路一段35巷6號","121.51226","25.0091983333333","6500400","永和區"
"244013","069-UM","2018/03/09 19:09:36","新北市林口區麗園二街1巷3-1號","121.376923333333","25.070245","6501700","林口區"
"244019","402-UM","2018/03/09 19:09:47","新北市林口區麗園二街10-6號","121.378165","25.0695633333333","6501700","林口區"
"244023","483-VK","2018/03/09 19:09:39","新北市林口區文化三路一段555巷50號","121.369761666667","25.0768666666667","6501700","林口區"
"244017","485-VK","2018/03/09 19:08:09","新北市林口區公園路133-3號","121.369495","25.070595","6501700","林口區"
"244009","656-BX","2018/03/09 19:09:42","新北市林口區林口路61號","121.389908333333","25.0796066666667","6501700","林口區"
"244011","701-TV","2018/03/09 19:09:42","新北市林口區中正路264巷25號","121.38844","25.0784033333333","6501700","林口區"
"243012","AAD-798","2018/03/09 19:09:44","新北市泰山區辭修路36巷8弄5號","121.427903333333","25.0586033333333","6501600","泰山區"
"243011","297-R6","2018/03/09 19:09:48","新北市泰山區明志路二段360號","121.425581666667","25.0452566666667","6501600","泰山區"
"243015","380-SR","2018/03/09 19:09:45","新北市泰山區明志路一段405號","121.430795","25.0572016666667","6501600","泰山區"
"243014","421-VK","2018/03/09 19:09:35","新北市泰山區泰林路二段444號","121.426368333333","25.0642366666667","6501600","泰山區"
"243010","KEA-2215","2018/03/09 19:09:47","新北市泰山區明志路一段483巷1弄1號","121.43107","25.0554783333333","6501600","泰山區"
"243009","KEA-2216","2018/03/09 19:09:31","新北市泰山區明志路一段117巷26號","121.434198333333","25.063525","6501600","泰山區"
"243013","646-TV","2018/03/09 19:09:40","新北市泰山區台麗街21號","121.42475","25.0381766666667","6501600","泰山區"
"243016","680-BX","2018/03/09 19:09:48","新北市泰山區明志路二段341號","121.425561666667","25.0446466666667","6501600","泰山區"
"222003","436-BY","2018/03/09 19:09:39","新北市深坑區深南路162號","121.62609","25.0149983333333","6501800","深坑區"
"222002","659-BX","2018/03/09 19:09:32","新北市深坑區北深路一段177號","121.632268333333","25.0106883333333","6501800","深坑區"
"231060","001-UM","2018/03/09 19:09:35","新北市新店區安康路二段125-1號","121.512388333333","24.9608283333333","6500600","新店區"
"231041","002-UM","2018/03/09 19:09:47","新北市新店區溪園路415號","121.524471666667","24.9786583333333","6500600","新店區"
"231059","046-UY","2018/03/09 19:09:34","新北市新店區安和路二段95號","121.518661666667","24.969455","6500600","新店區"
"231061","047-UY","2018/03/09 19:09:48","新北市新店區安康路一段65號","121.530413333333","24.9610516666667","6500600","新店區"
"231051","107-UY","2018/03/09 19:09:47","新北市新店區中正路382巷2號","121.535056666667","24.9771883333333","6500600","新店區"
"231048","108-UY","2018/03/09 19:09:43","新北市新店區中興路二段67巷16號","121.545866666667","24.9712833333333","6500600","新店區"
"231053","187-VK","2018/03/09 19:09:40","新北市新店區自強路106巷5號","121.54561","24.9230933333333","6500600","新店區"
"231050","KEA-2219","2018/03/09 19:09:32","新北市新店區竹林路2巷34弄2號","121.55025","24.950205","6500600","新店區"
"221015","KEA-2785","2018/03/09 19:09:40","新北市汐止區康寧街901號","121.65169","25.0749066666667","6501100","汐止區"
"231046","278-BY","2018/03/09 19:09:32","新北市新店區華潭街1巷47號","121.527798333333","24.9475666666667","6500600","新店區"
"231054","AAD-862","2018/03/09 19:09:50","新北市新店區新店路207號","121.537141666667","24.956675","6500600","新店區"
"231058","3712-VJ","2018/03/09 19:09:40","新北市新店區光明街138巷5號","121.539723333333","24.9612033333333","6500600","新店區"
"231056","3713-VJ","2018/03/09 19:09:46","新北市新店區民權路105巷7號","121.536656666667","24.9822183333333","6500600","新店區"
"231055","4716-K9","2018/03/09 19:09:49","新北市新店區新生街13巷42號","121.53897","24.96657","6500600","新店區"
"231067","4772-VM","2018/03/09 19:09:36","新北市新店區柴埕路38-8號","121.513321666667","24.964995","6500600","新店區"
"231065","512-UM","2018/03/09 19:09:42","新北市新店區安祥路114號","121.474861666667","24.9565683333333","6500600","新店區"
"231064","515-UM","2018/03/09 19:09:45","新北市新店區安忠路94號","121.511188333333","24.95734","6500600","新店區"
"231045","617-UM","2018/03/09 19:09:32","新北市新店區北宜路一段140巷1號","121.539756666667","24.9546616666667","6500600","新店區"
"231040","619-UM","2018/03/09 19:09:40","新北市新店區三民路98-2號","121.534021666667","24.97349","6500600","新店區"
"231042","641-BX","2018/03/09 19:09:43","新北市新店區北宜路一段3號","121.538483333333","24.9585866666667","6500600","新店區"
"231063","645-TV","2018/03/09 19:09:49","新北市新店區車子路153號","121.505398333333","24.9471133333333","6500600","新店區"
"231049","719-UM","2018/03/09 19:09:35","新北市新店區二十張路25巷18弄27號","121.539255","24.9813266666667","6500600","新店區"
"231062","720-UM","2018/03/09 19:09:29","新北市新店區安康路一段222號","121.523785","24.9636466666667","6500600","新店區"
"231044","897-TW","2018/03/09 19:09:36","新北市新店區中興路三段184號","121.544043333333","24.9813633333333","6500600","新店區"
"231043","899-TW","2018/03/09 19:09:45","新北市新店區寶橋路132號","121.5473","24.97615","6500600","新店區"
"231066","AKT-0513","2018/03/09 19:09:41","新北市新店區安康路三段355巷12號","121.48457","24.9501033333333","6500600","新店區"
"241026","066-VK","2018/03/09 19:09:49","新北市三重區重安街139號","121.495435","25.0546683333333","6500200","三重區"
"241035","462-BY","2018/03/09 19:09:39","新北市三重區重陽路一段20巷4號","121.486421666667","25.0565016666667","6500200","三重區"
"241029","942-UM","2018/03/09 19:09:38","新北市三重區集美街257號","121.492433333333","25.055685","6500200","三重區"
"235066","003-UY","2018/03/09 19:09:46","新北市中和區廣福路16號","121.505236666667","25.0026116666667","6500300","中和區"
"235064","005-UY","2018/03/09 19:09:36","新北市中和區泰和街30巷4號","121.499323333333","25.0006833333333","6500300","中和區"
"235063","006-UY","2018/03/09 19:09:35","新北市中和區連城路315號","121.48938","24.9962533333333","6500300","中和區"
"235052","031-BX","2018/03/09 19:09:43","新北市中和區興南路二段142巷31弄31號","121.501918333333","24.983375","6500300","中和區"
"235056","096-UM","2018/03/09 19:09:48","新北市板橋區三民路二段228號","121.478873333333","25.011455","6500300","中和區"
"235039","097-UM","2018/03/09 19:09:41","新北市中和區景平路64巷13弄22號","121.521465","24.9915083333333","6500300","中和區"
"235065","098-UM","2018/03/09 19:09:46","新北市中和區莊敬路39號","121.500843333333","25.0049716666667","6500300","中和區"
"235040","150-BY","2018/03/09 19:09:33","新北市中和區宜安路102號","121.510436666667","24.9979","6500300","中和區"
"235058","151-BY","2018/03/09 19:09:34","新北市中和區員山路110號","121.481086666667","24.9956433333333","6500300","中和區"
"235055","183-VK","2018/03/09 19:09:36","新北市中和區德光路19號","121.470983333333","25.004375","6500300","中和區"
"235038","185-VK","2018/03/09 19:09:48","新北市中和區大仁街10巷27弄6號","121.519233333333","24.99282","6500300","中和區"
"235049","186-VK","2018/03/09 19:09:37","新北市中和區景新街220號","121.507181666667","24.995045","6500300","中和區"
"235067","255-BX","2018/03/09 19:09:35","新北市中和區中正路799-2號","121.484495","25.0006266666667","6500300","中和區"
"235044","293-VK","2018/03/09 19:09:38","新北市中和區中興街263巷4號","121.500266666667","24.9889233333333","6500300","中和區"
"235072","301-VK","2018/03/09 19:09:37","新北市中和區景平路709號","121.496423333333","25.0036683333333","6500300","中和區"
"235043","352-BY","2018/03/09 19:09:40","新北市中和區景平路154號","121.51781","24.9921683333333","6500300","中和區"
"235068","377-QA","2018/03/09 19:09:45","新北市中和區圓通路162巷37弄3號","121.496498333333","24.9955433333333","6500300","中和區"
"235061","378-QA","2018/03/09 19:09:34","新北市中和區員山路394巷10號","121.481213333333","25.0044166666667","6500300","中和區"
"235071","269-TV","2018/03/09 19:09:48","新北市中和區連城路322號","121.483378333333","24.9959916666667","6500300","中和區"
"235050","4979-A6","2018/03/09 19:09:36","新北市中和區復興路249巷11弄3號","121.503536666667","24.9896866666667","6500300","中和區"
"235069","4980-A6","2018/03/09 19:09:29","新北市中和區南山路9號","121.502041666667","24.99936","6500300","中和區"
"235042","551-UM","2018/03/09 19:09:50","新北市中和區自立路115號","121.522091666667","24.9945016666667","6500300","中和區"
"235045","565-BX","2018/03/09 19:09:44","新北市中和區景新街467巷22號","121.514195","24.9883366666667","6500300","中和區"
"235054","640-BX","2018/03/09 19:09:18","新北市中和區國光街58號","121.470515","25.0003433333333","6500300","中和區"
"235060","647-TV","2018/03/09 19:09:42","新北市中和區民有街9號","121.475613333333","25.0055666666667","6500300","中和區"
"235046","733-UM","2018/03/09 19:09:40","新北市中和區忠孝街1巷18號","121.50863","24.9838283333333","6500300","中和區"
"235062","800-TS","2018/03/09 19:09:34","新北市中和區中山路二段472號","121.488228333333","25.0046533333333","6500300","中和區"
"235057","801-TS","2018/03/09 19:09:39","新北市中和區民利街80號","121.478121666667","24.99814","6500300","中和區"
"235041","802-TS","2018/03/09 19:09:45","新北市中和區中和路228號","121.506606666667","24.9994516666667","6500300","中和區"
"235048","896-TW","2018/03/09 19:09:30","新北市中和區忠孝街2-9號","121.509305","24.98296","6500300","中和區"
"235053","900-TW","2018/03/09 19:09:39","新北市中和區華福街71巷32號","121.467676666667","24.997035","6500300","中和區"
"235070","911-UM","2018/03/09 19:09:50","新北市中和區中和路143號","121.502143333333","24.9997333333333","6500300","中和區"
"235051","157-BY","2018/03/09 19:09:48","新北市中和區興南路一段75號","121.510215","24.9891883333333","6500300","中和區"
"235037","AAC-213","2018/03/09 19:09:45","新北市中和區秀朗路三段60巷30號","121.525301666667","24.9950183333333","6500300","中和區"
"235059","AAC-215","2018/03/09 19:09:43","新北市中和區圓通路294巷9號","121.488601666667","24.9900183333333","6500300","中和區"
"220068","013-TV","2018/03/09 19:09:31","新北市板橋區三民路一段31巷15號","121.480033333333","25.023215","6500100","板橋區"
"220065","072-UY","2018/03/09 19:09:46","新北市板橋區民族路219巷77號","121.468928333333","25.009025","6500100","板橋區"
"220034","073-UY","2018/03/09 19:09:34","新北市板橋區國光路173巷3弄2號","121.460381666667","25.0189983333333","6500100","板橋區"
"220106","075-UY","2018/03/09 19:09:47","新北市板橋區文化路二段317號","121.472228333333","25.0298816666667","6500100","板橋區"
"220069","AAD-861","2018/03/09 19:09:43","新北市板橋區東興街93-2號","121.457606666667","25.0051883333333","6500100","板橋區"
"247010","341-TH","2018/03/09 18:58:31","新北市五股區中興路三段163號","121.449285","25.0807483333333","6501400","蘆洲區"
"226004","205-ST","2018/03/09 19:09:46","新北市平溪區十分里十分街110號","121.77685","25.0429466666667","6502400","平溪區"
"228002","663-BX","2018/03/09 19:09:43","新北市貢寮區福隆里福隆街32-1號","121.94514","25.0174116666667","6502600","貢寮區"
"228001","670-TC","2018/03/09 19:09:42","新北市貢寮區真理里新港街10號","121.925571666667","25.054435","6502600","貢寮區"
"228003","828-UM","2018/03/09 19:09:33","新北市貢寮區和美里和美街29號","121.913723333333","25.0829116666667","6502600","貢寮區"
"224010","AGQ-8101","2018/03/09 19:04:22","新北市瑞芳區金光路372號","121.848641666667","25.11048","6501200","瑞芳區"
"224006","676-BX","2018/03/09 19:09:48","新北市瑞芳區東和路3號","121.804541666667","25.1061166666667","6501200","瑞芳區"
"224008","285-BY","2018/03/09 19:09:41","新北市瑞芳區明燈路三段245號","121.799681666667","25.1116366666667","6501200","瑞芳區"
"224007","275-VK","2018/03/09 19:09:48","新北市瑞芳區中央路4號","121.761961666667","25.1039233333333","6501200","瑞芳區"
"224009","273-VK","2018/03/09 19:09:38","新北市瑞芳區長仁路50-1號","121.866271666667","25.11868","6501200","瑞芳區"
"224005","271-BY","2018/03/09 19:09:50","新北市瑞芳區國中新村34號","121.816541666667","25.10791","6501200","瑞芳區"
"227011","642-TC","2018/03/09 19:09:46","新北市雙溪區牡丹里中正路30號","121.864536666667","25.0381183333333","6502500","雙溪區"
"227003","400-TW","2018/03/09 19:09:44","新北市雙溪區平林里梅竹蹊56-4號","121.860671666667","25.0367083333333","6502500","雙溪區"
"253005","032-BX","2018/03/09 19:09:42","新北市石門區阿里荖42號","121.605271666667","25.2802566666667","6502200","石門區"
"253006","295-VK","2018/03/09 19:09:49","新北市石門區崁子腳58-4號","121.53","25.28622","6502200","石門區"
"222001","KEA-2212","2018/03/09 19:09:50","新北市深坑區北深路二段23號","121.620293333333","25.00445","6501800","深坑區"
"208002","KEA-2872","2018/03/09 19:09:31","新北市金山區仁愛路67巷28號","121.63401","25.2208533333333","6502700","金山區"
"208003","665-BX","2018/03/09 19:09:49","新北市金山區中正路32號","121.635448333333","25.2221783333333","6502700","金山區"
"208001","761-BX","2018/03/09 19:09:39","新北市金山區金包里街68號","121.639161666667","25.22156","6502700","金山區"
"251001","011-UM","2018/03/09 19:09:39","新北市淡水區自強路201巷43號","121.462041666667","25.126865","6501000","淡水區"
"251002","012-UM","2018/03/09 19:09:33","新北市淡水區中山路95巷2號","121.4421","25.1705083333333","6501000","淡水區"
"251010","413-VK","2018/03/09 19:09:34","新北市淡水區中正路一段156巷3號","121.42112","25.1802383333333","6501000","淡水區"
"251005","443-VK","2018/03/09 19:09:43","新北市淡水區原德路11號","121.442163333333","25.1712866666667","6501000","淡水區"
"251006","561-UM","2018/03/09 19:09:52","新北市淡水區中山北路二段213號","121.444185","25.1857183333333","6501000","淡水區"
"251009","575-R6","2018/03/09 19:09:48","新北市淡水區清水街158號","121.441078333333","25.17043","6501000","淡水區"
"251007","577-R6","2018/03/09 19:09:45","新北市淡水區民生路145巷54號","121.467676666667","25.1389916666667","6501000","淡水區"
"251003","673-BX","2018/03/09 19:09:48","新北市淡水區中山北路一段173號","121.443631666667","25.177825","6501000","淡水區"
"207003","550-UM","2018/03/09 19:09:49","新北市萬里區大鵬里萬里加投19-11號","121.649376666667","25.21024","6502800","萬里區"
"207004","225-TW","2018/03/09 19:09:48","新北市萬里區萬里里瑪鋉下街2號","121.691141666667","25.1785316666667","6502800","萬里區"
"252002","178-VK","2018/03/09 19:09:39","新北市三芝區智成街118號","121.505868333333","25.2552933333333","6502100","三芝區"
"252003","249-BX","2018/03/09 19:09:42","新北市三芝區錫板里南勢崗6號","121.47955","25.26198","6502100","三芝區"
"252001","292-VK","2018/03/09 19:09:37","新北市三芝區長勤街45巷2號","121.50033","25.25513","6502100","三芝區"
"237004","KEA-2597","2018/03/09 19:09:33","新北市三峽區有木206號","121.439181666667","24.8516033333333","6500900","三峽區"
"237007","153-BY","2018/03/09 19:09:40","新北市三峽區中正路二段42巷84號","121.364355","24.9206233333333","6500900","三峽區"
"237013","252-BX","2018/03/09 19:09:44","新北市三峽區光明路69巷25號","121.37674","24.9292333333333","6500900","三峽區"
"237012","275-BY","2018/03/09 19:09:50","新北市三峽區三樹路222巷60號","121.382241666667","24.942365","6500900","三峽區"
"237008","302-VK","2018/03/09 19:09:37","新北市三峽區光明路106巷1號","121.376608333333","24.9274433333333","6500900","三峽區"
"237014","433-BY","2018/03/09 19:09:45","新北市三峽區中山路277巷9號","121.361821666667","24.937035","6500900","三峽區"
"237006","5529-G3","2018/03/09 19:09:44","新北市三峽區介壽路一段383-1號","121.387485","24.9337833333333","6500900","三峽區"
"237011","KEA-2596","2018/03/09 19:09:44","新北市三峽區中正路一段124號","121.373578333333","24.9292266666667","6500900","三峽區"
"237010","706-TV","2018/03/09 19:09:30","新北市三峽區復興路153號","121.370786666667","24.938385","6500900","三峽區"
"237005","AKY-6261","2018/03/09 19:09:47","新北市三峽區中山路459巷163-3號","121.348681666667","24.93293","6500900","三峽區"
"236072","105-UM","2018/03/09 19:09:49","新北市土城區裕生路84巷7號","121.446846666667","24.985525","6501300","土城區"
"236079","166-UM","2018/03/09 19:09:40","新北市土城區龍泉路23-3號","121.412036666667","24.946005","6501300","土城區"
"236026","269-VK","2018/03/09 19:09:48","新北市土城區中正路67巷14號","121.444433333333","24.9761833333333","6501300","土城區"
"236015","270-VK","2018/03/09 19:09:39","新北市土城區學府路一段73號","121.456943333333","24.98819","6501300","土城區"
"236039","271-VK","2018/03/09 19:09:41","新北市土城區清水路149號","121.458505","24.9817316666667","6501300","土城區"
"236022","401-BY","2018/03/09 19:09:44","新北市土城區延峰街18號","121.468788333333","24.9862416666667","6501300","土城區"
"236059","912-UM","2018/03/09 19:09:50","新北市土城區金城路二段237號","121.45567","24.982505","6501300","土城區"
"236050","913-UM","2018/03/09 19:09:33","新北市土城區明德路一段398-1號","121.45365","24.9791133333333","6501300","土城區"
"236055","AAC-216","2018/03/09 19:09:42","新北市土城區學府路一段215號","121.451503333333","24.9844466666667","6501300","土城區"
"242002","349-TH","2018/03/09 19:09:44","新北市新莊區環河路636-7號","121.437456666667","25.0117066666667","6500500","新莊區"
"238015","755-BX","2018/03/09 19:09:38","新北市樹林區備內街101號","121.40741","24.98942","6500700","樹林區"
"238023","601-UM","2018/03/09 19:09:40","新北市樹林區大慶街17號","121.396973333333","25.0143983333333","6500700","樹林區"
"238019","599-UM","2018/03/09 19:09:48","新北市樹林區東榮街42號","121.417283333333","24.9833716666667","6500700","樹林區"
"238018","571-TV","2018/03/09 19:09:35","新北市樹林區太平路48號","121.419058333333","24.98257","6500700","樹林區"
"238024","5061-A6","2018/03/09 19:09:32","新北市樹林區味王街20號","121.403228333333","24.9757733333333","6500700","樹林區"
"238022","KEA-2213","2018/03/09 19:09:46","新北市樹林區中山路二段151巷12號","121.406805","24.9783116666667","6500700","樹林區"
"238021","KEA-2539","2018/03/09 19:09:43","新北市樹林區柑園街二段278號","121.374323333333","24.9521066666667","6500700","樹林區"
"238025","303-VK","2018/03/09 19:09:31","新北市樹林區中山路三段76號","121.393636666667","24.9723483333333","6500700","樹林區"
"238017","283-BY","2018/03/09 19:09:44","新北市樹林區光興街50號","121.409848333333","25.0027783333333","6500700","樹林區"
"238014","282-BY","2018/03/09 19:09:46","新北市樹林區千歲街70巷1弄21號","121.426755","24.9977216666667","6500700","樹林區"
"238020","268-VK","2018/03/09 18:46:11","新北市樹林區俊英街282號","121.423736666667","25.013355","6500700","樹林區"
"238026","172-UY","2018/03/09 19:09:31","新北市樹林區佳園路一段52-5號","121.392968333333","24.9700633333333","6500700","樹林區"
"239007","AAC-297","2018/03/09 19:09:37","新北市鶯歌區中山路138巷13號","121.350921666667","24.95901","6500800","鶯歌區"
"239006","891-R6","2018/03/09 19:09:29","新北市鶯歌區永昌街47號","121.342275","24.94973","6500800","鶯歌區"
"239008","527-UM","2018/03/09 19:09:46","新北市鶯歌區國際二路6巷6號","121.338565","24.9736883333333","6500800","鶯歌區"
"239005","526-UM","2018/03/09 19:09:42","新北市鶯歌區東湖路19-1號","121.357891666667","24.9735266666667","6500800","鶯歌區"
"239001","417-VK","2018/03/09 19:09:47","新北市鶯歌區永智街116號","121.33693","24.9528266666667","6500800","鶯歌區"
"239003","360-BY","2018/03/09 19:09:34","新北市鶯歌區德昌街23號","121.333401666667","24.9599466666667","6500800","鶯歌區"
"239002","359-BY","2018/03/09 19:09:48","新北市鶯歌區中山路109號","121.350213333333","24.9569","6500800","鶯歌區"
"221008","489-VK","2018/03/09 19:09:38","新北市汐止區康寧街406號","121.630205","25.0679916666667","6501100","汐止區"
"221036","130-UY","2018/03/09 19:09:44","新北市汐止區汐萬路一段256巷1號","121.651828333333","25.074895","6501100","汐止區"
"221010","269-BY","2018/03/09 19:09:45","新北市汐止區康寧街901號","121.651421666667","25.0749616666667","6501100","汐止區"
"221012","278-VK","2018/03/09 19:09:34","新北市汐止區康寧街901號","121.650766666667","25.0752333333333","6501100","汐止區"
"221023","279-VK","2018/03/09 19:09:29","新北市汐止區康寧街901號","121.650978333333","25.07524","6501100","汐止區"
"221032","280-BY","2018/03/09 19:09:39","新北市汐止區橫科路241-5號","121.622478333333","25.0487383333333","6501100","汐止區"
"221027","281-BY","2018/03/09 19:09:34","新北市汐止區康寧街901號","121.651386666667","25.0750616666667","6501100","汐止區"
"221033","297-VK","2018/03/09 19:09:46","新北市汐止區南勢街1巷1號","121.627075","25.0375016666667","6501100","汐止區"
"221029","298-VK","2018/03/09 19:09:36","新北市汐止區汐萬路一段256巷3號","121.652206666667","25.0747233333333","6501100","汐止區"
"221031","353-TW","2018/03/09 19:09:44","新北市汐止區汐萬路一段312號","121.650221666667","25.0755583333333","6501100","汐止區"
"221025","623-UM","2018/03/09 19:09:48","新北市汐止區康寧街901號","121.651665","25.0749866666667","6501100","汐止區"
"221038","646-BX","2018/03/09 19:09:46","新北市汐止區汐萬路一段312號","121.650665","25.0753083333333","6501100","汐止區"
"221002","707-TV","2018/03/09 19:09:33","台北市南港區南港路一段16號","121.619406666667","25.05468","6501100","汐止區"
"220079","145-BY","2018/03/09 19:09:53","新北市板橋區民權路302巷1弄1號","121.457293333333","25.0163183333333","6500100","板橋區"
"220080","200-UY","2018/03/09 19:09:35","新北市板橋區大觀路二段1巷38號","121.450035","25.0037083333333","6500100","板橋區"
"220082","610-BX","2018/03/09 19:09:46","新北市板橋區溪崑二街88號","121.427135","24.98945","6500100","板橋區"
"220101","245-BX","2018/03/09 19:09:35","新北市板橋區萬板路53巷2號","121.471535","25.0216416666667","6500100","板橋區"
"220098","257-TC","2018/03/09 19:09:38","新北市板橋區自由路51巷9-3號","121.465023333333","25.02346","6500100","板橋區"
"220056","276-BY","2018/03/09 19:09:41","新北市板橋區信義路150巷12號","121.45829","24.991795","6500100","板橋區"
"220072","277-BY","2018/03/09 19:09:34","新北市板橋區溪城路115號","121.427525","24.9825866666667","6500100","板橋區"
"220094","280-UM","2018/03/09 19:09:52","新北市板橋區光武街138號","121.465356666667","25.0299416666667","6500100","板橋區"
"220071","283-VK","2018/03/09 19:09:47","新北市板橋區重慶路353巷7號","121.464811666667","24.998135","6500100","板橋區"
"220053","285-VK","2018/03/09 19:09:44","新北市板橋區懷仁街10巷20號","121.475253333333","25.019685","6500100","板橋區"
"220083","286-VK","2018/03/09 19:09:42","新北市板橋區大觀路二段174巷173弄12號","121.441215","25.0039283333333","6500100","板橋區"
"220081","287-VK","2018/03/09 19:09:48","新北市板橋區南雅西路二段156巷43號","121.452361666667","25.0128916666667","6500100","板橋區"
"220090","288-VK","2018/03/09 19:09:38","新北市板橋區裕民街45巷3-1號","121.461546666667","25.0284233333333","6500100","板橋區"
"220061","293-UM","2018/03/09 19:09:38","新北市板橋區三民路二段21巷45號","121.480531666667","25.0182833333333","6500100","板橋區"
"220062","295-UM","2018/03/09 19:09:51","新北市板橋區三民路二段245巷69弄2號","121.481128333333","25.012925","6500100","板橋區"
"220084","296-UM","2018/03/09 19:09:26","新北市板橋區溪崑二街56巷36號","121.42828","24.9915216666667","6500100","板橋區"
"220075","303-R5","2018/03/09 19:09:41","新北市板橋區南雅南路一段3巷25號","121.456773333333","25.006035","6500100","板橋區"
"220092","307-R5","2018/03/09 19:09:43","新北市板橋區文化路二段51號","121.469015","25.0252533333333","6500100","板橋區"
"220064","486-VK","2018/03/09 19:09:43","新北市板橋區中山路二段40巷30號","121.473883333333","25.014105","6500100","板橋區"
"220089","487-VK","2018/03/09 19:09:47","新北市板橋區文化路二段413號","121.474353333333","25.0322566666667","6500100","板橋區"
"220088","491-VK","2018/03/09 19:09:38","新北市板橋區文化路二段182巷3弄1號","121.471398333333","25.02731","6500100","板橋區"
"220035","560-BX","2018/03/09 19:09:45","新北市板橋區瑞安街31巷1號","121.455706666667","25.022855","6500100","板橋區"
"220103","561-BX","2018/03/09 19:09:38","新北市板橋區文化路一段188巷9弄25號","121.4687","25.0193633333333","6500100","板橋區"
"220055","568-UM","2018/03/09 19:09:45","新北市板橋區新民街13號","121.463806666667","25.0099216666667","6500100","板橋區"
"220063","609-BX","2018/03/09 19:09:33","新北市中和區員山路570號","121.478956666667","25.0114433333333","6500100","板橋區"
"220091","637-BX","2018/03/09 19:09:49","新北市板橋區縣民大道247巷80號","121.48209","25.0269216666667","6500100","板橋區"
"220057","686-BX","2018/03/09 19:09:42","新北市板橋區重慶路153號","121.462455","25.0041383333333","6500100","板橋區"
"220077","687-BX","2018/03/09 19:09:33","新北市板橋區大觀路一段35巷2號","121.449241666667","25.00845","6500100","板橋區"
"220093","689-BX","2018/03/09 19:09:41","新北市板橋區民生路三段253號","121.464473333333","25.02916","6500100","板橋區"
"220054","741-BX","2018/03/09 19:09:30","新北市板橋區重慶路67號","121.461955","25.0070116666667","6500100","板橋區"
"220102","KEA-2699","2018/03/09 19:09:36","新北市板橋區萬板路818巷9號","121.483016666667","25.0267333333333","6500100","板橋區"
"220067","830-TW","2018/03/09 19:09:33","新北市板橋區三民路二段正隆巷52號","121.47676","25.0141333333333","6500100","板橋區"
"220096","831-TW","2018/03/09 19:09:36","新北市板橋區雙十路二段49號","121.476556666667","25.0262683333333","6500100","板橋區"
"220074","895-R6","2018/03/09 19:09:37","新北市板橋區中正路37號","121.456371666667","25.01327","6500100","板橋區"
"220073","985-R7","2018/03/09 19:09:48","新北市板橋區中正路345號","121.454731666667","25.0206083333333","6500100","板橋區"
"220097","AAC-210","2018/03/09 19:09:32","新北市板橋區英士路199號","121.458875","25.0236483333333","6500100","板橋區"
"220070","AAC-253","2018/03/09 19:09:46","新北市板橋區忠孝路86號","121.461545","25.0021066666667","6500100","板橋區"
