"lineid","car","time","location","longitude","latitude","cityid","cityname"
"234046","148-BY","2018/03/09 19:19:46","新北市永和區永元路50號","121.522246666667","25.0010333333333","6500400","永和區"
"234007","207-UY","2018/03/09 19:19:47","新北市永和區中山路一段226號","121.508003333333","25.0082733333333","6500400","永和區"
"234081","298-R6","2018/03/09 19:19:48","新北市永和區福和路7巷11弄2號","121.525471666667","25.0071483333333","6500400","永和區"
"234038","336-UY","2018/03/09 19:19:49","新北市永和區民樂街55巷2號","121.527421666667","24.9984383333333","6500400","永和區"
"234064","337-UY","2018/03/09 19:19:39","新北市永和區永元路17巷6弄2號","121.52139","25.0007","6500400","永和區"
"234086","338-UY","2018/03/09 19:19:38","新北市永和區永利路72號","121.520253333333","25.0042566666667","6500400","永和區"
"234070","552-UM","2018/03/09 19:19:18","新北市永和區豫溪街68號","121.517071666667","25.0098333333333","6500400","永和區"
"234017","745-BX","2018/03/09 19:19:45","新北市永和區文化路144巷31弄10號","121.51237","25.0168233333333","6500400","永和區"
"234030","746-BX","2018/03/09 19:19:36","新北市永和區厚德街58號","121.524495","24.9987783333333","6500400","永和區"
"234054","KEA-2590","2018/03/09 19:19:42","新北市永和區中興街25號","121.51604","25.01191","6500400","永和區"
"234013","KEA-2591","2018/03/09 19:19:42","新北市永和區信義路23號","121.513933333333","25.01234","6500400","永和區"
"234061","AAD-866","2018/03/09 19:19:30","新北市永和區秀朗路一段120號","121.51702","25.0035916666667","6500400","永和區"
"234042","862-TW","2018/03/09 19:19:46","新北市永和區保平路151巷5號","121.510155","25.0055533333333","6500400","永和區"
"234050","863-TW","2018/03/09 19:19:44","新北市永和區信義路98號","121.5124","25.013825","6500400","永和區"
"234026","9371-KE","2018/03/09 19:19:48","新北市永和區安樂路144巷31號","121.51528","24.999695","6500400","永和區"
"234011","9373-KE","2018/03/09 19:19:49","新北市永和區保福路二段9巷9號","121.510561666667","25.0108883333333","6500400","永和區"
"249001","173-UM","2018/03/09 19:19:37","新北市八里區文昌路122號","121.409473333333","25.1580716666667","6502300","八里區"
"249003","593-UM","2018/03/09 19:19:48","新北市八里區中山路二段466巷5號","121.398713333333","25.1474683333333","6502300","八里區"
"248018","225-UY","2018/03/09 19:19:44","新北市五股區壟路14-8號","121.41538","25.0864983333333","6501500","五股區"
"248012","247-BX","2018/03/09 19:19:36","新北市五股區中興路四段48巷16號","121.438631666667","25.0834883333333","6501500","五股區"
"248004","677-BX","2018/03/09 19:19:47","新北市五股區五福路77號","121.43244","25.09019","6501500","五股區"
"248002","678-BX","2018/03/09 19:19:42","新北市五股區凌雲路一段158巷14-1號","121.447865","25.10347","6501500","五股區"
"248010","682-TV","2018/03/09 19:19:45","新北市五股區水碓一路23號","121.430621666667","25.07129","6501500","五股區"
"234023","9380-KE","2018/03/09 19:19:38","新北市永和區竹林路112-3號","121.519861666667","25.0116083333333","6500400","永和區"
"234077","969-R7","2018/03/09 19:19:48","新北市永和區民治街72巷10號","121.518093333333","24.9985016666667","6500400","永和區"
"234074","AAC-211","2018/03/09 19:19:30","新北市永和區復興街91號","121.517726666667","25.0142266666667","6500400","永和區"
"234067","AAC-212","2018/03/09 19:19:34","新北市永和區保平路52號","121.511336666667","25.0071066666667","6500400","永和區"
"234003","AAC-295","2018/03/09 19:19:51","新北市永和區中山路一段106號","121.510986666667","25.01048","6500400","永和區"
"244013","069-UM","2018/03/09 19:19:36","新北市林口區麗園一街4巷2號","121.37638","25.0706766666667","6501700","林口區"
"244019","402-UM","2018/03/09 19:19:47","新北市林口區麗園一街15號","121.377025","25.06921","6501700","林口區"
"244023","483-VK","2018/03/09 19:19:39","新北市林口區民有街62號","121.372733333333","25.0768866666667","6501700","林口區"
"244011","701-TV","2018/03/09 19:19:41","新北市林口區中山路298號","121.38207","25.0814233333333","6501700","林口區"
"243012","AAD-798","2018/03/09 19:19:44","新北市泰山區仁愛路100巷11號","121.43345","25.0551616666667","6501600","泰山區"
"243011","297-R6","2018/03/09 19:19:48","新北市泰山區中央路11巷12號","121.426576666667","25.042605","6501600","泰山區"
"243015","380-SR","2018/03/09 19:19:45","新北市泰山區公園路67-1號","121.426668333333","25.0551166666667","6501600","泰山區"
"243014","421-VK","2018/03/09 19:19:35","新北市泰山區泰林路二段199號","121.433248333333","25.061365","6501600","泰山區"
"243010","KEA-2215","2018/03/09 19:19:47","新北市泰山區明志路二段6號","121.430086666667","25.0538016666667","6501600","泰山區"
"243009","KEA-2216","2018/03/09 19:19:51","新北市泰山區和平街13巷5號","121.434356666667","25.0649433333333","6501600","泰山區"
"243013","646-TV","2018/03/09 19:19:39","新北市泰山區明志路三段145巷11弄2號","121.425791666667","25.0397266666667","6501600","泰山區"
"243016","680-BX","2018/03/09 19:19:47","新北市泰山區明志路三段142巷2號","121.42466","25.039845","6501600","泰山區"
"222003","436-BY","2018/03/09 19:19:39","新北市深坑區深南路91號","121.626471666667","25.016025","6501800","深坑區"
"222002","659-BX","2018/03/09 19:19:32","新北市深坑區北深路一段177號","121.632531666667","25.010915","6501800","深坑區"
"231060","001-UM","2018/03/09 19:19:36","新北市新店區安康路二段102號","121.513501666667","24.96303","6500600","新店區"
"231041","002-UM","2018/03/09 19:19:47","新北市新店區溪園路205號","121.527388333333","24.984935","6500600","新店區"
"231059","046-UY","2018/03/09 19:19:34","新北市新店區安業街1號","121.516713333333","24.97892","6500600","新店區"
"231061","047-UY","2018/03/09 19:19:48","新北市新店區安康路一段226號","121.523481666667","24.9636533333333","6500600","新店區"
"231051","107-UY","2018/03/09 19:19:47","新北市新店區中央路81號","121.532181666667","24.9766866666667","6500600","新店區"
"231048","108-UY","2018/03/09 19:19:49","新北市新店區中興路一段282-3號","121.546033333333","24.96828","6500600","新店區"
"231053","187-VK","2018/03/09 19:19:40","新北市新店區自強路251號","121.548151666667","24.91959","6500600","新店區"
"231050","KEA-2219","2018/03/09 19:19:50","新北市新店區竹林路69號","121.553368333333","24.95136","6500600","新店區"
"221015","KEA-2785","2018/03/09 19:19:40","新北市汐止區康寧街901號","121.651728333333","25.0749333333333","6501100","汐止區"
"231046","278-BY","2018/03/09 19:19:32","新北市新店區華城路36巷1-1號","121.528418333333","24.95529","6500600","新店區"
"231054","AAD-862","2018/03/09 19:19:31","新北市新店區國校路2巷2號","121.53795","24.956665","6500600","新店區"
"231058","3712-VJ","2018/03/09 19:19:40","新北市新店區北新路二段2號","121.542598333333","24.9707","6500600","新店區"
"231055","4716-K9","2018/03/09 19:19:29","新北市新店區新生街13巷42號","121.538963333333","24.9665833333333","6500600","新店區"
"231067","4772-VM","2018/03/09 19:19:36","新北市新店區薏仁坑路自強巷1號","121.496675","24.958055","6500600","新店區"
"231065","512-UM","2018/03/09 19:19:42","新北市新店區安祥路109巷3弄29號","121.478713333333","24.961025","6500600","新店區"
"231064","515-UM","2018/03/09 19:19:45","新北市新店區安忠路57巷26弄45號","121.511996666667","24.9576333333333","6500600","新店區"
"231045","617-UM","2018/03/09 19:19:51","新北市新店區北宜路一段187號","121.54704","24.9524566666667","6500600","新店區"
"231040","619-UM","2018/03/09 19:19:40","新北市新店區三民路47號","121.537058333333","24.9709433333333","6500600","新店區"
"231042","641-BX","2018/03/09 19:19:43","新北市新店區北宜路一段3號","121.538568333333","24.9585183333333","6500600","新店區"
"231063","645-TV","2018/03/09 19:19:49","新北市新店區達觀路14巷8號","121.503221666667","24.9432366666667","6500600","新店區"
"231049","719-UM","2018/03/09 19:19:35","新北市新店區明德路111號","121.54144","24.9793783333333","6500600","新店區"
"231062","720-UM","2018/03/09 19:19:49","新北市新店區莒光路97號","121.522585","24.9542133333333","6500600","新店區"
"231044","897-TW","2018/03/09 19:19:40","新北市新店區中興路三段330號","121.542068333333","24.9865883333333","6500600","新店區"
"231043","899-TW","2018/03/09 19:19:45","新北市新店區北新路二段137號","121.542856666667","24.975535","6500600","新店區"
"231066","AKT-0513","2018/03/09 19:19:48","新北市新店區安康路三段165巷2弄29號","121.48799","24.9513916666667","6500600","新店區"
"241009","060-VK","2018/03/09 19:19:32","新北市三重區溪尾街230巷67號","121.486168333333","25.08122","6500200","三重區"
"241031","061-VK","2018/03/09 19:19:52","新北市三重區重新路四段206-2號","121.48601","25.05455","6500200","三重區"
"241017","063-VK","2018/03/09 19:19:35","新北市三重區長壽西街197號","121.492115","25.0661633333333","6500200","三重區"
"241026","066-VK","2018/03/09 19:19:34","新北市三重區同安東街64號","121.498253333333","25.0573616666667","6500200","三重區"
"241020","156-TC","2018/03/09 19:19:41","新北市三重區大智街234號","121.489658333333","25.07264","6500200","三重區"
"241022","267-UM","2018/03/09 19:19:38","新北市三重區中正北路54號","121.486988333333","25.0642783333333","6500200","三重區"
"241032","269-UM","2018/03/09 19:19:48","新北市三重區新生街93-2號","121.483675","25.059385","6500200","三重區"
"241007","398-BY","2018/03/09 19:19:49","新北市三重區慈愛街48號","121.485823333333","25.0790683333333","6500200","三重區"
"241035","462-BY","2018/03/09 19:19:39","新北市三重區信義西街138號","121.495476666667","25.064395","6500200","三重區"
"241030","480-VK","2018/03/09 19:19:35","新北市三重區新興路42號","121.491438333333","25.0534466666667","6500200","三重區"
"241006","887-TS","2018/03/09 19:19:40","新北市三重區車路頭街182號","121.483656666667","25.0772183333333","6500200","三重區"
"241029","942-UM","2018/03/09 19:19:38","新北市三重區重安街31號","121.491193333333","25.057","6500200","三重區"
"235066","003-UY","2018/03/09 19:19:46","新北市中和區景新街2號","121.502595","24.99975","6500300","中和區"
"235064","005-UY","2018/03/09 19:19:36","新北市中和區中和路49號","121.500173333333","25.00123","6500300","中和區"
"235063","006-UY","2018/03/09 19:19:35","新北市中和區連勝街121巷16號","121.495051666667","24.994505","6500300","中和區"
"235052","031-BX","2018/03/09 19:19:43","新北市中和區華新街143巷15號","121.50662","24.9810116666667","6500300","中和區"
"235056","096-UM","2018/03/09 19:19:50","新北市中和區中正路1163號","121.481603333333","25.00911","6500300","中和區"
"235039","097-UM","2018/03/09 19:19:41","新北市中和區秀峰街79巷1號","121.522016666667","24.99026","6500300","中和區"
"235065","098-UM","2018/03/09 19:19:46","新北市中和區中山路二段2巷3弄1號","121.504925","25.0061216666667","6500300","中和區"
"235040","150-BY","2018/03/09 19:19:33","新北市中和區保健路50巷1號","121.51046","24.99684","6500300","中和區"
"235058","151-BY","2018/03/09 19:19:34","新北市中和區連城路469巷44弄19號","121.482301666667","24.994715","6500300","中和區"
"235055","183-VK","2018/03/09 19:19:35","新北市中和區德光路22號","121.470955","25.0044966666667","6500300","中和區"
"235038","185-VK","2018/03/09 19:19:48","新北市中和區大仁街10巷53號","121.520035","24.9924716666667","6500300","中和區"
"235049","186-VK","2018/03/09 19:19:39","新北市中和區景新街246號","121.509301666667","24.9936016666667","6500300","中和區"
"235067","255-BX","2018/03/09 19:19:35","新北市中和區中正路786號","121.485031666667","25.0009766666667","6500300","中和區"
"235044","293-VK","2018/03/09 19:19:38","新北市中和區復興路282號","121.50222","24.9903916666667","6500300","中和區"
"235072","301-VK","2018/03/09 19:19:37","新北市中和區中山路二段220號","121.499526666667","25.0027383333333","6500300","中和區"
"235043","352-BY","2018/03/09 19:19:40","新北市中和區景平路452號","121.506096666667","24.9935116666667","6500300","中和區"
"235068","377-QA","2018/03/09 19:19:45","新北市中和區連勝街14號","121.498823333333","24.9983783333333","6500300","中和區"
"235061","378-QA","2018/03/09 19:19:34","新北市中和區連城路571-1號","121.479235","24.994475","6500300","中和區"
"235071","269-TV","2018/03/09 19:19:48","新北市中和區連城路294號","121.484031666667","24.99638","6500300","中和區"
"235050","4979-A6","2018/03/09 19:19:36","新北市中和區景安路220巷8號","121.50318","24.9912683333333","6500300","中和區"
"235069","4980-A6","2018/03/09 19:19:29","新北市中和區中山路二段181巷5號","121.50119","25.0020783333333","6500300","中和區"
"235042","551-UM","2018/03/09 19:19:30","新北市中和區大勇街60巷16號","121.518731666667","24.994705","6500300","中和區"
"235045","565-BX","2018/03/09 19:19:44","新北市中和區景新街423巷49號","121.51471","24.989835","6500300","中和區"
"235054","640-BX","2018/03/09 19:19:38","新北市中和區國光街107巷2弄3號","121.470061666667","24.9999283333333","6500300","中和區"
"235060","647-TV","2018/03/09 19:19:42","新北市中和區員山路294巷2號","121.481605","25.00238","6500300","中和區"
"235046","733-UM","2018/03/09 19:19:40","新北市中和區忠孝街2巷13弄2號","121.510496666667","24.9818866666667","6500300","中和區"
"235057","801-TS","2018/03/09 19:19:39","新北市中和區員山路327巷2號","121.481218333333","25.00123","6500300","中和區"
"235041","802-TS","2018/03/09 19:19:52","新北市中和區中和路260號","121.507888333333","24.99923","6500300","中和區"
"235048","896-TW","2018/03/09 19:19:30","新北市中和區忠孝街122-2號","121.512128333333","24.9860016666667","6500300","中和區"
"235053","900-TW","2018/03/09 19:19:39","新北市中和區華安街17巷31號","121.467553333333","24.9982916666667","6500300","中和區"
"235070","911-UM","2018/03/09 19:19:50","新北市中和區連城路57號","121.49786","25.00146","6500300","中和區"
"235051","157-BY","2018/03/09 19:19:48","新北市中和區興南路一段56巷26號","121.51044","24.9912866666667","6500300","中和區"
"235037","AAC-213","2018/03/09 19:19:46","新北市中和區秀朗路三段10巷37弄4號","121.524138333333","24.99586","6500300","中和區"
"235059","AAC-215","2018/03/09 19:19:53","新北市中和區錦和路195巷1弄3號","121.490933333333","24.990855","6500300","中和區"
"220068","013-TV","2018/03/09 19:19:31","新北市板橋區翠華街6巷17號","121.481028333333","25.0243416666667","6500100","板橋區"
"220065","072-UY","2018/03/09 19:19:38","新北市板橋區國泰街77號","121.46739","25.0065283333333","6500100","板橋區"
"220034","073-UY","2018/03/09 19:19:34","新北市板橋區中正路216巷23號","121.45667","25.018735","6500100","板橋區"
"220106","075-UY","2018/03/09 19:19:47","新北市板橋區雙十路三段66巷1號","121.470595","25.031935","6500100","板橋區"
"220069","AAD-861","2018/03/09 19:19:43","新北市板橋區華興街21巷18號","121.458543333333","25.0037516666667","6500100","板橋區"
"247010","341-TH","2018/03/09 18:58:31","新北市五股區中興路三段163號","121.449285","25.0807483333333","6501400","蘆洲區"
"226004","205-ST","2018/03/09 19:19:46","新北市平溪區靜安路三段392巷3號","121.784388333333","25.04955","6502400","平溪區"
"228002","663-BX","2018/03/09 19:19:43","新北市貢寮區龍門里復興街29-3號","121.927438333333","25.0280616666667","6502600","貢寮區"
"228001","670-TC","2018/03/09 19:19:42","新北市貢寮區真理里新港街10號","121.925526666667","25.0544216666667","6502600","貢寮區"
"228003","828-UM","2018/03/09 19:19:53","新北市貢寮區和美里和美街19-3號","121.912708333333","25.08259","6502600","貢寮區"
"224010","AGQ-8101","2018/03/09 19:19:48","新北市瑞芳區基山街129號","121.844111666667","25.1084533333333","6501200","瑞芳區"
"224006","676-BX","2018/03/09 19:19:48","新北市瑞芳區中山路266號","121.799093333333","25.1080833333333","6501200","瑞芳區"
"224008","285-BY","2018/03/09 19:19:41","新北市瑞芳區一坑路283號","121.801181666667","25.108585","6501200","瑞芳區"
"224007","275-VK","2018/03/09 19:19:48","新北市瑞芳區大寮路116-1號","121.779378333333","25.098725","6501200","瑞芳區"
"224009","273-VK","2018/03/09 19:19:38","新北市瑞芳區洞頂路190號","121.861576666667","25.11974","6501200","瑞芳區"
"224005","271-BY","2018/03/09 19:19:30","新北市瑞芳區蛇子形路3-3號","121.824091666667","25.1031433333333","6501200","瑞芳區"
"227011","642-TC","2018/03/09 19:19:46","新北市雙溪區新基里新基北街40號","121.868555","25.0380833333333","6502500","雙溪區"
"227003","400-TW","2018/03/09 19:19:44","新北市雙溪區平林里梅竹蹊66號","121.860518333333","25.03587","6502500","雙溪區"
"253005","032-BX","2018/03/09 19:19:42","新北市石門區阿里荖13號","121.608315","25.2803066666667","6502200","石門區"
"253006","295-VK","2018/03/09 19:19:49","新北市石門區崁子腳26號","121.535268333333","25.291085","6502200","石門區"
"222001","KEA-2212","2018/03/09 19:19:50","新北市深坑區北深路二段103號","121.6174","25.0034916666667","6501800","深坑區"
"208002","KEA-2872","2018/03/09 19:19:51","新北市金山區環金路376巷2號","121.632183333333","25.2221583333333","6502700","金山區"
"208003","665-BX","2018/03/09 19:19:29","新北市金山區忠孝一路34號","121.637988333333","25.219925","6502700","金山區"
"208001","761-BX","2018/03/09 19:19:39","新北市金山區民生路69號","121.640145","25.2197166666667","6502700","金山區"
"251001","011-UM","2018/03/09 19:19:39","新北市淡水區自強路279-1號","121.461355","25.1279966666667","6501000","淡水區"
"251010","413-VK","2018/03/09 19:19:34","新北市淡水區沙崙路27號","121.421523333333","25.181575","6501000","淡水區"
"251012","441-VK","2018/03/09 19:19:41","新北市淡水區中山北路三段156號","121.445593333333","25.1957916666667","6501000","淡水區"
"251005","443-VK","2018/03/09 19:19:43","新北市淡水區水源街一段29號","121.443198333333","25.1722966666667","6501000","淡水區"
"251006","561-UM","2018/03/09 19:19:32","新北市淡水區大信街33號","121.441996666667","25.1773283333333","6501000","淡水區"
"251009","575-R6","2018/03/09 19:19:48","新北市淡水區中山路162號","121.441088333333","25.1737566666667","6501000","淡水區"
"251007","577-R6","2018/03/09 19:19:45","新北市淡水區民生路117巷33-2號","121.464845","25.139715","6501000","淡水區"
"251003","673-BX","2018/03/09 19:19:48","新北市淡水區中山路157號","121.440675","25.1727316666667","6501000","淡水區"
"207003","550-UM","2018/03/09 19:19:50","新北市萬里區大鵬里萬里加投79-3號","121.647325","25.21238","6502800","萬里區"
"207004","225-TW","2018/03/09 19:19:29","新北市萬里區萬里里成功新村44號","121.6876","25.1747216666667","6502800","萬里區"
"252002","178-VK","2018/03/09 19:19:39","新北市三芝區淡金路二段18-1號","121.502676666667","25.2595216666667","6502100","三芝區"
"252001","292-VK","2018/03/09 19:19:17","新北市三芝區長勤街9巷11弄1號","121.501773333333","25.2547683333333","6502100","三芝區"
"237004","KEA-2597","2018/03/09 19:19:33","新北市三峽區有木206號","121.439125","24.8514433333333","6500900","三峽區"
"237007","153-BY","2018/03/09 19:19:40","新北市三峽區二鬮路154號","121.359763333333","24.9074316666667","6500900","三峽區"
"237009","210-TH","2018/03/09 19:19:38","新北市三峽區民生街223號","121.371348333333","24.934825","6500900","三峽區"
"237013","252-BX","2018/03/09 19:19:44","新北市三峽區大同路39巷35號","121.377905","24.9276266666667","6500900","三峽區"
"237012","275-BY","2018/03/09 19:19:34","新北市三峽區三樹路222巷254弄61號","121.393295","24.9443766666667","6500900","三峽區"
"237008","302-VK","2018/03/09 19:19:37","新北市三峽區大同路156號","121.37301","24.9267733333333","6500900","三峽區"
"237014","433-BY","2018/03/09 19:19:45","新北市三峽區中山路63巷8號","121.366945","24.9343383333333","6500900","三峽區"
"237006","5529-G3","2018/03/09 19:19:44","新北市三峽區中正路一段336巷15弄2號","121.36998","24.9249666666667","6500900","三峽區"
"237011","KEA-2596","2018/03/09 19:19:44","新北市三峽區中正路一段532號","121.369143333333","24.9201216666667","6500900","三峽區"
"237005","AKY-6261","2018/03/09 19:19:47","新北市三峽區中山路459巷42號","121.35707","24.937475","6500900","三峽區"
"236072","105-UM","2018/03/09 19:19:49","新北市土城區學成路118號","121.44949","24.9894","6501300","土城區"
"236079","166-UM","2018/03/09 19:19:39","新北市土城區中央路四段260號","121.41499","24.956795","6501300","土城區"
"236026","269-VK","2018/03/09 19:19:49","新北市土城區中央路二段61巷22號","121.443231666667","24.9786866666667","6501300","土城區"
"236015","270-VK","2018/03/09 19:19:39","新北市土城區廣福街5號","121.457273333333","24.988765","6501300","土城區"
"236022","401-BY","2018/03/09 19:19:35","新北市土城區峰廷街3號","121.469033333333","24.98736","6501300","土城區"
"236059","912-UM","2018/03/09 19:19:50","新北市土城區中央路三段63號","121.438871666667","24.9694066666667","6501300","土城區"
"236050","913-UM","2018/03/09 19:19:33","新北市土城區明德路一段398-1號","121.453661666667","24.9791033333333","6501300","土城區"
"242002","349-TH","2018/03/09 19:19:44","新北市新莊區環河路636-7號","121.437408333333","25.0116883333333","6500500","新莊區"
"238015","755-BX","2018/03/09 19:19:37","新北市樹林區備內街1巷31號","121.41266","24.9863966666667","6500700","樹林區"
"238023","601-UM","2018/03/09 19:19:40","新北市樹林區三興路37號","121.396063333333","25.0145983333333","6500700","樹林區"
"238019","599-UM","2018/03/09 19:19:48","新北市樹林區鎮前街347巷2弄13號","121.416385","24.983595","6500700","樹林區"
"238018","571-TV","2018/03/09 19:19:35","新北市樹林區中華路353-1號","121.41497","24.98025","6500700","樹林區"
"238024","5061-A6","2018/03/09 19:19:52","新北市樹林區福德街3號","121.401575","24.9759666666667","6500700","樹林區"
"238022","KEA-2213","2018/03/09 19:19:46","新北市樹林區東興街3號","121.409626666667","24.980415","6500700","樹林區"
"238021","KEA-2539","2018/03/09 19:19:43","新北市樹林區柑園街二段363巷6號","121.368756666667","24.9485833333333","6500700","樹林區"
"238025","303-VK","2018/03/09 19:19:31","新北市樹林區八德街1號","121.417541666667","24.9849583333333","6500700","樹林區"
"238017","283-BY","2018/03/09 19:19:44","新北市樹林區光興街44號","121.409871666667","25.0027633333333","6500700","樹林區"
"238014","282-BY","2018/03/09 19:19:46","新北市樹林區千歲街6巷2號","121.424963333333","24.9955466666667","6500700","樹林區"
"238026","172-UY","2018/03/09 19:19:51","新北市樹林區佳園路三段77號","121.387731666667","24.9526516666667","6500700","樹林區"
"239007","AAC-297","2018/03/09 19:19:37","新北市鶯歌區西湖街45巷17號","121.339851666667","24.959305","6500800","鶯歌區"
"239006","891-R6","2018/03/09 19:19:49","新北市鶯歌區重慶街13號","121.351865","24.952705","6500800","鶯歌區"
"239008","527-UM","2018/03/09 19:19:46","新北市鶯歌區大湖路468巷1號","121.339408333333","24.9720066666667","6500800","鶯歌區"
"239005","526-UM","2018/03/09 19:19:36","新北市鶯歌區中湖街140號","121.349521666667","24.9734266666667","6500800","鶯歌區"
"239001","417-VK","2018/03/09 19:19:47","新北市鶯歌區建國路375號","121.338916666667","24.949835","6500800","鶯歌區"
"239003","360-BY","2018/03/09 19:19:34","新北市鶯歌區文化路124號","121.351891666667","24.9518933333333","6500800","鶯歌區"
"239002","359-BY","2018/03/09 19:19:48","新北市鶯歌區湖山路58巷1號","121.339725","24.9759933333333","6500800","鶯歌區"
"221008","489-VK","2018/03/09 19:19:38","新北市汐止區康寧街275號","121.625788333333","25.06681","6501100","汐止區"
"221036","130-UY","2018/03/09 19:19:44","新北市汐止區康寧街901號","121.65085","25.0752916666667","6501100","汐止區"
"221010","269-BY","2018/03/09 19:19:45","新北市汐止區康寧街901號","121.651516666667","25.075015","6501100","汐止區"
"221012","278-VK","2018/03/09 19:19:34","新北市汐止區汐萬路一段271號","121.650593333333","25.07437","6501100","汐止區"
"221023","279-VK","2018/03/09 19:19:49","新北市汐止區康寧街901號","121.650963333333","25.075225","6501100","汐止區"
"221027","281-BY","2018/03/09 19:19:34","新北市汐止區汐萬路一段191號","121.652505","25.0715983333333","6501100","汐止區"
"221033","297-VK","2018/03/09 19:19:46","新北市汐止區南勢街1巷1號","121.627081666667","25.0374566666667","6501100","汐止區"
"221029","298-VK","2018/03/09 19:19:36","新北市汐止區康寧街901號","121.651656666667","25.0748683333333","6501100","汐止區"
"221031","353-TW","2018/03/09 19:19:44","新北市汐止區康寧街901號","121.650933333333","25.0752633333333","6501100","汐止區"
"221025","623-UM","2018/03/09 19:19:48","新北市汐止區汐萬路一段244-1號","121.651455","25.0733233333333","6501100","汐止區"
"221038","646-BX","2018/03/09 19:19:46","新北市汐止區汐萬路一段312號","121.650666666667","25.075295","6501100","汐止區"
"221002","707-TV","2018/03/09 19:19:37","新北市汐止區大同路一段398號","121.639755","25.05986","6501100","汐止區"
"220079","145-BY","2018/03/09 19:19:48","新北市板橋區民權路202巷21弄1號","121.460641666667","25.0171933333333","6500100","板橋區"
"220080","200-UY","2018/03/09 19:19:46","新北市板橋區大觀路二段3巷19號","121.448055","25.003695","6500100","板橋區"
"220082","610-BX","2018/03/09 19:19:46","新北市板橋區金門街222號","121.431078333333","24.9877316666667","6500100","板橋區"
"220101","245-BX","2018/03/09 19:19:52","新北市板橋區莒光路167-3號","121.474188333333","25.0237816666667","6500100","板橋區"
"220098","257-TC","2018/03/09 19:19:38","新北市板橋區民有街89巷4號","121.464476666667","25.027465","6500100","板橋區"
"220056","276-BY","2018/03/09 19:19:50","新北市板橋區干城路158-1號","121.460515","24.9921833333333","6500100","板橋區"
"220072","277-BY","2018/03/09 19:19:50","新北市板橋區金門街325號","121.429526666667","24.98596","6500100","板橋區"
"220094","280-UM","2018/03/09 19:19:32","新北市板橋區吳鳳路82號","121.46691","25.0312916666667","6500100","板橋區"
"220071","283-VK","2018/03/09 19:19:47","新北市板橋區大豐街115號","121.461113333333","25.0010933333333","6500100","板橋區"
"220053","285-VK","2018/03/09 19:19:44","新北市板橋區富山街12號","121.478506666667","25.0218433333333","6500100","板橋區"
"220083","286-VK","2018/03/09 19:19:42","新北市板橋區龍興街95巷1號","121.444006666667","25.0022816666667","6500100","板橋區"
"220081","287-VK","2018/03/09 19:19:47","新北市板橋區南雅西路一段122號","121.452731666667","25.0066616666667","6500100","板橋區"
"220090","288-VK","2018/03/09 19:19:35","新北市板橋區長江路一段106巷13弄34號","121.461338333333","25.0297283333333","6500100","板橋區"
"220061","293-UM","2018/03/09 19:19:38","新北市板橋區中山路二段309巷12號","121.478611666667","25.0190133333333","6500100","板橋區"
"220062","295-UM","2018/03/09 19:19:31","新北市板橋區三民路二段153巷30弄37號","121.48136","25.0141816666667","6500100","板橋區"
"220084","296-UM","2018/03/09 19:19:46","新北市板橋區滿平街136巷10弄1號","121.427598333333","24.987","6500100","板橋區"
"220075","303-R5","2018/03/09 19:19:41","新北市板橋區南雅西路一段122號","121.452463333333","25.0064883333333","6500100","板橋區"
"220092","307-R5","2018/03/09 19:19:43","新北市板橋區光武街48巷34號","121.468313333333","25.0270733333333","6500100","板橋區"
"220064","486-VK","2018/03/09 19:19:43","新北市板橋區板新路210號","121.468598333333","25.0160933333333","6500100","板橋區"
"220089","487-VK","2018/03/09 19:19:46","新北市板橋區文化路一段479巷44號","121.467778333333","25.022725","6500100","板橋區"
"220088","491-VK","2018/03/09 19:19:38","新北市板橋區文化路二段294號","121.471956666667","25.0295283333333","6500100","板橋區"
"220035","560-BX","2018/03/09 19:19:45","新北市板橋區中正路332-10號","121.454303333333","25.02297","6500100","板橋區"
"220103","561-BX","2018/03/09 19:19:38","新北市板橋區介壽街22-1號","121.467671666667","25.02005","6500100","板橋區"
"220055","568-UM","2018/03/09 19:19:45","新北市板橋區館前東路156巷9號","121.464381666667","25.00726","6500100","板橋區"
"220063","609-BX","2018/03/09 19:19:44","新北市板橋區三民路一段89號","121.479446666667","25.02157","6500100","板橋區"
"220091","637-BX","2018/03/09 19:19:49","新北市板橋區萬板路478號","121.479855","25.0262416666667","6500100","板橋區"
"220057","686-BX","2018/03/09 19:19:43","新北市板橋區重慶路307號","121.463808333333","24.998625","6500100","板橋區"
"220077","687-BX","2018/03/09 19:19:33","新北市板橋區僑中二街52號","121.446766666667","25.0103716666667","6500100","板橋區"
"220093","689-BX","2018/03/09 19:19:40","新北市板橋區文化路一段361號","121.466818333333","25.021215","6500100","板橋區"
"220054","741-BX","2018/03/09 19:19:30","新北市板橋區校前街82號","121.462216666667","25.0035833333333","6500100","板橋區"
"220102","KEA-2699","2018/03/09 19:19:36","新北市板橋區文聖街199號","121.480348333333","25.0265733333333","6500100","板橋區"
"220067","830-TW","2018/03/09 19:19:32","新北市板橋區長安街138巷3弄43號","121.473985","25.0097566666667","6500100","板橋區"
"220096","831-TW","2018/03/09 19:19:43","新北市板橋區大同街26巷24號","121.47829","25.02662","6500100","板橋區"
"220074","895-R6","2018/03/09 19:19:37","新北市板橋區中正路自強新村91-1號","121.45488","25.0131566666667","6500100","板橋區"
"220073","985-R7","2018/03/09 19:19:47","新北市板橋區新生街28號","121.456118333333","25.0211716666667","6500100","板橋區"
"220097","AAC-210","2018/03/09 19:19:48","新北市板橋區幸福路32巷3弄11號","121.460881666667","25.0206866666667","6500100","板橋區"
"220070","AAC-253","2018/03/09 19:19:46","新北市板橋區忠孝路37號","121.460995","25.0020183333333","6500100","板橋區"
