"lineid","car","time","location","longitude","latitude","cityid","cityname"
"234046","148-BY","2018/03/09 19:59:32","新北市永和區成功路一段81號","121.526916666667","25.003075","6500400","永和區"
"234007","207-UY","2018/03/09 19:59:47","新北市永和區中山路一段238號","121.507316666667","25.0077916666667","6500400","永和區"
"234081","298-R6","2018/03/09 19:59:33","新北市永和區國中路86巷1號","121.524663333333","25.0061183333333","6500400","永和區"
"234038","336-UY","2018/03/09 19:59:49","新北市永和區成功路二段179-1號","121.526583333333","24.9965983333333","6500400","永和區"
"234064","337-UY","2018/03/09 19:59:40","新北市永和區秀朗路一段192巷6弄4號","121.519315","25.0024383333333","6500400","永和區"
"234086","338-UY","2018/03/09 19:59:38","新北市永和區福和路127號","121.521538333333","25.00785","6500400","永和區"
"234070","552-UM","2018/03/09 19:59:38","新北市永和區國光路14號","121.51907","25.0084483333333","6500400","永和區"
"234017","745-BX","2018/03/09 19:59:45","新北市永和區文化路53號","121.514256666667","25.015075","6500400","永和區"
"234030","746-BX","2018/03/09 19:59:36","新北市永和區民生路22巷33號","121.520795","24.996865","6500400","永和區"
"234054","KEA-2590","2018/03/09 19:59:42","新北市永和區環河東路一段122號","121.520648333333","25.015475","6500400","永和區"
"234013","KEA-2591","2018/03/09 19:59:42","新北市永和區保生路55號","121.50467","25.0106166666667","6500400","永和區"
"234061","AAD-866","2018/03/09 19:59:50","新北市永和區中正路283巷35號","121.516161666667","24.999675","6500400","永和區"
"234042","862-TW","2018/03/09 19:59:46","新北市永和區中和路421巷5弄1號","121.508776666667","25.00102","6500400","永和區"
"234050","863-TW","2018/03/09 19:59:44","新北市永和區保安路254號","121.506308333333","25.01253","6500400","永和區"
"234026","9371-KE","2018/03/09 19:59:48","新北市永和區水源街45巷1號","121.509643333333","25.00411","6500400","永和區"
"234011","9373-KE","2018/03/09 19:59:49","新北市永和區仁愛路352巷122弄11號","121.500651666667","25.00879","6500400","永和區"
"249005","172-UM","2018/03/09 19:59:51","新北市八里區楓林路3-1號","121.38247","25.13053","6502300","八里區"
"249001","173-UM","2018/03/09 19:59:33","新北市八里區中華路二段312號","121.403765","25.14837","6502300","八里區"
"249004","303-UY","2018/03/09 19:59:43","新北市八里區中山路一段225號","121.411068333333","25.1577633333333","6502300","八里區"
"249002","305-UY","2018/03/09 19:59:46","新北市八里區頂寮一街46號","121.45064","25.124025","6502300","八里區"
"249003","593-UM","2018/03/09 19:59:48","新北市八里區中華路二段560巷3號","121.398641666667","25.1450633333333","6502300","八里區"
"248016","026-BX","2018/03/09 19:59:46","新北市五股區成泰路三段577巷80弄54號","121.449761666667","25.1051183333333","6501500","五股區"
"248008","095-VK","2018/03/09 19:59:53","新北市五股區四維路30巷34弄2號","121.46831","25.0715066666667","6501500","五股區"
"248018","225-UY","2018/03/09 19:59:43","新北市五股區登林路99-9號","121.415566666667","25.075565","6501500","五股區"
"248012","247-BX","2018/03/09 19:59:36","新北市五股區民義路一段138-1號","121.434113333333","25.0865016666667","6501500","五股區"
"248014","261-SL","2018/03/09 19:59:34","新北市五股區五福路22巷2號","121.434465","25.08897","6501500","五股區"
"248004","677-BX","2018/03/09 19:59:47","新北市五股區成泰路一段32巷62號","121.435065","25.0670033333333","6501500","五股區"
"248002","678-BX","2018/03/09 19:59:42","新北市五股區成泰路三段487號","121.450851666667","25.0993583333333","6501500","五股區"
"248010","682-TV","2018/03/09 19:59:45","新北市五股區登林路86號","121.429155","25.0693933333333","6501500","五股區"
"234023","9380-KE","2018/03/09 19:59:38","新北市永和區豫溪街57巷8弄7號","121.51776","25.0104283333333","6500400","永和區"
"234077","969-R7","2018/03/09 19:59:48","新北市永和區民有街7號","121.516158333333","24.997015","6500400","永和區"
"234074","AAC-211","2018/03/09 19:59:30","新北市永和區豫溪街185號","121.522495","25.0103533333333","6500400","永和區"
"234067","AAC-212","2018/03/09 19:59:34","新北市永和區中山路一段227號","121.507896666667","25.0076933333333","6500400","永和區"
"234003","AAC-295","2018/03/09 19:59:51","新北市永和區中正路613號","121.516298333333","25.0097416666667","6500400","永和區"
"244011","701-TV","2018/03/09 19:59:42","新北市八里區長道坑36-1號","121.399388333333","25.0885","6501700","林口區"
"243012","AAD-798","2018/03/09 19:59:44","新北市泰山區全興路184號","121.433335","25.0573366666667","6501600","泰山區"
"243011","297-R6","2018/03/09 19:59:48","新北市泰山區明志路三段197號","121.424108333333","25.0386216666667","6501600","泰山區"
"243015","380-SR","2018/03/09 19:59:45","新北市泰山區明志路二段214巷16弄15號","121.426813333333","25.0496766666667","6501600","泰山區"
"243014","421-VK","2018/03/09 19:59:52","新北市泰山區泰林路二段156號","121.434016666667","25.06021","6501600","泰山區"
"243010","KEA-2215","2018/03/09 19:59:47","新北市泰山區中華街10巷1號","121.427858333333","25.0525016666667","6501600","泰山區"
"243009","KEA-2216","2018/03/09 19:59:51","新北市泰山區泰林路二段164巷11號","121.434635","25.0607133333333","6501600","泰山區"
"243013","646-TV","2018/03/09 19:59:27","新北市泰山區應化街13號","121.423873333333","25.0436333333333","6501600","泰山區"
"243016","680-BX","2018/03/09 19:59:47","新北市泰山區新北大道六段383號","121.421851666667","25.0325516666667","6501600","泰山區"
"222003","436-BY","2018/03/09 19:59:48","新北市深坑區埔新街14號","121.620703333333","25.0039266666667","6501800","深坑區"
"222002","659-BX","2018/03/09 19:59:32","新北市深坑區北深路二段81巷8弄3號","121.618258333333","25.0030166666667","6501800","深坑區"
"231060","001-UM","2018/03/09 19:56:55","新北市新店區安豐路25號","121.501103333333","24.9571866666667","6500600","新店區"
"231041","002-UM","2018/03/09 19:59:47","新北市新店區民族路192號","121.535951666667","24.9754716666667","6500600","新店區"
"231059","046-UY","2018/03/09 19:59:34","新北市新店區安康路二段147號","121.511285","24.9598416666667","6500600","新店區"
"231061","047-UY","2018/03/09 19:59:48","新北市新店區安興路43號","121.516486666667","24.971465","6500600","新店區"
"231051","107-UY","2018/03/09 19:59:47","新北市新店區中央二街10號","121.529131666667","24.9731483333333","6500600","新店區"
"231048","108-UY","2018/03/09 19:59:34","新北市新店區寶橋路138號","121.54771","24.976445","6500600","新店區"
"231053","187-VK","2018/03/09 19:59:40","新北市新店區新烏路三段300號","121.548246666667","24.89728","6500600","新店區"
"231050","KEA-2219","2018/03/09 19:59:51","新北市新店區北宜路一段152號","121.54029","24.95388","6500600","新店區"
"221015","KEA-2785","2018/03/09 19:59:40","新北市汐止區橋東街46號","121.665736666667","25.075205","6501100","汐止區"
"231057","256-BX","2018/03/09 19:59:31","新北市新店區花園二路一段11號","121.555538333333","24.9324866666667","6500600","新店區"
"231046","278-BY","2018/03/09 19:59:32","新北市新店區光華街29號","121.515533333333","24.9697183333333","6500600","新店區"
"231054","AAD-862","2018/03/09 19:59:49","新北市新店區光明街149號","121.539578333333","24.9621916666667","6500600","新店區"
"231056","3713-VJ","2018/03/09 19:59:46","新北市新店區民權路24號","121.541095","24.9828683333333","6500600","新店區"
"231055","4716-K9","2018/03/09 19:59:49","新北市新店區中華路83巷67號","121.538268333333","24.9671666666667","6500600","新店區"
"231067","4772-VM","2018/03/09 19:59:36","新北市新店區秀山路11巷12弄12號","121.5313","24.9596383333333","6500600","新店區"
"231065","512-UM","2018/03/09 19:59:42","新北市新店區安祥路106巷120號","121.47375","24.95871","6500600","新店區"
"231064","515-UM","2018/03/09 19:59:45","新北市新店區碧安街36號","121.517515","24.9690333333333","6500600","新店區"
"231045","617-UM","2018/03/09 19:59:32","新北市新店區北宜路二段269號","121.554661666667","24.9535666666667","6500600","新店區"
"231040","619-UM","2018/03/09 19:59:40","新北市新店區中正路64號","121.544221666667","24.9701583333333","6500600","新店區"
"231042","641-BX","2018/03/09 19:59:43","新北市新店區中興路一段292號","121.546005","24.9691733333333","6500600","新店區"
"231063","645-TV","2018/03/09 19:59:49","新北市新店區黎明路64巷2號","121.502441666667","24.94613","6500600","新店區"
"231068","718-UY","2018/03/09 19:59:48","新北市新店區安華路28-1號","121.519411666667","24.9610866666667","6500600","新店區"
"231049","719-UM","2018/03/09 19:59:35","新北市新店區明德路38號","121.541421666667","24.977845","6500600","新店區"
"231062","720-UM","2018/03/09 19:59:49","新北市新店區華城路12號","121.528866666667","24.9578616666667","6500600","新店區"
"231044","897-TW","2018/03/09 19:59:36","新北市新店區寶慶街58巷10號","121.542076666667","24.9871683333333","6500600","新店區"
"231043","899-TW","2018/03/09 19:59:45","新北市新店區中正路263-1號","121.53847","24.97372","6500600","新店區"
"231066","AKT-0513","2018/03/09 19:59:41","新北市新店區柴埕路52巷3號","121.511673333333","24.96451","6500600","新店區"
"241011","013-R5","2018/03/09 19:59:52","新北市三重區三和路三段5號","121.496641666667","25.0704983333333","6500200","三重區"
"241028","022-UY","2018/03/09 19:59:35","新北市三重區中正南路6號","121.493423333333","25.060605","6500200","三重區"
"241008","059-VK","2018/03/09 19:59:46","新北市三重區永福街179巷26號","121.478095","25.0747716666667","6500200","三重區"
"241009","060-VK","2018/03/09 19:59:52","新北市三重區三和路四段386號","121.482293333333","25.0790483333333","6500200","三重區"
"241031","061-VK","2018/03/09 19:59:52","新北市三重區重新路四段184巷16號","121.48711","25.0549533333333","6500200","三重區"
"241015","062-VK","2018/03/09 19:59:38","新北市三重區三和路二段13號","121.50144","25.0667283333333","6500200","三重區"
"241017","063-VK","2018/03/09 19:59:35","新北市三重區自強路一段215號","121.49131","25.0684933333333","6500200","三重區"
"241024","065-VK","2018/03/09 19:59:35","新北市三重區力行路一段178巷15號","121.481426666667","25.0714083333333","6500200","三重區"
"241026","066-VK","2018/03/09 19:59:34","新北市三重區中央南路4號","121.50133","25.0630166666667","6500200","三重區"
"241002","090-VK","2018/03/09 19:59:47","新北市三重區仁愛街294號","121.492345","25.07918","6500200","三重區"
"241003","091-VK","2018/03/09 19:59:33","新北市三重區仁愛街445巷1號","121.48998","25.08224","6500200","三重區"
"241020","156-TC","2018/03/09 19:59:41","新北市三重區大智街163號","121.489896666667","25.07245","6500200","三重區"
"241005","262-UM","2018/03/09 19:59:38","新北市三重區五華街251號","121.48905","25.086265","6500200","三重區"
"241016","265-UM","2018/03/09 19:59:53","新北市三重區正義北路36巷41號","121.496063333333","25.06334","6500200","三重區"
"241022","267-UM","2018/03/09 19:59:38","新北市三重區過圳街31巷2號","121.489076666667","25.0605516666667","6500200","三重區"
"241018","268-UM","2018/03/09 19:59:50","新北市三重區正義北路244巷54號","121.494351666667","25.0677483333333","6500200","三重區"
"241032","269-UM","2018/03/09 19:59:47","新北市三重區朝陽街4巷1號","121.48363","25.056395","6500200","三重區"
"241013","270-UM","2018/03/09 19:59:44","新北市三重區三和路三段125巷42號","121.494143333333","25.0737966666667","6500200","三重區"
"241025","271-UM","2018/03/09 19:59:34","新北市三重區頂崁街210巷16號","121.476498333333","25.0677666666667","6500200","三重區"
"241007","398-BY","2018/03/09 19:59:49","新北市三重區溪尾街124-2號","121.489365","25.0794583333333","6500200","三重區"
"241035","462-BY","2018/03/09 19:59:39","新北市三重區大榮街9號","121.498223333333","25.063135","6500200","三重區"
"241004","475-VK","2018/03/09 19:58:35","新北市三重區五華街74號","121.493296666667","25.0819","6500200","三重區"
"241001","478-VK","2018/03/09 19:59:49","新北市三重區福隆路14號","121.491333333333","25.0778316666667","6500200","三重區"
"241030","480-VK","2018/03/09 19:59:35","新北市三重區重新路四段248-1號","121.486293333333","25.053405","6500200","三重區"
"241014","543-UM","2018/03/09 19:59:32","新北市三重區三和路二段115號","121.499151666667","25.0687383333333","6500200","三重區"
"241023","545-UM","2018/03/09 19:59:49","新北市三重區大有街1-1號","121.477698333333","25.0654416666667","6500200","三重區"
"241019","KEA-2593","2018/03/09 19:59:41","新北市三重區重陽路四段10號","121.490718333333","25.0688983333333","6500200","三重區"
"241006","887-TS","2018/03/09 19:59:40","新北市三重區永福街269號","121.481905","25.074045","6500200","三重區"
"241012","941-UM","2018/03/09 19:59:45","新北市三重區仁義街29號","121.499723333333","25.0763316666667","6500200","三重區"
"241029","942-UM","2018/03/09 19:59:38","新北市三重區重安街12號","121.490221666667","25.0582883333333","6500200","三重區"
"241033","AAC-255","2018/03/09 19:59:49","新北市三重區中興北街75號","121.469523333333","25.047685","6500200","三重區"
"235066","003-UY","2018/03/09 19:59:46","新北市中和區保平路336號","121.506698333333","25.0041783333333","6500300","中和區"
"235052","031-BX","2018/03/09 19:59:43","新北市中和區華新街30巷18號","121.506746666667","24.984095","6500300","中和區"
"235056","096-UM","2018/03/09 19:59:48","新北市中和區中山路三段170巷2弄1號","121.47295","25.0066466666667","6500300","中和區"
"235039","097-UM","2018/03/09 19:59:41","新北市中和區景平路278巷16弄24號","121.514465","24.9937133333333","6500300","中和區"
"235065","098-UM","2018/03/09 19:59:46","新北市中和區福美路270號","121.497983333333","25.0050733333333","6500300","中和區"
"235040","150-BY","2018/03/09 19:59:33","新北市中和區保健路10巷1弄2號","121.507846666667","24.99774","6500300","中和區"
"235058","151-BY","2018/03/09 19:59:54","新北市中和區員山路150巷2弄39號","121.481776666667","24.9974333333333","6500300","中和區"
"235055","183-VK","2018/03/09 19:59:35","新北市中和區民生街12巷2號","121.470703333333","25.0056233333333","6500300","中和區"
"235049","186-VK","2018/03/09 19:59:35","新北市中和區南華路11號","121.502275","24.9955933333333","6500300","中和區"
"235067","255-BX","2018/03/09 19:59:35","新北市中和區新生街220巷21號","121.482783333333","24.998545","6500300","中和區"
"235044","293-VK","2018/03/09 19:59:38","新北市中和區南山路148號","121.504138333333","24.9922383333333","6500300","中和區"
"235043","352-BY","2018/03/09 19:59:40","新北市中和區興南路二段159巷10號","121.50508","24.9832","6500300","中和區"
"235068","377-QA","2018/03/09 19:59:47","新北市中和區中山路二段250巷16號","121.497423333333","25.0030966666667","6500300","中和區"
"235050","4979-A6","2018/03/09 19:59:36","新北市中和區景平路155巷22號","121.51343","24.9915766666667","6500300","中和區"
"235069","4980-A6","2018/03/09 19:59:49","新北市中和區圓通路72號","121.500218333333","24.9972183333333","6500300","中和區"
"235054","640-BX","2018/03/09 19:59:38","新北市中和區莒光路179號","121.472665","24.9993316666667","6500300","中和區"
"235046","733-UM","2018/03/09 19:59:40","新北市中和區興南路一段93巷58弄7號","121.51045","24.98586","6500300","中和區"
"235041","802-TS","2018/03/09 19:59:32","新北市中和區安平路30號","121.509555","24.99471","6500300","中和區"
"235048","896-TW","2018/03/09 19:59:50","新北市中和區景新街424號","121.512958333333","24.9888833333333","6500300","中和區"
"235070","911-UM","2018/03/09 19:59:50","新北市中和區圓通路120-2號","121.49909","24.9959933333333","6500300","中和區"
"235051","157-BY","2018/03/09 19:59:48","新北市中和區中興街233巷10號","121.501395","24.989505","6500300","中和區"
"235037","AAC-213","2018/03/09 19:59:45","新北市中和區自立路16-2號","121.52213","24.9936533333333","6500300","中和區"
"235059","AAC-215","2018/03/09 19:59:43","新北市中和區圓通路353號","121.49144","24.990185","6500300","中和區"
"220068","013-TV","2018/03/09 19:59:42","新北市板橋區光復街222號","121.485236666667","25.0207466666667","6500100","板橋區"
"220065","072-UY","2018/03/09 19:59:38","新北市板橋區新府路150號","121.464958333333","25.0112666666667","6500100","板橋區"
"220106","075-UY","2018/03/09 19:59:47","新北市板橋區民治街52巷18號","121.478933333333","25.0330033333333","6500100","板橋區"
"220069","AAD-861","2018/03/09 19:59:43","新北市板橋區貴興路60號","121.456735","25.00303","6500100","板橋區"
"247024","893-R6","2018/03/09 19:59:38","新北市蘆洲區光明路106巷30號","121.463775","25.0873516666667","6501400","蘆洲區"
"247014","546-UM","2018/03/09 19:59:34","新北市蘆洲區成功路102號","121.472516666667","25.0821466666667","6501400","蘆洲區"
"247010","341-TH","2018/03/09 19:59:38","新北市三重區集賢路188號","121.483983333333","25.0881066666667","6501400","蘆洲區"
"247012","339-TH","2018/03/09 19:59:43","新北市蘆洲區民族路151號","121.479571666667","25.0879833333333","6501400","蘆洲區"
"247004","337-TH","2018/03/09 19:59:38","新北市蘆洲區長安街267巷9弄2號","121.457753333333","25.083355","6501400","蘆洲區"
"247006","336-TH","2018/03/09 19:59:38","新北市蘆洲區九芎街82號","121.466263333333","25.0794233333333","6501400","蘆洲區"
"247018","057-VK","2018/03/09 19:59:50","新北市蘆洲區民族路213號","121.478058333333","25.0894816666667","6501400","蘆洲區"
"247008","056-VK","2018/03/09 19:59:46","新北市蘆洲區信義路73巷16號","121.476123333333","25.0806183333333","6501400","蘆洲區"
"247020","053-VK","2018/03/09 19:59:47","新北市蘆洲區民義街88號","121.473628333333","25.0903333333333","6501400","蘆洲區"
"247016","007-UY","2018/03/09 19:59:43","新北市蘆洲區光華路15號","121.469526666667","25.08335","6501400","蘆洲區"
"247002","002-UY","2018/03/09 19:59:52","新北市蘆洲區長安街276號","121.45726","25.08712","6501400","蘆洲區"
"224010","AGQ-8101","2018/03/09 19:58:22","新北市瑞芳區金光路372號","121.848615","25.1102933333333","6501200","瑞芳區"
"227011","642-TC","2018/03/09 19:59:46","新北市雙溪區新基里新基南街25號","121.866248333333","25.0381566666667","6502500","雙溪區"
"227003","400-TW","2018/03/09 19:59:49","新北市雙溪區共和里東榮街5號","121.865413333333","25.0342283333333","6502500","雙溪區"
"222001","KEA-2212","2018/03/09 19:59:51","新北市深坑區北深路三段170號","121.60225","25.0035233333333","6501800","深坑區"
"208002","KEA-2872","2018/03/09 19:59:51","新北市金山區環金路87號","121.637148333333","25.2173416666667","6502700","金山區"
"208003","665-BX","2018/03/09 19:59:49","新北市金山區香園14號","121.634123333333","25.2534766666667","6502700","金山區"
"208001","761-BX","2018/03/09 19:59:39","新北市金山區南勢73號","121.625731666667","25.2201283333333","6502700","金山區"
"251004","009-UM","2018/03/09 19:59:43","新北市淡水區民族路50巷11號","121.46134","25.1357866666667","6501000","淡水區"
"251001","011-UM","2018/03/09 19:59:39","新北市淡水區淡金路一段20號","121.460225","25.1709316666667","6501000","淡水區"
"251002","012-UM","2018/03/09 19:59:53","新北市淡水區中正路一段156巷1號","121.420821666667","25.1799433333333","6501000","淡水區"
"251008","181-VK","2018/03/09 19:59:40","新北市淡水區淡海路72巷21號","121.424098333333","25.1810916666667","6501000","淡水區"
"251012","441-VK","2018/03/09 19:59:41","新北市淡水區下圭柔山71-3號","121.447398333333","25.2059983333333","6501000","淡水區"
"251005","443-VK","2018/03/09 19:59:43","新北市淡水區學府路136巷46號","121.452155","25.1726433333333","6501000","淡水區"
"251006","561-UM","2018/03/09 19:59:52","新北市淡水區水碓街75號","121.444848333333","25.177415","6501000","淡水區"
"251009","575-R6","2018/03/09 19:59:48","新北市淡水區英專路28巷2弄16號","121.445876666667","25.1695383333333","6501000","淡水區"
"251011","650-BX","2018/03/09 19:59:38","新北市淡水區崁頂55-3號","121.442293333333","25.1966333333333","6501000","淡水區"
"207003","550-UM","2018/03/09 19:59:50","新北市萬里區磺潭里公館崙5號","121.641901666667","25.21425","6502800","萬里區"
"207004","225-TW","2018/03/09 19:59:48","新北市萬里區北基里忠二街31號","121.6855","25.1757466666667","6502800","萬里區"
"252002","178-VK","2018/03/09 19:59:39","新北市三芝區三民街39巷5號","121.505456666667","25.2576283333333","6502100","三芝區"
"252001","292-VK","2018/03/09 19:59:37","新北市三芝區長安街89號","121.499648333333","25.2575616666667","6502100","三芝區"
"237004","KEA-2597","2018/03/09 19:59:33","新北市三峽區添福7-1號","121.371146666667","24.90788","6500900","三峽區"
"237007","153-BY","2018/03/09 19:59:40","新北市三峽區麻園46號","121.363655","24.921315","6500900","三峽區"
"237009","210-TH","2018/03/09 19:59:38","新北市三峽區民族街28巷7號","121.368803333333","24.9307116666667","6500900","三峽區"
"237012","275-BY","2018/03/09 19:59:34","新北市三峽區中華路3巷6-1號","121.374948333333","24.9312133333333","6500900","三峽區"
"237006","5529-G3","2018/03/09 19:59:44","新北市三峽區中正路二段168號","121.36595","24.9157183333333","6500900","三峽區"
"237015","649-BX","2018/03/09 19:59:42","新北市三峽區介壽路二段138巷1弄21號","121.396551666667","24.9335133333333","6500900","三峽區"
"237005","AKY-6261","2018/03/09 19:59:47","新北市三峽區民生街1巷29-7號","121.381408333333","24.93289","6500900","三峽區"
"236072","105-UM","2018/03/09 19:59:49","新北市土城區忠承路2號","121.442116666667","24.9683366666667","6501300","土城區"
"236043","107-UM","2018/03/09 19:59:42","新北市土城區學府路一段143巷1號","121.45381","24.9860016666667","6501300","土城區"
"236079","166-UM","2018/03/09 19:59:39","新北市土城區福安街68號","121.418331666667","24.9645","6501300","土城區"
"236031","253-BX","2018/03/09 19:59:34","新北市土城區中央路一段252號","121.444235","24.9846666666667","6501300","土城區"
"236026","269-VK","2018/03/09 19:59:49","新北市土城區中央路二段86號","121.442338333333","24.9787783333333","6501300","土城區"
"236015","270-VK","2018/03/09 19:59:39","新北市土城區廣福街123號","121.456293333333","24.9929583333333","6501300","土城區"
"236039","271-VK","2018/03/09 19:59:47","新北市土城區國際路52號","121.46633","24.978735","6501300","土城區"
"236022","401-BY","2018/03/09 19:59:35","新北市土城區延吉街137巷12弄4號","121.470728333333","24.9855533333333","6501300","土城區"
"236059","912-UM","2018/03/09 19:59:50","新北市土城區中央路一段195號","121.44602","24.98696","6501300","土城區"
"236050","913-UM","2018/03/09 19:59:35","新北市土城區金城路三段309號","121.47439","24.9909766666667","6501300","土城區"
"236063","915-UM","2018/03/09 19:59:45","新北市土城區金城路三段73巷4弄34號","121.466223333333","24.9883633333333","6501300","土城區"
"236055","AAC-216","2018/03/09 19:59:32","新北市土城區青雲路33號","121.460473333333","24.9883466666667","6501300","土城區"
"242034","AAC-296","2018/03/09 19:59:37","新北市新莊區建中街94號","121.446716666667","25.0366083333333","6500500","新莊區"
"242058","986-R7","2018/03/09 19:59:46","新北市新莊區八德街101號","121.424368333333","25.0212166666667","6500500","新莊區"
"242027","615-BX","2018/03/09 19:59:40","新北市新莊區立信三街12巷16號","121.444121666667","25.0512266666667","6500500","新莊區"
"242025","613-BX","2018/03/09 19:59:49","新北市新莊區五工一路87巷11號","121.460901666667","25.0668633333333","6500500","新莊區"
"242029","612-BX","2018/03/09 19:59:46","新北市新莊區中榮街152巷13號","121.445878333333","25.0535","6500500","新莊區"
"242041","566-BX","2018/03/09 19:59:51","新北市新莊區青山路一段28巷1號","121.410793333333","25.027905","6500500","新莊區"
"242046","497-BY","2018/03/09 19:59:46","新北市新莊區裕民街19巷4號","121.419658333333","25.0252516666667","6500500","新莊區"
"242050","441-UM","2018/03/09 19:59:44","新北市新莊區龍安路466號","121.426985","25.01765","6500500","新莊區"
"242056","440-UM","2018/03/09 19:59:51","新北市新莊區中正路347巷15號","121.447361666667","25.0343983333333","6500500","新莊區"
"242037","415-TV","2018/03/09 19:59:45","新北市新莊區建安街23號","121.428983333333","25.0260383333333","6500500","新莊區"
"242007","413-TV","2018/03/09 19:59:50","新北市新莊區思源路585號","121.459665","25.059265","6500500","新莊區"
"242044","400-BY","2018/03/09 19:59:47","新北市新莊區中正路746巷43-3號","121.41184","25.0243716666667","6500500","新莊區"
"242060","353-BY","2018/03/09 19:59:41","新北市新莊區瓊泰路39號","121.443778333333","25.02861","6500500","新莊區"
"242039","133-UY","2018/03/09 19:59:51","新北市新莊區民安路299巷19號","121.428855","25.02307","6500500","新莊區"
"242032","135-UY","2018/03/09 19:59:31","新北市新莊區公園一路39號","121.443281666667","25.03562","6500500","新莊區"
"242048","172-VK","2018/03/09 19:59:48","新北市新莊區富國路109巷3號","121.42372","25.0252033333333","6500500","新莊區"
"242011","173-VK","2018/03/09 19:59:44","新北市新莊區中港路531巷118號","121.449888333333","25.051675","6500500","新莊區"
"242005","176-VK","2018/03/09 19:59:49","新北市新莊區化成路364巷26號","121.466956666667","25.0493583333333","6500500","新莊區"
"242015","346-TH","2018/03/09 19:59:35","新北市新莊區中平路16號","121.444763333333","25.042895","6500500","新莊區"
"242021","348-TH","2018/03/09 19:59:35","新北市新莊區建中街28號","121.44903","25.037495","6500500","新莊區"
"242002","349-TH","2018/03/09 19:59:44","新北市新莊區中正路283號","121.448926666667","25.035295","6500500","新莊區"
"242019","350-TH","2018/03/09 19:59:41","新北市新莊區民生街28號","121.456311666667","25.04232","6500500","新莊區"
"242013","351-TH","2018/03/09 19:59:44","新北市新莊區中信街16號","121.45098","25.0508083333333","6500500","新莊區"
"238015","755-BX","2018/03/09 19:59:37","新北市樹林區中山路三段210-2號","121.380783333333","24.966755","6500700","樹林區"
"238021","KEA-2539","2018/03/09 19:59:43","新北市樹林區佳園路三段101巷62弄19號","121.393421666667","24.9491","6500700","樹林區"
"238017","283-BY","2018/03/09 19:59:44","新北市樹林區保安街二段37-1號","121.416148333333","25.000145","6500700","樹林區"
"221008","489-VK","2018/03/09 19:59:38","新北市汐止區忠一街9巷7號","121.620533333333","25.0731966666667","6501100","汐止區"
"221036","130-UY","2018/03/09 19:59:53","新北市汐止區忠孝東路258巷11弄12號","121.663838333333","25.0672916666667","6501100","汐止區"
"221010","269-BY","2018/03/09 19:59:45","新北市汐止區八連路一段86巷10號","121.644641666667","25.0803716666667","6501100","汐止區"
"221012","278-VK","2018/03/09 19:59:34","新北市汐止區大同路三段331號","121.675003333333","25.07375","6501100","汐止區"
"221023","279-VK","2018/03/09 19:59:49","新北市汐止區明峰街216號","121.627153333333","25.06885","6501100","汐止區"
"221032","280-BY","2018/03/09 19:59:39","新北市汐止區橫科路4巷1弄10號","121.617878333333","25.0507983333333","6501100","汐止區"
"221027","281-BY","2018/03/09 19:59:41","新北市汐止區中正路85號","121.661273333333","25.069465","6501100","汐止區"
"221033","297-VK","2018/03/09 19:59:46","新北市汐止區東勢街201巷104號","121.633436666667","25.042955","6501100","汐止區"
"221029","298-VK","2018/03/09 19:59:36","新北市汐止區樟樹一路137巷26號","121.641031666667","25.0659833333333","6501100","汐止區"
"221021","299-VK","2018/03/09 19:59:49","新北市汐止區水源路一段179號","121.65508","25.0617566666667","6501100","汐止區"
"221031","353-TW","2018/03/09 19:59:43","新北市汐止區福德一路260號","121.633083333333","25.0643816666667","6501100","汐止區"
"221035","622-UM","2018/03/09 19:59:40","新北市汐止區長江街57巷6號","121.656271666667","25.0718233333333","6501100","汐止區"
"221025","623-UM","2018/03/09 19:59:48","新北市汐止區秀峰路118號","121.660026666667","25.0634333333333","6501100","汐止區"
"221038","646-BX","2018/03/09 19:59:46","新北市汐止區忠孝東路512號","121.666816666667","25.0754583333333","6501100","汐止區"
"221018","753-BX","2018/03/09 19:59:47","新北市汐止區茄苳路125號","121.667236666667","25.0705016666667","6501100","汐止區"
"220080","200-UY","2018/03/09 19:59:46","新北市板橋區大觀路二段179巷33號","121.446381666667","24.999465","6500100","板橋區"
"220101","245-BX","2018/03/09 19:59:26","新北市板橋區莒光路180巷3號","121.473711666667","25.0228016666667","6500100","板橋區"
"220098","257-TC","2018/03/09 19:59:38","新北市板橋區漢生西路165巷34號","121.462155","25.0234216666667","6500100","板橋區"
"220072","277-BY","2018/03/09 19:59:34","新北市板橋區金門街229號","121.43241","24.9895883333333","6500100","板橋區"
"220094","280-UM","2018/03/09 19:59:52","新北市板橋區陽明街243號","121.46291","25.0244833333333","6500100","板橋區"
"220071","283-VK","2018/03/09 19:59:48","新北市板橋區和平路174巷1弄2號","121.464203333333","24.9950333333333","6500100","板橋區"
"220053","285-VK","2018/03/09 19:59:48","新北市板橋區永豐街67號","121.473825","25.018585","6500100","板橋區"
"220083","286-VK","2018/03/09 19:59:46","新北市板橋區僑中二街88巷12號","121.445848333333","25.0095033333333","6500100","板橋區"
"220081","287-VK","2018/03/09 19:59:41","新北市板橋區僑中一街80巷10弄1號","121.448","25.0128366666667","6500100","板橋區"
"220090","288-VK","2018/03/09 19:59:35","新北市板橋區新海路109巷1弄2號","121.46071","25.022385","6500100","板橋區"
"220061","293-UM","2018/03/09 19:59:38","新北市板橋區觀光街90號","121.469456666667","25.0168683333333","6500100","板橋區"
"220062","295-UM","2018/03/09 19:59:31","新北市板橋區萬安街85巷18-1號","121.484133333333","25.025765","6500100","板橋區"
"220084","296-UM","2018/03/09 19:59:46","新北市板橋區溪崑二街110號","121.426368333333","24.98864","6500100","板橋區"
"242017","281-VK","2018/03/09 19:59:34","新北市新莊區中華路二段45巷5號","121.453078333333","25.04644","6500500","新莊區"
"220075","303-R5","2018/03/09 19:59:21","新北市板橋區金華街10巷48弄47號","121.458648333333","25.0201066666667","6500100","板橋區"
"220092","307-R5","2018/03/09 19:59:43","新北市板橋區四維路259巷55號","121.46127","25.0270683333333","6500100","板橋區"
"220064","486-VK","2018/03/09 19:59:43","新北市板橋區館前東路132號","121.464033333333","25.00776","6500100","板橋區"
"220089","487-VK","2018/03/09 19:59:46","新北市板橋區新海路385巷34弄2號","121.457411666667","25.0255766666667","6500100","板橋區"
"220088","491-VK","2018/03/09 19:59:38","新北市板橋區大同街67號","121.479311666667","25.0279916666667","6500100","板橋區"
"220035","560-BX","2018/03/09 19:59:45","新北市板橋區新生街53巷18號","121.457596666667","25.021575","6500100","板橋區"
"220103","561-BX","2018/03/09 19:59:38","新北市板橋區陽明街29巷1弄18號","121.464363333333","25.0219366666667","6500100","板橋區"
"220055","568-UM","2018/03/09 19:59:42","新北市板橋區仁愛路62巷8號","121.459906666667","24.998835","6500100","板橋區"
"220091","637-BX","2018/03/09 19:59:49","新北市板橋區文聖街89巷27號","121.478486666667","25.0306583333333","6500100","板橋區"
"220057","686-BX","2018/03/09 19:59:42","新北市板橋區四川路二段2號","121.456606666667","24.9965783333333","6500100","板橋區"
"220093","689-BX","2018/03/09 19:59:52","新北市板橋區長江路三段106號","121.474873333333","25.0342683333333","6500100","板橋區"
"220054","741-BX","2018/03/09 19:59:50","新北市板橋區忠孝路忠義巷7號","121.465525","25.0036633333333","6500100","板橋區"
"220102","KEA-2699","2018/03/09 19:59:36","新北市板橋區仁化街42巷26號","121.475643333333","25.03083","6500100","板橋區"
"220067","830-TW","2018/03/09 19:59:32","新北市板橋區漢生東路161巷3號","121.469635","25.0126933333333","6500100","板橋區"
"220096","831-TW","2018/03/09 19:59:36","新北市板橋區文化路一段370號","121.46986","25.023505","6500100","板橋區"
"220074","895-R6","2018/03/09 19:59:46","新北市板橋區民權路65號","121.461708333333","25.0112766666667","6500100","板橋區"
"220073","985-R7","2018/03/09 19:59:48","新北市板橋區館前西路162號","121.452806666667","25.008545","6500100","板橋區"
"220097","AAC-210","2018/03/09 19:59:48","新北市板橋區光正街45巷27號","121.46176","25.0164","6500100","板橋區"
"220070","AAC-253","2018/03/09 19:59:46","新北市板橋區四川路一段102號","121.459683333333","25.004715","6500100","板橋區"
