"lineid","car","time","location","longitude","latitude","cityid","cityname"
"234046","148-BY","2018/03/09 20:09:32","新北市永和區得和路326號","121.52322","24.9995833333333","6500400","永和區"
"234007","207-UY","2018/03/09 20:09:47","新北市永和區保順路37巷13號","121.502983333333","25.0103266666667","6500400","永和區"
"234081","298-R6","2018/03/09 20:09:33","新北市永和區國中路104巷9號","121.52457","25.0070116666667","6500400","永和區"
"234038","336-UY","2018/03/09 20:09:49","新北市永和區成功路一段60號","121.526856666667","25.0038633333333","6500400","永和區"
"234064","337-UY","2018/03/09 20:09:39","新北市永和區永元路56號","121.522308333333","25.00117","6500400","永和區"
"234086","338-UY","2018/03/09 20:09:41","新北市永和區福和路247號","121.518091666667","25.0074183333333","6500400","永和區"
"234070","552-UM","2018/03/09 20:09:38","新北市永和區福和路221號","121.51887","25.0075366666667","6500400","永和區"
"234017","745-BX","2018/03/09 20:09:45","新北市永和區文化路154號","121.512395","25.0153433333333","6500400","永和區"
"234030","746-BX","2018/03/09 20:09:36","新北市永和區民權路49巷17號","121.520903333333","24.9973433333333","6500400","永和區"
"234054","KEA-2590","2018/03/09 20:09:42","新北市永和區博愛街15號","121.517108333333","25.0158416666667","6500400","永和區"
"234013","KEA-2591","2018/03/09 20:09:42","新北市永和區永貞路395號","121.507783333333","25.008905","6500400","永和區"
"234061","AAD-866","2018/03/09 20:09:30","新北市永和區中正路129巷7號","121.515453333333","24.9982166666667","6500400","永和區"
"234042","862-TW","2018/03/09 20:09:46","新北市永和區雙和街52巷1號","121.508966666667","25.00333","6500400","永和區"
"234050","863-TW","2018/03/09 20:09:43","新北市永和區環河西路二段87號","121.506703333333","25.014945","6500400","永和區"
"234011","9373-KE","2018/03/09 20:09:49","新北市永和區保生路55-1號","121.504508333333","25.0109083333333","6500400","永和區"
"249005","172-UM","2018/03/09 20:09:51","新北市八里區下罟子58-3號","121.388963333333","25.1387116666667","6502300","八里區"
"249001","173-UM","2018/03/09 20:09:53","新北市八里區中華路二段322號","121.403321666667","25.1480016666667","6502300","八里區"
"249004","303-UY","2018/03/09 20:09:43","新北市八里區中山路一段418-7號","121.41075","25.1583433333333","6502300","八里區"
"249002","305-UY","2018/03/09 20:09:46","新北市五股區成泰路四段45-1號","121.456895","25.111935","6502300","八里區"
"249003","593-UM","2018/03/09 20:09:48","新北市八里區中山路二段540巷6號","121.397326666667","25.14691","6502300","八里區"
"248016","026-BX","2018/03/09 20:09:46","新北市五股區天乙路58號","121.448215","25.1045133333333","6501500","五股區"
"248008","095-VK","2018/03/09 20:09:45","新北市三重區中正北路598巷5號","121.469688333333","25.07149","6501500","五股區"
"248012","247-BX","2018/03/09 20:09:36","新北市五股區六合街118號","121.430273333333","25.09079","6501500","五股區"
"248014","261-SL","2018/03/09 20:09:34","新北市五股區五福路14巷27號","121.435386666667","25.088885","6501500","五股區"
"248004","677-BX","2018/03/09 20:09:47","新北市五股區成泰路一段149-7號","121.435325","25.0737883333333","6501500","五股區"
"248002","678-BX","2018/03/09 20:09:48","新北市五股區成泰路三段285號","121.447305","25.094265","6501500","五股區"
"248010","682-TV","2018/03/09 20:09:45","新北市五股區成泰路一段7巷66號","121.432618333333","25.0678416666667","6501500","五股區"
"234023","9380-KE","2018/03/09 20:09:38","新北市永和區中正路654巷60號","121.518518333333","25.0084933333333","6500400","永和區"
"234077","969-R7","2018/03/09 20:09:48","新北市永和區智光街107巷15號","121.515838333333","24.9959066666667","6500400","永和區"
"234074","AAC-211","2018/03/09 20:09:50","新北市永和區豫溪街149號","121.520978333333","25.01037","6500400","永和區"
"234067","AAC-212","2018/03/09 20:09:37","新北市永和區保平路214巷12弄2號","121.509051666667","25.0067533333333","6500400","永和區"
"234003","AAC-295","2018/03/09 20:09:51","新北市永和區自強街39號","121.516053333333","25.00813","6500400","永和區"
"243012","AAD-798","2018/03/09 20:09:44","新北市泰山區楓江路58-1號","121.436515","25.063015","6501600","泰山區"
"243011","297-R6","2018/03/09 20:09:48","新北市新莊區壽山路160巷4號","121.41724","25.03164","6501600","泰山區"
"243015","380-SR","2018/03/09 20:09:45","新北市泰山區明志路一段412號","121.430711666667","25.0568466666667","6501600","泰山區"
"243014","421-VK","2018/03/09 20:09:38","新北市泰山區明志路一段56號","121.433503333333","25.0648533333333","6501600","泰山區"
"243010","KEA-2215","2018/03/09 20:09:47","新北市泰山區明志路二段136巷16號","121.42671","25.05144","6501600","泰山區"
"243009","KEA-2216","2018/03/09 20:09:44","新北市泰山區泰林路二段118號","121.434631666667","25.0593633333333","6501600","泰山區"
"243013","646-TV","2018/03/09 20:09:53","新北市泰山區民國街21號","121.425591666667","25.043455","6501600","泰山區"
"243016","680-BX","2018/03/09 20:09:47","新北市泰山區貴陽街8號","121.421605","25.0328816666667","6501600","泰山區"
"222003","436-BY","2018/03/09 20:09:48","新北市深坑區埔新街67號","121.620125","25.0022933333333","6501800","深坑區"
"222002","659-BX","2018/03/09 20:09:52","新北市深坑區北深路三段158巷32弄1號","121.601621666667","25.0045083333333","6501800","深坑區"
"231060","001-UM","2018/03/09 20:09:35","新北市新店區安康路三段230-1號","121.488053333333","24.9518116666667","6500600","新店區"
"231041","002-UM","2018/03/09 20:09:47","新北市新店區中正路460號","121.53403","24.9793833333333","6500600","新店區"
"231059","046-UY","2018/03/09 20:09:38","新北市新店區安德街60巷27號","121.511123333333","24.963205","6500600","新店區"
"231061","047-UY","2018/03/09 20:09:48","新北市新店區安興路32號","121.515768333333","24.9703733333333","6500600","新店區"
"231051","107-UY","2018/03/09 20:09:47","新北市新店區中央路153號","121.530068333333","24.9729416666667","6500600","新店區"
"231048","108-UY","2018/03/09 20:09:54","新北市新店區寶橋路61號","121.545146666667","24.9750533333333","6500600","新店區"
"231053","187-VK","2018/03/09 20:09:40","新北市新店區新烏路三段寶島巷2弄3號","121.55204","24.8986216666667","6500600","新店區"
"231050","KEA-2219","2018/03/09 20:09:32","新北市新店區北新路一段96巷23號","121.542826666667","24.9686716666667","6500600","新店區"
"221015","KEA-2785","2018/03/09 20:09:40","新北市汐止區建成路13號","121.664561666667","25.072575","6501100","汐止區"
"231057","256-BX","2018/03/09 20:09:51","新北市新店區花園一路一段2號","121.553115","24.9324216666667","6500600","新店區"
"231046","278-BY","2018/03/09 20:09:32","新北市新店區薏仁坑路自強巷6號","121.496633333333","24.9585033333333","6500600","新店區"
"231054","AAD-862","2018/03/09 20:09:51","新北市新店區檳榔路50號","121.541778333333","24.9636216666667","6500600","新店區"
"231056","3713-VJ","2018/03/09 20:09:46","新北市新店區中正路156號","121.541573333333","24.97178","6500600","新店區"
"231055","4716-K9","2018/03/09 20:09:49","新北市新店區中華路48巷21號","121.540556666667","24.96904","6500600","新店區"
"231067","4772-VM","2018/03/09 20:09:36","新北市新店區溪洲路85號","121.533216666667","24.9609733333333","6500600","新店區"
"231065","512-UM","2018/03/09 20:09:42","新北市新店區安祥路106巷42號","121.476993333333","24.961715","6500600","新店區"
"231064","515-UM","2018/03/09 20:09:45","新北市新店區安康路二段100巷5號","121.513236666667","24.9637666666667","6500600","新店區"
"231045","617-UM","2018/03/09 20:09:51","新北市新店區北宜路一段121-2號","121.54041","24.9538166666667","6500600","新店區"
"231040","619-UM","2018/03/09 20:09:40","新北市新店區中正路106號","121.543125","24.9705916666667","6500600","新店區"
"231042","641-BX","2018/03/09 20:09:43","新北市新店區中興路二段224號","121.548055","24.9751266666667","6500600","新店區"
"231063","645-TV","2018/03/09 20:09:49","新北市新店區黎明路51巷1號","121.501995","24.9493383333333","6500600","新店區"
"231068","718-UY","2018/03/09 20:09:28","新北市新店區寶中路45號","121.545268333333","24.9789433333333","6500600","新店區"
"231049","719-UM","2018/03/09 20:09:36","新北市新店區北新路二段97巷9弄1號","121.542213333333","24.974015","6500600","新店區"
"231062","720-UM","2018/03/09 20:09:49","新北市新店區安康路二段341巷3號","121.497618333333","24.9555616666667","6500600","新店區"
"231044","897-TW","2018/03/09 20:09:36","新北市新店區寶元路一段15巷11號","121.541993333333","24.98721","6500600","新店區"
"231043","899-TW","2018/03/09 20:09:45","新北市新店區民族路184號","121.536931666667","24.97607","6500600","新店區"
"231066","AKT-0513","2018/03/09 20:09:41","新北市新店區安民街341號","121.517071666667","24.975005","6500600","新店區"
"241011","013-R5","2018/03/09 20:09:52","新北市三重區仁愛街57號","121.496368333333","25.0720683333333","6500200","三重區"
"241028","022-UY","2018/03/09 20:09:35","新北市三重區仁化街117號","121.494573333333","25.05769","6500200","三重區"
"241008","059-VK","2018/03/09 20:09:46","新北市三重區永福街197巷37弄3號","121.478288333333","25.0744233333333","6500200","三重區"
"241009","060-VK","2018/03/09 20:09:32","新北市三重區三和路四段382巷153號","121.479036666667","25.07807","6500200","三重區"
"241031","061-VK","2018/03/09 20:09:32","新北市三重區過圳街9-1號","121.488756666667","25.06006","6500200","三重區"
"241015","062-VK","2018/03/09 20:09:35","新北市三重區福德北路43號","121.502321666667","25.06492","6500200","三重區"
"241017","063-VK","2018/03/09 20:09:35","新北市三重區長壽西街169號","121.492618333333","25.0665616666667","6500200","三重區"
"241024","065-VK","2018/03/09 20:09:35","新北市三重區中正北路284號","121.480543333333","25.0686366666667","6500200","三重區"
"241026","066-VK","2018/03/09 20:09:34","新北市三重區福德南路65巷1號","121.502426666667","25.0605233333333","6500200","三重區"
"241002","090-VK","2018/03/09 20:09:47","新北市三重區仁義街210-1號","121.496365","25.0824016666667","6500200","三重區"
"241003","091-VK","2018/03/09 20:09:33","新北市三重區富華街18號","121.48959","25.0824383333333","6500200","三重區"
"241020","156-TC","2018/03/09 20:09:41","新北市三重區三和路三段168號","121.492693333333","25.0730916666667","6500200","三重區"
"241005","262-UM","2018/03/09 20:09:31","新北市三重區碧華街294巷16號","121.488753333333","25.0846","6500200","三重區"
"241016","265-UM","2018/03/09 20:09:33","新北市三重區中正北路25巷6號","121.49331","25.062795","6500200","三重區"
"241022","267-UM","2018/03/09 20:09:38","新北市三重區新北大道一段66號","121.487261666667","25.0614916666667","6500200","三重區"
"241018","268-UM","2018/03/09 20:09:50","新北市三重區正義北路256巷127號","121.493285","25.067825","6500200","三重區"
"241032","269-UM","2018/03/09 20:09:47","新北市三重區捷運路67號","121.48339","25.05556","6500200","三重區"
"241013","270-UM","2018/03/09 20:09:44","新北市三重區三和路三段151巷56號","121.493806666667","25.0743483333333","6500200","三重區"
"241025","271-UM","2018/03/09 20:09:38","新北市三重區中正北路253號","121.47534","25.0707316666667","6500200","三重區"
"241007","398-BY","2018/03/09 20:09:49","新北市三重區三和路四段111-10號","121.48659","25.0775566666667","6500200","三重區"
"241035","462-BY","2018/03/09 20:09:39","新北市三重區文化北路26巷15號","121.498513333333","25.0643516666667","6500200","三重區"
"241004","475-VK","2018/03/09 20:09:35","新北市三重區自強路四段79號","121.490875","25.0791066666667","6500200","三重區"
"241001","478-VK","2018/03/09 20:09:49","新北市三重區三和路四段89巷24號","121.490095","25.0759933333333","6500200","三重區"
"241030","480-VK","2018/03/09 20:09:35","新北市三重區成功路145巷35號","121.4878","25.0531433333333","6500200","三重區"
"241014","543-UM","2018/03/09 20:09:32","新北市三重區長樂街114號","121.501648333333","25.069505","6500200","三重區"
"241023","545-UM","2018/03/09 20:09:49","新北市三重區頂崁街216號","121.477048333333","25.0679416666667","6500200","三重區"
"241019","KEA-2593","2018/03/09 20:09:41","新北市三重區自強路二段33巷15號","121.49013","25.0696566666667","6500200","三重區"
"241006","887-TS","2018/03/09 20:09:39","新北市三重區力行路二段49-1號","121.482028333333","25.0741983333333","6500200","三重區"
"241012","941-UM","2018/03/09 20:09:45","新北市三重區仁愛街125巷91號","121.498218333333","25.0760566666667","6500200","三重區"
"241029","942-UM","2018/03/09 20:09:38","新北市三重區光明路32巷16號","121.491741666667","25.0587166666667","6500200","三重區"
"241033","AAC-255","2018/03/09 20:09:49","新北市三重區光復路一段70號","121.471795","25.0493166666667","6500200","三重區"
"235066","003-UY","2018/03/09 20:09:46","新北市中和區水源路128號","121.50772","25.0031066666667","6500300","中和區"
"235039","097-UM","2018/03/09 20:09:52","新北市中和區大勇街34號","121.517383333333","24.9934716666667","6500300","中和區"
"235065","098-UM","2018/03/09 20:09:46","新北市中和區永和路90巷4弄2號","121.497585","25.0060383333333","6500300","中和區"
"235040","150-BY","2018/03/09 20:09:13","新北市中和區保健路67巷6弄17號","121.510373333333","24.9971033333333","6500300","中和區"
"235068","377-QA","2018/03/09 20:09:44","新北市中和區福祥路101號","121.498885","25.00627","6500300","中和區"
"235050","4979-A6","2018/03/09 20:09:36","新北市中和區景新街323-1號","121.511321666667","24.9920816666667","6500300","中和區"
"235069","4980-A6","2018/03/09 20:09:49","新北市中和區景新街64巷7弄11號","121.504413333333","24.9985933333333","6500300","中和區"
"235070","911-UM","2018/03/09 20:09:30","新北市中和區中正路304號","121.49418","24.9941033333333","6500300","中和區"
"235051","157-BY","2018/03/09 20:09:48","新北市中和區景安路220巷6-1號","121.503158333333","24.9910833333333","6500300","中和區"
"235037","AAC-213","2018/03/09 20:09:45","新北市中和區自強路20號","121.52017","24.99543","6500300","中和區"
"235059","AAC-215","2018/03/09 20:09:43","新北市中和區圓通路335巷33弄19號","121.492996666667","24.9888083333333","6500300","中和區"
"220068","013-TV","2018/03/09 20:09:51","新北市板橋區中山路二段290號","121.479655","25.01883","6500100","板橋區"
"220069","AAD-861","2018/03/09 20:09:43","新北市板橋區大明街25巷4弄7號","121.457753333333","25.0020783333333","6500100","板橋區"
"247024","893-R6","2018/03/09 20:09:38","新北市蘆洲區光榮路120巷8弄35號","121.464801666667","25.08801","6501400","蘆洲區"
"247014","546-UM","2018/03/09 20:09:34","新北市蘆洲區中山二路243號","121.470151666667","25.0799566666667","6501400","蘆洲區"
"247022","500-BY","2018/03/09 20:09:18","新北市蘆洲區三民路169號","121.471135","25.0871","6501400","蘆洲區"
"247010","341-TH","2018/03/09 20:09:38","新北市蘆洲區集賢路400號","121.480215","25.08212","6501400","蘆洲區"
"247012","339-TH","2018/03/09 20:09:49","新北市蘆洲區民族路250巷7號","121.47948","25.0888966666667","6501400","蘆洲區"
"247004","337-TH","2018/03/09 20:09:50","新北市蘆洲區長安街218號","121.458338333333","25.0844833333333","6501400","蘆洲區"
"247006","336-TH","2018/03/09 20:09:38","新北市蘆洲區永安南路二段16巷17弄18號","121.467525","25.0779366666667","6501400","蘆洲區"
"247018","057-VK","2018/03/09 20:09:36","新北市蘆洲區民族路314巷11-2號","121.478048333333","25.0905116666667","6501400","蘆洲區"
"247008","056-VK","2018/03/09 20:09:36","新北市蘆洲區集賢路422號","121.479896666667","25.0811083333333","6501400","蘆洲區"
"247020","053-VK","2018/03/09 20:09:47","新北市蘆洲區民義街82號","121.47344","25.090365","6501400","蘆洲區"
"247016","007-UY","2018/03/09 20:09:43","新北市蘆洲區光華路188號","121.464756666667","25.08195","6501400","蘆洲區"
"247002","002-UY","2018/03/09 20:09:52","新北市蘆洲區長榮路269巷32號","121.459368333333","25.08604","6501400","蘆洲區"
"224010","AGQ-8101","2018/03/09 20:09:42","新北市瑞芳區汽車路17號","121.845501666667","25.1106783333333","6501200","瑞芳區"
"222001","KEA-2212","2018/03/09 20:09:50","新北市深坑區北深路三段204號","121.60135","25.0037183333333","6501800","深坑區"
"208002","KEA-2872","2018/03/09 20:09:31","新北市金山區環金路462號","121.630103333333","25.2248133333333","6502700","金山區"
"208003","665-BX","2018/03/09 20:09:49","新北市金山區永興里忠義路29-1號","121.63051","25.2635483333333","6502700","金山區"
"251004","009-UM","2018/03/09 20:09:34","新北市淡水區民族路29巷60號","121.461945","25.13682","6501000","淡水區"
"251001","011-UM","2018/03/09 20:09:39","新北市淡水區北新路一段2-15號","121.453795","25.1803466666667","6501000","淡水區"
"251002","012-UM","2018/03/09 20:09:33","新北市淡水區中正路288號","121.437651666667","25.1719516666667","6501000","淡水區"
"251008","181-VK","2018/03/09 20:09:40","新北市淡水區淡海路72巷28弄9號","121.425198333333","25.182275","6501000","淡水區"
"251010","413-VK","2018/03/09 20:09:34","新北市淡水區崁頂五路303號","121.423935","25.1971533333333","6501000","淡水區"
"251012","441-VK","2018/03/09 20:09:41","新北市淡水區下圭柔山56巷1號","121.447091666667","25.20483","6501000","淡水區"
"251006","561-UM","2018/03/09 20:09:51","新北市淡水區北新路141巷29號","121.44817","25.1795633333333","6501000","淡水區"
"251009","575-R6","2018/03/09 20:09:48","新北市淡水區清水街1-5號","121.445265","25.1703683333333","6501000","淡水區"
"251003","673-BX","2018/03/09 20:09:48","新北市淡水區新市一路二段260號","121.443575","25.182905","6501000","淡水區"
"207003","550-UM","2018/03/09 20:09:51","新北市萬里區大鵬里萬里加投166號","121.643381666667","25.215555","6502800","萬里區"
"207004","225-TW","2018/03/09 20:09:48","新北市萬里區北基里大勇路12號","121.681813333333","25.1765633333333","6502800","萬里區"
"252002","178-VK","2018/03/09 20:09:39","新北市三芝區三民街2號","121.504016666667","25.258015","6502100","三芝區"
"252001","292-VK","2018/03/09 20:09:37","新北市三芝區公正街9號","121.499735","25.2574933333333","6502100","三芝區"
"237012","275-BY","2018/03/09 20:09:34","新北市三峽區中華路48巷16號","121.371115","24.93008","6500900","三峽區"
"237006","5529-G3","2018/03/09 20:09:44","新北市三峽區嘉添1-3號","121.367926666667","24.9117566666667","6500900","三峽區"
"237015","649-BX","2018/03/09 20:09:42","新北市三峽區介壽路二段138巷1弄98-8號","121.399031666667","24.93218","6500900","三峽區"
"237005","AKY-6261","2018/03/09 20:09:47","新北市三峽區三樹路98巷121號","121.382675","24.9383033333333","6500900","三峽區"
"236072","105-UM","2018/03/09 20:09:49","新北市土城區大安路2號","121.432831666667","24.9655016666667","6501300","土城區"
"236043","107-UM","2018/03/09 20:09:42","新北市土城區學府路一段164巷21號","121.453485","24.9873916666667","6501300","土城區"
"236079","166-UM","2018/03/09 20:09:39","新北市土城區民族街42號","121.418586666667","24.9635866666667","6501300","土城區"
"236031","253-BX","2018/03/09 20:09:34","新北市土城區中央路一段118巷1弄9號","121.445918333333","24.98792","6501300","土城區"
"236026","269-VK","2018/03/09 20:09:49","新北市土城區裕生路102巷28號","121.446013333333","24.9849166666667","6501300","土城區"
"236015","270-VK","2018/03/09 20:09:39","新北市土城區廣興街19號","121.455906666667","24.9916883333333","6501300","土城區"
"236039","271-VK","2018/03/09 20:09:41","新北市土城區延吉街296巷2號","121.464518333333","24.98425","6501300","土城區"
"236022","401-BY","2018/03/09 20:09:35","新北市土城區延吉街87巷7號","121.47227","24.9868216666667","6501300","土城區"
"236059","912-UM","2018/03/09 20:09:50","新北市土城區中央路二段137號","121.44204","24.9771233333333","6501300","土城區"
"236050","913-UM","2018/03/09 20:09:53","新北市土城區清水路156號","121.459401666667","24.98144","6501300","土城區"
"236063","915-UM","2018/03/09 20:09:45","新北市土城區立德路135巷5弄1號","121.464925","24.98697","6501300","土城區"
"236055","AAC-216","2018/03/09 20:09:33","新北市土城區中華路一段14號","121.447748333333","24.9904266666667","6501300","土城區"
"242034","AAC-296","2018/03/09 20:09:38","新北市新莊區華興街38號","121.446118333333","25.0359783333333","6500500","新莊區"
"242058","986-R7","2018/03/09 20:09:46","新北市新莊區八德街169號","121.423308333333","25.0190583333333","6500500","新莊區"
"242054","751-BX","2018/03/09 20:09:40","新北市新莊區西盛街387巷34弄5號","121.428585","25.0129133333333","6500500","新莊區"
"242027","615-BX","2018/03/09 20:09:40","新北市新莊區中平路183號","121.444831666667","25.0493416666667","6500500","新莊區"
"242025","613-BX","2018/03/09 20:09:49","新北市新莊區五工路66號","121.4587","25.0638833333333","6500500","新莊區"
"242029","612-BX","2018/03/09 20:09:46","新北市新莊區中原路301號","121.447426666667","25.054375","6500500","新莊區"
"242041","566-BX","2018/03/09 20:09:31","新北市新莊區壽山路61-2號","121.410791666667","25.03268","6500500","新莊區"
"242046","497-BY","2018/03/09 20:09:46","新北市新莊區裕民街85巷20號","121.419563333333","25.023195","6500500","新莊區"
"242050","441-UM","2018/03/09 20:09:44","新北市新莊區民安西路194號","121.425908333333","25.01544","6500500","新莊區"
"242056","440-UM","2018/03/09 20:09:31","新北市新莊區新莊路649巷15弄13號","121.445548333333","25.0315766666667","6500500","新莊區"
"242037","415-TV","2018/03/09 20:09:45","新北市新莊區建安街7號","121.42872","25.0266316666667","6500500","新莊區"
"242007","413-TV","2018/03/09 20:09:35","新北市新莊區福壽街164巷20號","121.4593","25.0528133333333","6500500","新莊區"
"242044","400-BY","2018/03/09 20:09:47","桃園市龜山區萬壽路一段3號","121.410446666667","25.020965","6500500","新莊區"
"242060","353-BY","2018/03/09 20:09:46","新北市新莊區瓊林路118號","121.442308333333","25.0254833333333","6500500","新莊區"
"242009","132-UY","2018/03/09 20:09:47","新北市新莊區昌盛街35巷4弄1號","121.454115","25.0506333333333","6500500","新莊區"
"242039","133-UY","2018/03/09 20:09:31","新北市新莊區民安西路107號","121.426938333333","25.01847","6500500","新莊區"
"242032","135-UY","2018/03/09 20:09:51","新北市新莊區忠孝街29巷9號","121.443588333333","25.0357666666667","6500500","新莊區"
"242048","172-VK","2018/03/09 20:09:48","新北市新莊區四維路182巷2弄14號","121.422223333333","25.0224333333333","6500500","新莊區"
"242011","173-VK","2018/03/09 20:09:44","新北市新莊區中信街67巷9號","121.44857","25.0506766666667","6500500","新莊區"
"242005","176-VK","2018/03/09 20:09:49","新北市新莊區頭興街13巷1號","121.461485","25.0535233333333","6500500","新莊區"
"242015","346-TH","2018/03/09 20:09:35","新北市新莊區永樂街198號","121.447481666667","25.0445566666667","6500500","新莊區"
"242021","348-TH","2018/03/09 20:09:48","新北市新莊區中正路206號","121.449225","25.035755","6500500","新莊區"
"242002","349-TH","2018/03/09 20:09:44","新北市新莊區中正路121-1號","121.459885","25.0385683333333","6500500","新莊區"
"242019","350-TH","2018/03/09 20:09:41","新北市新莊區民樂街66號","121.458313333333","25.0422666666667","6500500","新莊區"
"242013","351-TH","2018/03/09 20:09:44","新北市新莊區幸福路710巷5弄1號","121.449108333333","25.0497233333333","6500500","新莊區"
"238015","755-BX","2018/03/09 20:09:37","新北市樹林區中山路三段204號","121.3873","24.968325","6500700","樹林區"
"238021","KEA-2539","2018/03/09 20:09:43","新北市樹林區佳園路三段101巷101號","121.39582","24.9497183333333","6500700","樹林區"
"221008","489-VK","2018/03/09 20:09:38","台北市內湖區康樂街150號","121.619456666667","25.072755","6501100","汐止區"
"221036","130-UY","2018/03/09 20:09:44","新北市汐止區新台五路二段78-2號","121.662071666667","25.0658833333333","6501100","汐止區"
"221010","269-BY","2018/03/09 20:09:45","新北市汐止區八連路二段162號","121.633188333333","25.0956016666667","6501100","汐止區"
"221012","278-VK","2018/03/09 20:09:34","新北市汐止區汐平路二段28號","121.694023333333","25.0660233333333","6501100","汐止區"
"221023","279-VK","2018/03/09 20:09:49","新北市汐止區明峰街297巷2號","121.625468333333","25.0677833333333","6501100","汐止區"
"221032","280-BY","2018/03/09 20:09:39","新北市汐止區弘道街8巷1弄2號","121.617038333333","25.0483066666667","6501100","汐止區"
"221027","281-BY","2018/03/09 20:09:43","新北市汐止區民生街4巷2號","121.660163333333","25.0687916666667","6501100","汐止區"
"221033","297-VK","2018/03/09 20:09:26","新北市汐止區東勢街201巷104號","121.633573333333","25.0429066666667","6501100","汐止區"
"221029","298-VK","2018/03/09 20:09:36","新北市汐止區樟樹一路119巷10弄1號","121.641235","25.0645366666667","6501100","汐止區"
"221021","299-VK","2018/03/09 20:09:49","新北市汐止區水源路一段242號","121.654171666667","25.0602583333333","6501100","汐止區"
"221031","353-TW","2018/03/09 20:09:45","新北市汐止區福德二路104號","121.632301666667","25.0660433333333","6501100","汐止區"
"221035","622-UM","2018/03/09 20:09:40","新北市汐止區長江街79巷13號","121.657558333333","25.0728183333333","6501100","汐止區"
"221025","623-UM","2018/03/09 20:09:48","新北市汐止區水源路一段273號","121.654083333333","25.0589766666667","6501100","汐止區"
"221038","646-BX","2018/03/09 20:09:46","新北市汐止區大同路三段66-3號","121.668086666667","25.077125","6501100","汐止區"
"221018","753-BX","2018/03/09 20:09:47","新北市汐止區茄苳路307號","121.673436666667","25.0668766666667","6501100","汐止區"
"220101","245-BX","2018/03/09 20:09:52","新北市板橋區莒光路171巷1弄18-4號","121.474548333333","25.024695","6500100","板橋區"
"220071","283-VK","2018/03/09 20:09:47","新北市板橋區和平路25號","121.459605","24.9953166666667","6500100","板橋區"
"220083","286-VK","2018/03/09 20:09:42","新北市板橋區大觀路一段38巷156弄166號","121.444243333333","25.0092383333333","6500100","板橋區"
"220081","287-VK","2018/03/09 20:09:41","新北市板橋區僑中一街124巷18弄37-1號","121.44762","25.0135933333333","6500100","板橋區"
"220061","293-UM","2018/03/09 20:09:38","新北市板橋區新民街45號","121.463971666667","25.01096","6500100","板橋區"
"220084","296-UM","2018/03/09 20:09:46","新北市板橋區大觀路二段37巷282-17號","121.451946666667","25.000265","6500100","板橋區"
"242017","281-VK","2018/03/09 20:09:34","新北市新莊區中港路352號","121.451801666667","25.0467483333333","6500500","新莊區"
"220092","307-R5","2018/03/09 20:09:43","新北市板橋區文化路一段141號","121.462043333333","25.0157166666667","6500100","板橋區"
"220064","486-VK","2018/03/09 20:09:43","新北市板橋區中山路一段206巷135號","121.472858333333","25.0132","6500100","板橋區"
"220089","487-VK","2018/03/09 20:09:51","新北市板橋區互助街88號","121.460351666667","25.026255","6500100","板橋區"
"220088","491-VK","2018/03/09 20:09:38","新北市板橋區民治街73-1號","121.479616666667","25.0327233333333","6500100","板橋區"
"220103","561-BX","2018/03/09 20:09:38","新北市板橋區文化路一段435巷31弄1號","121.466883333333","25.0229383333333","6500100","板橋區"
"220055","568-UM","2018/03/09 20:09:45","新北市板橋區仁愛路75號","121.460966666667","24.99974","6500100","板橋區"
"220093","689-BX","2018/03/09 20:08:00","新北市板橋區長江路二段41號","121.46417","25.0312383333333","6500100","板橋區"
"220102","KEA-2699","2018/03/09 20:09:36","新北市板橋區民治街135號","121.477703333333","25.0307683333333","6500100","板橋區"
"220067","830-TW","2018/03/09 20:09:32","新北市板橋區中山路二段15號","121.472153333333","25.0149916666667","6500100","板橋區"
"220074","895-R6","2018/03/09 20:09:37","新北市板橋區府後街1巷2-2號","121.459121666667","25.0106233333333","6500100","板橋區"
"220097","AAC-210","2018/03/09 20:09:48","新北市板橋區光正街18巷1號","121.462546666667","25.0173466666667","6500100","板橋區"
"220070","AAC-253","2018/03/09 20:09:46","新北市板橋區四川路二段245巷93號","121.452823333333","24.9931333333333","6500100","板橋區"
