"lineid","car","time","location","longitude","latitude","cityid","cityname"
"234038","336-UY","2018/03/09 20:29:49","新北市永和區民樂街31巷10弄12號","121.52892","25.0007816666667","6500400","永和區"
"234064","337-UY","2018/03/09 20:29:38","新北市永和區中正路437號","121.517146666667","25.005175","6500400","永和區"
"234086","338-UY","2018/03/09 20:29:38","新北市永和區光復街26-1號","121.51655","25.01738","6500400","永和區"
"234070","552-UM","2018/03/09 20:29:51","新北市永和區永寧街2號","121.520321666667","25.0065","6500400","永和區"
"234030","746-BX","2018/03/09 20:29:36","新北市中和區景平路166號","121.51694","24.9922166666667","6500400","永和區"
"234054","KEA-2590","2018/03/09 20:29:42","新北市永和區環河東路一段42號","121.518828333333","25.0170533333333","6500400","永和區"
"234061","AAD-866","2018/03/09 20:29:50","新北市永和區安樂路194巷6號","121.515685","25.0009966666667","6500400","永和區"
"234042","862-TW","2018/03/09 20:29:46","新北市永和區安樂路433號","121.514365","25.0046866666667","6500400","永和區"
"234050","863-TW","2018/03/09 20:29:43","新北市永和區新生路40巷20號","121.50768","25.0158733333333","6500400","永和區"
"249001","173-UM","2018/03/09 20:29:52","新北市八里區中山路三段132號","121.385183333333","25.14166","6502300","八里區"
"249004","303-UY","2018/03/09 20:29:43","新北市八里區中山路一段127號","121.41355","25.159155","6502300","八里區"
"249002","305-UY","2018/03/09 20:29:46","新北市八里區龍米路二段81號","121.447781666667","25.14178","6502300","八里區"
"249003","593-UM","2018/03/09 20:29:48","新北市八里區華峰一街38號","121.398646666667","25.1465216666667","6502300","八里區"
"234023","9380-KE","2018/03/09 20:29:50","新北市永和區光復街2巷16弄29號","121.518113333333","25.01631","6500400","永和區"
"234074","AAC-211","2018/03/09 20:29:30","新北市永和區豫溪街191巷7弄22號","121.523268333333","25.0111033333333","6500400","永和區"
"234067","AAC-212","2018/03/09 20:29:40","新北市永和區保平路290號","121.508121666667","25.00458","6500400","永和區"
"243012","AAD-798","2018/03/09 20:29:44","新北市泰山區明志路一段130號","121.433388333333","25.0634016666667","6501600","泰山區"
"243011","297-R6","2018/03/09 20:29:48","新北市泰山區明志路三段5號","121.424785","25.043315","6501600","泰山區"
"243015","380-SR","2018/03/09 20:29:45","新北市泰山區仁德路105號","121.433241666667","25.0562633333333","6501600","泰山區"
"243014","421-VK","2018/03/09 20:29:35","新北市泰山區橫窠雅20-3號","121.412635","25.0688616666667","6501600","泰山區"
"243010","KEA-2215","2018/03/09 20:29:47","新北市泰山區新生路33-9號","121.42773","25.0458316666667","6501600","泰山區"
"243009","KEA-2216","2018/03/09 20:29:31","新北市泰山區泰林路二段544號","121.423455","25.0637833333333","6501600","泰山區"
"243013","646-TV","2018/03/09 20:29:46","新北市泰山區公園路4號","121.429915","25.0540183333333","6501600","泰山區"
"243016","680-BX","2018/03/09 20:29:47","新北市泰山區明志路二段216號","121.427318333333","25.0487666666667","6501600","泰山區"
"222003","436-BY","2018/03/09 20:29:48","新北市深坑區深坑街27號","121.615926666667","25.0023283333333","6501800","深坑區"
"222002","659-BX","2018/03/09 20:29:52","新北市深坑區萬福路45號","121.5995","25.006815","6501800","深坑區"
"231060","001-UM","2018/03/09 20:29:35","新北市新店區錦秀路69巷2號","121.47896","24.9427316666667","6500600","新店區"
"231041","002-UM","2018/03/09 20:29:47","新北市新店區中正路501-4號","121.533693333333","24.983815","6500600","新店區"
"231059","046-UY","2018/03/09 20:29:34","新北市新店區安豐路49號","121.50005","24.9548966666667","6500600","新店區"
"231061","047-UY","2018/03/09 20:29:48","新北市新店區新和街34號","121.519136666667","24.9847583333333","6500600","新店區"
"231051","107-UY","2018/03/09 20:29:47","新北市新店區中央七街103號","121.526016666667","24.9775016666667","6500600","新店區"
"231048","108-UY","2018/03/09 20:29:34","新北市新店區寶元路一段15巷11號","121.542031666667","24.9870866666667","6500600","新店區"
"231053","187-VK","2018/03/09 20:29:40","新北市新店區松林路36號","121.546218333333","24.910255","6500600","新店區"
"231050","KEA-2219","2018/03/09 20:29:32","新北市新店區建國路83-1號","121.540281666667","24.9764683333333","6500600","新店區"
"221015","KEA-2785","2018/03/09 20:29:40","新北市汐止區建成路142巷19弄13號","121.66192","25.073855","6501100","汐止區"
"231057","256-BX","2018/03/09 20:29:30","新北市新店區花園五路二段1號","121.55353","24.9342183333333","6500600","新店區"
"231046","278-BY","2018/03/09 20:29:32","新北市新店區安忠路205巷8號","121.509956666667","24.9550166666667","6500600","新店區"
"231054","AAD-862","2018/03/09 20:29:50","新北市新店區檳榔路111號","121.544585","24.9615033333333","6500600","新店區"
"231056","3713-VJ","2018/03/09 20:29:46","新北市新店區中正路328巷1號","121.536868333333","24.97531","6500600","新店區"
"231067","4772-VM","2018/03/09 20:29:36","新北市新店區安華路28-1號","121.519553333333","24.9608016666667","6500600","新店區"
"231065","512-UM","2018/03/09 20:29:42","新北市新店區安祥路102巷46弄65號","121.486655","24.9634333333333","6500600","新店區"
"231064","515-UM","2018/03/09 20:29:45","新北市新店區安和路三段101號","121.51781","24.984375","6500600","新店區"
"231045","617-UM","2018/03/09 20:29:51","新北市新店區長春路21巷1號","121.549363333333","24.9581316666667","6500600","新店區"
"231040","619-UM","2018/03/09 20:29:48","新北市新店區中正路282-10號","121.537996666667","24.9741733333333","6500600","新店區"
"231042","641-BX","2018/03/09 20:29:43","新北市新店區寶高路120巷1號","121.554585","24.9760283333333","6500600","新店區"
"231063","645-TV","2018/03/09 20:29:49","新北市新店區玫瑰路4-1號","121.493535","24.9513916666667","6500600","新店區"
"231068","718-UY","2018/03/09 20:29:48","新北市新店區寶元路一段65號","121.542238333333","24.98583","6500600","新店區"
"231049","719-UM","2018/03/09 20:29:37","新北市新店區永業路81巷5弄2號","121.530366666667","24.9488366666667","6500600","新店區"
"231062","720-UM","2018/03/09 20:29:49","新北市新店區安泰路60巷81號","121.484125","24.9446333333333","6500600","新店區"
"231044","897-TW","2018/03/09 20:29:36","新北市新店區建國路172-2號","121.538251666667","24.97968","6500600","新店區"
"231043","899-TW","2018/03/09 20:29:25","新北市新店區建國路88號","121.540496666667","24.9771933333333","6500600","新店區"
"231066","AKT-0513","2018/03/09 20:29:41","新北市新店區安民街339號","121.51687","24.97485","6500600","新店區"
"241011","013-R5","2018/03/09 20:29:31","新北市三重區龍門路116號","121.497806666667","25.0728966666667","6500200","三重區"
"241028","022-UY","2018/03/09 20:29:35","新北市三重區光興街91號","121.497403333333","25.0599516666667","6500200","三重區"
"241008","059-VK","2018/03/09 20:29:46","新北市三重區下竹圍街42號","121.481068333333","25.07489","6500200","三重區"
"241009","060-VK","2018/03/09 20:29:32","新北市三重區三和路四段382巷92弄1號","121.479583333333","25.07803","6500200","三重區"
"241031","061-VK","2018/03/09 20:29:32","新北市三重區三寧街15號","121.489468333333","25.0597966666667","6500200","三重區"
"241015","062-VK","2018/03/09 20:29:35","新北市三重區長元街2-2號","121.498773333333","25.0658716666667","6500200","三重區"
"241017","063-VK","2018/03/09 20:29:35","新北市三重區自強路一段288號","121.491606666667","25.068245","6500200","三重區"
"241024","065-VK","2018/03/09 20:29:39","新北市三重區忠孝路三段15巷57號","121.479518333333","25.0683866666667","6500200","三重區"
"241026","066-VK","2018/03/09 20:29:34","新北市三重區福德南路24巷2-3號","121.503218333333","25.0632266666667","6500200","三重區"
"241002","090-VK","2018/03/09 20:29:47","新北市三重區仁義街211巷50號","121.498043333333","25.0826833333333","6500200","三重區"
"241003","091-VK","2018/03/09 20:29:33","新北市三重區五華街141巷58號","121.493485","25.0866316666667","6500200","三重區"
"241020","156-TC","2018/03/09 20:29:41","新北市三重區忠孝路一段1號","121.492413333333","25.0717733333333","6500200","三重區"
"241005","262-UM","2018/03/09 20:29:51","新北市三重區碧華街380號","121.491205","25.0845233333333","6500200","三重區"
"241016","265-UM","2018/03/09 20:29:48","新北市三重區正義北路190巷14號","121.495948333333","25.0666933333333","6500200","三重區"
"241022","267-UM","2018/03/09 20:29:46","新北市三重區民生街61巷18弄7號","121.487586666667","25.0628666666667","6500200","三重區"
"241018","268-UM","2018/03/09 20:29:50","新北市三重區雙園街64號","121.495778333333","25.067725","6500200","三重區"
"241032","269-UM","2018/03/09 20:29:47","新北市三重區重陽路一段120巷48號","121.485075","25.0601183333333","6500200","三重區"
"241013","270-UM","2018/03/09 20:29:44","新北市三重區溪尾街12號","121.49155","25.0746466666667","6500200","三重區"
"241025","271-UM","2018/03/09 20:29:34","新北市三重區頂崁街210巷23弄1號","121.475885","25.068185","6500200","三重區"
"241007","398-BY","2018/03/09 20:29:49","新北市三重區自強路四段32-2號","121.489028333333","25.0770333333333","6500200","三重區"
"241035","462-BY","2018/03/09 20:29:39","新北市三重區正義北路104號","121.497023333333","25.06505","6500200","三重區"
"241004","475-VK","2018/03/09 20:29:50","新北市三重區溪尾街181號","121.488835","25.0803","6500200","三重區"
"241001","478-VK","2018/03/09 20:29:49","新北市三重區福隆路12號","121.490283333333","25.0773583333333","6500200","三重區"
"241030","480-VK","2018/03/09 20:29:35","新北市三重區成功路62號","121.488618333333","25.0509766666667","6500200","三重區"
"241014","543-UM","2018/03/09 20:29:52","新北市三重區長興街93號","121.501686666667","25.06915","6500200","三重區"
"241023","545-UM","2018/03/09 20:29:49","新北市三重區自由街16號","121.47982","25.0664833333333","6500200","三重區"
"241019","KEA-2593","2018/03/09 20:29:41","新北市三重區重陽路四段81號","121.492626666667","25.0709433333333","6500200","三重區"
"241012","941-UM","2018/03/09 20:29:45","新北市三重區龍濱路251號","121.501415","25.0726916666667","6500200","三重區"
"241029","942-UM","2018/03/09 20:29:38","新北市三重區集美街219號","121.491806666667","25.0547716666667","6500200","三重區"
"241033","AAC-255","2018/03/09 20:29:48","新北市三重區五谷王北街139號","121.476133333333","25.0520666666667","6500200","三重區"
"235039","097-UM","2018/03/09 20:29:41","新北市中和區大勇街29巷14號","121.515751666667","24.9947416666667","6500300","中和區"
"235065","098-UM","2018/03/09 20:29:46","新北市中和區永和路92-1號","121.497095","25.0054533333333","6500300","中和區"
"235050","4979-A6","2018/03/09 20:29:36","新北市中和區景平路429號","121.501585","24.9953083333333","6500300","中和區"
"235069","4980-A6","2018/03/09 20:29:49","新北市中和區中正路436號","121.491096666667","24.9941933333333","6500300","中和區"
"235026","800-TS","2018/03/09 20:29:34","新北市中和區員山路36巷13號","121.484283333333","24.990705","6500300","中和區"
"235070","911-UM","2018/03/09 20:29:50","新北市新店區薏仁坑路6-1號","121.499863333333","24.9584933333333","6500300","中和區"
"235059","AAC-215","2018/03/09 20:29:43","新北市中和區員山路36巷7號","121.483235","24.990965","6500300","中和區"
"247024","893-R6","2018/03/09 20:29:38","新北市蘆洲區光復路78號","121.464318333333","25.0855066666667","6501400","蘆洲區"
"247014","546-UM","2018/03/09 20:29:36","新北市蘆洲區中山二路105號","121.472573333333","25.0817466666667","6501400","蘆洲區"
"247022","500-BY","2018/03/09 20:29:43","新北市蘆洲區中正路313巷1號","121.466393333333","25.0885016666667","6501400","蘆洲區"
"247010","341-TH","2018/03/09 20:29:38","新北市蘆洲區集賢路300號","121.48164","25.08525","6501400","蘆洲區"
"247012","339-TH","2018/03/09 20:29:43","新北市蘆洲區復興路291號","121.481701666667","25.0903266666667","6501400","蘆洲區"
"247004","337-TH","2018/03/09 20:29:38","新北市蘆洲區長安街297號","121.45805","25.084895","6501400","蘆洲區"
"247006","336-TH","2018/03/09 20:29:38","新北市蘆洲區和平路190號","121.466103333333","25.081635","6501400","蘆洲區"
"247018","057-VK","2018/03/09 20:29:36","新北市蘆洲區民族路317號","121.474446666667","25.0913533333333","6501400","蘆洲區"
"247008","056-VK","2018/03/09 20:29:36","新北市蘆洲區永安北路二段76巷5號","121.483161666667","25.084975","6501400","蘆洲區"
"247020","053-VK","2018/03/09 20:29:47","新北市蘆洲區仁愛街102號","121.470246666667","25.0946516666667","6501400","蘆洲區"
"247016","007-UY","2018/03/09 20:29:43","新北市蘆洲區光華路51號","121.46859","25.0829066666667","6501400","蘆洲區"
"247002","002-UY","2018/03/09 20:29:32","新北市蘆洲區長安街361巷18號","121.456281666667","25.0875116666667","6501400","蘆洲區"
"222001","KEA-2212","2018/03/09 20:29:50","新北市深坑區北深路三段345號","121.597201666667","25.005145","6501800","深坑區"
"251001","011-UM","2018/03/09 20:29:39","新北市淡水區新市一路三段6號","121.444958333333","25.182915","6501000","淡水區"
"251002","012-UM","2018/03/09 20:29:35","新北市淡水區中正路11-3號","121.4432","25.1695416666667","6501000","淡水區"
"251008","181-VK","2018/03/09 20:29:40","新北市淡水區淡海路204號","121.420328333333","25.1856166666667","6501000","淡水區"
"251010","413-VK","2018/03/09 20:29:34","新北市淡水區沙崙路181巷15號","121.423996666667","25.1843433333333","6501000","淡水區"
"251012","441-VK","2018/03/09 20:29:40","新北市淡水區頂田寮路23號","121.454831666667","25.21654","6501000","淡水區"
"251006","561-UM","2018/03/09 20:29:51","新北市淡水區商工路296號","121.460205","25.1859566666667","6501000","淡水區"
"251009","575-R6","2018/03/09 20:29:48","新北市淡水區民權路77號","121.459641666667","25.1387733333333","6501000","淡水區"
"251011","650-BX","2018/03/09 20:29:38","新北市淡水區義山路一段222號","121.43826","25.1918383333333","6501000","淡水區"
"251003","673-BX","2018/03/09 20:29:48","新北市淡水區新生街33號","121.43983","25.1748233333333","6501000","淡水區"
"252002","178-VK","2018/03/09 20:29:39","新北市三芝區淡金路二段18-1號","121.502683333333","25.2595","6502100","三芝區"
"252001","292-VK","2018/03/09 20:29:37","新北市三芝區中山路一段31號","121.500636666667","25.2580366666667","6502100","三芝區"
"236031","253-BX","2018/03/09 20:29:34","新北市土城區城林路6巷80號","121.438491666667","24.9800366666667","6501300","土城區"
"242034","AAC-296","2018/03/09 20:29:39","新北市新莊區中正路285號","121.448795","25.03541","6500500","新莊區"
"242058","986-R7","2018/03/09 20:29:45","新北市新莊區四維路159號","121.422526666667","25.0218566666667","6500500","新莊區"
"242054","751-BX","2018/03/09 20:29:40","新北市新莊區民安西路229巷14號","121.426866666667","25.014165","6500500","新莊區"
"242027","615-BX","2018/03/09 20:29:39","新北市新莊區幸福路21號","121.459008333333","25.0493166666667","6500500","新莊區"
"242025","613-BX","2018/03/09 20:29:49","新北市新莊區五工一路72巷9號","121.462155","25.06655","6500500","新莊區"
"242029","612-BX","2018/03/09 20:29:46","新北市新莊區昌隆街3巷1弄2號","121.454221666667","25.05131","6500500","新莊區"
"242041","566-BX","2018/03/09 20:29:51","新北市新莊區中正路694巷47號","121.417855","25.0291","6500500","新莊區"
"242046","497-BY","2018/03/09 20:29:46","新北市新莊區中正路881-16號","121.417606666667","25.0246283333333","6500500","新莊區"
"242050","441-UM","2018/03/09 20:29:44","新北市新莊區民安西路189巷20號","121.426935","25.0153216666667","6500500","新莊區"
"242056","440-UM","2018/03/09 20:29:51","新北市新莊區瓊泰路187號","121.443086666667","25.031635","6500500","新莊區"
"242037","415-TV","2018/03/09 20:29:45","新北市新莊區後港一路46巷2號","121.426088333333","25.0260133333333","6500500","新莊區"
"242007","413-TV","2018/03/09 20:29:35","新北市新莊區思源路287巷1弄29號","121.459403333333","25.0471283333333","6500500","新莊區"
"242044","400-BY","2018/03/09 20:29:47","新北市新莊區中正路新建巷7號","121.413956666667","25.0225933333333","6500500","新莊區"
"242023","362-BY","2018/03/09 20:29:48","新北市新莊區化成路816號","121.464995","25.05987","6500500","新莊區"
"242060","353-BY","2018/03/09 20:29:50","新北市新莊區新樹路244巷13號","121.431756666667","25.0182216666667","6500500","新莊區"
"242009","132-UY","2018/03/09 20:29:47","新北市新莊區昌盛街81巷4弄1號","121.455515","25.050605","6500500","新莊區"
"242039","133-UY","2018/03/09 20:29:44","新北市新莊區民安路234號","121.426223333333","25.0221466666667","6500500","新莊區"
"242032","135-UY","2018/03/09 20:29:43","新北市新莊區中正路428號","121.440715","25.0336683333333","6500500","新莊區"
"242048","172-VK","2018/03/09 20:29:48","新北市新莊區富國路27號","121.418765","25.0263783333333","6500500","新莊區"
"242011","173-VK","2018/03/09 20:29:24","新北市新莊區中信街30號","121.450356666667","25.0509933333333","6500500","新莊區"
"242005","176-VK","2018/03/09 20:29:49","新北市新莊區化成路746巷39號","121.466921666667","25.0581716666667","6500500","新莊區"
"242015","346-TH","2018/03/09 20:29:35","新北市新莊區中平路82巷29號","121.44623","25.045","6500500","新莊區"
"242021","348-TH","2018/03/09 20:29:35","新北市新莊區公園路64號","121.449505","25.0393933333333","6500500","新莊區"
"242002","349-TH","2018/03/09 20:29:44","新北市新莊區中正路78-1號","121.458515","25.03778","6500500","新莊區"
"242019","350-TH","2018/03/09 20:29:41","新北市新莊區銘德街49巷4弄2號","121.457273333333","25.0431933333333","6500500","新莊區"
"242013","351-TH","2018/03/09 20:29:44","新北市新莊區中和街155巷24弄83號","121.446368333333","25.0514483333333","6500500","新莊區"
"221008","489-VK","2018/03/09 20:29:44","新北市汐止區康寧街523-1號","121.633483333333","25.06871","6501100","汐止區"
"221036","130-UY","2018/03/09 20:29:44","新北市汐止區新台五路二段138號","121.66389","25.0664983333333","6501100","汐止區"
"221010","269-BY","2018/03/09 20:29:45","新北市汐止區八連路二段161號","121.63423","25.0951916666667","6501100","汐止區"
"221012","278-VK","2018/03/09 20:29:34","新北市汐止區大同路三段279號","121.674196666667","25.07508","6501100","汐止區"
"221023","279-VK","2018/03/09 20:29:49","新北市汐止區湖東街14號","121.634011666667","25.072185","6501100","汐止區"
"221032","280-BY","2018/03/09 20:29:39","新北市汐止區弘道街53巷22號","121.618778333333","25.0495083333333","6501100","汐止區"
"221027","281-BY","2018/03/09 20:29:41","新北市汐止區中正路214號","121.658208333333","25.0689133333333","6501100","汐止區"
"221033","297-VK","2018/03/09 20:29:46","新北市汐止區林森街73巷15號","121.623708333333","25.0412716666667","6501100","汐止區"
"221029","298-VK","2018/03/09 20:29:36","新北市汐止區樟樹一路135巷35號","121.640645","25.0655766666667","6501100","汐止區"
"221021","299-VK","2018/03/09 20:29:49","新北市汐止區水源路一段288號","121.654176666667","25.05811","6501100","汐止區"
"221031","353-TW","2018/03/09 20:29:43","新北市汐止區福德一路237號","121.634223333333","25.0647033333333","6501100","汐止區"
"221035","622-UM","2018/03/09 20:29:40","新北市汐止區長江街101-5號","121.658693333333","25.0731233333333","6501100","汐止區"
"221025","623-UM","2018/03/09 20:29:48","新北市汐止區水源路二段108號","121.656655","25.0554616666667","6501100","汐止區"
"221038","646-BX","2018/03/09 20:29:46","新北市汐止區水源路一段72號","121.656918333333","25.0652516666667","6501100","汐止區"
"221002","707-TV","2018/03/09 20:29:33","新北市汐止區福德三路75號","121.636508333333","25.0692883333333","6501100","汐止區"
"221018","753-BX","2018/03/09 20:29:47","新北市汐止區茄苳路225巷1號","121.671076666667","25.068925","6501100","汐止區"
"220083","286-VK","2018/03/09 20:29:42","新北市板橋區僑中二街114巷2號","121.445675","25.0067466666667","6500100","板橋區"
"220084","296-UM","2018/03/09 20:29:46","新北市八里區下罟子8-10號","121.383405","25.1445566666667","6500100","板橋區"
"242017","281-VK","2018/03/09 20:29:41","新北市新莊區中港一街44號","121.45061","25.0456466666667","6500500","新莊區"
"220064","486-VK","2018/03/09 20:29:43","新北市五股區新城八路1號","121.447856666667","25.0887483333333","6500100","板橋區"
"220089","487-VK","2018/03/09 20:29:46","新北市板橋區四維路286號","121.46295","25.0290316666667","6500100","板橋區"
"220103","561-BX","2018/03/09 20:29:38","新北市板橋區漢生東路23巷1-2號","121.465203333333","25.0172833333333","6500100","板橋區"
"220070","AAC-253","2018/03/09 20:29:46","新北市五股區成泰路一段8巷9-9號","121.437768333333","25.0674666666667","6500100","板橋區"
