"lineid","car","time","location","longitude","latitude","cityid","cityname"
"234023","9380-KE","2018/03/09 21:09:38","新北市永和區保生路55號","121.50453","25.010805","6500400","永和區"
"231060","001-UM","2018/03/09 21:09:35","新北市新店區薏仁坑路自強巷6號","121.496606666667","24.9584733333333","6500600","新店區"
"231059","046-UY","2018/03/09 21:09:34","新北市新店區僑義路17巷1號","121.500373333333","24.95134","6500600","新店區"
"231061","047-UY","2018/03/09 21:09:48","新北市新店區永平街6號","121.517425","24.9834683333333","6500600","新店區"
"231051","107-UY","2018/03/09 21:09:47","新北市新店區中正路618巷7弄2號","121.534821666667","24.9892183333333","6500600","新店區"
"231048","108-UY","2018/03/09 21:09:34","新北市新店區民族路108號","121.538271666667","24.9772933333333","6500600","新店區"
"231050","KEA-2219","2018/03/09 21:09:32","新北市新店區中華路83巷4弄20號","121.538245","24.96886","6500600","新店區"
"231054","AAD-862","2018/03/09 21:09:50","新北市新店區大新街7巷2號","121.543273333333","24.9683583333333","6500600","新店區"
"231067","4772-VM","2018/03/09 21:09:36","新北市新店區薏仁坑路自強巷6號","121.496781666667","24.9584866666667","6500600","新店區"
"231065","512-UM","2018/03/09 21:09:45","新北市新店區安祥路69巷89弄6號","121.483518333333","24.9593383333333","6500600","新店區"
"231040","619-UM","2018/03/09 21:09:40","新北市新店區北新路一段100號","121.542113333333","24.969455","6500600","新店區"
"231063","645-TV","2018/03/09 21:09:49","新北市新店區玫瑰路58巷1號","121.495435","24.9465666666667","6500600","新店區"
"241011","013-R5","2018/03/09 21:09:52","新北市三重區龍濱路183號","121.50217","25.0706366666667","6500200","三重區"
"241028","022-UY","2018/03/09 21:09:35","新北市三重區正義南路60-1號","121.498426666667","25.0605733333333","6500200","三重區"
"241008","059-VK","2018/03/09 21:09:46","新北市三重區自強路一段64號","121.497248333333","25.06662","6500200","三重區"
"241009","060-VK","2018/03/09 21:09:52","新北市三重區忠孝路二段122號","121.48303","25.06879","6500200","三重區"
"241031","061-VK","2018/03/09 21:09:52","新北市三重區重新路五段328號","121.47697","25.0479633333333","6500200","三重區"
"241015","062-VK","2018/03/09 21:09:35","新北市三重區長元街79號","121.50329","25.0668133333333","6500200","三重區"
"241017","063-VK","2018/03/09 21:09:35","新北市三重區國隆路31號","121.492303333333","25.0644983333333","6500200","三重區"
"241024","065-VK","2018/03/09 21:09:35","新北市三重區國道路一段58巷20號","121.481323333333","25.0720966666667","6500200","三重區"
"241026","066-VK","2018/03/09 21:09:34","新北市三重區正義南路54號","121.498231666667","25.060715","6500200","三重區"
"241002","090-VK","2018/03/09 21:09:47","新北市三重區五華街19號","121.494925","25.080435","6500200","三重區"
"241003","091-VK","2018/03/09 21:09:33","新北市三重區仁義街335號","121.495031666667","25.0847183333333","6500200","三重區"
"241020","156-TC","2018/03/09 21:09:41","新北市三重區忠孝路二段34號","121.485848333333","25.0710516666667","6500200","三重區"
"241005","262-UM","2018/03/09 21:09:50","新北市三重區三信路182號","121.488055","25.086165","6500200","三重區"
"241016","265-UM","2018/03/09 21:09:53","新北市三重區信義西街138號","121.495618333333","25.0643483333333","6500200","三重區"
"241022","267-UM","2018/03/09 21:09:38","新北市三重區中正北路64巷21號","121.486043333333","25.0638216666667","6500200","三重區"
"241018","268-UM","2018/03/09 21:09:50","新北市三重區正義北路332-1號","121.494403333333","25.0704883333333","6500200","三重區"
"241032","269-UM","2018/03/09 21:09:47","新北市三重區光復路二段178-8號","121.470801666667","25.06157","6500200","三重區"
"241013","270-UM","2018/03/09 21:09:44","新北市三重區仁愛街120號","121.495123333333","25.0746633333333","6500200","三重區"
"241025","271-UM","2018/03/09 21:09:54","新北市三重區中正北路208巷8號","121.482306666667","25.0669466666667","6500200","三重區"
"241007","398-BY","2018/03/09 21:09:49","新北市三重區三和路四段145巷81號","121.486438333333","25.0786483333333","6500200","三重區"
"241004","475-VK","2018/03/09 21:08:55","新北市三重區仁愛街423-1號","121.490375","25.0814666666667","6500200","三重區"
"241001","478-VK","2018/03/09 21:09:49","新北市三重區福隆路44號","121.492361666667","25.0783483333333","6500200","三重區"
"241030","480-VK","2018/03/09 21:09:34","新北市三重區五谷王北街20巷15弄1號","121.475038333333","25.0484833333333","6500200","三重區"
"241014","543-UM","2018/03/09 21:09:52","新北市三重區長安街82-1號","121.501425","25.0677566666667","6500200","三重區"
"241023","545-UM","2018/03/09 21:09:49","新北市三重區忠孝路三段50巷41弄64號","121.482411666667","25.0637633333333","6500200","三重區"
"241019","KEA-2593","2018/03/09 21:09:41","新北市三重區自強路二段74巷21號","121.48796","25.069855","6500200","三重區"
"241006","887-TS","2018/03/09 21:09:39","新北市三重區重陽路三段5巷1號","121.490681666667","25.0655183333333","6500200","三重區"
"241012","941-UM","2018/03/09 21:09:45","新北市三重區河邊北街317號","121.5024","25.0748783333333","6500200","三重區"
"241029","942-UM","2018/03/09 21:09:38","新北市三重區正義南路107號","121.498235","25.0585383333333","6500200","三重區"
"241033","AAC-255","2018/03/09 21:09:48","新北市三重區新北大道二段65號","121.469458333333","25.061295","6500200","三重區"
"235026","800-TS","2018/03/09 20:41:03","新北市中和區員山路36巷16-3號","121.484906666667","24.9916866666667","6500300","中和區"
"247024","893-R6","2018/03/09 21:09:38","新北市蘆洲區長興路50巷1號","121.46381","25.0838116666667","6501400","蘆洲區"
"247014","546-UM","2018/03/09 21:09:54","新北市蘆洲區中央路155號","121.472655","25.0846983333333","6501400","蘆洲區"
"247022","500-BY","2018/03/09 21:09:47","新北市蘆洲區三民路251號","121.468331666667","25.0894133333333","6501400","蘆洲區"
"247010","341-TH","2018/03/09 21:09:38","新北市蘆洲區鷺江街71號","121.477185","25.0830716666667","6501400","蘆洲區"
"247012","339-TH","2018/03/09 21:09:43","新北市蘆洲區民族路31-6號","121.477313333333","25.0849566666667","6501400","蘆洲區"
"247004","337-TH","2018/03/09 21:09:38","新北市蘆洲區永安南路二段268號","121.458656666667","25.080725","6501400","蘆洲區"
"247006","336-TH","2018/03/09 21:09:38","新北市蘆洲區永安南路二段16巷18號","121.467958333333","25.0778216666667","6501400","蘆洲區"
"247018","057-VK","2018/03/09 21:09:36","新北市蘆洲區民族路408巷7號","121.474758333333","25.0918633333333","6501400","蘆洲區"
"247008","056-VK","2018/03/09 21:09:49","新北市蘆洲區信義路34巷14號","121.474676666667","25.078805","6501400","蘆洲區"
"247020","053-VK","2018/03/09 21:09:47","新北市蘆洲區民族路426巷22號","121.473013333333","25.0927983333333","6501400","蘆洲區"
"247016","007-UY","2018/03/09 21:09:43","新北市蘆洲區光華路153號","121.465575","25.0819516666667","6501400","蘆洲區"
"247002","002-UY","2018/03/09 21:09:52","新北市蘆洲區永樂街38巷40號","121.458596666667","25.0900283333333","6501400","蘆洲區"
"251001","011-UM","2018/03/09 21:09:39","新北市淡水區新市一路三段101巷16弄1號","121.44625","25.1836833333333","6501000","淡水區"
"251002","012-UM","2018/03/09 21:09:52","新北市淡水區英專路151號","121.44844","25.1747383333333","6501000","淡水區"
"251010","413-VK","2018/03/09 21:09:34","新北市淡水區中正路一段63巷9號","121.422591666667","25.17709","6501000","淡水區"
"251012","441-VK","2018/03/09 21:09:40","新北市淡水區六塊厝17號","121.454936666667","25.2404816666667","6501000","淡水區"
"251005","443-VK","2018/03/09 21:09:43","新北市淡水區博愛街61號","121.446975","25.1688866666667","6501000","淡水區"
"251006","561-UM","2018/03/09 21:09:46","新北市淡水區中正路二段31號","121.419375","25.1817116666667","6501000","淡水區"
"251009","575-R6","2018/03/09 21:09:49","新北市淡水區民族路112巷66號","121.46198","25.134335","6501000","淡水區"
"251011","650-BX","2018/03/09 21:09:38","新北市淡水區新民街178巷42弄2號","121.438383333333","25.179625","6501000","淡水區"
"251003","673-BX","2018/03/09 21:09:48","新北市淡水區新春街134號","121.441148333333","25.181595","6501000","淡水區"
"220084","296-UM","2018/03/09 21:09:46","新北市板橋區板城路303號","121.45212","25.0021483333333","6500100","板橋區"
"220064","486-VK","2018/03/09 21:09:43","新北市八里區下罟子5-10號","121.387365","25.14225","6500100","板橋區"
"220070","AAC-253","2018/03/09 21:09:46","新北市林口區太平里180號","121.368328333333","25.1344766666667","6500100","板橋區"
