"lineid","car","time","location","longitude","latitude","cityid","cityname"
"231059","046-UY","2018/03/09 21:19:34","新北市新店區薏仁坑路自強巷1號","121.497543333333","24.9576983333333","6500600","新店區"
"231051","107-UY","2018/03/09 21:19:47","新北市新店區中正路700巷77號","121.535495","24.99412","6500600","新店區"
"231050","KEA-2219","2018/03/09 21:19:53","新北市新店區中正路284巷1號","121.538043333333","24.9745666666667","6500600","新店區"
"231040","619-UM","2018/03/09 21:19:40","新北市新店區北新路一段42號","121.540966666667","24.966125","6500600","新店區"
"231063","645-TV","2018/03/09 21:19:49","新北市新店區玫瑰路57巷32號","121.496785","24.946315","6500600","新店區"
"241011","013-R5","2018/03/09 21:19:31","新北市三重區龍濱路120-6號","121.501828333333","25.0713533333333","6500200","三重區"
"241028","022-UY","2018/03/09 21:19:35","新北市三重區正義南路169號","121.498961666667","25.0574983333333","6500200","三重區"
"241008","059-VK","2018/03/09 21:19:46","新北市三重區自強路一段232號","121.493478333333","25.06699","6500200","三重區"
"241009","060-VK","2018/03/09 21:19:52","新北市三重區忠孝路三段63號","121.480796666667","25.0661483333333","6500200","三重區"
"241031","061-VK","2018/03/09 21:19:52","新北市三重區五谷王南街46巷37號","121.475725","25.0455316666667","6500200","三重區"
"241017","063-VK","2018/03/09 21:19:55","新北市三重區中正北路25巷25弄1號","121.493166666667","25.06257","6500200","三重區"
"241024","065-VK","2018/03/09 21:19:35","新北市三重區中正北路115巷6號","121.4841","25.0677366666667","6500200","三重區"
"241026","066-VK","2018/03/09 21:19:34","新北市三重區大同南路220號","121.496831666667","25.0561983333333","6500200","三重區"
"241002","090-VK","2018/03/09 21:19:47","新北市三重區五華街29號","121.494613333333","25.0807583333333","6500200","三重區"
"241003","091-VK","2018/03/09 21:19:53","新北市三重區仁義街317號","121.495418333333","25.0841733333333","6500200","三重區"
"241005","262-UM","2018/03/09 21:19:50","新北市三重區三信路182號","121.488066666667","25.0861183333333","6500200","三重區"
"241016","265-UM","2018/03/09 21:19:33","新北市三重區自強路一段95號","121.495855","25.0663266666667","6500200","三重區"
"241018","268-UM","2018/03/09 21:19:50","新北市三重區忠孝路三段18號","121.481546666667","25.0671783333333","6500200","三重區"
"241032","269-UM","2018/03/09 21:19:47","新北市三重區光復路二段188號","121.471331666667","25.0626533333333","6500200","三重區"
"241013","270-UM","2018/03/09 21:19:43","新北市三重區仁愛街83號","121.495921666667","25.07325","6500200","三重區"
"241025","271-UM","2018/03/09 21:19:34","新北市三重區忠孝路三段40巷6弄11號","121.482273333333","25.0669083333333","6500200","三重區"
"241007","398-BY","2018/03/09 21:19:49","新北市三重區自強路三段73號","121.486875","25.07355","6500200","三重區"
"241004","475-VK","2018/03/09 21:19:35","新北市三重區仁愛街418號","121.490461666667","25.081385","6500200","三重區"
"241001","478-VK","2018/03/09 21:19:49","新北市三重區仁愛街316號","121.49185","25.0798183333333","6500200","三重區"
"241030","480-VK","2018/03/09 21:19:34","新北市三重區頂崁街23號","121.476621666667","25.0559983333333","6500200","三重區"
"241014","543-UM","2018/03/09 21:19:32","新北市三重區萬全街11號","121.49936","25.0695933333333","6500200","三重區"
"241023","545-UM","2018/03/09 21:19:49","新北市三重區中正北路176巷27號","121.48266","25.0659783333333","6500200","三重區"
"241019","KEA-2593","2018/03/09 21:19:41","新北市三重區重陽路三段128號","121.489091666667","25.0667383333333","6500200","三重區"
"241006","887-TS","2018/03/09 21:19:39","新北市三重區新北大道一段50號","121.487683333333","25.0613866666667","6500200","三重區"
"241012","941-UM","2018/03/09 21:19:45","新北市三重區龍門路290號","121.50213","25.0742016666667","6500200","三重區"
"241033","AAC-255","2018/03/09 21:19:48","新北市三重區光復路二段102巷23號","121.470391666667","25.058075","6500200","三重區"
"247024","893-R6","2018/03/09 21:19:38","新北市蘆洲區光明路98號","121.463231666667","25.0878816666667","6501400","蘆洲區"
"247014","546-UM","2018/03/09 21:19:34","新北市蘆洲區保和街50-6號","121.469915","25.0863316666667","6501400","蘆洲區"
"247022","500-BY","2018/03/09 21:19:38","新北市蘆洲區三民路249-1號","121.468493333333","25.0891283333333","6501400","蘆洲區"
"247010","341-TH","2018/03/09 21:19:38","新北市蘆洲區鷺江街16-2號","121.478798333333","25.0824833333333","6501400","蘆洲區"
"247012","339-TH","2018/03/09 21:19:43","新北市蘆洲區民族路236巷8號","121.480376666667","25.0886","6501400","蘆洲區"
"247004","337-TH","2018/03/09 21:19:38","新北市蘆洲區環堤大道2-1號","121.456863333333","25.0827433333333","6501400","蘆洲區"
"247006","336-TH","2018/03/09 21:19:38","新北市蘆洲區長安街78號","121.462335","25.08029","6501400","蘆洲區"
"247018","057-VK","2018/03/09 21:19:36","新北市蘆洲區復興路105巷11號","121.476441666667","25.0884666666667","6501400","蘆洲區"
"247008","056-VK","2018/03/09 21:19:36","新北市蘆洲區中山一路97巷23號","121.475958333333","25.0807733333333","6501400","蘆洲區"
"247020","053-VK","2018/03/09 21:19:47","新北市蘆洲區民族路422巷90號","121.47336","25.093945","6501400","蘆洲區"
"247002","002-UY","2018/03/09 21:19:52","新北市蘆洲區永樂街80號","121.456848333333","25.08862","6501400","蘆洲區"
"251001","011-UM","2018/03/09 21:19:39","新北市淡水區中山北路二段227號","121.444286666667","25.1859833333333","6501000","淡水區"
"251002","012-UM","2018/03/09 21:11:59","新北市淡水區英專路151號","121.44841","25.1747616666667","6501000","淡水區"
"251008","181-VK","2018/03/09 21:19:40","新北市淡水區水源街二段225號","121.460253333333","25.1764883333333","6501000","淡水區"
"251010","413-VK","2018/03/09 21:19:34","新北市淡水區中正路一段156巷12號","121.421848333333","25.1808333333333","6501000","淡水區"
"251012","441-VK","2018/03/09 21:19:40","新北市淡水區淡金路五段35巷46號","121.452451666667","25.23475","6501000","淡水區"
"251005","443-VK","2018/03/09 21:19:52","新北市淡水區仁愛街18巷2號","121.446805","25.1703966666667","6501000","淡水區"
"251006","561-UM","2018/03/09 21:19:46","新北市淡水區中正路一段102號","121.42396","25.1778","6501000","淡水區"
"251009","575-R6","2018/03/09 21:19:53","新北市淡水區民族路35號","121.462423333333","25.1356516666667","6501000","淡水區"
"251011","650-BX","2018/03/09 21:19:38","新北市淡水區新民街120巷29號","121.438828333333","25.178835","6501000","淡水區"
"251003","673-BX","2018/03/09 21:19:48","新北市淡水區新春街85巷15號","121.438566666667","25.1831783333333","6501000","淡水區"
"220064","486-VK","2018/03/09 21:19:43","新北市五股區新城三路45號","121.448915","25.093455","6500100","板橋區"
"220070","AAC-253","2018/03/09 21:19:46","新北市八里區中華路三段7巷5號","121.397613333333","25.1436","6500100","板橋區"
