"lineid","car","time","location","longitude","latitude","cityid","cityname"
"247010","341-TH","2018/03/09 22:29:38","新北市八里區中山路三段415號","121.370023333333","25.1365","6501400","蘆洲區"
"251004","009-UM","2018/03/09 22:29:04","新北市淡水區民族路33號","121.462221666667","25.1358066666667","6501000","淡水區"
"251008","181-VK","2018/03/09 22:29:40","新北市淡水區學府路104號","121.449901666667","25.1718016666667","6501000","淡水區"
"251010","413-VK","2018/03/09 22:29:34","新北市淡水區沙崙路187號","121.42464","25.1839766666667","6501000","淡水區"
"251007","577-R6","2018/03/09 22:29:41","新北市淡水區北新路180號","121.449505","25.17877","6501000","淡水區"
