"lineid","car","time","location","longitude","latitude","cityid","cityname"
"248005","653-BX","2018/03/10 07:27:54","新北市五股區明德路12巷6號","121.43339","25.0717916666667","6501500","五股區"
"232010","375-UM","2018/03/10 07:39:20","新北市坪林區磨壁潭1號","121.718318333333","24.9410533333333","6502000","坪林區"
"244005","248-BX","2018/03/10 07:39:17","新北市林口區頂福里71-112號","121.344078333333","25.0844816666667","6501700","林口區"
"222004","289-BY","2018/03/10 07:11:33","新北市深坑區昇高坑路72號","121.6311","24.987645","6501800","深坑區"
"226005","5620-A6","2018/03/10 07:39:14","新北市平溪區嶺腳里中華街36號","121.739176666667","25.02535","6502400","平溪區"
"226002","7418-A5","2018/03/10 07:39:21","新北市平溪區靜安路三段86號","121.770245","25.0350683333333","6502400","平溪區"
"226003","AGD-0702","2018/03/10 07:36:59","新北市平溪區嶺腳里嶺腳寮83-2號","121.75087","25.0352166666667","6502400","平溪區"
"223006","022-BY","2018/03/10 07:39:02","新北市石碇區北宜路五段1號","121.626043333333","24.954045","6501900","石碇區"
"223001","205-TH","2018/03/10 07:39:19","新北市石碇區蛇舌子11-2號","121.660068333333","24.9704916666667","6501900","石碇區"
"223008","406-TH","2018/03/10 07:39:25","新北市石碇區靜安路一段337號","121.698998333333","25.0147183333333","6501900","石碇區"
"223001","592-UM","2018/03/10 07:37:01","新北市石碇區烏塗窟37號","121.656758333333","24.97151","6501900","石碇區"
"223004","660-BX","2018/03/10 07:39:15","新北市石碇區八分寮47號","121.642191666667","25.0138533333333","6501900","石碇區"
"223005","677-TV","2018/03/10 07:39:16","新北市石碇區八分寮47號","121.64224","25.0139433333333","6501900","石碇區"
"224007","275-VK","2018/03/10 07:39:14","新北市瑞芳區大寮路356-1號","121.785425","25.10321","6501200","瑞芳區"
"227006","282-VK","2018/03/10 07:39:20","新北市雙溪區雙溪里太平路54號","121.864781666667","25.0354433333333","6502500","雙溪區"
"252004","249-BX","2018/03/10 07:39:15","新北市三芝區店子里菜公坑77-1號","121.51092","25.2062433333333","6502100","三芝區"
"252007","AAC-283","2018/03/10 07:39:10","新北市三芝區古庄里四棧橋57號","121.484291666667","25.26486","6502100","三芝區"
"237001","159-UY","2018/03/10 07:39:21","新北市三峽區國慶路144號","121.375675","24.939845","6500900","三峽區"
"236011","165-UM","2018/03/10 07:39:12","新北市土城區清水路269號","121.463663333333","24.9853066666667","6501300","土城區"
"236001","339-SR","2018/03/10 07:39:28","新北市土城區龍泉路153號","121.452536666667","24.9458633333333","6501300","土城區"
"220057","282-UM","2018/03/10 07:39:25","新北市板橋區南雅南路一段8-9號","121.455971666667","25.006375","6500100","板橋區"
