"lineid","car","time","location","longitude","latitude","cityid","cityname"
"232001","290-BY","2018/07/19 06:49:23","新北市坪林區北宜路八段462號","121.705791666667","24.92197","6502000","坪林區"
"232014","291-BY","2018/07/19 06:49:16","新北市坪林區水柳腳39號","121.709675","24.9351416666667","6502000","坪林區"
"232018","705-BZ","2018/07/19 06:49:22","新北市坪林區北宜路八段462號","121.705513333333","24.9222416666667","6502000","坪林區"
"232007","758-BX","2018/07/19 06:49:25","新北市坪林區北宜路八段501號","121.706888333333","24.9197116666667","6502000","坪林區"
"235001","611-BX","2018/07/19 06:49:22","新北市中和區圓通路335巷33弄15號","121.493055","24.9890133333333","6500300","中和區"
"235010","733-UM","2018/07/19 06:49:23","新北市中和區和平街29-1號","121.507493333333","24.9909633333333","6500300","中和區"
"223006","022-BY","2018/07/19 06:49:19","新北市石碇區楓子林55-5號","121.642736666667","25.008415","6501900","石碇區"
"223002","KEA-2673","2018/07/19 06:49:26","新北市石碇區烏塗窟55號","121.654161666667","24.972105","6501900","石碇區"
"223003","205-TH","2018/07/19 06:49:17","新北市石碇區石崁37號","121.658455","24.9931566666667","6501900","石碇區"
"223008","406-TH","2018/07/19 06:49:27","新北市石碇區雙溪84-1號","121.66121","25.0089833333333","6501900","石碇區"
"223001","592-UM","2018/07/19 06:49:30","新北市石碇區石崁33-2號","121.659413333333","24.992335","6501900","石碇區"
"223004","660-BX","2018/07/19 06:49:23","新北市石碇區碇坪路一段142號","121.660036666667","24.9914616666667","6501900","石碇區"
"223007","661-BX","2018/07/19 06:49:23","新北市石碇區雙溪37-3號","121.654738333333","25.0081933333333","6501900","石碇區"
"223005","677-TV","2018/07/19 06:49:07","新北市石碇區碇坪路一段79號","121.660653333333","24.99104","6501900","石碇區"
"227007","282-VK","2018/07/19 06:49:11","新北市雙溪區新基里自強路5號","121.86635","25.0390316666667","6502500","雙溪區"
"252007","AAC-283","2018/07/19 06:49:25","新北市三芝區埔坪里埔頭坑41號","121.504478333333","25.2644283333333","6502100","三芝區"
