"lineid","car","time","location","longitude","latitude","cityid","cityname"
"248005","653-BX","2018/07/05 08:39:39","新北市五股區明德路12巷16號","121.433261666667","25.0721233333333","6501500","五股區"
"232001","290-BY","2018/07/05 08:39:39","新北市坪林區虎寮潭1號","121.741001666667","24.9504066666667","6502000","坪林區"
"232014","291-BY","2018/07/05 08:39:34","新北市坪林區魚堀49號","121.700593333333","24.93096","6502000","坪林區"
"244006","080-UY","2018/07/05 08:39:23","新北市林口區林口路272巷2號","121.386383333333","25.0846533333333","6501700","林口區"
"244003","248-BX","2018/07/05 08:39:24","新北市林口區下福里137-1號","121.297101666667","25.119075","6501700","林口區"
"244018","403-UM","2018/07/05 08:39:30","新北市林口區文化一路一段86號","121.372585","25.0706533333333","6501700","林口區"
"244012","742-UY","2018/07/05 08:39:32","新北市林口區中山路138-1號","121.391693333333","25.078755","6501700","林口區"
"244008","410-SL","2018/07/05 08:39:26","新北市林口區佳林路56巷45號","121.38518","25.0806466666667","6501700","林口區"
"244022","483-VK","2018/07/05 08:39:33","新北市林口區興林路152巷19號","121.387345","25.0716633333333","6501700","林口區"
"244016","485-VK","2018/07/05 08:39:40","新北市林口區公園路167號","121.370881666667","25.0719016666667","6501700","林口區"
"244010","657-BX","2018/07/05 08:39:37","新北市林口區中正路101號","121.394103333333","25.0772766666667","6501700","林口區"
"244024","837-TS","2018/07/05 08:39:41","新北市林口區文化北路一段261號","121.358425","25.071465","6501700","林口區"
"244020","838-TS","2018/07/05 08:39:32","新北市林口區自強一街97號","121.400316666667","25.0768033333333","6501700","林口區"
"222006","289-BY","2018/07/05 08:39:41","新北市深坑區風格街2號","121.626826666667","25.016645","6501800","深坑區"
"231069","189-VK","2018/07/05 08:39:32","新北市新店區新潭路二段61號","121.521888333333","24.9262766666667","6500600","新店區"
"231008","192-VK","2018/07/05 08:39:36","新北市新店區新烏路三段165巷39號","121.553418333333","24.90164","6500600","新店區"
"235001","611-BX","2018/07/05 08:39:32","新北市中和區民安街42巷38弄2號","121.478993333333","25.00147","6500300","中和區"
"226005","5620-A6","2018/07/05 08:39:35","新北市平溪區南山里南山坪126號","121.785416666667","25.046215","6502400","平溪區"
"226007","7418-A5","2018/07/05 08:39:42","新北市平溪區東勢里芊蓁林22號","121.7341","24.9829083333333","6502400","平溪區"
"226003","AGD-0702","2018/07/05 08:39:36","新北市平溪區新寮里新寮路12號","121.793015","25.0595116666667","6502400","平溪區"
"223006","022-BY","2018/07/05 08:39:31","新北市石碇區楓子林1-2號","121.642518333333","25.0087633333333","6501900","石碇區"
"223003","205-TH","2018/07/05 08:39:36","新北市石碇區北宜路六段柑腳巷2號","121.659533333333","24.9381716666667","6501900","石碇區"
"223008","406-TH","2018/07/05 08:39:42","新北市石碇區碇南路二段松柏崎巷27號","121.675543333333","25.021105","6501900","石碇區"
"223001","592-UM","2018/07/05 08:39:34","新北市石碇區北宜路六段柑腳巷2號","121.659585","24.938085","6501900","石碇區"
"223004","660-BX","2018/07/05 08:39:24","新北市石碇區崩山15-2號","121.675533333333","24.9678566666667","6501900","石碇區"
"223005","677-TV","2018/07/05 08:39:24","新北市石碇區崩山33-2號","121.677558333333","24.964225","6501900","石碇區"
"252004","249-BX","2018/07/05 08:38:56","新北市三芝區興華里楓子林37-3號","121.490723333333","25.20872","6502100","三芝區"
"252007","AAC-283","2018/07/05 08:39:27","新北市三芝區後厝里北勢子35號","121.478053333333","25.2463516666667","6502100","三芝區"
"237001","159-UY","2018/07/05 08:39:29","新北市三峽區學成路286號","121.376826666667","24.9436483333333","6500900","三峽區"
"236009","165-UM","2018/07/05 08:39:33","新北市土城區石門路79號","121.463326666667","24.960025","6501300","土城區"
"236003","339-SR","2018/07/05 08:39:37","新北市土城區中州路78號","121.411923333333","24.9586883333333","6501300","土城區"
"236005","498-BY","2018/07/05 08:39:36","新北市土城區永安街99號","121.429821666667","24.96383","6501300","土城區"
"242033","AAC-296","2018/07/05 08:39:33","新北市新莊區景德路202號","121.449343333333","25.0337916666667","6500500","新莊區"
"242057","986-R7","2018/07/05 08:39:41","新北市新莊區中正路742-1號","121.413628333333","25.022925","6500500","新莊區"
"242052","751-BX","2018/07/05 08:39:31","新北市新莊區光華街31號","121.428846666667","25.01117","6500500","新莊區"
"242026","615-BX","2018/07/05 08:39:28","新北市新莊區中華路二段89號","121.452761666667","25.049255","6500500","新莊區"
"242024","613-BX","2018/07/05 08:39:17","新北市新莊區五工一路87巷10號","121.460855","25.06736","6500500","新莊區"
"242028","612-BX","2018/07/05 08:39:40","新北市新莊區幸福路904號","121.443068333333","25.0488316666667","6500500","新莊區"
"242040","566-BX","2018/07/05 08:39:35","新北市新莊區天祥街86號","121.41549","25.0294333333333","6500500","新莊區"
"242045","497-BY","2018/07/05 08:39:41","新北市新莊區民安路40號","121.423116666667","25.0275166666667","6500500","新莊區"
"242049","442-UM","2018/07/05 08:39:34","新北市新莊區民本街25巷2號","121.428265","25.0193466666667","6500500","新莊區"
"242055","440-UM","2018/07/05 08:39:39","新北市新莊區豐年街豐2巷35號","121.447748333333","25.030895","6500500","新莊區"
"242006","413-TV","2018/07/05 08:39:21","新北市新莊區思源路593巷5弄1號","121.459278333333","25.0594783333333","6500500","新莊區"
"242043","400-BY","2018/07/05 08:39:29","新北市新莊區新北大道七段339號","121.41298","25.0275983333333","6500500","新莊區"
"242022","362-BY","2018/07/05 08:39:41","新北市新莊區化成路360號","121.465798333333","25.049385","6500500","新莊區"
"242059","353-BY","2018/07/05 08:39:42","新北市新莊區新樹路181號","121.43628","25.0247283333333","6500500","新莊區"
"242008","132-UY","2018/07/05 08:39:34","新北市新莊區昌平街71巷16號","121.453676666667","25.0537016666667","6500500","新莊區"
"242038","133-UY","2018/07/05 08:39:41","新北市新莊區民安路292號","121.428005","25.0217933333333","6500500","新莊區"
"242030","135-UY","2018/07/05 08:39:39","新北市新莊區新泰路255巷74號","121.44324","25.0395133333333","6500500","新莊區"
"242047","172-VK","2018/07/05 08:39:28","新北市新莊區後港一路15號","121.424368333333","25.0264133333333","6500500","新莊區"
"242010","173-VK","2018/07/05 08:39:36","新北市新莊區中港路591巷2號","121.451151666667","25.0524433333333","6500500","新莊區"
"242016","175-VK","2018/07/05 08:39:35","新北市新莊區中港路397號","121.451955","25.0469816666667","6500500","新莊區"
"242003","176-VK","2018/07/05 08:39:33","新北市新莊區復興路二段191號","121.459326666667","25.0445483333333","6500500","新莊區"
"242014","346-TH","2018/07/05 08:39:25","新北市新莊區中平路198巷13號","121.445781666667","25.04853","6500500","新莊區"
"242035","347-TH","2018/07/05 08:39:31","新北市新莊區後港一路47號","121.42587","25.0263933333333","6500500","新莊區"
"242020","348-TH","2018/07/05 08:39:42","新北市新莊區新興街40號","121.450788333333","25.0371966666667","6500500","新莊區"
"242001","349-TH","2018/07/05 08:39:41","新北市新莊區碧江街98號","121.450473333333","25.032545","6500500","新莊區"
"242018","350-TH","2018/07/05 08:39:30","新北市新莊區中港路206巷2號","121.45525","25.04269","6500500","新莊區"
"242012","351-TH","2018/07/05 08:39:30","新北市新莊區中泰街36號","121.450891666667","25.0470333333333","6500500","新莊區"
"220003","256-TC","2018/07/05 08:39:25","新北市板橋區大觀路二段266號","121.448843333333","24.9962933333333","6500100","板橋區"
