"lineid","car","time","location","longitude","latitude","cityid","cityname"
"248005","653-BX","2018/07/05 09:59:39","新北市五股區成泰路一段196號","121.43579","25.07831","6501500","五股區"
"244018","403-UM","2018/07/05 09:59:30","新北市林口區麗園二街3巷6-2號","121.378998333333","25.0700066666667","6501700","林口區"
"244022","483-VK","2018/07/05 09:59:33","新北市林口區文林六街38號","121.371645","25.0812116666667","6501700","林口區"
"244016","485-VK","2018/07/05 09:59:40","新北市林口區民富街208號","121.371718333333","25.075795","6501700","林口區"
"222006","289-BY","2018/07/05 09:59:01","新北市深坑區大崙尾11號","121.61439","24.97929","6501800","深坑區"
"231069","189-VK","2018/07/05 09:59:32","新北市新店區新潭路三段215巷25號","121.508118333333","24.9041133333333","6500600","新店區"
"231008","192-VK","2018/07/05 09:48:56","新北市新店區平廣路一段256號","121.507785","24.8882833333333","6500600","新店區"
"223008","406-TH","2018/07/05 09:57:55","新北市石碇區小粗坑(潭邊里)9-2號","121.678833333333","24.9860366666667","6501900","石碇區"
"223001","592-UM","2018/07/05 09:59:34","新北市石碇區碇坪路一段186號","121.667673333333","24.984545","6501900","石碇區"
"252004","249-BX","2018/07/05 09:59:36","新北市三芝區福德里大水堀17號","121.515013333333","25.2218216666667","6502100","三芝區"
"252007","AAC-283","2018/07/05 09:59:40","新北市三芝區新庄里新庄子62號","121.507743333333","25.2744583333333","6502100","三芝區"
"237001","159-UY","2018/07/05 09:59:29","新北市三峽區國際一街72號","121.372051666667","24.941765","6500900","三峽區"
"236009","165-UM","2018/07/05 09:59:32","新北市土城區中央路四段484號","121.409265","24.950485","6501300","土城區"
"236005","498-BY","2018/07/05 09:59:36","新北市土城區中華路二段241號","121.43754","24.9725966666667","6501300","土城區"
"242057","986-R7","2018/07/05 09:59:41","新北市新莊區民安路138號","121.42418","25.0253666666667","6500500","新莊區"
"242024","613-BX","2018/07/05 09:59:37","新北市新莊區新泰路255巷83號","121.442215","25.0389566666667","6500500","新莊區"
"220003","256-TC","2018/07/05 09:59:25","新北市板橋區中正路435-2號","121.45095","25.024635","6500100","板橋區"
