"lineid","car","time","location","longitude","latitude","cityid","cityname"
"248005","653-BX","2018/07/05 10:19:39","新北市五股區成泰路二段121號","121.438591666667","25.0847016666667","6501500","五股區"
"244022","483-VK","2018/07/05 10:19:32","新北市林口區仁愛路二段602號","121.371653333333","25.0789216666667","6501700","林口區"
"222006","289-BY","2018/07/05 10:19:41","新北市深坑區阿柔洋35-1號","121.6133","24.9975816666667","6501800","深坑區"
"231069","189-VK","2018/07/05 10:19:31","新北市新店區新潭路三段181號","121.508641666667","24.9053666666667","6500600","新店區"
"231008","192-VK","2018/07/05 10:19:16","新北市新店區小坑一路21-1號","121.530743333333","24.91162","6500600","新店區"
"252007","AAC-283","2018/07/05 10:19:40","新北市三芝區新庄里番社后31號","121.500488333333","25.2734016666667","6502100","三芝區"
"237001","159-UY","2018/07/05 10:19:29","新北市三峽區國學街12號","121.37343","24.941645","6500900","三峽區"
"236009","165-UM","2018/07/05 10:19:32","新北市樹林區中山路三段214號","121.379636666667","24.9674633333333","6501300","土城區"
"220003","256-TC","2018/07/05 10:19:45","新北市板橋區中正路437號","121.452388333333","25.0247516666667","6500100","板橋區"
