"lineid","car","time","location","longitude","latitude","cityid","cityname"
"244019","403-UM","2018/07/05 10:28:49","新北市林口區粉寮69號","121.405026666667","25.0908533333333","6501700","林口區"
"244022","483-VK","2018/07/05 10:39:32","新北市林口區湖南里70-9號","121.375493333333","25.08959","6501700","林口區"
"222006","289-BY","2018/07/05 10:39:41","新北市深坑區雲鄉路1號","121.621026666667","24.999965","6501800","深坑區"
"231069","189-VK","2018/07/05 10:39:31","新北市新店區新潭路三段80巷15號","121.502195","24.9094333333333","6500600","新店區"
"231008","192-VK","2018/07/05 10:39:36","新北市新店區小坑一路22號","121.533163333333","24.9137166666667","6500600","新店區"
"236009","165-UM","2018/07/05 10:39:32","新北市土城區城林路6巷80號","121.438741666667","24.979695","6501300","土城區"
"220003","256-TC","2018/07/05 10:39:45","新北市板橋區中正路275巷93號","121.451221666667","25.018275","6500100","板橋區"
