"lineid","car","time","location","longitude","latitude","cityid","cityname"
"234040","862-TW","2018/07/05 12:09:39","新北市永和區福和路1號","121.525635","25.00932","6500400","永和區"
"244019","403-UM","2018/07/05 11:59:18","新北市林口區粉寮69號","121.405016666667","25.0908166666667","6501700","林口區"
"243005","AAD-798","2018/07/05 12:05:44","新北市泰山區黎明路31號","121.421876666667","25.060615","6501600","泰山區"
"231008","192-VK","2018/07/05 12:09:36","新北市新店區新烏路一段171號","121.545058333333","24.934705","6500600","新店區"
"228005","097-TW","2018/07/05 12:09:30","新北市貢寮區福隆里虎子山街21號","121.938466666667","25.0183383333333","6502600","貢寮區"
"228004","212-TW","2018/07/05 12:09:45","新北市貢寮區貢寮里長泰路18號","121.907561666667","25.0198316666667","6502600","貢寮區"
