"lineid","car","time","location","longitude","latitude","cityid","cityname"
"234028","746-BX","2018/07/05 14:59:15","新北市中和區中正路776號","121.485058333333","25.0003466666667","6500400","永和區"
"234025","9371-KE","2018/07/05 14:56:21","新北市永和區中和路573號","121.51156","25.0035783333333","6500400","永和區"
"248015","026-BX","2018/07/05 14:59:29","新北市五股區凌雲路一段158巷57弄1號","121.447106666667","25.1044133333333","6501500","五股區"
"248007","095-VK","2018/07/05 14:59:16","新北市五股區四維路52號","121.467385","25.07201","6501500","五股區"
"248017","225-UY","2018/07/05 14:59:25","新北市五股區登林路91-21號","121.421035","25.07191","6501500","五股區"
"248013","261-SL","2018/07/05 14:59:14","新北市五股區成泰路三段6號","121.441126666667","25.0875783333333","6501500","五股區"
"248009","272-BY","2018/07/05 14:59:14","新北市五股區成泰路一段7巷4號","121.433365","25.06674","6501500","五股區"
"248003","677-BX","2018/07/05 14:59:15","新北市五股區成泰路一段8巷2-3號","121.434873333333","25.0668966666667","6501500","五股區"
"248001","678-BX","2018/07/05 14:59:29","新北市五股區成泰路三段37號","121.441993333333","25.08851","6501500","五股區"
"243002","267-VK","2018/07/05 14:59:24","新北市泰山區新生路31巷7號","121.427596666667","25.0459566666667","6501600","泰山區"
"243005","AAD-798","2018/07/05 14:59:22","新北市泰山區新民路12號","121.426435","25.0447333333333","6501600","泰山區"
"243001","297-R6","2018/07/05 14:59:12","新北市泰山區泰林路二段216號","121.432703333333","25.0618166666667","6501600","泰山區"
"243008","380-SR","2018/07/05 14:59:13","新北市泰山區明志路三段317號","121.422483333333","25.035865","6501600","泰山區"
"243007","421-VK","2018/07/05 14:59:20","新北市泰山區泰林路二段175號","121.433558333333","25.06076","6501600","泰山區"
"243003","KEA-2215","2018/07/05 14:59:23","新北市泰山區明志路三段434號","121.420901666667","25.0330766666667","6501600","泰山區"
"243004","646-TV","2018/07/05 14:59:28","新北市泰山區楓江路83巷5號","121.436975","25.0636383333333","6501600","泰山區"
"243006","680-BX","2018/07/05 14:59:22","新北市泰山區泰林路二段527號","121.423618333333","25.06378","6501600","泰山區"
"231002","002-UM","2018/07/05 14:59:21","新北市新店區民權路103號","121.536603333333","24.9828966666667","6500600","新店區"
"231028","046-UY","2018/07/05 14:59:19","新北市新店區安豐路5號","121.501723333333","24.9572616666667","6500600","新店區"
"231001","047-UY","2018/07/05 14:59:15","新北市新店區中正路274號","121.53885","24.9736","6500600","新店區"
"231005","106-UY","2018/07/05 14:59:24","新北市新店區北新路三段238號","121.539998333333","24.9867883333333","6500600","新店區"
"231021","108-UY","2018/07/05 14:59:17","新北市新店區桂山路51巷6-1號","121.563405","24.9041416666667","6500600","新店區"
"231036","110-UY","2018/07/05 14:59:16","新北市新店區安祥路102巷32號","121.484165","24.96401","6500600","新店區"
"231011","187-VK","2018/07/05 14:59:22","新北市新店區永華街33巷34號","121.544533333333","24.9769283333333","6500600","新店區"
"231023","KEA-2219","2018/07/05 14:59:29","新北市新店區檳榔路109號","121.544406666667","24.9616883333333","6500600","新店區"
"231026","256-BX","2018/07/05 14:59:25","新北市新店區博愛街3號","121.540578333333","24.9726866666667","6500600","新店區"
"231003","268-BY","2018/07/05 14:59:13","新北市新店區中興路一段306號","121.546423333333","24.9698883333333","6500600","新店區"
"231018","278-BY","2018/07/05 14:59:12","新北市新店區中央六街5號","121.530373333333","24.974555","6500600","新店區"
"231017","AAD-862","2018/07/05 14:59:22","新北市新店區北宜路二段581巷2號","121.566203333333","24.9540133333333","6500600","新店區"
"231006","355-BY","2018/07/05 14:59:16","新北市新店區新坡一街104號","121.548533333333","24.96378","6500600","新店區"
"231038","3712-VJ","2018/07/05 14:59:20","新北市新店區安華路28-1號","121.519566666667","24.9608833333333","6500600","新店區"
"231037","4716-K9","2018/07/05 14:59:20","新北市新店區薏仁坑路自強巷6號","121.496825","24.9582566666667","6500600","新店區"
"231025","4715-K9","2018/07/05 14:59:15","新北市新店區大豐路71號","121.539236666667","24.97949","6500600","新店區"
"231013","513-UM","2018/07/05 14:59:17","新北市新店區北新路二段97巷10弄2號","121.542196666667","24.9745666666667","6500600","新店區"
"231030","619-UM","2018/07/05 14:59:16","新北市新店區安民街381號","121.51627","24.9764266666667","6500600","新店區"
"231034","641-BX","2018/07/05 14:59:17","新北市新店區玫瑰路4-1號","121.493563333333","24.9513883333333","6500600","新店區"
"231039","718-UY","2018/07/05 14:59:15","新北市新店區寶中路45-3號","121.545251666667","24.978905","6500600","新店區"
"231035","719-UM","2018/07/05 14:59:17","新北市新店區安業街19號","121.516861666667","24.9777633333333","6500600","新店區"
"231031","720-UM","2018/07/05 14:59:28","新北市新店區安泰路60巷46號","121.483518333333","24.9466316666667","6500600","新店區"
"231029","897-TW","2018/07/05 14:59:13","新北市新店區錦秀路66號","121.478965","24.942865","6500600","新店區"
"231004","899-TW","2018/07/05 14:59:18","新北市新店區民族路65號","121.539593333333","24.9783083333333","6500600","新店區"
"231024","AKT-0513","2018/07/05 14:59:13","新北市新店區中華路83巷67號","121.538346666667","24.9672883333333","6500600","新店區"
"235030","003-UY","2018/07/05 14:59:31","新北市中和區光華街10號","121.504216666667","25.0042066666667","6500300","中和區"
"235020","096-UM","2018/07/05 14:59:11","新北市中和區漢民路412號","121.472271666667","25.0069133333333","6500300","中和區"
"235003","097-UM","2018/07/05 14:59:17","新北市中和區宜安路39號","121.512115","24.996515","6500300","中和區"
"235029","098-UM","2018/07/05 14:59:19","新北市中和區橋和路284號","121.496495","25.0067066666667","6500300","中和區"
"235004","150-BY","2018/07/05 14:59:22","新北市中和區保健路19巷4弄2號","121.508486666667","24.9985233333333","6500300","中和區"
"235031","255-BX","2018/07/05 14:59:10","新北市板橋區光武街125巷12號","121.46547","25.02833","6500300","中和區"
"235036","301-VK","2018/07/05 14:59:24","新北市中和區中和路53號","121.500491666667","25.0014216666667","6500300","中和區"
"235007","352-BY","2018/07/05 14:59:22","新北市中和區興南路二段159巷18號","121.505298333333","24.9830016666667","6500300","中和區"
"235014","4979-A6","2018/07/05 14:59:11","新北市中和區景平路155巷4號","121.513445","24.9917033333333","6500300","中和區"
"235033","4980-A6","2018/07/05 14:59:20","新北市中和區景平路477號","121.500128333333","24.99708","6500300","中和區"
"235034","558-UM","2018/07/05 14:59:15","新北市中和區圓通路109號","121.499445","24.9965233333333","6500300","中和區"
"235018","640-BX","2018/07/05 14:59:25","新北市中和區莒光路118號","121.47247","25.0019","6500300","中和區"
"235010","733-UM","2018/07/05 14:59:15","新北市中和區興南路一段93巷14弄4號","121.510133333333","24.9871983333333","6500300","中和區"
"235035","783-BX","2018/07/05 14:59:19","新北市中和區建三路75號","121.486276666667","25.0013033333333","6500300","中和區"
"235005","802-TS","2018/07/05 14:59:20","新北市中和區安和路43號","121.509635","24.9948483333333","6500300","中和區"
"235016","805-TS","2018/07/05 14:59:23","新北市中和區華新街42號","121.507908333333","24.9842416666667","6500300","中和區"
"235012","896-TW","2018/07/05 14:59:18","新北市中和區忠孝街5巷9號","121.509245","24.9831016666667","6500300","中和區"
"235017","900-TW","2018/07/05 14:59:16","新北市中和區民德路204號","121.468238333333","24.9984983333333","6500300","中和區"
"235026","911-UM","2018/07/05 14:59:11","新北市中和區中山路二段367號","121.487586666667","25.0047166666667","6500300","中和區"
"235015","157-BY","2018/07/05 14:59:16","新北市中和區景安路220巷6號","121.50325","24.99113","6500300","中和區"
"235001","AAC-213","2018/07/05 14:59:26","新北市中和區自立路16號","121.521998333333","24.9937216666667","6500300","中和區"
"235023","AAC-215","2018/07/05 14:59:09","新北市中和區圓通路339號","121.491556666667","24.9905183333333","6500300","中和區"
"220016","013-TV","2018/07/05 14:59:20","新北市板橋區中山路二段318巷2弄18號","121.480698333333","25.0192216666667","6500100","板橋區"
"220003","015-TV","2018/07/05 14:59:28","新北市板橋區重慶路278巷20-2號","121.462206666667","24.9997316666667","6500100","板橋區"
"220013","072-UY","2018/07/05 14:59:24","新北市板橋區民族路61號","121.464971666667","25.0086866666667","6500100","板橋區"
"220105","075-UY","2018/07/05 14:59:29","新北市板橋區民治街57巷26號","121.480098333333","25.03388","6500100","板橋區"
"220017","AAD-861","2018/07/05 14:59:29","新北市板橋區貴興路119巷4號","121.45563","25.00214","6500100","板橋區"
"247021","500-BY","2018/07/05 14:59:22","新北市蘆洲區中正路457號","121.462248333333","25.0956033333333","6501400","蘆洲區"
"228004","212-TW","2018/07/05 14:59:25","新北市貢寮區雙玉里田寮洋街24號","121.928585","25.01799","6502600","貢寮區"
"253003","6232-TK","2018/07/05 14:59:25","新北市石門區阿里磅1號","121.586641666667","25.291825","6502200","石門區"
"253001","6251-TK","2018/07/05 14:59:16","新北市石門區崁子腳57-1號","121.53673","25.2753833333333","6502200","石門區"
"253002","637-UY","2018/07/05 14:59:23","新北市石門區內石門2號","121.564996666667","25.291125","6502200","石門區"
"253004","8270-PC","2018/07/05 14:59:16","新北市石門區茂林社區78號","121.592241666667","25.269805","6502200","石門區"
"207002","749-BX","2018/07/05 14:59:15","新北市萬里區崁腳里崁腳路73號","121.647736666667","25.1595766666667","6502800","萬里區"
"207001","662-BX","2018/07/05 14:59:28","新北市萬里區雙興里麗水路5號","121.651585","25.18353","6502800","萬里區"
"236040","107-UM","2018/07/05 14:59:15","新北市土城區裕民路174號","121.452605","24.985395","6501300","土城區"
"236074","166-UM","2018/07/05 14:59:21","新北市土城區中央路四段55-12號","121.418711666667","24.9573433333333","6501300","土城區"
"236029","253-BX","2018/07/05 14:59:12","新北市土城區福仁街62號","121.439413333333","24.9745183333333","6501300","土城區"
"236024","269-VK","2018/07/05 14:59:32","新北市土城區中正路56巷5號","121.444043333333","24.9749933333333","6501300","土城區"
"236032","271-VK","2018/07/05 14:59:21","新北市土城區仁愛路17巷1號","121.460466666667","24.98058","6501300","土城區"
"236068","KEA-2877","2018/07/05 14:59:27","新北市土城區中央路一段291巷14號","121.445021666667","24.9837266666667","6501300","土城區"
"236017","401-BY","2018/07/05 14:59:27","新北市土城區延吉街217巷1弄2號","121.468635","24.9849666666667","6501300","土城區"
"236012","752-BX","2018/07/05 14:59:20","新北市土城區立德路105號","121.463786666667","24.987645","6501300","土城區"
"236057","912-UM","2018/07/05 14:59:22","新北市土城區金城路二段12號","121.449228333333","24.977285","6501300","土城區"
"236045","913-UM","2018/07/05 14:59:20","新北市土城區青雲路316號","121.458953333333","24.9779033333333","6501300","土城區"
"236060","915-UM","2018/07/05 14:59:22","新北市土城區延和路88巷3弄2號","121.466633333333","24.9891933333333","6501300","土城區"
"236063","970-R7","2018/07/05 14:59:28","新北市土城區學府路一段254號","121.451488333333","24.98447","6501300","土城區"
"236054","AAC-216","2018/07/05 14:59:26","新北市土城區學成路150號","121.448395","24.9894183333333","6501300","土城區"
"238010","601-UM","2018/07/05 14:59:18","新北市樹林區八德街395號","121.415408333333","24.97164","6500700","樹林區"
"238006","599-UM","2018/07/05 14:59:20","新北市樹林區環河路600-2號","121.403193333333","24.9693216666667","6500700","樹林區"
"238018","571-TV","2018/07/05 14:59:31","新北市樹林區育德街78-1號","121.388123333333","24.968045","6500700","樹林區"
"238009","KEA-2213","2018/07/05 14:59:15","新北市樹林區育德街78-1號","121.387921666667","24.9680866666667","6500700","樹林區"
"238008","KEA-2539","2018/07/05 14:59:26","新北市樹林區育德街78-1號","121.388038333333","24.9680733333333","6500700","樹林區"
"238012","303-VK","2018/07/05 14:59:17","新北市樹林區育德街78號","121.387468333333","24.9685566666667","6500700","樹林區"
"238001","282-BY","2018/07/05 14:59:12","新北市樹林區育德街78號","121.38775","24.9683983333333","6500700","樹林區"
"238007","268-VK","2018/07/05 14:59:22","新北市板橋區大觀路三段6號","121.434958333333","24.99575","6500700","樹林區"
"238013","172-UY","2018/07/05 14:59:23","新北市樹林區八德街224號","121.415495","24.9717483333333","6500700","樹林區"
"239007","292-BY","2018/07/05 14:59:12","新北市鶯歌區二甲路171-1號","121.343991666667","24.9355683333333","6500800","鶯歌區"
"220027","145-BY","2018/07/05 14:59:18","新北市板橋區南雅西路二段215號","121.451563333333","25.0137316666667","6500100","板橋區"
"220028","200-UY","2018/07/05 14:59:30","新北市板橋區大觀路二段181號","121.445011666667","25","6500100","板橋區"
"220030","610-BX","2018/07/05 14:59:29","新北市板橋區篤行路二段105號","121.431686666667","24.9912683333333","6500100","板橋區"
"220050","245-BX","2018/07/05 14:59:22","新北市板橋區莒光路180巷23號","121.473203333333","25.0227866666667","6500100","板橋區"
"220003","256-TC","2018/07/05 14:59:20","新北市樹林區中山路三段210-2號","121.380771666667","24.966855","6500100","板橋區"
"220020","277-BY","2018/07/05 14:59:19","新北市板橋區金門街151巷21號","121.433796666667","24.990345","6500100","板橋區"
"220019","283-VK","2018/07/05 14:59:15","新北市板橋區和平路174巷51號","121.465768333333","24.9934766666667","6500100","板橋區"
"220043","285-UM","2018/07/05 14:59:13","新北市板橋區文德路36號","121.462243333333","25.0241766666667","6500100","板橋區"
"220001","285-VK","2018/07/05 14:59:27","新北市板橋區中山路二段90巷27號","121.475695","25.0157483333333","6500100","板橋區"
"220031","286-VK","2018/07/05 14:59:17","新北市板橋區僑中二街88巷21號","121.445233333333","25.0095416666667","6500100","板橋區"
"220029","287-VK","2018/07/05 14:59:28","新北市板橋區僑中一街80巷14弄2號","121.44816","25.0133416666667","6500100","板橋區"
"220039","288-VK","2018/07/05 14:59:12","新北市板橋區龍泉街108巷25號","121.456263333333","25.0239333333333","6500100","板橋區"
"220009","293-UM","2018/07/05 14:59:14","新北市板橋區觀光街79巷2號","121.469235","25.0169616666667","6500100","板橋區"
"220023","303-R5","2018/07/05 14:59:28","新北市板橋區金華街10巷48弄67-3號","121.459451666667","25.0202783333333","6500100","板橋區"
"220041","307-R5","2018/07/05 14:59:16","新北市板橋區裕民街130號","121.45891","25.0275666666667","6500100","板橋區"
"220047","317-R6","2018/07/05 14:59:19","新北市板橋區文德路47號","121.461646666667","25.0237583333333","6500100","板橋區"
"220012","486-VK","2018/07/05 14:59:28","新北市板橋區區運路8號","121.465086666667","25.0090616666667","6500100","板橋區"
"220037","491-VK","2018/07/05 14:59:21","新北市板橋區仁化街187號","121.478395","25.0339366666667","6500100","板橋區"
"220104","560-BX","2018/07/05 14:59:25","新北市板橋區新生街53巷1弄10號","121.456991666667","25.021525","6500100","板橋區"
"220052","561-BX","2018/07/05 14:59:20","新北市板橋區自由路43號","121.465608333333","25.0232716666667","6500100","板橋區"
"220011","609-BX","2018/07/05 14:59:16","新北市板橋區三民路一段31巷87弄1號","121.48157","25.0233066666667","6500100","板橋區"
"220034","630-UY","2018/07/05 14:59:31","新北市板橋區館前西路160巷18號","121.452441666667","25.0090483333333","6500100","板橋區"
"220040","637-BX","2018/07/05 14:59:13","新北市板橋區文聖街89巷21號","121.478266666667","25.030375","6500100","板橋區"
"220005","686-BX","2018/07/05 14:59:26","新北市板橋區四川路二段96號","121.451715","24.9945783333333","6500100","板橋區"
"220042","689-BX","2018/07/05 14:59:28","新北市板橋區長江路二段145號","121.465675","25.0317133333333","6500100","板橋區"
"220002","741-BX","2018/07/05 14:59:23","新北市板橋區忠孝路201巷88號","121.464718333333","25.0046566666667","6500100","板橋區"
"220051","KEA-2699","2018/07/05 14:59:15","新北市板橋區文聖街42號","121.47643","25.0313416666667","6500100","板橋區"
"220025","806-UM","2018/07/05 14:59:20","新北市板橋區僑中一街124巷58-4號","121.446661666667","25.0161783333333","6500100","板橋區"
"220014","829-TW","2018/07/05 14:59:20","新北市板橋區長安街331巷93弄1-4號","121.472136666667","25.0124383333333","6500100","板橋區"
"220045","830-TW","2018/07/05 14:59:19","新北市板橋區莒光路40巷9號","121.470226666667","25.023685","6500100","板橋區"
"220038","833-TW","2018/07/05 14:59:24","新北市板橋區龍泉街92-4號","121.456583333333","25.02514","6500100","板橋區"
"220022","895-R6","2018/07/05 14:59:13","新北市板橋區明德街1-1號","121.459785","25.0102466666667","6500100","板橋區"
"220021","985-R7","2018/07/05 14:59:18","新北市板橋區南雅西路二段2-2號","121.453101666667","25.0090233333333","6500100","板橋區"
"220046","AAC-210","2018/07/05 14:59:23","新北市板橋區文化路一段221巷10號","121.463215","25.0177083333333","6500100","板橋區"
"220018","AAC-253","2018/07/05 14:59:10","新北市板橋區民族路61號","121.465078333333","25.00876","6500100","板橋區"
"235032","KEA-2873","2018/07/05 14:59:27","新北市中和區福祥路89號","121.498908333333","25.005875","6500300","中和區"
