"lineid","car","time","location","longitude","latitude","cityid","cityname"
"231011","187-VK","2018/07/05 16:09:22","新北市新店區安興路105號","121.515033333333","24.9780216666667","6500600","新店區"
"231046","188-VK","2018/07/05 16:09:24","新北市新店區灣潭路3-3號","121.538236666667","24.9508116666667","6500600","新店區"
"231018","278-BY","2018/07/05 16:09:32","新北市新店區中正路694巷15號","121.53534","24.9909116666667","6500600","新店區"
"231037","4716-K9","2018/07/05 16:09:20","新北市新店區薏仁坑路自強巷1號","121.497636666667","24.957655","6500600","新店區"
"241011","013-R5","2018/07/05 16:09:32","新北市三重區三和路三段116號","121.493925","25.0724366666667","6500200","三重區"
"241028","022-UY","2018/07/05 16:09:27","新北市三重區正義南路111號","121.498288333333","25.058625","6500200","三重區"
"241008","059-VK","2018/07/05 16:09:30","新北市三重區忠孝路三段56-1號","121.48052","25.0653166666667","6500200","三重區"
"241022","060-VK","2018/07/05 16:09:14","新北市三重區新北大道一段6號","121.488811666667","25.0615433333333","6500200","三重區"
"241015","062-VK","2018/07/05 16:09:30","新北市三重區環河南路35號","121.503115","25.061165","6500200","三重區"
"241024","065-VK","2018/07/05 16:09:26","新北市三重區力行路一段38巷13號","121.485826666667","25.0675916666667","6500200","三重區"
"241026","066-VK","2018/07/05 16:09:29","新北市三重區正義南路17號","121.497521666667","25.0614283333333","6500200","三重區"
"241002","090-VK","2018/07/05 16:09:28","新北市三重區仁義街91號","121.499786666667","25.0794733333333","6500200","三重區"
"241003","091-VK","2018/07/05 16:09:22","新北市三重區仁義街301號","121.49567","25.0837566666667","6500200","三重區"
"241005","262-UM","2018/07/05 16:09:22","新北市三重區自強路四段39號","121.489125","25.076915","6500200","三重區"
"241020","265-UM","2018/07/05 16:09:24","新北市三重區大勇街1號","121.483801666667","25.0713666666667","6500200","三重區"
"241016","266-UM","2018/07/05 16:09:15","新北市三重區重新路三段45-1號","121.493041666667","25.061185","6500200","三重區"
"241009","267-UM","2018/07/05 16:09:25","新北市三重區忠孝路二段102號","121.48344","25.06938","6500200","三重區"
"241018","268-UM","2018/07/05 16:09:26","新北市三重區明志街67號","121.491073333333","25.063925","6500200","三重區"
"241032","269-UM","2018/07/05 16:09:13","新北市三重區三陽路100巷3弄13號","121.483053333333","25.0581166666667","6500200","三重區"
"241013","270-UM","2018/07/05 16:09:33","新北市三重區安樂街11號","121.496778333333","25.069875","6500200","三重區"
"241025","271-UM","2018/07/05 16:09:27","新北市三重區中正北路210號","121.482463333333","25.0673116666667","6500200","三重區"
"241007","398-BY","2018/07/05 16:09:18","新北市三重區慈愛街1號","121.484656666667","25.0784733333333","6500200","三重區"
"241031","413-TH","2018/07/05 16:09:27","新北市三重區重新路四段121號","121.484675","25.0520866666667","6500200","三重區"
"241004","475-VK","2018/07/05 16:09:19","新北市三重區重安街170巷4號","121.496168333333","25.054455","6500200","三重區"
"241030","480-VK","2018/07/05 16:09:14","新北市三重區重新路四段121號","121.484821666667","25.0525983333333","6500200","三重區"
"241023","545-UM","2018/07/05 16:09:19","新北市三重區力行路一段80號","121.483916666667","25.0696216666667","6500200","三重區"
"241001","547-UM","2018/07/05 16:09:28","新北市三重區自強路四段77號","121.490685","25.0788633333333","6500200","三重區"
"241019","KEA-2593","2018/07/05 16:09:19","新北市三重區重陽路三段99號","121.49045","25.0681616666667","6500200","三重區"
"241006","743-BX","2018/07/05 16:09:11","新北市三重區永福街11號","121.482206666667","25.0783016666667","6500200","三重區"
"241017","887-TS","2018/07/05 16:09:22","新北市三重區重陽路三段5巷30號","121.49139","25.0652166666667","6500200","三重區"
"241012","941-UM","2018/07/05 16:09:23","新北市三重區正義北路113號","121.497045","25.0658466666667","6500200","三重區"
"241029","942-UM","2018/07/05 16:09:14","新北市三重區同安街31號","121.49582","25.0567733333333","6500200","三重區"
"241033","AAC-255","2018/07/05 16:09:25","新北市三重區五谷王南街50-1號","121.47403","25.0447333333333","6500200","三重區"
"235026","911-UM","2018/07/05 16:09:31","新北市中和區橋和路98號","121.490628333333","25.0054783333333","6500300","中和區"
"235001","AAC-213","2018/07/05 16:09:26","新北市八里區荖阡坑路28-2號","121.402946666667","25.1279066666667","6500300","中和區"
"247010","341-TH","2018/07/05 15:48:21","新北市五股區中興路三段2巷10號","121.449235","25.0808416666667","6501400","蘆洲區"
"224007","275-VK","2018/07/05 16:09:27","新北市瑞芳區粗坑口路3-1號","121.761871666667","25.09858","6501200","瑞芳區"
"227010","642-TC","2018/07/05 16:09:16","新北市雙溪區三港里雙澳路70-1號","121.881475","25.0544116666667","6502500","雙溪區"
"227004","400-TW","2018/07/05 16:09:25","新北市雙溪區上林里內平林47號","121.833323333333","25.0304566666667","6502500","雙溪區"
"251013","KEA-2871","2018/07/05 16:09:31","新北市淡水區真理街1號","121.438153333333","25.17295","6501000","淡水區"
"251008","443-VK","2018/07/05 16:09:15","新北市淡水區馬偕街28-9號","121.43756","25.1729933333333","6501000","淡水區"
"236057","912-UM","2018/07/05 16:09:21","新北市土城區中央路二段224號","121.442025","24.9752883333333","6501300","土城區"
"236063","970-R7","2018/07/05 16:09:28","新北市土城區城林路6巷80號","121.438771666667","24.9797166666667","6501300","土城區"
"238002","755-BX","2018/07/05 16:09:27","新北市樹林區大安路323巷10弄20號","121.41705","24.990875","6500700","樹林區"
"238010","601-UM","2018/07/05 16:09:29","新北市樹林區三福街132號","121.405748333333","25.01603","6500700","樹林區"
"238006","599-UM","2018/07/05 16:09:20","新北市樹林區中華路190-16號","121.411841666667","24.9806233333333","6500700","樹林區"
"238005","571-TV","2018/07/05 16:09:31","新北市樹林區博愛街210號","121.424498333333","24.9889333333333","6500700","樹林區"
"238011","5061-A6","2018/07/05 16:09:14","新北市樹林區中山路三段204號","121.386868333333","24.9683033333333","6500700","樹林區"
"238009","KEA-2213","2018/07/05 16:09:15","新北市樹林區國凱街32-2號","121.419716666667","24.9785683333333","6500700","樹林區"
"238001","283-BY","2018/07/05 16:09:29","新北市樹林區中正路433-1號","121.414771666667","25.008015","6500700","樹林區"
"238001","282-BY","2018/07/05 16:09:21","新北市樹林區千歲街92巷7弄7號","121.427211666667","24.9977516666667","6500700","樹林區"
"238007","268-VK","2018/07/05 16:09:22","新北市樹林區俊興街286號","121.418698333333","25.01705","6500700","樹林區"
"238013","172-UY","2018/07/05 16:09:23","新北市樹林區佳園路一段75巷186號","121.396688333333","24.970645","6500700","樹林區"
"238003","169-UY","2018/07/05 15:43:46","新北市樹林區復興路337號","121.417743333333","24.987805","6500700","樹林區"
"220020","277-BY","2018/07/05 16:07:02","新北市樹林區樹新路255號","121.430536666667","24.9993216666667","6500100","板橋區"
