"lineid","car","time","location","longitude","latitude","cityid","cityname"
"243009","297-R6","2018/07/05 16:13:38","新北市泰山區黎明路25號","121.421923333333","25.06096","6501600","泰山區"
"231046","188-VK","2018/07/05 16:19:24","新北市新店區灣潭路3-2號","121.53829","24.9508433333333","6500600","新店區"
"231018","278-BY","2018/07/05 16:19:32","新北市新店區中正路700巷82號","121.535936666667","24.99326","6500600","新店區"
"241011","013-R5","2018/07/05 16:19:32","新北市三重區龍濱路285號","121.501145","25.07335","6500200","三重區"
"241028","022-UY","2018/07/05 16:19:26","新北市三重區同安東街56號","121.498075","25.0573233333333","6500200","三重區"
"241008","059-VK","2018/07/05 16:19:30","新北市三重區永福街112號","121.479051666667","25.075415","6500200","三重區"
"241022","060-VK","2018/07/05 16:19:14","新北市三重區新北大道一段11號","121.488105","25.0608316666667","6500200","三重區"
"241015","062-VK","2018/07/05 16:19:30","新北市三重區福德北路83號","121.501983333333","25.0659566666667","6500200","三重區"
"241024","065-VK","2018/07/05 16:19:26","新北市三重區中正北路145巷1弄3號","121.483076666667","25.0675083333333","6500200","三重區"
"241026","066-VK","2018/07/05 16:19:24","新北市三重區正義南路38號","121.498175","25.0609333333333","6500200","三重區"
"241002","090-VK","2018/07/05 16:19:28","新北市三重區仁義街91號","121.499793333333","25.0794316666667","6500200","三重區"
"241003","091-VK","2018/07/05 16:19:22","新北市三重區五華街61號","121.492798333333","25.0826716666667","6500200","三重區"
"241005","262-UM","2018/07/05 16:19:22","新北市三重區溪尾街305號","121.487603333333","25.0837616666667","6500200","三重區"
"241020","265-UM","2018/07/05 16:19:29","新北市三重區車路頭街17巷24號","121.484526666667","25.07067","6500200","三重區"
"241016","266-UM","2018/07/05 16:19:19","新北市三重區大仁街98號","121.49298","25.0656","6500200","三重區"
"241009","267-UM","2018/07/05 16:19:25","新北市三重區仁愛街517號","121.487536666667","25.0822883333333","6500200","三重區"
"241018","268-UM","2018/07/05 16:19:26","新北市三重區重陽路三段142號","121.489265","25.067055","6500200","三重區"
"241032","269-UM","2018/07/05 16:19:13","新北市三重區三陽路100巷3弄13號","121.483031666667","25.0581433333333","6500200","三重區"
"241013","270-UM","2018/07/05 16:19:13","新北市三重區仁愛街67號","121.496186666667","25.0727066666667","6500200","三重區"
"241025","271-UM","2018/07/05 16:19:27","新北市三重區中正北路560巷100弄2號","121.472453333333","25.0682433333333","6500200","三重區"
"241007","398-BY","2018/07/05 16:19:18","新北市三重區慈愛街52號","121.486235","25.0793","6500200","三重區"
"241031","413-TH","2018/07/05 16:19:27","新北市三重區成功路92號","121.487933333333","25.0513816666667","6500200","三重區"
"241004","475-VK","2018/07/05 16:19:19","新北市三重區自強路五段69號","121.494923333333","25.0820316666667","6500200","三重區"
"241030","480-VK","2018/07/05 16:19:14","新北市三重區重新路四段121號","121.484761666667","25.0526616666667","6500200","三重區"
"241023","545-UM","2018/07/05 16:19:19","新北市三重區中正北路145巷4弄13號","121.483128333333","25.067885","6500200","三重區"
"241001","547-UM","2018/07/05 16:19:29","新北市三重區自強路四段87號","121.491116666667","25.0793433333333","6500200","三重區"
"241019","KEA-2593","2018/07/05 16:19:19","新北市三重區重陽路三段101號","121.49049","25.0681966666667","6500200","三重區"
"241006","743-BX","2018/07/05 16:09:11","新北市三重區永福街11號","121.482206666667","25.0783016666667","6500200","三重區"
"241017","887-TS","2018/07/05 16:19:22","新北市三重區大同北路83號","121.494896666667","25.063665","6500200","三重區"
"241012","941-UM","2018/07/05 16:19:16","新北市三重區龍門路292號","121.502281666667","25.0742433333333","6500200","三重區"
"241029","942-UM","2018/07/05 16:19:15","新北市三重區環河南路220-8號","121.493383333333","25.05271","6500200","三重區"
"241033","AAC-255","2018/07/05 16:19:29","新北市三重區五谷王南街11巷17弄1號","121.472753333333","25.0446016666667","6500200","三重區"
"235026","911-UM","2018/07/05 16:19:11","新北市中和區永和路191巷28號","121.491206666667","25.0062883333333","6500300","中和區"
"235001","AAC-213","2018/07/05 16:19:26","新北市三重區重新路5段221巷6弄11-1號","121.479041666667","25.0509416666667","6500300","中和區"
"224007","275-VK","2018/07/05 16:19:27","新北市瑞芳區大埔路160-1號","121.76208","25.101305","6501200","瑞芳區"
"224005","271-BY","2018/07/05 16:19:15","新北市瑞芳區傑魚坑路128號","121.791663333333","25.110345","6501200","瑞芳區"
"227010","642-TC","2018/07/05 16:19:16","新北市雙溪區三港里雙澳路80號","121.883805","25.0538883333333","6502500","雙溪區"
"227004","400-TW","2018/07/05 16:19:25","新北市雙溪區上林里內平林80號","121.828325","25.0279733333333","6502500","雙溪區"
"251013","KEA-2871","2018/07/05 16:19:11","新北市淡水區北新路一段129-1號","121.457013333333","25.1819166666667","6501000","淡水區"
"251008","443-VK","2018/07/05 16:19:15","新北市淡水區中正東路二段88巷37-23號","121.459601666667","25.14375","6501000","淡水區"
"236057","912-UM","2018/07/05 16:19:21","新北市土城區中央路三段32號","121.438578333333","24.96912","6501300","土城區"
"238002","755-BX","2018/07/05 16:19:27","新北市樹林區中山路二段235號","121.402361666667","24.9761783333333","6500700","樹林區"
"238010","601-UM","2018/07/05 16:19:17","新北市樹林區忠信街15號","121.407628333333","25.0149566666667","6500700","樹林區"
"238006","599-UM","2018/07/05 16:19:20","新北市樹林區東榮街147巷27弄1號","121.414713333333","24.98077","6500700","樹林區"
"238009","KEA-2213","2018/07/05 16:19:15","新北市樹林區八德街263-1號","121.419293333333","24.9738216666667","6500700","樹林區"
"238001","283-BY","2018/07/05 16:19:29","新北市樹林區中正路433-1號","121.414698333333","25.0080033333333","6500700","樹林區"
"238014","282-BY","2018/07/05 16:19:21","新北市樹林區中正路22-1號","121.427866666667","24.9995366666667","6500700","樹林區"
"238007","268-VK","2018/07/05 16:19:22","新北市樹林區三龍街94巷19號","121.414468333333","25.017925","6500700","樹林區"
"238013","172-UY","2018/07/05 16:19:23","新北市樹林區育德街45號","121.391606666667","24.970235","6500700","樹林區"
