"lineid","car","time","location","longitude","latitude","cityid","cityname"
"234042","862-TW","2018/07/05 16:29:18","新北市永和區福和路1號","121.52635","25.0098266666667","6500400","永和區"
"249005","172-UM","2018/07/05 16:49:18","新北市八里區大堀湖2-3號","121.422575","25.1537266666667","6502300","八里區"
"249004","303-UY","2018/07/05 16:49:19","新北市八里區中路50-1號","121.404708333333","25.1564383333333","6502300","八里區"
"249002","305-UY","2018/07/05 16:49:15","新北市八里區牛寮埔33號","121.429871666667","25.145665","6502300","八里區"
"249003","759-BX","2018/07/05 16:49:13","新北市八里區中山路二段289號","121.401558333333","25.1486516666667","6502300","八里區"
"244007","080-UY","2018/07/05 16:49:21","新北市林口區粉寮路一段105號","121.39818","25.080485","6501700","林口區"
"244019","403-UM","2018/07/05 16:49:27","新北市林口區粉寮69號","121.405045","25.0909366666667","6501700","林口區"
"244023","483-VK","2018/07/05 16:49:28","新北市林口區粉寮69號","121.405098333333","25.090845","6501700","林口區"
"231046","188-VK","2018/07/05 16:49:24","新北市新店區灣潭路29-5號","121.539593333333","24.9386833333333","6500600","新店區"
"241011","013-R5","2018/07/05 16:49:12","新北市三重區公園街7號","121.499455","25.0726533333333","6500200","三重區"
"241028","022-UY","2018/07/05 16:49:26","新北市三重區正義南路60-6號","121.49839","25.0601216666667","6500200","三重區"
"241008","059-VK","2018/07/05 16:49:30","新北市三重區永安北路一段17巷13號","121.477511666667","25.0750816666667","6500200","三重區"
"241022","060-VK","2018/07/05 16:49:14","新北市三重區中華路109號","121.483701666667","25.06347","6500200","三重區"
"241015","062-VK","2018/07/05 16:49:10","新北市三重區文化北路43巷11號","121.499281666667","25.06551","6500200","三重區"
"241024","065-VK","2018/07/05 16:49:26","新北市三重區中正北路315巷6弄7號","121.47486","25.0718933333333","6500200","三重區"
"241026","066-VK","2018/07/05 16:49:24","新北市三重區文化南路12號","121.500396666667","25.0620666666667","6500200","三重區"
"241002","090-VK","2018/07/05 16:49:28","新北市三重區仁義街161-2號","121.497031666667","25.0812966666667","6500200","三重區"
"241003","091-VK","2018/07/05 16:49:22","新北市三重區五華街87巷30號","121.492921666667","25.083925","6500200","三重區"
"241005","262-UM","2018/07/05 16:49:22","新北市三重區仁華街80巷9號","121.484768333333","25.0833866666667","6500200","三重區"
"241020","265-UM","2018/07/05 16:49:24","新北市三重區忠孝路二段31號","121.48614","25.0714683333333","6500200","三重區"
"241016","266-UM","2018/07/05 16:49:15","新北市三重區大同北路115巷7號","121.494033333333","25.06454","6500200","三重區"
"241009","267-UM","2018/07/05 16:49:24","新北市三重區三和路四段203巷209號","121.486543333333","25.0806833333333","6500200","三重區"
"241018","268-UM","2018/07/05 16:49:26","新北市三重區正義北路302巷35號","121.494241666667","25.06956","6500200","三重區"
"241032","269-UM","2018/07/05 16:49:13","新北市三重區重陽路一段120巷30號","121.485478333333","25.060125","6500200","三重區"
"241013","270-UM","2018/07/05 16:49:13","新北市三重區仁壽街70號","121.498095","25.0737916666667","6500200","三重區"
"241025","271-UM","2018/07/05 16:49:27","新北市三重區中正北路361-1號","121.472618333333","25.07179","6500200","三重區"
"241007","398-BY","2018/07/05 16:49:18","新北市三重區三和路四段171號","121.483028333333","25.078855","6500200","三重區"
"241031","413-TH","2018/07/05 16:49:27","新北市三重區三陽路1號","121.486558333333","25.0588833333333","6500200","三重區"
"241004","475-VK","2018/07/05 16:49:19","新北市三重區仁愛街397巷1號","121.491418333333","25.0810516666667","6500200","三重區"
"241030","480-VK","2018/07/05 16:49:14","新北市三重區新興路5號","121.492771666667","25.05309","6500200","三重區"
"241014","543-UM","2018/07/05 16:49:18","新北市三重區長榮路75號","121.50263","25.0691866666667","6500200","三重區"
"241023","545-UM","2018/07/05 16:49:19","新北市三重區中華路76巷37號","121.482111666667","25.0625983333333","6500200","三重區"
"241001","547-UM","2018/07/05 16:49:29","新北市三重區仁政街76巷17號","121.491658333333","25.077075","6500200","三重區"
"241019","KEA-2593","2018/07/05 16:49:19","新北市三重區三張街149巷10弄11號","121.485991666667","25.0698016666667","6500200","三重區"
"241006","743-BX","2018/07/05 16:49:23","新北市三重區力行路二段182-3號","121.483335","25.0774483333333","6500200","三重區"
"241017","887-TS","2018/07/05 16:49:22","新北市三重區大同北路56號","121.494288333333","25.063865","6500200","三重區"
"241012","941-UM","2018/07/05 16:49:16","新北市三重區仁興街11巷36號","121.50063","25.0743566666667","6500200","三重區"
"241029","942-UM","2018/07/05 16:49:14","新北市三重區新興路55號","121.491355","25.0539966666667","6500200","三重區"
"241033","AAC-255","2018/07/05 16:49:25","新北市三重區新北大道二段139巷23號","121.466576666667","25.0604033333333","6500200","三重區"
"235046","733-UM","2018/07/05 16:44:33","新北市中和區員山路36巷13號","121.484358333333","24.990965","6500300","中和區"
"235026","911-UM","2018/07/05 16:49:31","新北市中和區建康路156號","121.490328333333","24.99994","6500300","中和區"
"247010","341-TH","2018/07/05 16:49:15","新北市三重區集賢路163號","121.48789","25.0896116666667","6501400","蘆洲區"
"247004","337-TH","2018/07/05 16:49:21","新北市蘆洲區長榮路100號","121.461945","25.0840466666667","6501400","蘆洲區"
"247006","336-TH","2018/07/05 16:49:14","新北市蘆洲區永安南路二段132-1號","121.462518333333","25.07856","6501400","蘆洲區"
"247008","056-VK","2018/07/05 16:49:19","新北市蘆洲區中山一路203號","121.474228333333","25.08106","6501400","蘆洲區"
"247020","001-UY","2018/07/05 16:49:27","新北市蘆洲區民族路420號","121.474136666667","25.0916333333333","6501400","蘆洲區"
"228003","097-TW","2018/07/05 16:49:26","新北市貢寮區貢寮里朝陽街1-2號","121.91235","25.0212283333333","6502600","貢寮區"
"228002","663-BX","2018/07/05 16:49:17","新北市貢寮區貢寮里朝陽街142號","121.90678","25.0227383333333","6502600","貢寮區"
"224006","676-BX","2018/07/05 16:49:16","新北市瑞芳區大寮路356-1號","121.784923333333","25.1031783333333","6501200","瑞芳區"
"224007","275-VK","2018/07/05 16:49:27","新北市瑞芳區月眉路47號","121.760281666667","25.1097266666667","6501200","瑞芳區"
"224009","273-VK","2018/07/05 16:49:13","新北市瑞芳區中山路266號","121.799111666667","25.108065","6501200","瑞芳區"
"224005","271-BY","2018/07/05 16:49:15","新北市瑞芳區洞頂路155-7號","121.86151","25.1218566666667","6501200","瑞芳區"
"227010","642-TC","2018/07/05 16:49:22","新北市雙溪區牡丹里五分10號","121.86638","25.0470566666667","6502500","雙溪區"
"227004","400-TW","2018/07/05 16:49:25","新北市雙溪區外柑里外柑腳71號","121.807073333333","25.0175766666667","6502500","雙溪區"
"251013","KEA-2871","2018/07/05 16:49:11","新北市淡水區泉洲厝32號","121.489251666667","25.19261","6501000","淡水區"
"251016","179-VK","2018/07/05 16:49:12","新北市淡水區水頭42號","121.478168333333","25.1850383333333","6501000","淡水區"
"251014","180-VK","2018/07/05 16:49:15","新北市淡水區淡金路四段478號","121.452425","25.2239183333333","6501000","淡水區"
"251015","181-VK","2018/07/05 16:49:16","新北市淡水區忠愛街6號","121.460741666667","25.1715583333333","6501000","淡水區"
"251010","413-VK","2018/07/05 16:49:19","新北市淡水區中正路二段31號","121.419623333333","25.1817533333333","6501000","淡水區"
"251012","441-VK","2018/07/05 16:49:15","新北市淡水區中正路二段31號","121.419646666667","25.18151","6501000","淡水區"
"251007","442-VK","2018/07/05 16:49:31","新北市淡水區中正路一段1號","121.42702","25.175935","6501000","淡水區"
"251008","443-VK","2018/07/05 16:49:15","新北市淡水區樹梅坑45號","121.474701666667","25.144565","6501000","淡水區"
"251011","650-BX","2018/07/05 16:49:15","新北市淡水區中正路二段30號","121.419895","25.1821333333333","6501000","淡水區"
"252002","178-VK","2018/07/05 16:49:18","新北市三芝區忠孝街132號","121.506068333333","25.2579366666667","6502100","三芝區"
"252001","292-VK","2018/07/05 16:49:31","新北市三芝區淡金路二段76-1號","121.503806666667","25.2608016666667","6502100","三芝區"
"242017","175-VK","2018/07/05 16:49:25","新北市新莊區三和路12-21號","121.442023333333","25.0386416666667","6500500","新莊區"
"238023","601-UM","2018/07/05 16:49:17","新北市樹林區中山路三段139號","121.396258333333","24.97308","6500700","樹林區"
"238025","303-VK","2018/07/05 16:49:17","新北市樹林區中正路22-1號","121.42785","24.999285","6500700","樹林區"
"238001","283-BY","2018/07/05 16:49:29","新北市樹林區中正路433-1號","121.414763333333","25.008005","6500700","樹林區"
"238014","282-BY","2018/07/05 16:49:21","新北市樹林區中正路22-1號","121.427861666667","24.9997016666667","6500700","樹林區"
"239007","AAC-297","2018/07/05 16:49:19","新北市鶯歌區二甲路13-16號","121.345006666667","24.9351583333333","6500800","鶯歌區"
"239001","417-VK","2018/07/05 16:49:31","新北市鶯歌區二甲路13-16號","121.345223333333","24.9349466666667","6500800","鶯歌區"
