"lineid","car","time","location","longitude","latitude","cityid","cityname"
"234026","9371-KE","2018/07/05 17:39:27","新北市永和區中正路659號","121.514748333333","25.0102283333333","6500400","永和區"
"249005","172-UM","2018/07/05 17:39:18","新北市八里區荖阡坑路34-1號","121.402836666667","25.1296883333333","6502300","八里區"
"249001","173-UM","2018/07/05 17:39:16","新北市八里區龍米路二段189號","121.43405","25.158255","6502300","八里區"
"249004","303-UY","2018/07/05 17:39:19","新北市八里區中華路一段79巷7號","121.420623333333","25.1565333333333","6502300","八里區"
"249002","305-UY","2018/07/05 17:39:15","新北市八里區石壁腳19號","121.440281666667","25.1337583333333","6502300","八里區"
"249003","759-BX","2018/07/05 17:39:34","新北市八里區中山路二段177號","121.404911666667","25.1503166666667","6502300","八里區"
"232011","375-UM","2018/07/05 17:39:21","新北市坪林區北宜路八段373號","121.709296666667","24.932225","6502000","坪林區"
"244007","080-UY","2018/07/05 17:39:21","新北市林口區湖子42號","121.385235","25.09422","6501700","林口區"
"244019","403-UM","2018/07/05 17:39:18","新北市林口區公園路168號","121.37243","25.0720683333333","6501700","林口區"
"244013","742-UY","2018/07/05 17:39:26","新北市林口區中正路553號","121.381325","25.07697","6501700","林口區"
"244009","410-SL","2018/07/05 17:39:32","新北市林口區民享路206號","121.382701666667","25.0842666666667","6501700","林口區"
"244023","483-VK","2018/07/05 17:39:28","新北市林口區興林路150號","121.388616666667","25.0715416666667","6501700","林口區"
"244017","485-VK","2018/07/05 17:39:20","新北市林口區忠孝路371-1號","121.369168333333","25.0717483333333","6501700","林口區"
"244011","657-BX","2018/07/05 17:39:20","新北市林口區佳林路211號","121.384225","25.0770883333333","6501700","林口區"
"244025","837-TS","2018/07/05 17:39:29","新北市林口區文化三路一段394巷2號","121.36604","25.0730666666667","6501700","林口區"
"244021","838-TS","2018/07/05 17:39:33","新北市林口區中山路2-2號","121.396856666667","25.078705","6501700","林口區"
"222002","016-RS","2018/07/05 17:39:25","新北市深坑區深南路49號","121.621306666667","25.0093616666667","6501800","深坑區"
"231046","188-VK","2018/07/05 17:39:24","新北市新店區直潭路92號","121.530915","24.9376116666667","6500600","新店區"
"221018","KEA-2785","2018/07/05 17:39:29","新北市汐止區汐萬路一段256巷3號","121.652055","25.0747616666667","6501100","汐止區"
"241005","262-UM","2018/07/05 17:39:31","新北市三重區碧華街1號","121.48346","25.0811416666667","6500200","三重區"
"241020","265-UM","2018/07/05 17:39:24","新北市三重區忠孝路二段15號","121.486666666667","25.0714166666667","6500200","三重區"
"241016","266-UM","2018/07/05 17:39:35","新北市三重區正義北路49號","121.497406666667","25.0639916666667","6500200","三重區"
"241007","398-BY","2018/07/05 17:39:18","新北市三重區車路頭街149-2號","121.483808333333","25.076725","6500200","三重區"
"241014","543-UM","2018/07/05 17:39:18","新北市三重區河邊北街72-6號","121.504411666667","25.068595","6500200","三重區"
"241023","545-UM","2018/07/05 17:39:19","新北市三重區三民街167號","121.483406666667","25.0647733333333","6500200","三重區"
"241019","KEA-2593","2018/07/05 17:39:19","新北市三重區六張街253號","121.487345","25.068305","6500200","三重區"
"241006","743-BX","2018/07/05 17:39:23","新北市八里區商港路120號","121.392905","25.1499516666667","6500200","三重區"
"241017","887-TS","2018/07/05 17:39:22","新北市三重區新北大道一段7號","121.489591666667","25.0612116666667","6500200","三重區"
"241012","941-UM","2018/07/05 17:39:16","新北市三重區仁興街39巷14-6號","121.499895","25.0761083333333","6500200","三重區"
"241033","AAC-255","2018/07/05 17:39:25","新北市三重區光復路一段138-1號","121.471876666667","25.053155","6500200","三重區"
"235064","005-UY","2018/07/05 17:39:23","新北市中和區員山路36巷16-3號","121.485001666667","24.9911833333333","6500300","中和區"
"247024","893-R6","2018/07/05 17:39:16","新北市蘆洲區長樂路125-1號","121.462101666667","25.0880716666667","6501400","蘆洲區"
"247014","546-UM","2018/07/05 17:39:23","新北市蘆洲區中山二路118號","121.472031666667","25.0817083333333","6501400","蘆洲區"
"247022","500-BY","2018/07/05 17:39:30","新北市蘆洲區三民路283號","121.467258333333","25.08974","6501400","蘆洲區"
"247010","341-TH","2018/07/05 17:39:15","新北市蘆洲區中山一路49號","121.478846666667","25.0810133333333","6501400","蘆洲區"
"247012","339-TH","2018/07/05 17:39:29","新北市蘆洲區民族路33巷2號","121.478111666667","25.0852","6501400","蘆洲區"
"247004","337-TH","2018/07/05 17:39:21","新北市蘆洲區長安街249巷40號","121.457756666667","25.0827233333333","6501400","蘆洲區"
"247006","336-TH","2018/07/05 17:39:34","新北市蘆洲區長安街68巷30號","121.464195","25.081105","6501400","蘆洲區"
"247018","057-VK","2018/07/05 17:39:16","新北市蘆洲區民權路61巷10號","121.473325","25.087675","6501400","蘆洲區"
"247008","056-VK","2018/07/05 17:39:19","新北市蘆洲區和平路15號","121.472721666667","25.079175","6501400","蘆洲區"
"247016","007-UY","2018/07/05 17:39:34","新北市蘆洲區光華路46巷8號","121.468641666667","25.0834283333333","6501400","蘆洲區"
"247002","002-UY","2018/07/05 17:39:32","新北市蘆洲區永平街58號","121.457608333333","25.0915766666667","6501400","蘆洲區"
"247020","001-UY","2018/07/05 17:39:27","新北市蘆洲區民族路355號","121.471881666667","25.09173","6501400","蘆洲區"
"228003","097-TW","2018/07/05 17:39:26","新北市貢寮區仁理村仁和路200號","121.923593333333","25.052815","6502600","貢寮區"
"228001","212-TW","2018/07/05 17:39:24","新北市貢寮區仁理村仁愛路95-1號","121.927676666667","25.0554183333333","6502600","貢寮區"
"228002","663-BX","2018/07/05 17:39:37","新北市貢寮區福隆里外隆林街15-1號","121.95847","25.004235","6502600","貢寮區"
"224010","AGQ-8101","2018/07/05 17:34:27","新北市瑞芳區逢甲路202號","121.806936666667","25.1102133333333","6501200","瑞芳區"
"224006","676-BX","2018/07/05 17:39:16","新北市瑞芳區中山路365號","121.796518333333","25.1100683333333","6501200","瑞芳區"
"224008","285-BY","2018/07/05 17:39:25","新北市瑞芳區瑞柑新村31號","121.829531666667","25.1068533333333","6501200","瑞芳區"
"224009","273-VK","2018/07/05 17:39:33","新北市瑞芳區烏勢巷145號","121.847393333333","25.1083633333333","6501200","瑞芳區"
"224005","271-BY","2018/07/05 17:39:35","新北市瑞芳區海濱路8-6號","121.83169","25.1261783333333","6501200","瑞芳區"
"227010","642-TC","2018/07/05 17:39:16","新北市雙溪區三貂里定福路1-2號","121.850756666667","25.0633766666667","6502500","雙溪區"
"251009","008-UM","2018/07/05 17:39:25","新北市淡水區中正路28號","121.444231666667","25.1691133333333","6501000","淡水區"
"251004","009-UM","2018/07/05 17:39:27","新北市淡水區中正東路二段129號","121.459221666667","25.1484433333333","6501000","淡水區"
"251005","010-UM","2018/07/05 17:39:25","新北市淡水區鄧公路33巷1號","121.451388333333","25.1711083333333","6501000","淡水區"
"251013","KEA-2871","2018/07/05 17:39:31","新北市淡水區演戲埔腳11號","121.469386666667","25.1947116666667","6501000","淡水區"
"251016","179-VK","2018/07/05 17:39:32","新北市淡水區埤島75-1號","121.453163333333","25.1949483333333","6501000","淡水區"
"251014","180-VK","2018/07/05 17:39:35","新北市淡水區公埔子16-6號","121.481028333333","25.2245783333333","6501000","淡水區"
"251015","181-VK","2018/07/05 17:39:16","新北市淡水區糞箕湖1-9號","121.484535","25.1709216666667","6501000","淡水區"
"251010","413-VK","2018/07/05 17:39:19","新北市淡水區淡海路284號","121.419456666667","25.1888433333333","6501000","淡水區"
"251012","441-VK","2018/07/05 17:39:15","新北市淡水區北新路200巷8號","121.45176","25.1796283333333","6501000","淡水區"
"251007","442-VK","2018/07/05 17:39:31","新北市淡水區民族路35巷4號","121.464593333333","25.13715","6501000","淡水區"
"251008","443-VK","2018/07/05 17:39:15","新北市淡水區八勢路一段123巷6號","121.4666","25.1570033333333","6501000","淡水區"
"251001","559-UM","2018/07/05 17:39:14","新北市淡水區民權路92巷35-1號","121.462138333333","25.126645","6501000","淡水區"
"251006","561-UM","2018/07/05 17:39:33","新北市淡水區大信街32號","121.44207","25.1770983333333","6501000","淡水區"
"251011","650-BX","2018/07/05 17:39:15","新北市淡水區小坪頂22號","121.484675","25.1569483333333","6501000","淡水區"
"251002","672-BX","2018/07/05 17:39:26","新北市淡水區清水街250號","121.44045","25.1721866666667","6501000","淡水區"
"251003","766-UM","2018/07/05 17:39:26","新北市淡水區中山北路一段47號","121.441623333333","25.175385","6501000","淡水區"
"207003","550-UM","2018/07/05 17:39:20","新北市萬里區龜吼里漁澳路25-1號","121.686251666667","25.1947566666667","6502800","萬里區"
"207004","225-TW","2018/07/05 17:39:31","新北市萬里區中幅里中福路8-1號","121.685931666667","25.1649066666667","6502800","萬里區"
"252002","178-VK","2018/07/05 17:39:18","新北市三芝區智成街81號","121.504998333333","25.2556833333333","6502100","三芝區"
"252001","292-VK","2018/07/05 17:39:31","新北市三芝區淡金路一段87號","121.50214","25.2589833333333","6502100","三芝區"
"237013","252-BX","2018/07/05 17:39:20","新北市三峽區愛國路33-9號","121.374916666667","24.93297","6500900","三峽區"
"237011","KEA-2596","2018/07/05 17:39:16","新北市三峽區中山路459巷163-1號","121.349578333333","24.933305","6500900","三峽區"
"237016","649-BX","2018/07/05 17:39:34","新北市三峽區中園街237-1號","121.366853333333","24.9194966666667","6500900","三峽區"
"237010","706-TV","2018/07/05 17:39:25","新北市三峽區中山路126號","121.365465","24.9359833333333","6500900","三峽區"
"236070","105-UM","2018/07/05 17:39:21","新北市土城區城林路6巷80號","121.438673333333","24.97995","6501300","土城區"
"236042","107-UM","2018/07/05 17:39:19","新北市土城區城林路6巷80號","121.438656666667","24.9797316666667","6501300","土城區"
"236021","401-BY","2018/07/05 17:39:20","新北市土城區城林路6巷80號","121.438655","24.9797383333333","6501300","土城區"
"236049","913-UM","2018/07/05 17:39:35","新北市土城區城林路6巷80號","121.438493333333","24.9795966666667","6501300","土城區"
"236055","AAC-216","2018/07/05 17:39:16","新北市土城區城林路6巷80號","121.438513333333","24.9795666666667","6501300","土城區"
"242034","AAC-296","2018/07/05 17:39:14","新北市新莊區新莊路532號","121.445638333333","25.0329133333333","6500500","新莊區"
"242058","986-R7","2018/07/05 17:39:22","新北市新莊區中正路618號","121.423731666667","25.02935","6500500","新莊區"
"242053","751-BX","2018/07/05 17:39:22","新北市新莊區新樹路454號","121.43146","25.0010633333333","6500500","新莊區"
"242027","615-BX","2018/07/05 17:39:28","新北市新莊區福壽街105號","121.457963333333","25.0507033333333","6500500","新莊區"
"242025","613-BX","2018/07/05 17:39:19","新北市新莊區思源路90號","121.460115","25.0455316666667","6500500","新莊區"
"242029","612-BX","2018/07/05 17:39:24","新北市新莊區復興路二段13號","121.453708333333","25.043975","6500500","新莊區"
"242042","566-BX","2018/07/05 17:39:24","新北市新莊區中正路514巷17號","121.433038333333","25.0329966666667","6500500","新莊區"
"242046","497-BY","2018/07/05 17:39:23","新北市新莊區建國一路19號","121.433893333333","25.031575","6500500","新莊區"
"242051","442-UM","2018/07/05 17:39:28","新北市新莊區龍安路535號","121.42784","25.0175133333333","6500500","新莊區"
"242056","440-UM","2018/07/05 17:39:27","新北市新莊區泰豐街28號","121.448358333333","25.0317816666667","6500500","新莊區"
"242007","413-TV","2018/07/05 17:39:25","新北市新莊區福樂街118巷5號","121.457263333333","25.0480783333333","6500500","新莊區"
"242044","400-BY","2018/07/05 17:39:30","新北市新莊區中正路871巷9弄44號","121.419868333333","25.0266666666667","6500500","新莊區"
"242023","362-BY","2018/07/05 17:39:32","新北市新莊區公園路129-5號","121.457466666667","25.0407983333333","6500500","新莊區"
"242061","353-BY","2018/07/05 17:39:21","新北市新莊區瓊林南路72號","121.434328333333","25.0128083333333","6500500","新莊區"
"242009","132-UY","2018/07/05 17:39:32","新北市新莊區昌明街14巷8弄2號","121.457415","25.05316","6500500","新莊區"
"242039","133-UY","2018/07/05 17:39:32","新北市新莊區民安西路15號","121.427011666667","25.0217033333333","6500500","新莊區"
"242031","135-UY","2018/07/05 17:39:33","新北市新莊區新泰路336號","121.444833333333","25.0420333333333","6500500","新莊區"
"242048","172-VK","2018/07/05 17:39:35","新北市新莊區萬安街153號","121.420375","25.021455","6500500","新莊區"
"242011","173-VK","2018/07/05 17:39:24","新北市新莊區中港路605巷1號","121.451196666667","25.0530266666667","6500500","新莊區"
"242017","175-VK","2018/07/05 17:39:25","新北市新莊區復興路一段149巷21弄1號","121.450165","25.0441433333333","6500500","新莊區"
"242004","176-VK","2018/07/05 17:39:18","新北市新莊區自立街198號","121.45667","25.045465","6500500","新莊區"
"242015","346-TH","2018/07/05 17:39:33","新北市新莊區新泰路292號","121.44558","25.040735","6500500","新莊區"
"242036","347-TH","2018/07/05 17:39:19","新北市新莊區建福路59巷42號","121.428526666667","25.0277683333333","6500500","新莊區"
"242021","348-TH","2018/07/05 17:39:25","新北市新莊區中華路一段112號","121.452483333333","25.040445","6500500","新莊區"
"242002","349-TH","2018/07/05 17:39:32","新北市新莊區新莊路315號","121.452891666667","25.0343166666667","6500500","新莊區"
"242019","350-TH","2018/07/05 17:39:22","新北市新莊區中港路181號","121.454896666667","25.0415683333333","6500500","新莊區"
"242013","351-TH","2018/07/05 17:39:18","新北市新莊區中誠街120號","121.449296666667","25.0476416666667","6500500","新莊區"
"238015","755-BX","2018/07/05 17:39:21","新北市樹林區啟智街25號","121.420876666667","24.9933833333333","6500700","樹林區"
"238023","601-UM","2018/07/05 17:39:32","新北市樹林區三福街140號","121.405525","25.0162416666667","6500700","樹林區"
"238019","599-UM","2018/07/05 17:39:27","新北市樹林區太順街34號","121.419096666667","24.980125","6500700","樹林區"
"238018","571-TV","2018/07/05 17:39:30","新北市樹林區博愛街8號","121.427695","24.99319","6500700","樹林區"
"238024","5061-A6","2018/07/05 17:39:18","新北市樹林區太平路262號","121.418218333333","24.9724","6500700","樹林區"
"238022","KEA-2213","2018/07/05 17:39:35","新北市樹林區太順街48號","121.418215","24.979435","6500700","樹林區"
"238021","KEA-2539","2018/07/05 17:39:33","新北市樹林區柑園街一段275號","121.393983333333","24.9563216666667","6500700","樹林區"
"238025","303-VK","2018/07/05 17:39:17","新北市樹林區保安街三段15號","121.412513333333","25.0103983333333","6500700","樹林區"
"238017","283-BY","2018/07/05 17:39:29","新北市樹林區三德街64-2號","121.416313333333","25.0146866666667","6500700","樹林區"
"238014","282-BY","2018/07/05 17:39:33","新北市樹林區保安街一段291號","121.418103333333","24.99733","6500700","樹林區"
"238020","268-VK","2018/07/05 17:39:22","新北市樹林區俊英街116巷2號","121.427725","25.0057766666667","6500700","樹林區"
"238026","172-UY","2018/07/05 17:39:23","新北市樹林區新興街19巷36弄25號","121.402611666667","24.9729716666667","6500700","樹林區"
"238016","169-UY","2018/07/05 17:39:09","新北市樹林區育英街165巷14號","121.41823","24.9890533333333","6500700","樹林區"
"239007","AAC-297","2018/07/05 17:39:19","新北市鶯歌區鶯桃路182巷96弄26號","121.340073333333","24.95694","6500800","鶯歌區"
"239006","891-R6","2018/07/05 17:39:18","新北市鶯歌區永和街34巷10弄4號","121.33336","24.9672916666667","6500800","鶯歌區"
"239008","527-UM","2018/07/05 17:39:20","桃園市龜山區宏德司法新村4號","121.331135","24.9793416666667","6500800","鶯歌區"
"239005","526-UM","2018/07/05 17:39:23","新北市鶯歌區福隆二街69號","121.324061666667","24.9715233333333","6500800","鶯歌區"
"239001","417-VK","2018/07/05 17:39:30","新北市鶯歌區中正三路176-1號","121.333295","24.9383516666667","6500800","鶯歌區"
"239003","360-BY","2018/07/05 17:39:27","新北市鶯歌區鶯桃路206巷11號","121.337565","24.95948","6500800","鶯歌區"
"239002","359-BY","2018/07/05 17:39:29","新北市鶯歌區南雅路499號","121.345186666667","24.9541183333333","6500800","鶯歌區"
"239004","193-VK","2018/07/05 17:39:22","新北市鶯歌區三鶯路48號","121.356755","24.9419866666667","6500800","鶯歌區"
"221008","489-VK","2018/07/05 17:39:15","新北市汐止區康寧街901號","121.651343333333","25.074995","6501100","汐止區"
"221036","130-UY","2018/07/05 17:39:21","新北市汐止區汐萬路一段256巷1號","121.651881666667","25.0748116666667","6501100","汐止區"
"221010","269-BY","2018/07/05 17:39:33","新北市汐止區汐萬路一段418巷1弄16號","121.650123333333","25.0785083333333","6501100","汐止區"
"221023","279-VK","2018/07/05 17:39:17","新北市汐止區汐萬路一段256巷1號","121.651705","25.0748683333333","6501100","汐止區"
"221032","280-BY","2018/07/05 17:39:23","新北市汐止區康寧街901號","121.650916666667","25.0752183333333","6501100","汐止區"
"221021","299-VK","2018/07/05 17:39:27","新北市汐止區汐萬路一段256巷3號","121.652065","25.074815","6501100","汐止區"
"221031","353-TW","2018/07/05 17:39:21","新北市汐止區汐萬路一段256巷1號","121.651691666667","25.0748466666667","6501100","汐止區"
"221033","647-BX","2018/07/05 17:39:31","新北市汐止區橫科路407巷99號","121.62918","25.0515516666667","6501100","汐止區"
"235061","KEA-2875","2018/07/05 17:17:06","新北市中和區員山路36巷16-2號","121.485331666667","24.9917166666667","6500300","中和區"
