"lineid","car","time","location","longitude","latitude","cityid","cityname"
"234007","207-UY","2018/07/05 18:19:20","新北市永和區環河西路二段7-11號","121.509083333333","25.016995","6500400","永和區"
"234081","298-R6","2018/07/05 18:19:23","新北市永和區福和路1號","121.526665","25.009995","6500400","永和區"
"234038","336-UY","2018/07/05 18:19:21","新北市永和區福和路1號","121.526628333333","25.010005","6500400","永和區"
"234013","KEA-2591","2018/07/05 18:19:24","新北市永和區福和路1號","121.526205","25.0093766666667","6500400","永和區"
"234042","862-TW","2018/07/05 18:19:24","新北市永和區豫溪街217巷19號","121.52485","25.010175","6500400","永和區"
"234026","9371-KE","2018/07/05 18:19:27","新北市永和區豫溪街28巷22號","121.515005","25.00891","6500400","永和區"
"249005","172-UM","2018/07/05 18:19:37","新北市八里區荖阡坑路15-3號","121.400845","25.1401783333333","6502300","八里區"
"249001","173-UM","2018/07/05 18:19:36","新北市八里區龍米路一段131號","121.452201666667","25.1267483333333","6502300","八里區"
"249004","303-UY","2018/07/05 18:19:19","新北市八里區文心街89號","121.427578333333","25.1610333333333","6502300","八里區"
"249002","305-UY","2018/07/05 18:18:35","新北市八里區龍形二街68號","121.449956666667","25.1330116666667","6502300","八里區"
"248016","026-BX","2018/07/05 18:19:30","新北市五股區成泰路三段477巷18號","121.449886666667","25.0988966666667","6501500","五股區"
"248006","077-UY","2018/07/05 18:19:23","新北市五股區中興路一段164-1號","121.464163333333","25.0740883333333","6501500","五股區"
"248008","095-VK","2018/07/05 18:19:26","新北市五股區更洲路32巷8弄14號","121.459253333333","25.0796283333333","6501500","五股區"
"248020","225-UY","2018/07/05 18:19:11","新北市五股區孝義路47巷23號","121.449985","25.1095483333333","6501500","五股區"
"248012","247-BX","2018/07/05 18:19:25","新北市五股區御史路1巷101弄2號","121.440971666667","25.0912483333333","6501500","五股區"
"248014","261-SL","2018/07/05 18:19:25","新北市五股區自強路19巷2號","121.434508333333","25.07383","6501500","五股區"
"248010","272-BY","2018/07/05 18:19:14","新北市五股區成泰路一段139巷2弄1號","121.435031666667","25.0730066666667","6501500","五股區"
"248004","677-BX","2018/07/05 18:19:29","新北市五股區成泰路二段222-2號","121.439105","25.085445","6501500","五股區"
"248002","678-BX","2018/07/05 18:19:29","新北市五股區西雲路66號","121.443655","25.0916033333333","6501500","五股區"
"232011","375-UM","2018/07/05 18:19:22","新北市坪林區坪雙路一段43號","121.711671666667","24.9426416666667","6502000","坪林區"
"244007","080-UY","2018/07/05 18:19:20","新北市林口區林口路124巷8號","121.388978333333","25.0817683333333","6501700","林口區"
"244019","403-UM","2018/07/05 18:19:18","新北市林口區忠孝路561巷13號","121.373233333333","25.06885","6501700","林口區"
"244013","742-UY","2018/07/05 18:19:26","新北市林口區佳林路101巷36號","121.387036666667","25.08005","6501700","林口區"
"244009","410-SL","2018/07/05 18:19:32","新北市林口區文林二街18號","121.376478333333","25.089275","6501700","林口區"
"244023","483-VK","2018/07/05 18:19:27","新北市林口區仁愛路二段50號","121.38494","25.07573","6501700","林口區"
"244017","485-VK","2018/07/05 18:19:20","新北市林口區公園路14號","121.36636","25.0668","6501700","林口區"
"244011","657-BX","2018/07/05 18:19:20","新北市林口區中正路74巷5弄3號","121.39454","25.077965","6501700","林口區"
"244025","837-TS","2018/07/05 18:19:29","新北市林口區文化北路一段299巷25號","121.359455","25.0729933333333","6501700","林口區"
"244021","838-TS","2018/07/05 18:19:33","新北市林口區自強五街19號","121.39917","25.0762333333333","6501700","林口區"
"243013","AAD-798","2018/07/05 18:19:32","新北市泰山區錢厝坑13號","121.415606666667","25.0369366666667","6501600","泰山區"
"222002","016-RS","2018/07/05 18:19:25","新北市深坑區雲鄉路2號","121.62091","24.9999566666667","6501800","深坑區"
"222003","436-BY","2018/07/05 18:19:29","新北市深坑區旺耽路67號","121.626281666667","25.0029833333333","6501800","深坑區"
"231041","002-UM","2018/07/05 18:19:16","新北市新店區安華路28-1號","121.519663333333","24.96085","6500600","新店區"
"231059","046-UY","2018/07/05 18:19:34","新北市新店區安華路28-1號","121.519536666667","24.9608816666667","6500600","新店區"
"231040","047-UY","2018/07/05 18:19:22","新北市新店區安華路28-1號","121.519321666667","24.9608683333333","6500600","新店區"
"231044","106-UY","2018/07/05 18:19:18","新北市新店區安華路28-1號","121.519555","24.9608116666667","6500600","新店區"
"231052","108-UY","2018/07/05 18:19:24","新北市新店區秀山路20號","121.532496666667","24.9603533333333","6500600","新店區"
"231065","110-UY","2018/07/05 18:19:16","新北市新店區安華路28-1號","121.519631666667","24.96098","6500600","新店區"
"231047","187-VK","2018/07/05 18:19:24","新北市新店區安一路一段1-1號","121.519506666667","24.9611533333333","6500600","新店區"
"231046","188-VK","2018/07/05 18:19:24","新北市新店區直潭七街60號","121.532271666667","24.9398233333333","6500600","新店區"
"231054","KEA-2219","2018/07/05 18:19:24","新北市新店區安一路一段1-1號","121.519766666667","24.96122","6500600","新店區"
"221018","KEA-2785","2018/07/05 18:19:29","新北市汐止區茄苳路83號","121.66714","25.07057","6501100","汐止區"
"231057","256-BX","2018/07/05 18:19:30","新北市新店區安一路一段1-1號","121.519768333333","24.9611066666667","6500600","新店區"
"231042","268-BY","2018/07/05 18:19:17","新北市新店區安華路28-1號","121.519363333333","24.9606066666667","6500600","新店區"
"231051","278-BY","2018/07/05 18:19:26","新北市新店區安一路一段1-1號","121.51961","24.9611","6500600","新店區"
"231050","AAD-862","2018/07/05 18:19:22","新北市新店區安一路一段1-1號","121.519728333333","24.9610716666667","6500600","新店區"
"231045","355-BY","2018/07/05 18:19:33","新北市新店區安華路28-1號","121.519336666667","24.96084","6500600","新店區"
"231058","3713-VJ","2018/07/05 18:19:19","新北市新店區安康路一段50-1號","121.529753333333","24.961285","6500600","新店區"
"231066","4716-K9","2018/07/05 18:19:36","新北市新店區安一路一段1-1號","121.51928","24.9611416666667","6500600","新店區"
"231056","4715-K9","2018/07/05 18:19:15","新北市新店區中央路45號","121.532893333333","24.97758","6500600","新店區"
"231067","4772-VM","2018/07/05 18:19:18","新北市新店區安華路28-1號","121.519303333333","24.96056","6500600","新店區"
"231049","513-UM","2018/07/05 18:19:29","新北市新店區安一路一段1-1號","121.51955","24.961145","6500600","新店區"
"231061","619-UM","2018/07/05 18:19:36","新北市新店區安華路28-1號","121.519368333333","24.9607516666667","6500600","新店區"
"231063","641-BX","2018/07/05 18:19:31","新北市新店區安華路1-1號","121.51953","24.9604766666667","6500600","新店區"
"231062","720-UM","2018/07/05 18:19:33","新北市新店區安一路一段1-1號","121.519363333333","24.961095","6500600","新店區"
"231060","897-TW","2018/07/05 18:19:16","新北市新店區安華路28-1號","121.519438333333","24.9607233333333","6500600","新店區"
"231043","899-TW","2018/07/05 18:19:26","新北市新店區安康路一段359-27號","121.518298333333","24.9611033333333","6500600","新店區"
"231055","AKT-0513","2018/07/05 18:19:27","新北市新店區環河路2號","121.538406666667","24.9616983333333","6500600","新店區"
"241006","743-BX","2018/07/05 18:19:23","新北市三重區力行路二段30巷32號","121.480453333333","25.0728866666667","6500200","三重區"
"241033","AAC-255","2018/07/05 18:19:24","新北市三重區中興北街42巷41號","121.467681666667","25.0493","6500200","三重區"
"235064","005-UY","2018/07/05 18:19:22","新北市中和區圓通路169號","121.4976","24.9954283333333","6500300","中和區"
"235063","006-UY","2018/07/05 18:19:32","新北市中和區中正路573號","121.486491666667","24.9944483333333","6500300","中和區"
"235056","096-UM","2018/07/05 18:19:18","新北市中和區中正路810號","121.484898333333","25.0031583333333","6500300","中和區"
"235039","097-UM","2018/07/05 18:19:20","新北市中和區中正路165號","121.498233333333","24.9936716666667","6500300","中和區"
"235065","098-UM","2018/07/05 18:19:21","新北市中和區莊敬路49巷18號","121.501598333333","25.0061383333333","6500300","中和區"
"235040","150-BY","2018/07/05 18:19:19","新北市中和區景平路353號","121.504771666667","24.9935383333333","6500300","中和區"
"235058","151-BY","2018/07/05 18:19:16","新北市中和區圓通路367巷21-1號","121.49246","24.9862333333333","6500300","中和區"
"235055","183-VK","2018/07/05 18:19:28","新北市中和區中正路637巷60弄61號","121.485476666667","24.9933033333333","6500300","中和區"
"235038","185-VK","2018/07/05 18:19:14","新北市中和區大智街42巷13號","121.522685","24.9920983333333","6500300","中和區"
"235049","186-VK","2018/07/05 18:19:26","新北市中和區中正路637巷52弄1號","121.4855","24.9934533333333","6500300","中和區"
"235072","301-VK","2018/07/05 18:19:33","新北市中和區連城路261-4號","121.492206666667","24.9965766666667","6500300","中和區"
"235043","352-BY","2018/07/05 18:19:26","新北市中和區景平路377號","121.504136666667","24.99347","6500300","中和區"
"235042","KEA-2878","2018/07/05 18:19:33","新北市中和區大仁街46號","121.518483333333","24.9937516666667","6500300","中和區"
"235050","4979-A6","2018/07/05 18:19:14","新北市中和區捷運路61巷9號","121.50912","24.9893366666667","6500300","中和區"
"235069","4980-A6","2018/07/05 18:19:32","新北市中和區錦和路79號","121.489928333333","24.99623","6500300","中和區"
"235070","558-UM","2018/07/05 18:19:26","新北市中和區圓通路108號","121.499388333333","24.996575","6500300","中和區"
"235045","565-BX","2018/07/05 18:19:26","新北市中和區景安路200巷5號","121.50346","24.9915383333333","6500300","中和區"
"235054","640-BX","2018/07/05 18:19:19","新北市中和區民享街86巷16號","121.473726666667","25.0007783333333","6500300","中和區"
"235060","647-TV","2018/07/05 18:19:32","新北市中和區員山路146-3號","121.48122","24.9969266666667","6500300","中和區"
"235047","732-UM","2018/07/05 18:19:24","新北市中和區南山路272號","121.5079","24.98794","6500300","中和區"
"235071","783-BX","2018/07/05 18:19:18","新北市中和區員山路36巷16-2號","121.485258333333","24.9911983333333","6500300","中和區"
"235057","801-TS","2018/07/05 18:19:33","新北市中和區民安街180號","121.476293333333","24.9999016666667","6500300","中和區"
"235041","802-TS","2018/07/05 18:19:26","新北市中和區錦和路350-1號","121.490185","24.993555","6500300","中和區"
"235052","805-TS","2018/07/05 18:19:23","新北市中和區興南路二段96號","121.505045","24.9840533333333","6500300","中和區"
"235048","896-TW","2018/07/05 18:19:23","新北市中和區中正路395號","121.489798333333","24.9935633333333","6500300","中和區"
"235053","900-TW","2018/07/05 18:19:17","新北市中和區員山路36巷16-8號","121.485453333333","24.9922083333333","6500300","中和區"
"235062","911-UM","2018/07/05 18:19:30","新北市中和區景平路792號","121.495666666667","25.0061783333333","6500300","中和區"
"235051","157-BY","2018/07/05 18:19:15","新北市中和區信義街106號","121.5119","24.98712","6500300","中和區"
"235037","AAC-213","2018/07/05 18:19:30","新北市中和區景德街79號","121.516508333333","24.9914216666667","6500300","中和區"
"220065","072-UY","2018/07/05 18:19:29","新北市板橋區華東街1-9號","121.44812","24.995","6500100","板橋區"
"247006","336-TH","2018/07/05 18:19:14","新北市八里區中山路三段112號","121.387951666667","25.1466483333333","6501400","蘆洲區"
"226004","312-R5","2018/07/05 18:19:19","新北市平溪區靜安路二段81巷36號","121.71823","25.0245283333333","6502400","平溪區"
"228003","097-TW","2018/07/05 18:19:26","新北市貢寮區和美里和美街63號","121.922361666667","25.071055","6502600","貢寮區"
"228001","212-TW","2018/07/05 18:19:24","新北市貢寮區真理里新港街26巷55弄2-1號","121.927403333333","25.0528616666667","6502600","貢寮區"
"228002","663-BX","2018/07/05 18:19:37","新北市貢寮區福連里馬崗街1號","121.997556666667","25.0169266666667","6502600","貢寮區"
"224010","AGQ-8101","2018/07/05 17:59:47","新北市瑞芳區烏勢巷145號","121.847716666667","25.1089966666667","6501200","瑞芳區"
"224006","676-BX","2018/07/05 18:19:16","新北市瑞芳區三爪子坑路106巷11號","121.808888333333","25.10452","6501200","瑞芳區"
"224002","639-TC","2018/07/05 18:19:31","新北市瑞芳區三爪子坑路149巷32號","121.811861666667","25.1066133333333","6501200","瑞芳區"
"224008","285-BY","2018/07/05 18:19:25","新北市瑞芳區逢甲路15號","121.809783333333","25.1087116666667","6501200","瑞芳區"
"224007","275-VK","2018/07/05 18:19:27","新北市瑞芳區大埔路23巷20-1號","121.764516666667","25.1014683333333","6501200","瑞芳區"
"224009","273-VK","2018/07/05 18:19:33","新北市瑞芳區五號路96號","121.8548","25.1104166666667","6501200","瑞芳區"
"224005","271-BY","2018/07/05 18:19:15","新北市瑞芳區建基新村8號","121.81244","25.13205","6501200","瑞芳區"
"227010","642-TC","2018/07/05 18:19:16","新北市雙溪區牡丹里牡丹73號","121.851698333333","25.0593533333333","6502500","雙溪區"
"227004","400-TW","2018/07/05 18:19:15","新北市雙溪區共和里中山路2號","121.863773333333","25.0337716666667","6502500","雙溪區"
"253005","032-BX","2018/07/05 18:19:31","新北市石門區中央路5-1號","121.566475","25.2915783333333","6502200","石門區"
"253006","295-VK","2018/07/05 18:19:26","新北市石門區老梅路78號","121.54704","25.28922","6502200","石門區"
"222001","KEA-2212","2018/07/05 18:19:20","新北市深坑區北深路二段51-1號","121.619031666667","25.0040716666667","6501800","深坑區"
"208002","KEA-2872","2018/07/05 18:19:34","新北市金山區清泉里清水路60巷15號","121.633671666667","25.234135","6502700","金山區"
"208003","665-BX","2018/07/05 18:19:19","新北市金山區民生路126號","121.64751","25.2237416666667","6502700","金山區"
"208001","761-BX","2018/07/05 18:19:25","新北市金山區自強路13號","121.640391666667","25.216405","6502700","金山區"
"251004","009-UM","2018/07/05 18:19:27","新北市淡水區民族路110巷34號","121.461656666667","25.13529","6501000","淡水區"
"251005","010-UM","2018/07/05 18:19:25","新北市淡水區水源街一段122巷37號","121.447116666667","25.1704316666667","6501000","淡水區"
"251013","KEA-2871","2018/07/05 18:19:31","新北市淡水區行忠路668號","121.470398333333","25.19916","6501000","淡水區"
"251016","179-VK","2018/07/05 18:19:32","新北市淡水區淡金路三段228巷20號","121.449523333333","25.20496","6501000","淡水區"
"251014","180-VK","2018/07/05 18:19:14","新北市淡水區崙頂14號","121.491268333333","25.221675","6501000","淡水區"
"251015","181-VK","2018/07/05 18:19:36","新北市淡水區興福寮66巷541號","121.484563333333","25.1652733333333","6501000","淡水區"
"251010","413-VK","2018/07/05 18:19:19","新北市淡水區淡海路188號","121.420323333333","25.1850333333333","6501000","淡水區"
"251012","441-VK","2018/07/05 18:19:35","新北市淡水區北新路二段77-5號","121.480483333333","25.18556","6501000","淡水區"
"251008","443-VK","2018/07/05 18:19:35","新北市淡水區淡金路150號","121.458298333333","25.1650333333333","6501000","淡水區"
"251001","559-UM","2018/07/05 18:19:34","新北市淡水區自強路110-8號","121.462008333333","25.1317066666667","6501000","淡水區"
"251006","561-UM","2018/07/05 18:19:33","新北市淡水區新民街76巷36弄1號","121.439453333333","25.1780316666667","6501000","淡水區"
"251011","650-BX","2018/07/05 18:19:15","新北市淡水區坪頂路55號","121.45852","25.1626233333333","6501000","淡水區"
"251002","672-BX","2018/07/05 18:19:26","新北市淡水區中正東路一段79號","121.45288","25.161945","6501000","淡水區"
"251003","766-UM","2018/07/05 18:19:26","新北市淡水區北新路180號","121.449445","25.178715","6501000","淡水區"
"207003","550-UM","2018/07/05 18:19:19","新北市萬里區野柳里港東路8號","121.686788333333","25.203315","6502800","萬里區"
"207004","225-TW","2018/07/05 18:19:30","新北市萬里區中幅里中福路127-1號","121.675326666667","25.165645","6502800","萬里區"
"252002","178-VK","2018/07/05 18:19:18","新北市三芝區中山路二段43號","121.502978333333","25.2550416666667","6502100","三芝區"
"252003","249-BX","2018/07/05 18:19:30","新北市三芝區錫板里海尾14-32號","121.477715","25.25974","6502100","三芝區"
"252001","292-VK","2018/07/05 18:19:31","新北市三芝區中興街二段2號","121.498405","25.2566383333333","6502100","三芝區"
"237004","KEA-2597","2018/07/05 18:19:28","新北市三峽區大埔路500號","121.372335","24.8940616666667","6500900","三峽區"
"237007","153-BY","2018/07/05 18:19:25","新北市三峽區中正路二段355號","121.365451666667","24.9088533333333","6500900","三峽區"
"237009","210-TH","2018/07/05 18:19:23","新北市三峽區中山路106巷28號","121.366191666667","24.93708","6500900","三峽區"
"237013","252-BX","2018/07/05 18:19:20","新北市三峽區永安街33號","121.37677","24.9304266666667","6500900","三峽區"
"237012","275-BY","2018/07/05 18:19:28","新北市三峽區民生街19巷7弄9號","121.376773333333","24.9361166666667","6500900","三峽區"
"237008","302-VK","2018/07/05 18:19:22","新北市三峽區白雞68-85號","121.392581666667","24.9085883333333","6500900","三峽區"
"237014","433-BY","2018/07/05 18:19:34","新北市三峽區復興路110巷2弄4號","121.372895","24.93805","6500900","三峽區"
"237006","5529-G3","2018/07/05 18:19:20","新北市三峽區溪東路235號","121.406535","24.93261","6500900","三峽區"
"237011","KEA-2596","2018/07/05 18:19:37","新北市三峽區介壽路三段16號","121.395593333333","24.93621","6500900","三峽區"
"237016","649-BX","2018/07/05 18:19:34","新北市三峽區紫微路19-1號","121.424723333333","24.9211783333333","6500900","三峽區"
"237010","706-TV","2018/07/05 18:19:25","新北市三峽區民族街51號","121.36965","24.9298683333333","6500900","三峽區"
"236070","105-UM","2018/07/05 18:19:33","新北市土城區永豐路252號","121.468603333333","24.9800983333333","6501300","土城區"
"236042","107-UM","2018/07/05 18:19:36","新北市土城區樂利街3巷11號","121.448463333333","24.9863466666667","6501300","土城區"
"236078","166-UM","2018/07/05 18:19:26","新北市土城區中央路三段281巷23弄19號","121.426341666667","24.9615616666667","6501300","土城區"
"236030","253-BX","2018/07/05 18:19:36","新北市土城區順風路24號","121.440708333333","24.9767283333333","6501300","土城區"
"236026","269-VK","2018/07/05 18:19:21","新北市土城區承天路18號","121.439538333333","24.9634483333333","6501300","土城區"
"236038","271-VK","2018/07/05 18:19:28","新北市土城區青雲路483巷1號","121.459433333333","24.9738466666667","6501300","土城區"
"236021","401-BY","2018/07/05 18:19:20","新北市土城區明德路二段79號","121.451096666667","24.9813966666667","6501300","土城區"
"236014","752-BX","2018/07/05 18:19:28","新北市土城區立清街69號","121.460281666667","24.987315","6501300","土城區"
"236059","912-UM","2018/07/05 18:19:21","新北市土城區中央路四段426號","121.41094","24.9518","6501300","土城區"
"236049","913-UM","2018/07/05 18:19:21","新北市土城區明德路一段361-3號","121.456155","24.9777733333333","6501300","土城區"
"236063","915-UM","2018/07/05 18:19:22","新北市土城區延壽路44巷1-1號","121.47035","24.9918583333333","6501300","土城區"
"236055","AAC-216","2018/07/05 18:19:16","新北市土城區中華路二段92號","121.438251666667","24.97475","6501300","土城區"
"242034","AAC-296","2018/07/05 18:19:34","新北市新莊區瓊林路46-7號","121.44716","25.029325","6500500","新莊區"
"242058","986-R7","2018/07/05 18:19:22","新北市新莊區新北大道七段848號","121.413743333333","25.0236366666667","6500500","新莊區"
"242053","751-BX","2018/07/05 18:19:31","新北市新莊區民安西路412-3號","121.428865","25.0098683333333","6500500","新莊區"
"242027","615-BX","2018/07/05 18:19:28","新北市新莊區幸福路583號","121.453775","25.0490783333333","6500500","新莊區"
"242025","613-BX","2018/07/05 18:19:24","新北市新莊區五工一路98號","121.460445","25.0679516666667","6500500","新莊區"
"242029","612-BX","2018/07/05 18:19:24","新北市新莊區幸福路862號","121.44365","25.04909","6500500","新莊區"
"242042","566-BX","2018/07/05 18:19:24","新北市新莊區天祥街121巷17號","121.414246666667","25.029035","6500500","新莊區"
"242046","497-BY","2018/07/05 18:19:03","新北市新莊區中正路654號","121.42125","25.0284416666667","6500500","新莊區"
"242051","442-UM","2018/07/05 18:19:27","新北市新莊區民安東路17號","121.428018333333","25.0210116666667","6500500","新莊區"
"242056","440-UM","2018/07/05 18:19:27","新北市新莊區豐年街豐2巷7號","121.446938333333","25.0308383333333","6500500","新莊區"
"242007","413-TV","2018/07/05 18:19:25","新北市新莊區中華路二段9號","121.4538","25.04557","6500500","新莊區"
"242044","400-BY","2018/07/05 18:19:30","新北市新莊區鳳山街56巷45號","121.413483333333","25.0270866666667","6500500","新莊區"
"242061","353-BY","2018/07/05 18:19:24","新北市新莊區新樹路73號","121.43773","25.027755","6500500","新莊區"
"242009","132-UY","2018/07/05 18:19:32","新北市新莊區幸福路600號","121.453098333333","25.049475","6500500","新莊區"
"242039","133-UY","2018/07/05 18:19:32","新北市新莊區新樹路206巷4號","121.433576666667","25.0204433333333","6500500","新莊區"
"242031","135-UY","2018/07/05 18:19:33","新北市新莊區新泰路277巷11號","121.445246666667","25.0402066666667","6500500","新莊區"
"242011","173-VK","2018/07/05 18:18:55","新北市新莊區中港路577號","121.451456666667","25.0523816666667","6500500","新莊區"
"242015","346-TH","2018/07/05 18:19:32","新北市新莊區中和街134號","121.447486666667","25.04822","6500500","新莊區"
"242021","348-TH","2018/07/05 18:19:25","新北市新莊區新興街17號","121.45067","25.036915","6500500","新莊區"
"242002","349-TH","2018/07/05 18:19:32","新北市新莊區碧江街11號","121.455838333333","25.034905","6500500","新莊區"
"238015","755-BX","2018/07/05 18:19:21","新北市樹林區文化街112巷18號","121.417351666667","24.990525","6500700","樹林區"
"238023","601-UM","2018/07/05 18:19:17","新北市樹林區忠義街19號","121.409588333333","25.01512","6500700","樹林區"
"238019","599-UM","2018/07/05 18:19:20","新北市樹林區八德街94號","121.420948333333","24.9803083333333","6500700","樹林區"
"238018","571-TV","2018/07/05 18:19:30","新北市樹林區保安街一段16巷20號","121.428298333333","24.993855","6500700","樹林區"
"238024","5061-A6","2018/07/05 18:19:18","新北市樹林區育英街1號","121.422688333333","24.9890283333333","6500700","樹林區"
"238025","303-VK","2018/07/05 18:19:17","新北市樹林區保安二街59號","121.42447","24.99456","6500700","樹林區"
"238020","268-VK","2018/07/05 18:19:22","新北市樹林區中正路592號","121.410813333333","25.0154016666667","6500700","樹林區"
"238026","172-UY","2018/07/05 18:19:23","新北市樹林區佳園路一段75巷104號","121.39662","24.97049","6500700","樹林區"
"238016","169-UY","2018/07/05 18:19:26","新北市樹林區文化街26號","121.419396666667","24.9876633333333","6500700","樹林區"
"239007","AAC-297","2018/07/05 18:19:34","新北市鶯歌區育英街98號","121.34735","24.9518083333333","6500800","鶯歌區"
"239006","891-R6","2018/07/05 18:19:18","新北市鶯歌區德昌街140巷3號","121.332063333333","24.9606633333333","6500800","鶯歌區"
"239008","527-UM","2018/07/05 18:19:20","新北市鶯歌區國際一路179號","121.336221666667","24.9765433333333","6500800","鶯歌區"
"239005","526-UM","2018/07/05 18:19:23","新北市鶯歌區鶯桃路668巷73號","121.329918333333","24.9717783333333","6500800","鶯歌區"
"239001","417-VK","2018/07/05 18:19:30","新北市鶯歌區中正三路福德巷2弄19號","121.339196666667","24.9408833333333","6500800","鶯歌區"
"239003","360-BY","2018/07/05 18:19:27","新北市鶯歌區福安街58號","121.335568333333","24.965185","6500800","鶯歌區"
"239002","359-BY","2018/07/05 18:19:29","新北市鶯歌區國慶街35號","121.349533333333","24.9557533333333","6500800","鶯歌區"
"221008","489-VK","2018/07/05 18:19:36","新北市汐止區汐萬路一段256巷3號","121.652458333333","25.0746316666667","6501100","汐止區"
"221036","130-UY","2018/07/05 18:19:21","新北市汐止區長安路77巷2號","121.669193333333","25.0784433333333","6501100","汐止區"
"221015","131-UY","2018/07/05 18:19:28","新北市汐止區鄉長路二段23巷17號","121.667835","25.0827866666667","6501100","汐止區"
"221010","269-BY","2018/07/05 18:19:33","新北市汐止區祥雲街15巷1號","121.646413333333","25.09006","6501100","汐止區"
"221012","278-VK","2018/07/05 18:19:32","新北市汐止區保長路35巷15弄8號","121.673011666667","25.0803516666667","6501100","汐止區"
"221023","279-VK","2018/07/05 18:19:17","新北市汐止區中興路244號","121.629558333333","25.0681233333333","6501100","汐止區"
"221032","280-BY","2018/07/05 18:19:22","新北市汐止區力行街40號","121.616456666667","25.0500716666667","6501100","汐止區"
"221027","281-BY","2018/07/05 18:19:29","新北市汐止區和平街3-1號","121.663358333333","25.0706783333333","6501100","汐止區"
"221029","298-VK","2018/07/05 18:19:21","新北市汐止區汐萬路一段256巷3號","121.65305","25.074395","6501100","汐止區"
"221021","299-VK","2018/07/05 18:19:27","新北市汐止區龍安路202巷45號","121.652556666667","25.0637816666667","6501100","汐止區"
"221031","353-TW","2018/07/05 18:19:21","新北市汐止區中興路108號","121.633335","25.063695","6501100","汐止區"
"221035","622-UM","2018/07/05 18:19:16","新北市汐止區大同路二段187巷8弄1號","121.652588333333","25.0656833333333","6501100","汐止區"
"221025","623-UM","2018/07/05 18:19:23","新北市汐止區勤進路12巷37號","121.659168333333","25.0626183333333","6501100","汐止區"
"221038","646-BX","2018/07/05 18:19:18","新北市汐止區仁愛路324號","121.664373333333","25.067795","6501100","汐止區"
"221033","647-BX","2018/07/05 18:19:31","新北市汐止區宜興街35巷2號","121.622411666667","25.0423816666667","6501100","汐止區"
"221002","707-TV","2018/07/05 18:19:18","新北市汐止區福德一路213巷33號","121.635588333333","25.0648033333333","6501100","汐止區"
"220064","486-VK","2018/07/05 18:19:14","新北市板橋區華東街1-10號","121.448365","24.9949583333333","6500100","板橋區"
"220054","741-BX","2018/07/05 18:19:30","新北市板橋區華東街1-9號","121.448113333333","24.99492","6500100","板橋區"
"220073","985-R7","2018/07/05 18:19:25","新北市板橋區華東街1-10號","121.44829","24.9949516666667","6500100","板橋區"
"235061","KEA-2875","2018/07/05 18:19:27","新北市中和區莒光路158號","121.472518333333","25.0003233333333","6500300","中和區"
