"lineid","car","time","location","longitude","latitude","cityid","cityname"
"234081","298-R6","2018/07/05 20:39:23","新北市永和區永貞路80號","121.520153333333","25.0051016666667","6500400","永和區"
"234064","337-UY","2018/07/05 20:38:03","新北市永和區環河西路一段83號","121.512796666667","25.0181666666667","6500400","永和區"
"234030","746-BX","2018/07/05 20:39:24","新北市中和區景平路504巷2號","121.503945","24.9935783333333","6500400","永和區"
"234061","AAD-866","2018/07/05 20:39:30","新北市永和區秀朗路一段175號","121.517031666667","25.0036366666667","6500400","永和區"
"234042","862-TW","2018/07/05 20:39:25","新北市永和區安樂路348號","121.514505","25.006435","6500400","永和區"
"234050","863-TW","2018/07/05 20:39:29","新北市永和區保安路79號","121.508663333333","25.0147716666667","6500400","永和區"
"249001","173-UM","2018/07/05 20:39:29","新北市八里區中山路三段335號","121.377323333333","25.138775","6502300","八里區"
"249004","303-UY","2018/07/05 20:39:31","新北市八里區中山路一段316號","121.413038333333","25.1591883333333","6502300","八里區"
"249002","305-UY","2018/07/05 20:39:35","新北市八里區龍米路三段58號","121.424508333333","25.1591933333333","6502300","八里區"
"249003","759-BX","2018/07/05 20:39:26","新北市八里區中山路二段466巷36弄20號","121.398396666667","25.1492233333333","6502300","八里區"
"248010","272-BY","2018/07/05 20:39:34","新北市八里區下罟子17號","121.381023333333","25.1437616666667","6501500","五股區"
"234023","9380-KE","2018/07/05 20:39:30","新北市永和區竹林路41號","121.518128333333","25.014305","6500400","永和區"
"234077","969-R7","2018/07/05 20:39:20","新北市三重區光復路二段87巷63號","121.475811666667","25.0581116666667","6500400","永和區"
"234074","AAC-211","2018/07/05 20:39:17","新北市永和區竹林路119巷16號","121.520985","25.0114433333333","6500400","永和區"
"243016","380-SR","2018/07/05 20:39:31","新北市泰山區文程路111號","121.430618333333","25.0480583333333","6501600","泰山區"
"243011","KEA-2215","2018/07/05 20:39:28","新北市泰山區明志路三段40號","121.424705","25.0424916666667","6501600","泰山區"
"243012","646-TV","2018/07/05 20:39:28","新北市泰山區泰林路三段745巷145號","121.405698333333","25.0679233333333","6501600","泰山區"
"222002","016-RS","2018/07/05 20:39:25","新北市深坑區萬福路45號","121.599518333333","25.0068116666667","6501800","深坑區"
"222003","436-BY","2018/07/05 20:39:28","新北市深坑區文山路二段30巷31號","121.614956666667","24.99901","6501800","深坑區"
"231041","002-UM","2018/07/05 20:39:36","新北市新店區中正路695巷2號","121.533945","24.9906166666667","6500600","新店區"
"231059","046-UY","2018/07/05 20:39:34","新北市新店區僑愛二路1號","121.49985","24.9450883333333","6500600","新店區"
"231040","047-UY","2018/07/05 20:39:22","新北市新店區中正路272號","121.538931666667","24.973615","6500600","新店區"
"231044","106-UY","2018/07/05 20:39:18","新北市新店區建國路293巷1號","121.536731666667","24.9862016666667","6500600","新店區"
"231052","108-UY","2018/07/05 20:39:24","新北市新店區新烏路二段300號","121.548531666667","24.9129033333333","6500600","新店區"
"231065","110-UY","2018/07/05 20:39:35","新北市新店區安祥路102巷142號","121.486701666667","24.9646183333333","6500600","新店區"
"231047","187-VK","2018/07/05 20:39:23","新北市新店區寶慶街12-2號","121.543215","24.9868016666667","6500600","新店區"
"231054","KEA-2219","2018/07/05 20:39:24","新北市新店區行政街45號","121.543086666667","24.96561","6500600","新店區"
"221018","KEA-2785","2018/07/05 20:39:23","新北市汐止區中華街131巷5號","121.669838333333","25.0704233333333","6501100","汐止區"
"231057","256-BX","2018/07/05 20:39:34","新北市新店區花園六路二段9-2號","121.555686666667","24.9329366666667","6500600","新店區"
"231042","268-BY","2018/07/05 20:39:37","新北市新店區寶橋路198號","121.550665","24.978435","6500600","新店區"
"231051","278-BY","2018/07/05 20:39:26","新北市新店區中央八街125號","121.525276666667","24.978445","6500600","新店區"
"231050","AAD-862","2018/07/05 20:39:22","新北市新店區中正路265號","121.5381","24.9739133333333","6500600","新店區"
"231045","355-BY","2018/07/05 20:39:33","新北市新店區長春路69號","121.550825","24.957925","6500600","新店區"
"231058","3713-VJ","2018/07/05 20:39:19","新北市新店區平等街30號","121.536643333333","24.9736983333333","6500600","新店區"
"231066","4716-K9","2018/07/05 20:39:36","新北市新店區安民街365巷1弄8號","121.516496666667","24.9752433333333","6500600","新店區"
"231056","4715-K9","2018/07/05 20:39:35","新北市新店區中央七街61巷30號","121.529683333333","24.9756533333333","6500600","新店區"
"231067","4772-VM","2018/07/05 20:39:37","新北市新店區安華路28-1號","121.51972","24.9609216666667","6500600","新店區"
"231049","513-UM","2018/07/05 20:39:25","新北市新店區永業路81巷1弄1-1號","121.529638333333","24.9493316666667","6500600","新店區"
"231061","619-UM","2018/07/05 20:39:35","新北市新店區新和街33號","121.5192","24.98489","6500600","新店區"
"231063","641-BX","2018/07/05 20:39:31","新北市新店區玫瑰路4-1號","121.493591666667","24.9514366666667","6500600","新店區"
"231068","718-UY","2018/07/05 20:39:31","新北市新店區寶慶街39號","121.542916666667","24.9866633333333","6500600","新店區"
"231064","719-UM","2018/07/05 20:39:33","新北市新店區安和路三段169號","121.516063333333","24.9860233333333","6500600","新店區"
"231062","720-UM","2018/07/05 20:39:33","新北市新店區安泰路60巷55弄172號","121.484763333333","24.9456633333333","6500600","新店區"
"231060","897-TW","2018/07/05 20:39:40","新北市新店區安康路三段628號","121.478148333333","24.9455766666667","6500600","新店區"
"231043","899-TW","2018/07/05 20:39:26","新北市新店區建國路29號","121.54018","24.9740583333333","6500600","新店區"
"241011","013-R5","2018/07/05 20:39:35","新北市三重區龍濱路285號","121.500983333333","25.073425","6500200","三重區"
"241028","022-UY","2018/07/05 20:39:26","新北市三重區光興街93號","121.497346666667","25.0599016666667","6500200","三重區"
"241008","059-VK","2018/07/05 20:39:34","新北市三重區下竹圍街91號","121.48111","25.0748233333333","6500200","三重區"
"241022","060-VK","2018/07/05 20:39:34","新北市三重區中正北路20巷12號","121.487928333333","25.0624933333333","6500200","三重區"
"241015","062-VK","2018/07/05 20:39:31","新北市三重區文化北路200巷13號","121.497835","25.0681866666667","6500200","三重區"
"241024","065-VK","2018/07/05 20:39:25","新北市三重區忠孝路三段28號","121.481398333333","25.0668183333333","6500200","三重區"
"241026","066-VK","2018/07/05 20:39:23","新北市三重區文化南路7號","121.500026666667","25.0623233333333","6500200","三重區"
"241002","090-VK","2018/07/05 20:39:28","新北市三重區仁義街167巷39號","121.498251666667","25.0821216666667","6500200","三重區"
"241003","091-VK","2018/07/05 20:39:16","新北市三重區五華街141巷60號","121.4935","25.0867266666667","6500200","三重區"
"241005","262-UM","2018/07/05 20:39:22","新北市三重區五華街141巷19號","121.491851666667","25.08516","6500200","三重區"
"241020","265-UM","2018/07/05 20:39:26","新北市三重區三和路三段140號","121.493345","25.0723466666667","6500200","三重區"
"241016","266-UM","2018/07/05 20:39:34","新北市三重區自強路一段145號","121.494265","25.0667583333333","6500200","三重區"
"241009","267-UM","2018/07/05 20:39:24","新北市三重區碧華街51號","121.484651666667","25.0812783333333","6500200","三重區"
"241018","268-UM","2018/07/05 20:39:26","新北市三重區自強路一段272號","121.49223","25.06783","6500200","三重區"
"241032","269-UM","2018/07/05 20:39:31","新北市三重區興華街73號","121.484946666667","25.0601816666667","6500200","三重區"
"241013","270-UM","2018/07/05 20:39:25","新北市三重區三和路四段83號","121.48919","25.075355","6500200","三重區"
"241025","271-UM","2018/07/05 20:39:20","新北市三重區頂崁街139號","121.477728333333","25.06504","6500200","三重區"
"241007","398-BY","2018/07/05 20:39:17","新北市三重區三和路四段101巷10號","121.487946666667","25.0768533333333","6500200","三重區"
"241035","KEA-2210","2018/07/05 20:39:40","新北市三重區正義北路268號","121.4959","25.068775","6500200","三重區"
"241031","413-TH","2018/07/05 20:39:25","新北市三重區重陽路一段43巷28號","121.488261666667","25.05845","6500200","三重區"
"241004","475-VK","2018/07/05 20:39:39","新北市三重區仁愛街409號","121.490756666667","25.0811566666667","6500200","三重區"
"241030","480-VK","2018/07/05 20:39:34","新北市三重區成功路73巷18號","121.489338333333","25.0520083333333","6500200","三重區"
"241014","543-UM","2018/07/05 20:39:18","新北市三重區介壽路11號","121.498921666667","25.06931","6500200","三重區"
"241023","545-UM","2018/07/05 20:39:19","新北市三重區自由街35巷2號","121.478975","25.0668966666667","6500200","三重區"
"241001","547-UM","2018/07/05 20:39:22","新北市三重區自強路三段110巷15-1號","121.486486666667","25.07496","6500200","三重區"
"241019","KEA-2593","2018/07/05 20:39:38","新北市三重區忠孝路一段10巷33號","121.491136666667","25.07137","6500200","三重區"
"241017","887-TS","2018/07/05 20:39:28","新北市三重區安慶街225號","121.49107","25.0678083333333","6500200","三重區"
"241012","941-UM","2018/07/05 20:39:36","新北市三重區秀江街26號","121.502496666667","25.073005","6500200","三重區"
"241029","942-UM","2018/07/05 20:39:36","新北市三重區集美街126巷38號","121.49055","25.05404","6500200","三重區"
"241033","AAC-255","2018/07/05 20:39:16","新北市三重區五谷王北街80巷23號","121.475481666667","25.053205","6500200","三重區"
"235072","301-VK","2018/07/05 20:39:33","新北市三重區後埔街61-1號","121.479495","25.0477483333333","6500300","中和區"
"235069","4980-A6","2018/07/05 20:39:32","新北市中和區新生街264號","121.483718333333","24.99715","6500300","中和區"
"247024","893-R6","2018/07/05 20:39:28","新北市蘆洲區長樂路91號","121.462428333333","25.0873066666667","6501400","蘆洲區"
"247014","546-UM","2018/07/05 20:39:34","新北市蘆洲區成功路61號","121.472678333333","25.0806316666667","6501400","蘆洲區"
"247022","500-BY","2018/07/05 20:39:24","新北市蘆洲區中正路185巷3弄1號","121.468453333333","25.085335","6501400","蘆洲區"
"247010","341-TH","2018/07/05 20:39:34","新北市蘆洲區集賢路224巷15號","121.481921666667","25.086845","6501400","蘆洲區"
"247012","339-TH","2018/07/05 20:39:29","新北市蘆洲區集賢路224巷28號","121.481445","25.087455","6501400","蘆洲區"
"247004","337-TH","2018/07/05 20:39:21","新北市蘆洲區長安街222號","121.458093333333","25.0849366666667","6501400","蘆洲區"
"247006","336-TH","2018/07/05 20:39:30","新北市蘆洲區和平路166號","121.466485","25.081155","6501400","蘆洲區"
"247008","056-VK","2018/07/05 20:39:29","新北市蘆洲區重陽街11號","121.480856666667","25.0820533333333","6501400","蘆洲區"
"247016","007-UY","2018/07/05 20:39:34","新北市蘆洲區中山二路211號","121.470433333333","25.0804166666667","6501400","蘆洲區"
"247002","002-UY","2018/07/05 20:39:27","新北市蘆洲區長安街375巷20號","121.456556666667","25.0879116666667","6501400","蘆洲區"
"247020","001-UY","2018/07/05 20:39:29","新北市蘆洲區民族路331號","121.473776666667","25.0916916666667","6501400","蘆洲區"
"222001","KEA-2212","2018/07/05 20:39:20","新北市深坑區北深路三段189巷6弄12號","121.600608333333","25.0036783333333","6501800","深坑區"
"251013","KEA-2871","2018/07/05 20:39:31","新北市淡水區下圭柔山28巷15號","121.457753333333","25.2038883333333","6501000","淡水區"
"251016","179-VK","2018/07/05 20:39:37","新北市淡水區後洲子8-2號","121.449741666667","25.224035","6501000","淡水區"
"251014","180-VK","2018/07/05 20:39:34","新北市淡水區公埔子38號","121.464378333333","25.232785","6501000","淡水區"
"251015","181-VK","2018/07/05 20:39:36","新北市淡水區淡金路四段542巷17號","121.452721666667","25.2271","6501000","淡水區"
"251010","413-VK","2018/07/05 20:39:19","新北市淡水區沙崙路181巷15號","121.423978333333","25.18435","6501000","淡水區"
"251012","441-VK","2018/07/05 20:39:35","新北市淡水區興仁路108號","121.451645","25.2181583333333","6501000","淡水區"
"251007","442-VK","2018/07/05 20:39:31","新北市淡水區崁頂75-2號","121.435626666667","25.2037816666667","6501000","淡水區"
"251001","559-UM","2018/07/05 20:39:34","新北市淡水區淡金路一段69號","121.458811666667","25.17312","6501000","淡水區"
"251006","561-UM","2018/07/05 20:39:33","新北市淡水區商工路198巷13號","121.45171","25.1864816666667","6501000","淡水區"
"251002","672-BX","2018/07/05 20:39:26","新北市淡水區中正路38-1號","121.443643333333","25.169355","6501000","淡水區"
"251003","766-UM","2018/07/05 20:39:25","新北市淡水區新民街120巷19號","121.438303333333","25.17805","6501000","淡水區"
"252002","178-VK","2018/07/05 20:39:18","新北市三芝區淡金路二段47-2號","121.50367","25.2605516666667","6502100","三芝區"
"252001","292-VK","2018/07/05 20:39:31","新北市三芝區中山路一段85號","121.501203333333","25.256715","6502100","三芝區"
"242034","AAC-296","2018/07/05 20:39:23","新北市新莊區中正路334巷4號","121.445813333333","25.035085","6500500","新莊區"
"242058","986-R7","2018/07/05 20:39:24","新北市新莊區四維路155號","121.422483333333","25.0219566666667","6500500","新莊區"
"242053","751-BX","2018/07/05 20:39:22","新北市新莊區西盛街325號","121.428131666667","25.0146566666667","6500500","新莊區"
"242027","615-BX","2018/07/05 20:39:30","新北市新莊區思源路65號","121.459906666667","25.040485","6500500","新莊區"
"242025","613-BX","2018/07/05 20:39:31","新北市新莊區化成路579巷1號","121.464268333333","25.0660683333333","6500500","新莊區"
"242029","612-BX","2018/07/05 20:39:07","新北市新莊區中華路二段26號","121.453565","25.04499","6500500","新莊區"
"242042","566-BX","2018/07/05 20:39:24","新北市新莊區中正路700-39號","121.417478333333","25.027735","6500500","新莊區"
"242046","497-BY","2018/07/05 20:39:23","新北市新莊區龍安路100號","121.418355","25.0207066666667","6500500","新莊區"
"242056","440-UM","2018/07/05 20:39:21","新北市新莊區新莊路751巷87號","121.442845","25.0307433333333","6500500","新莊區"
"242007","413-TV","2018/07/05 20:39:25","新北市新莊區福壽街56巷1號","121.458521666667","25.04884","6500500","新莊區"
"242044","400-BY","2018/07/05 20:39:19","新北市新莊區龍安路90號","121.417605","25.02085","6500500","新莊區"
"242023","362-BY","2018/07/05 20:39:27","新北市新莊區化成路201號","121.465895","25.0508266666667","6500500","新莊區"
"242061","353-BY","2018/07/05 20:39:35","新北市新莊區新樹路258巷1-1號","121.432326666667","25.015625","6500500","新莊區"
"242009","132-UY","2018/07/05 20:39:28","新北市新莊區幸福路64巷3弄8號","121.45689","25.0500733333333","6500500","新莊區"
"242039","133-UY","2018/07/05 20:39:32","新北市新莊區民安路442號","121.434453333333","25.0224866666667","6500500","新莊區"
"242031","135-UY","2018/07/05 20:39:31","新北市新莊區中正路508巷5弄2號","121.435093333333","25.0337883333333","6500500","新莊區"
"242048","172-VK","2018/07/05 20:39:36","新北市新莊區中正路657號","121.42876","25.0307966666667","6500500","新莊區"
"242011","173-VK","2018/07/05 20:39:35","新北市新莊區中榮街104巷11弄2號","121.447123333333","25.0534366666667","6500500","新莊區"
"242017","175-VK","2018/07/05 20:39:24","新北市新莊區中平路84號","121.444936666667","25.044875","6500500","新莊區"
"242015","346-TH","2018/07/05 20:39:19","新北市新莊區中港一街149號","121.447668333333","25.0450483333333","6500500","新莊區"
"242036","347-TH","2018/07/05 20:39:19","新北市新莊區建安街16巷2號","121.428415","25.026535","6500500","新莊區"
"242021","348-TH","2018/07/05 20:39:25","新北市新莊區中華路一段73號","121.452245","25.0400616666667","6500500","新莊區"
"242002","349-TH","2018/07/05 20:39:32","新北市新莊區明中街4號","121.458833333333","25.0381816666667","6500500","新莊區"
"242013","351-TH","2018/07/05 20:39:18","新北市新莊區中和街175巷11號","121.447255","25.0506","6500500","新莊區"
"239006","891-R6","2018/07/05 20:39:18","新北市鶯歌區二甲路12-2號","121.345951666667","24.935025","6500800","鶯歌區"
"221008","489-VK","2018/07/05 20:39:35","新北市汐止區康寧街706號","121.637693333333","25.0724416666667","6501100","汐止區"
"221036","130-UY","2018/07/05 20:39:21","新北市汐止區新昌路7號","121.662113333333","25.0671966666667","6501100","汐止區"
"221015","131-UY","2018/07/05 20:39:27","新北市汐止區建成路52號","121.66377","25.07291","6501100","汐止區"
"221023","279-VK","2018/07/05 20:39:17","新北市汐止區康寧街706-1號","121.638055","25.0727866666667","6501100","汐止區"
"221032","280-BY","2018/07/05 20:39:22","新北市汐止區弘道街53巷30弄2號","121.618863333333","25.0500183333333","6501100","汐止區"
"221027","281-BY","2018/07/05 20:39:29","新北市汐止區大同路二段563-1號","121.662825","25.06999","6501100","汐止區"
"221029","298-VK","2018/07/05 20:39:29","新北市汐止區大同路一段415號","121.64229","25.061005","6501100","汐止區"
"221021","299-VK","2018/07/05 20:39:26","新北市汐止區水源路一段284號","121.65418","25.058305","6501100","汐止區"
"221031","353-TW","2018/07/05 20:39:21","新北市汐止區中興路27巷22號","121.634061666667","25.06084","6501100","汐止區"
"221035","622-UM","2018/07/05 20:39:35","新北市汐止區長江街101-5號","121.658731666667","25.073205","6501100","汐止區"
"221025","623-UM","2018/07/05 20:39:23","新北市汐止區水源路二段185號","121.657783333333","25.0533916666667","6501100","汐止區"
"221038","646-BX","2018/07/05 20:39:18","新北市汐止區汐萬路一段160號","121.652601666667","25.0715783333333","6501100","汐止區"
"221033","647-BX","2018/07/05 20:39:31","新北市汐止區合順街18巷8弄5號","121.62028","25.0419583333333","6501100","汐止區"
"221002","707-TV","2018/07/05 20:39:38","新北市汐止區福德二路123號","121.631286666667","25.06512","6501100","汐止區"
"220083","286-VK","2018/07/05 20:39:35","新北市板橋區僑中二街108巷13號","121.445168333333","25.0072816666667","6500100","板橋區"
"220103","561-BX","2018/07/05 20:39:35","新北市板橋區漢生東路83巷25號","121.467426666667","25.0167883333333","6500100","板橋區"
"220070","AAC-253","2018/07/05 20:39:33","新北市五股區凌雲路三段38號","121.430825","25.1082783333333","6500100","板橋區"
