"lineid","car","time","location","longitude","latitude","cityid","cityname"
"248010","272-BY","2018/07/05 20:59:34","新北市八里區中山路三段409號","121.368388333333","25.13497","6501500","五股區"
"234023","9380-KE","2018/07/05 20:59:30","新北市永和區仁愛路264號","121.504563333333","25.0087933333333","6500400","永和區"
"234077","969-R7","2018/07/05 20:59:40","新北市林口區汕頭32號","121.366331666667","25.134685","6500400","永和區"
"231059","046-UY","2018/07/05 20:59:34","新北市新店區僑信路100號","121.499956666667","24.9474333333333","6500600","新店區"
"231040","047-UY","2018/07/05 20:59:22","新北市新店區北新路一段100號","121.54218","24.9694516666667","6500600","新店區"
"231052","108-UY","2018/07/05 20:59:24","新北市新店區安康路一段323-3號","121.521076666667","24.9638933333333","6500600","新店區"
"231065","110-UY","2018/07/05 20:59:35","新北市新店區安祥路69巷90號","121.482788333333","24.95914","6500600","新店區"
"231047","187-VK","2018/07/05 20:59:23","新北市新店區寶元路二段1巷2號","121.550623333333","24.9841683333333","6500600","新店區"
"231054","KEA-2219","2018/07/05 20:59:24","新北市新店區北新路一段96巷23號","121.542901666667","24.9689983333333","6500600","新店區"
"221018","KEA-2785","2018/07/05 20:59:23","新北市汐止區康寧街901號","121.651436666667","25.0749866666667","6501100","汐止區"
"231042","268-BY","2018/07/05 20:59:17","新北市新店區寶橋路98號","121.547201666667","24.97579","6500600","新店區"
"231051","278-BY","2018/07/05 20:59:26","新北市新店區中正路663巷1弄2號","121.532976666667","24.9899933333333","6500600","新店區"
"231050","AAD-862","2018/07/05 20:59:22","新北市新店區三民路75巷5弄1號","121.53562","24.9708816666667","6500600","新店區"
"231066","4716-K9","2018/07/05 20:59:36","新北市新店區吉安街10號","121.51684","24.9657016666667","6500600","新店區"
"231067","4772-VM","2018/07/05 20:59:37","新北市新店區安康路一段355號","121.519801666667","24.9631883333333","6500600","新店區"
"231049","513-UM","2018/07/05 20:59:25","新北市新店區安光路30號","121.513748333333","24.9645866666667","6500600","新店區"
"231061","619-UM","2018/07/05 20:59:35","新北市新店區永安街103-1號","121.520826666667","24.9857283333333","6500600","新店區"
"231063","641-BX","2018/07/05 20:59:31","新北市新店區如意街3巷20號","121.496306666667","24.9489466666667","6500600","新店區"
"231068","718-UY","2018/07/05 20:59:26","新北市新店區寶元路二段60號","121.54706","24.9812366666667","6500600","新店區"
"231064","719-UM","2018/07/05 20:57:33","新北市新店區安民街303巷9弄2號","121.51693","24.973395","6500600","新店區"
"231062","720-UM","2018/07/05 20:59:33","新北市新店區裕合街82號","121.490323333333","24.948675","6500600","新店區"
"231060","897-TW","2018/07/05 20:59:40","新北市新店區安康路三段423號","121.483213333333","24.94984","6500600","新店區"
"231043","899-TW","2018/07/05 20:59:26","新北市新店區中正路379號","121.534755","24.9767883333333","6500600","新店區"
"241011","013-R5","2018/07/05 20:59:35","新北市三重區秀江街119號","121.499675","25.0722266666667","6500200","三重區"
"241028","022-UY","2018/07/05 20:59:26","新北市三重區新北大道一段1號","121.491335","25.06131","6500200","三重區"
"241008","059-VK","2018/07/05 20:59:34","新北市三重區力行路二段162巷7號","121.4826","25.07664","6500200","三重區"
"241022","060-VK","2018/07/05 20:59:34","新北市三重區過圳街27-5號","121.48803","25.0623766666667","6500200","三重區"
"241015","062-VK","2018/07/05 20:59:31","新北市三重區福德北路63號","121.502151666667","25.0655266666667","6500200","三重區"
"241024","065-VK","2018/07/05 20:59:25","新北市三重區大勇街82巷15弄30號","121.481186666667","25.0719483333333","6500200","三重區"
"241026","066-VK","2018/07/05 20:59:23","新北市三重區文化南路45號","121.500198333333","25.0614083333333","6500200","三重區"
"241002","090-VK","2018/07/05 20:59:28","新北市三重區五華街7巷10號","121.495556666667","25.0803083333333","6500200","三重區"
"241003","091-VK","2018/07/05 20:59:36","新北市三重區進安街196號","121.493685","25.0861883333333","6500200","三重區"
"241005","262-UM","2018/07/05 20:59:22","新北市三重區五華街181號","121.49017","25.0852416666667","6500200","三重區"
"241020","265-UM","2018/07/05 20:59:25","新北市三重區忠孝路二段34號","121.485731666667","25.0709916666667","6500200","三重區"
"241016","266-UM","2018/07/05 20:59:34","新北市三重區自強路一段123號","121.495306666667","25.0665466666667","6500200","三重區"
"241009","267-UM","2018/07/05 20:59:24","新北市三重區力行路二段206號","121.483706666667","25.0779133333333","6500200","三重區"
"241018","268-UM","2018/07/05 20:59:26","新北市三重區雙園街107號","121.493646666667","25.06727","6500200","三重區"
"241032","269-UM","2018/07/05 20:59:38","新北市三重區三陽路133號","121.483168333333","25.058925","6500200","三重區"
"241013","270-UM","2018/07/05 20:59:25","新北市三重區仁愛街141巷1號","121.495428333333","25.0751566666667","6500200","三重區"
"241025","271-UM","2018/07/05 20:59:20","新北市三重區貴陽街14號","121.484225","25.0618666666667","6500200","三重區"
"241007","398-BY","2018/07/05 20:59:17","新北市三重區慈愛街10號","121.484555","25.07843","6500200","三重區"
"241031","413-TH","2018/07/05 20:59:25","新北市三重區重陽路一段113巷2弄2號","121.487473333333","25.0600116666667","6500200","三重區"
"241004","475-VK","2018/07/05 20:59:18","新北市三重區仁愛街420號","121.490386666667","25.0814016666667","6500200","三重區"
"241030","480-VK","2018/07/05 20:59:34","新北市三重區環河南路220-8號","121.493371666667","25.0527483333333","6500200","三重區"
"241014","543-UM","2018/07/05 20:59:18","新北市三重區長壽街120巷11號","121.502513333333","25.069115","6500200","三重區"
"241023","545-UM","2018/07/05 20:59:19","新北市三重區忠孝路三段84巷63號","121.482295","25.063765","6500200","三重區"
"241001","547-UM","2018/07/05 20:59:22","新北市三重區自強路三段95號","121.487675","25.0750733333333","6500200","三重區"
"241019","KEA-2593","2018/07/05 20:59:18","新北市三重區三張街104號","121.487846666667","25.0699516666667","6500200","三重區"
"241006","743-BX","2018/07/05 20:51:23","新北市三重區永福街32-1號","121.482808333333","25.0778716666667","6500200","三重區"
"241017","887-TS","2018/07/05 20:59:28","新北市三重區大智街45-2號","121.493431666667","25.06653","6500200","三重區"
"241012","941-UM","2018/07/05 20:59:36","新北市三重區仁信街6號","121.501423333333","25.0755383333333","6500200","三重區"
"241029","942-UM","2018/07/05 20:59:16","新北市三重區電信街95號","121.495553333333","25.05829","6500200","三重區"
"241033","AAC-255","2018/07/05 20:59:36","新北市三重區光復路二段28號","121.472136666667","25.0542666666667","6500200","三重區"
"235072","301-VK","2018/07/05 20:59:33","新北市中和區員山路36巷13號","121.484288333333","24.9907533333333","6500300","中和區"
"235069","4980-A6","2018/07/05 20:59:32","新北市中和區中正路637巷17號","121.484906666667","24.99462","6500300","中和區"
"247024","893-R6","2018/07/05 20:59:28","新北市蘆洲區長興路213號","121.461146666667","25.086315","6501400","蘆洲區"
"247014","546-UM","2018/07/05 20:59:34","新北市蘆洲區中山二路36巷32號","121.474216666667","25.0831883333333","6501400","蘆洲區"
"247022","500-BY","2018/07/05 20:59:32","新北市蘆洲區三民路230號","121.46863","25.0896483333333","6501400","蘆洲區"
"247010","341-TH","2018/07/05 20:59:34","新北市蘆洲區鷺江街74號","121.477045","25.0837616666667","6501400","蘆洲區"
"247012","339-TH","2018/07/05 20:59:29","新北市蘆洲區民權路26號","121.476725","25.0857766666667","6501400","蘆洲區"
"247004","337-TH","2018/07/05 20:59:21","新北市蘆洲區永安南路二段268號","121.458661666667","25.0807216666667","6501400","蘆洲區"
"247006","336-TH","2018/07/05 20:59:30","新北市蘆洲區永安南路二段18號","121.46768","25.0772066666667","6501400","蘆洲區"
"247018","057-VK","2018/07/05 20:59:34","新北市蘆洲區民權路93號","121.472896666667","25.0888783333333","6501400","蘆洲區"
"247008","056-VK","2018/07/05 20:59:29","新北市蘆洲區民生街76號","121.472815","25.0790866666667","6501400","蘆洲區"
"247016","007-UY","2018/07/05 20:59:37","新北市蘆洲區正和街78號","121.468443333333","25.0810216666667","6501400","蘆洲區"
"247020","001-UY","2018/07/05 20:59:33","新北市蘆洲區民族路488號","121.471163333333","25.091325","6501400","蘆洲區"
"251013","KEA-2871","2018/07/05 20:59:31","新北市淡水區番子厝13號","121.461706666667","25.201705","6501000","淡水區"
"251016","179-VK","2018/07/05 20:59:17","新北市淡水區牛埔子11-1號","121.45018","25.218435","6501000","淡水區"
"251014","180-VK","2018/07/05 20:59:34","新北市淡水區溪口4-2號","121.45434","25.23707","6501000","淡水區"
"251015","181-VK","2018/07/05 20:59:36","新北市淡水區淡金路四段542巷17號","121.45274","25.2270966666667","6501000","淡水區"
"251010","413-VK","2018/07/05 20:59:19","新北市淡水區中正路一段116-3號","121.423838333333","25.1786983333333","6501000","淡水區"
"251012","441-VK","2018/07/05 20:59:35","新北市淡水區淡金路五段98號","121.456275","25.2360916666667","6501000","淡水區"
"251007","442-VK","2018/07/05 20:59:31","新北市淡水區鄧公路23巷2號","121.451211666667","25.1700716666667","6501000","淡水區"
"251001","559-UM","2018/07/05 20:59:34","新北市淡水區北投子14-3號","121.449386666667","25.18312","6501000","淡水區"
"251011","650-BX","2018/07/05 20:59:31","新北市淡水區新民街320號","121.435195","25.1831916666667","6501000","淡水區"
"251002","672-BX","2018/07/05 20:59:26","新北市淡水區英專路64號","121.445756666667","25.1709633333333","6501000","淡水區"
"251003","766-UM","2018/07/05 20:59:25","新北市淡水區新春街125巷5號","121.441531666667","25.18237","6501000","淡水區"
"242051","442-UM","2018/07/05 20:59:27","新北市新莊區新樹路206巷4號","121.433581666667","25.0204083333333","6500500","新莊區"
"242009","132-UY","2018/07/05 20:59:28","新北市新莊區思源路59號","121.459873333333","25.0403","6500500","新莊區"
"242002","349-TH","2018/07/05 20:59:32","新北市新莊區利濟街18號","121.453228333333","25.0333583333333","6500500","新莊區"
"221036","130-UY","2018/07/05 20:59:21","新北市汐止區汐萬路一段146號","121.652936666667","25.0711283333333","6501100","汐止區"
"221029","298-VK","2018/07/05 20:59:20","新北市汐止區汐萬路一段256巷1號","121.651636666667","25.0747283333333","6501100","汐止區"
"220070","AAC-253","2018/07/05 20:59:33","新北市八里區中山路三段409號","121.368715","25.13444","6500100","板橋區"
