"lineid","car","time","location","longitude","latitude","cityid","cityname"
"248005","653-BX","2018/07/06 07:49:43","新北市五股區明德路12巷6號","121.43335","25.071815","6501500","五股區"
"232019","705-BZ","2018/07/06 07:49:05","新北市坪林區乾溪2-1號","121.740595","24.9759066666667","6502000","坪林區"
"232008","758-BX","2018/07/06 07:49:41","新北市坪林區魚堀9-1號","121.708353333333","24.9050433333333","6502000","坪林區"
"244004","248-BX","2018/07/06 07:49:54","新北市林口區下福里147-20號","121.300141666667","25.1164266666667","6501700","林口區"
"243012","646-TV","2018/07/06 07:49:39","新北市泰山區泰林路三段28巷8號","121.418721666667","25.06524","6501600","泰山區"
"231007","189-VK","2018/07/06 07:49:40","新北市新店區安康路一段355號","121.519965","24.9635266666667","6500600","新店區"
"231009","192-VK","2018/07/06 07:49:40","新北市新店區安一路一段1-1號","121.5193","24.9612416666667","6500600","新店區"
"235001","611-BX","2018/07/06 07:49:49","新北市中和區圓通路367巷6號","121.491606666667","24.989245","6500300","中和區"
"226005","5620-A6","2018/07/06 07:49:46","新北市平溪區嶺腳里中華街60號","121.73946","25.0250516666667","6502400","平溪區"
"226001","7418-A5","2018/07/06 07:49:42","新北市平溪區平湖里大厝37-5號","121.779205","25.03052","6502400","平溪區"
"226006","AGD-0702","2018/07/06 07:49:43","新北市平溪區新寮里頂寮子62-1號","121.775006666667","25.0506783333333","6502400","平溪區"
"223006","022-BY","2018/07/06 07:49:49","新北市坪林區九芎林14-1號","121.70765","24.930625","6501900","石碇區"
"223002","KEA-2673","2018/07/06 07:49:40","新北市石碇區月扇湖3-1號","121.65773","24.95785","6501900","石碇區"
"223003","205-TH","2018/07/06 07:48:24","新北市石碇區樟空子10-2號","121.6669","24.9621566666667","6501900","石碇區"
"223001","592-UM","2018/07/06 07:49:35","新北市石碇區橫坪1號","121.669401666667","24.9677583333333","6501900","石碇區"
"223004","660-BX","2018/07/06 07:49:39","新北市石碇區楓子林54-3號","121.642848333333","25.0085","6501900","石碇區"
"223007","661-BX","2018/07/06 07:40:15","新北市石碇區靜安路一段337號","121.698866666667","25.01452","6501900","石碇區"
"223005","677-TV","2018/07/06 07:49:41","新北市深坑區文山路一段10號","121.642986666667","25.0085766666667","6501900","石碇區"
"227005","282-VK","2018/07/06 07:49:33","新北市雙溪區雙溪里太平路43號","121.864761666667","25.0355966666667","6502500","雙溪區"
"252003","249-BX","2018/07/06 07:49:49","新北市八里區龍米路一段102號","121.453285","25.1248733333333","6502100","三芝區"
"237001","159-UY","2018/07/06 07:49:44","新北市三峽區大學路77號","121.376185","24.941635","6500900","三峽區"
"236010","165-UM","2018/07/06 07:49:34","新北市土城區清水路318號","121.463713333333","24.985015","6501300","土城區"
"236004","339-SR","2018/07/06 07:49:31","新北市土城區龍泉路89-1號","121.446318333333","24.94219","6501300","土城區"
