"lineid","car","time","location","longitude","latitude","cityid","cityname"
"222004","289-BY","2018/12/22 09:19:15","新北市深坑區王軍寮14-1號","121.62207","24.984695","6501800","深坑區"
"231007","189-VK","2018/12/22 09:19:16","新北市新店區新潭路三段215巷25號","121.508103333333","24.9041166666667","6500600","新店區"
"231008","192-VK","2018/12/22 09:19:15","新北市新店區平廣路一段125號","121.528291666667","24.8958716666667","6500600","新店區"
"235001","611-BX","2018/12/22 09:19:28","新北市中和區員山路88號","121.480933333333","24.9943316666667","6500300","中和區"
"226003","AGD-0702","2018/12/22 09:19:27","新北市平溪區嶺腳里嶺腳寮89號","121.747156666667","25.0348966666667","6502400","平溪區"
"223006","022-BY","2018/12/22 09:19:22","新北市石碇區小粗坑(潭邊里)9-2號","121.678576666667","24.9859166666667","6501900","石碇區"
"223003","205-TH","2018/12/22 09:19:25","新北市石碇區二格路4號","121.624478333333","24.96266","6501900","石碇區"
"223008","406-TH","2018/12/22 09:19:09","新北市石碇區石碇子埔97-4號","121.668091666667","25.00601","6501900","石碇區"
"223004","437-BY","2018/12/22 09:19:14","新北市石碇區碇坪路二段9號","121.679893333333","24.9755883333333","6501900","石碇區"
"223001","592-UM","2018/12/22 09:19:32","新北市石碇區北宜路四段6號","121.614353333333","24.9612466666667","6501900","石碇區"
"223005","677-TV","2018/12/22 09:19:08","新北市石碇區碇坪路二段11號","121.680518333333","24.9757866666667","6501900","石碇區"
"227006","282-VK","2018/12/22 09:19:26","新北市雙溪區長源里赤皮崙5-1號","121.794425","25.0162566666667","6502500","雙溪區"
"252004","249-BX","2018/12/22 09:19:13","新北市三芝區興華里田心子7-2號","121.499006666667","25.2038933333333","6502100","三芝區"
"252007","AAC-283","2018/12/22 09:19:10","新北市三芝區古庄里山豬堀14號","121.49251","25.2599016666667","6502100","三芝區"
"237001","159-UY","2018/12/22 09:19:14","新北市三峽區國際二街21-5號","121.373211666667","24.9436416666667","6500900","三峽區"
