"lineid","car","time","location","longitude","latitude","cityid","cityname"
"231007","189-VK","2018/12/22 09:49:16","新北市新店區新潭路三段215巷25號","121.508098333333","24.9040783333333","6500600","新店區"
"231008","192-VK","2018/12/22 09:49:15","新北市新店區小坑一路8號","121.535656666667","24.9117216666667","6500600","新店區"
"226007","7418-A5","2018/12/22 09:49:21","新北市平溪區石底里公園街18-3號","121.734246666667","25.0255566666667","6502400","平溪區"
"227006","282-VK","2018/12/22 09:49:26","新北市雙溪區長源里柑腳44號","121.801088333333","25.0120566666667","6502500","雙溪區"
"252004","249-BX","2018/12/22 09:48:13","新北市三芝區圓山里石曹子坑66-3號","121.52132","25.21441","6502100","三芝區"
"252007","AAC-283","2018/12/22 09:49:10","新北市三芝區新庄里番社后46號","121.504373333333","25.2766683333333","6502100","三芝區"
