"lineid","car","time","location","longitude","latitude","cityid","cityname"
"234044","148-BY","2018/12/22 13:29:18","新北市永和區秀朗路二段230號","121.526263333333","24.999475","6500400","永和區"
"234078","298-R6","2018/12/22 13:29:32","新北市永和區福和路5-9號","121.525485","25.008425","6500400","永和區"
"234036","336-UY","2018/12/22 13:29:22","新北市永和區成功路二段1巷9號","121.52733","25.0015866666667","6500400","永和區"
"234062","337-UY","2018/12/22 13:29:27","新北市永和區中正路368巷1弄75號","121.520438333333","25.000805","6500400","永和區"
"234068","552-UM","2018/12/22 13:29:24","新北市永和區竹林路182號","121.520331666667","25.0097583333333","6500400","永和區"
"234084","553-UM","2018/12/22 13:29:22","新北市永和區國中路2號","121.524116666667","25.0042533333333","6500400","永和區"
"234015","745-BX","2018/12/22 13:29:20","新北市永和區永和路二段425巷18號","121.514806666667","25.0177883333333","6500400","永和區"
"234028","746-BX","2018/12/22 13:29:22","新北市永和區民生路69號","121.522635","24.99721","6500400","永和區"
"234052","KEA-2590","2018/12/22 13:29:17","新北市永和區竹林路23號","121.517295","25.014695","6500400","永和區"
"234005","839-RS","2018/12/22 13:29:31","新北市永和區中山路一段130號","121.51046","25.01008","6500400","永和區"
"234012","KEA-2591","2018/12/22 13:29:18","新北市永和區中山路一段195號","121.509101666667","25.0088383333333","6500400","永和區"
"234060","AAD-866","2018/12/22 13:29:17","新北市永和區永貞路175號","121.51528","25.00396","6500400","永和區"
"234040","862-TW","2018/12/22 13:29:16","新北市永和區水源街39巷28號","121.51073","25.003125","6500400","永和區"
"234048","863-TW","2018/12/22 13:29:11","新北市永和區信義路113號","121.512336666667","25.014725","6500400","永和區"
"234025","9371-KE","2018/12/22 13:29:24","新北市永和區永和路一段157-1號","121.51434","25.0096166666667","6500400","永和區"
"234010","9373-KE","2018/12/22 13:29:18","新北市永和區仁愛路141巷5弄4號","121.511833333333","25.0120066666667","6500400","永和區"
"248017","225-UY","2018/12/22 13:29:18","新北市五股區民義路二段52巷15號","121.411933333333","25.1124833333333","6501500","五股區"
"234022","9380-KE","2018/12/22 13:29:28","新北市永和區竹林路91巷70號","121.521966666667","25.013625","6500400","永和區"
"234076","969-R7","2018/12/22 13:29:31","新北市永和區智光街32巷1號","121.517761666667","24.99877","6500400","永和區"
"234072","AAC-211","2018/12/22 13:29:18","新北市永和區光復街60巷4弄20號","121.517346666667","25.01771","6500400","永和區"
"234066","AAC-212","2018/12/22 13:29:28","新北市永和區永貞路408號","121.508993333333","25.0078233333333","6500400","永和區"
"234001","AAC-295","2018/12/22 13:29:21","新北市永和區永和路一段123巷5號","121.513878333333","25.0081933333333","6500400","永和區"
"244005","248-BX","2018/12/22 13:29:27","新北市林口區文化二路二段72號","121.378385","25.0804966666667","6501700","林口區"
"231002","002-UM","2018/12/22 13:29:18","新北市新店區環河路62號","121.5369","24.9626533333333","6500600","新店區"
"231027","0291-UT","2018/12/22 13:29:27","新北市新店區環河路19巷27號","121.537621666667","24.95972","6500600","新店區"
"231028","046-UY","2018/12/22 13:29:30","新北市新店區安華路28-1號","121.519535","24.9607466666667","6500600","新店區"
"231001","047-UY","2018/12/22 13:29:16","新北市新店區安康路一段355號","121.519818333333","24.9628583333333","6500600","新店區"
"231005","106-UY","2018/12/22 13:29:27","新北市新店區北新路一段91號","121.538731666667","24.9618166666667","6500600","新店區"
"231010","107-UY","2018/12/22 13:29:21","新北市新店區中央路137號","121.530226666667","24.9737133333333","6500600","新店區"
"231020","108-UY","2018/12/22 13:29:23","新北市新店區北宜路一段256號","121.54557","24.9528616666667","6500600","新店區"
"231033","110-UY","2018/12/22 13:29:31","新北市新店區安豐路60-1號","121.49787","24.9536683333333","6500600","新店區"
"231012","187-VK","2018/12/22 13:29:25","新北市新店區光明街312號","121.540563333333","24.96507","6500600","新店區"
"231023","KEA-2219","2018/12/22 13:29:33","新北市新店區新店路13號","121.540355","24.9528533333333","6500600","新店區"
"231026","256-BX","2018/12/22 13:29:14","新北市新店區光明街85號","121.5387","24.9608883333333","6500600","新店區"
"231036","260-TV","2018/12/22 13:29:16","新北市新店區建業路20號","121.48151","24.9537833333333","6500600","新店區"
"231003","268-BY","2018/12/22 13:29:20","新北市新店區光明街119號","121.538975","24.96175","6500600","新店區"
"231018","278-BY","2018/12/22 13:29:15","新北市新店區中央路210-1號","121.530151666667","24.9735966666667","6500600","新店區"
"231017","AAD-862","2018/12/22 13:29:22","新北市新店區北宜路二段65-1號","121.54928","24.9515133333333","6500600","新店區"
"231038","3712-VJ","2018/12/22 13:29:13","新北市新店區安華路28-1號","121.519325","24.960665","6500600","新店區"
"231037","4716-K9","2018/12/22 13:29:25","新北市新店區安康路二段327號","121.499745","24.9547816666667","6500600","新店區"
"231025","4715-K9","2018/12/22 13:29:27","新北市新店區中央五街43號","121.528273333333","24.9751766666667","6500600","新店區"
"231030","619-UM","2018/12/22 13:29:25","新北市新店區安華路28-1號","121.519501666667","24.9608033333333","6500600","新店區"
"231034","641-BX","2018/12/22 13:29:26","新北市新店區安華路3號","121.519041666667","24.9593033333333","6500600","新店區"
"231013","719-UM","2018/12/22 13:29:23","新北市新店區環河路120號","121.536563333333","24.9682583333333","6500600","新店區"
"231035","719-UY","2018/12/22 13:29:34","新北市新店區安一路一段1-1號","121.51953","24.9612266666667","6500600","新店區"
"231029","897-TW","2018/12/22 13:29:25","新北市新店區安華路28-1號","121.519606666667","24.960715","6500600","新店區"
"231006","898-TW","2018/12/22 13:29:21","新北市新店區安一路一段1-1號","121.519681666667","24.96165","6500600","新店區"
"231004","899-TW","2018/12/22 13:29:33","新北市新店區安康路一段355號","121.51983","24.9627416666667","6500600","新店區"
"231024","AKT-0513","2018/12/22 13:29:34","新北市新店區中正路154巷8號","121.541855","24.9720566666667","6500600","新店區"
"235030","003-UY","2018/12/22 13:29:28","新北市中和區中山路二段120號","121.502768333333","25.0038483333333","6500300","中和區"
"235028","005-UY","2018/12/22 13:29:20","新北市中和區圓通路124號","121.498716666667","24.9959016666667","6500300","中和區"
"235027","006-UY","2018/12/22 13:29:23","新北市中和區連城路347巷8號","121.488326666667","24.9953316666667","6500300","中和區"
"235020","096-UM","2018/12/22 13:29:26","新北市中和區員山路36巷16-3號","121.484821666667","24.9912816666667","6500300","中和區"
"235003","097-UM","2018/12/22 13:29:17","新北市中和區大勇街27巷7號","121.517023333333","24.9936316666667","6500300","中和區"
"235004","150-BY","2018/12/22 13:29:24","新北市中和區安平路59號","121.50944","24.9952166666667","6500300","中和區"
"235022","151-BY","2018/12/22 13:29:17","新北市中和區圓通路369巷156弄2號","121.487991666667","24.9817583333333","6500300","中和區"
"235019","183-VK","2018/12/22 13:29:16","新北市中和區莒光路88號","121.472401666667","25.0025616666667","6500300","中和區"
"235002","185-VK","2018/12/22 13:29:30","新北市中和區立人街14巷40弄7號","121.519046666667","24.99578","6500300","中和區"
"235013","186-VK","2018/12/22 13:29:27","新北市中和區景安路92-3號","121.505593333333","24.9959","6500300","中和區"
"235031","255-BX","2018/12/22 13:29:31","新北市中和區連城路340巷14弄16號","121.482996666667","24.9972066666667","6500300","中和區"
"235036","301-VK","2018/12/22 13:29:17","新北市中和區連城路168-3號","121.493688333333","24.9974266666667","6500300","中和區"
"235006","KEA-2878","2018/12/22 13:29:32","新北市中和區自立路66號","121.523855","24.9913466666667","6500300","中和區"
"235014","4979-A6","2018/12/22 13:29:25","新北市中和區景新街410巷18弄24號","121.5119","24.990095","6500300","中和區"
"235033","4980-A6","2018/12/22 13:29:25","新北市中和區連城路127巷36號","121.49694","24.9977616666667","6500300","中和區"
"235034","558-UM","2018/12/22 13:29:24","新北市中和區南華路69號","121.504653333333","24.9972383333333","6500300","中和區"
"235009","565-BX","2018/12/22 13:29:24","新北市中和區南山路236巷36弄5號","121.504075","24.9883466666667","6500300","中和區"
"235018","640-BX","2018/12/22 13:29:24","新北市中和區民享街89巷1號","121.474496666667","25.001655","6500300","中和區"
"235024","647-TV","2018/12/22 13:29:30","新北市中和區員山路477號","121.480113333333","25.0049733333333","6500300","中和區"
"235035","783-BX","2018/12/22 13:29:18","新北市中和區中板路2號","121.484955","25.0117766666667","6500300","中和區"
"235026","800-TS","2018/12/22 13:29:18","新北市中和區景平路714號","121.49676","25.0027416666667","6500300","中和區"
"235021","801-TS","2018/12/22 13:29:22","新北市中和區民享街97巷11號","121.47522","24.9995216666667","6500300","中和區"
"235005","802-TS","2018/12/22 13:29:15","新北市中和區中和路318號","121.509566666667","25.00062","6500300","中和區"
"235016","805-TS","2018/12/22 13:29:26","新北市中和區興南路二段96號","121.505216666667","24.9842383333333","6500300","中和區"
"235012","896-TW","2018/12/22 13:29:13","新北市中和區員山路36巷16-8號","121.485328333333","24.9922066666667","6500300","中和區"
"235017","900-TW","2018/12/22 13:29:15","新北市中和區連城路607號","121.478196666667","24.9931216666667","6500300","中和區"
"235015","157-BY","2018/12/22 13:29:18","新北市中和區興南路二段142巷18-9號","121.502695","24.9843616666667","6500300","中和區"
"235001","AAC-213","2018/12/22 13:29:23","新北市中和區景德街95號","121.515726666667","24.9914616666667","6500300","中和區"
"235023","AAC-215","2018/12/22 13:29:14","新北市中和區員山路36巷16-3號","121.48486","24.9913783333333","6500300","中和區"
"220013","072-UY","2018/12/22 13:29:23","新北市板橋區華東街296號","121.452743333333","25.0022566666667","6500100","板橋區"
"220069","AAD-861","2018/12/22 13:29:26","新北市板橋區華東街1-10號","121.448685","24.9950183333333","6500100","板橋區"
"247009","056-VK","2018/12/22 13:29:17","新北市五股區中興路三段2巷10號","121.449178333333","25.080915","6501400","蘆洲區"
"247003","002-UY","2018/12/22 13:29:32","新北市五股區中興路三段2巷10號","121.449326666667","25.0808566666667","6501400","蘆洲區"
"247021","001-UY","2018/12/22 13:29:24","新北市五股區中興路三段163號","121.449015","25.08083","6501400","蘆洲區"
"235029","251-BX","2018/12/22 13:29:15","新北市中和區莊敬路49巷20弄32號","121.503206666667","25.00509","6500300","中和區"
"228005","097-TW","2018/12/22 13:29:21","新北市貢寮區美豐里文秀坑8號","121.901988333333","25.0504116666667","6502600","貢寮區"
"228004","212-TW","2018/12/22 13:29:29","新北市貢寮區龍崗里石壁坑街17號","121.910395","24.9895083333333","6502600","貢寮區"
"253003","6232-TK","2018/12/22 13:29:16","新北市石門區內石門85號","121.569361666667","25.265295","6502200","石門區"
"253004","6251-TK","2018/12/22 13:27:01","新北市石門區竹子湖13號","121.617015","25.256105","6502200","石門區"
"253002","637-UY","2018/12/22 13:29:32","新北市石門區九芎林5-2號","121.560823333333","25.267205","6502200","石門區"
"253001","KEC-0718","2018/12/22 13:29:13","新北市三芝區新庄里新庄子96號","121.515385","25.2759016666667","6502200","石門區"
"207002","749-BX","2018/12/22 13:29:31","新北市萬里區崁腳里崁腳路166號","121.645166666667","25.1558233333333","6502800","萬里區"
"252005","073-UM","2018/12/22 13:29:23","新北市三芝區圓山里八連溪頭5-1號","121.525655","25.22228","6502100","三芝區"
"207001","662-BX","2018/12/22 13:29:25","新北市萬里區龜吼里翡翠路17號","121.683101666667","25.1875233333333","6502800","萬里區"
"242050","172-VK","2018/12/22 13:29:28","新北市新莊區立信三街20號","121.44368","25.0503833333333","6500500","新莊區"
"221032","280-BY","2018/12/22 13:29:29","新北市汐止區水源路一段56-1號","121.656885","25.0654333333333","6501100","汐止區"
"221033","647-BX","2018/12/22 13:29:19","台北市文山區老泉街45巷1號","121.566875","24.97723","6501100","汐止區"
"220030","610-BX","2018/12/22 13:29:15","新北市板橋區華東街1-10號","121.448265","24.9949616666667","6500100","板橋區"
"220020","277-BY","2018/12/22 13:29:21","新北市板橋區華東街1-10號","121.448266666667","24.9951033333333","6500100","板橋區"
"220043","285-UM","2018/12/22 13:29:16","新北市板橋區民生路二段161巷1號","121.470181666667","25.0198166666667","6500100","板橋區"
"220031","286-VK","2018/12/22 13:29:18","新北市板橋區華東街1-10號","121.448353333333","24.9950866666667","6500100","板橋區"
"220032","296-UM","2018/12/22 13:29:26","新北市板橋區華東街1-9號","121.448148333333","24.99497","6500100","板橋區"
"220023","303-R5","2018/12/22 13:29:22","新北市板橋區華東街1-9號","121.4482","24.9949883333333","6500100","板橋區"
"220104","560-BX","2018/12/22 13:29:26","新北市板橋區南雅南路一段100號","121.455081666667","25.0046366666667","6500100","板橋區"
"220005","686-BX","2018/12/22 13:29:16","新北市板橋區華東街1-9號","121.448216666667","24.99491","6500100","板橋區"
"220025","687-BX","2018/12/22 13:29:19","新北市板橋區板城路421號","121.448005","24.9964333333333","6500100","板橋區"
"220014","829-TW","2018/12/22 13:29:25","新北市板橋區民生路二段161巷5號","121.470258333333","25.0197433333333","6500100","板橋區"
"220022","895-R6","2018/12/22 13:29:17","新北市板橋區華東街1-10號","121.448685","24.99494","6500100","板橋區"
"220021","985-R7","2018/12/22 13:29:28","新北市板橋區四川路二段140巷14號","121.449441666667","24.9932816666667","6500100","板橋區"
"220012","AAC-253","2018/12/22 13:29:26","新北市板橋區南雅南路二段120-1號","121.452315","24.9997233333333","6500100","板橋區"
"235032","KEA-2873","2018/12/22 13:29:17","新北市中和區圓通路230號","121.495156666667","24.9930133333333","6500300","中和區"
"235025","KEA-2875","2018/12/22 13:29:12","新北市中和區民享街88巷23號","121.47334","25.0001816666667","6500300","中和區"
"235011","KEA-2876","2018/12/22 13:29:13","新北市中和區南山路481號","121.507936666667","24.9880533333333","6500300","中和區"
