"lineid","car","time","location","longitude","latitude","cityid","cityname"
"234044","148-BY","2018/12/22 13:59:18","新北市永和區成功路一段49號","121.527051666667","25.0040133333333","6500400","永和區"
"234078","298-R6","2018/12/22 13:59:32","新北市永和區永亨路100號","121.523081666667","25.0049516666667","6500400","永和區"
"234036","336-UY","2018/12/22 13:59:22","新北市永和區成功路二段90號","121.526606666667","24.9986016666667","6500400","永和區"
"234062","337-UY","2018/12/22 13:59:27","新北市永和區中正路412巷20弄27號","121.519178333333","25.00137","6500400","永和區"
"234068","552-UM","2018/12/22 13:59:24","新北市永和區國光路8號","121.519556666667","25.0084983333333","6500400","永和區"
"234084","553-UM","2018/12/22 13:59:30","新北市永和區福和路92號","121.522443333333","25.0081416666667","6500400","永和區"
"234015","745-BX","2018/12/22 13:59:28","新北市永和區文化路72號","121.514238333333","25.0152483333333","6500400","永和區"
"234028","746-BX","2018/12/22 13:59:24","新北市永和區民生路47巷21號","121.524193333333","24.9977366666667","6500400","永和區"
"234052","KEA-2590","2018/12/22 13:59:17","新北市永和區竹林路39巷42弄1號","121.520168333333","25.015225","6500400","永和區"
"234005","839-RS","2018/12/22 13:59:31","新北市中和區中和路318號","121.509473333333","25.0005983333333","6500400","永和區"
"234012","KEA-2591","2018/12/22 13:59:18","新北市永和區保生路55號","121.504643333333","25.0105933333333","6500400","永和區"
"234060","AAD-866","2018/12/22 13:59:17","新北市永和區中正路151巷1-1號","121.51628","24.9982833333333","6500400","永和區"
"234040","862-TW","2018/12/22 13:59:16","新北市永和區中和路335巷18弄32號","121.508158333333","25.000555","6500400","永和區"
"234048","863-TW","2018/12/22 13:59:31","新北市永和區保安路212-1號","121.507533333333","25.0137083333333","6500400","永和區"
"234025","9371-KE","2018/12/22 13:59:18","新北市永和區自由街58號","121.513776666667","25.0059516666667","6500400","永和區"
"234010","9373-KE","2018/12/22 13:59:15","新北市永和區仁愛路352巷112弄19號","121.501218333333","25.00863","6500400","永和區"
"248017","225-UY","2018/12/22 13:59:18","新北市五股區民義路一段220巷17號","121.429123333333","25.0946483333333","6501500","五股區"
"234022","9380-KE","2018/12/22 13:59:24","新北市永和區永和路二段284號","121.515993333333","25.0154516666667","6500400","永和區"
"234076","969-R7","2018/12/22 13:59:31","新北市永和區民權路58巷3號","121.519593333333","24.9982883333333","6500400","永和區"
"234072","AAC-211","2018/12/22 13:59:30","新北市永和區豫溪街169巷2-1號","121.521986666667","25.01049","6500400","永和區"
"234066","AAC-212","2018/12/22 13:59:29","新北市永和區永貞路358號","121.510136666667","25.0065566666667","6500400","永和區"
"234001","AAC-295","2018/12/22 13:59:21","新北市永和區福和路316-2號","121.51593","25.00749","6500400","永和區"
"244005","248-BX","2018/12/22 13:35:13","新北市林口區竹林路266號","121.38965","25.080865","6501700","林口區"
"231002","002-UM","2018/12/22 13:59:18","新北市新店區中正路674號","121.534001666667","24.9897516666667","6500600","新店區"
"231027","0291-UT","2018/12/22 13:59:27","新北市新店區中興路一段24號","121.53872","24.9584","6500600","新店區"
"231028","046-UY","2018/12/22 13:59:30","新北市新店區安和路三段22-3號","121.517946666667","24.9814466666667","6500600","新店區"
"231001","047-UY","2018/12/22 13:59:16","新北市新店區三民路45號","121.537113333333","24.970945","6500600","新店區"
"231005","106-UY","2018/12/22 13:59:27","新北市新店區中興路三段219-1號","121.543406666667","24.98229","6500600","新店區"
"231010","107-UY","2018/12/22 13:59:21","新北市新店區環河路60號","121.536855","24.9624933333333","6500600","新店區"
"231020","108-UY","2018/12/22 13:59:23","新北市新店區屈尺路75號","121.54557","24.9227233333333","6500600","新店區"
"231033","110-UY","2018/12/22 13:59:31","新北市新店區莒光路87巷15號","121.52608","24.9535916666667","6500600","新店區"
"231012","187-VK","2018/12/22 13:59:25","新北市新店區德正街27巷36號","121.545878333333","24.9713866666667","6500600","新店區"
"231023","KEA-2219","2018/12/22 13:59:33","新北市新店區文中路51-2號","121.540086666667","24.9565583333333","6500600","新店區"
"231026","256-BX","2018/12/22 13:59:34","新北市新店區中央路165-3號","121.533028333333","24.9703933333333","6500600","新店區"
"231036","260-TV","2018/12/22 13:59:16","新北市新店區安祥路110巷21號","121.473586666667","24.95609","6500600","新店區"
"231003","268-BY","2018/12/22 13:59:20","新北市新店區光明街138巷22號","121.5403","24.9610266666667","6500600","新店區"
"231018","278-BY","2018/12/22 13:59:15","新北市新店區中央路133巷29號","121.531726666667","24.9731383333333","6500600","新店區"
"231017","AAD-862","2018/12/22 13:59:22","新北市新店區郵政路1巷2號","121.557413333333","24.9521316666667","6500600","新店區"
"231038","3712-VJ","2018/12/22 13:59:13","新北市新店區安華路30巷1號","121.519591666667","24.9592666666667","6500600","新店區"
"231037","4716-K9","2018/12/22 13:59:25","新北市新店區安康路三段355巷6號","121.484821666667","24.9503533333333","6500600","新店區"
"231025","4715-K9","2018/12/22 13:59:27","新北市新店區中正路328巷40號","121.538165","24.97643","6500600","新店區"
"231030","619-UM","2018/12/22 13:59:25","新北市新店區安康路一段302號","121.518118333333","24.96408","6500600","新店區"
"231034","641-BX","2018/12/22 13:59:26","新北市新店區達觀路38號","121.50205","24.9388866666667","6500600","新店區"
"231013","719-UM","2018/12/22 13:59:23","新北市新店區明德路111號","121.541528333333","24.9794616666667","6500600","新店區"
"231035","719-UY","2018/12/22 13:59:14","新北市新店區安忠路57巷23號","121.513466666667","24.9583183333333","6500600","新店區"
"231029","897-TW","2018/12/22 13:59:25","新北市新店區安康路二段57號","121.514143333333","24.963295","6500600","新店區"
"231006","898-TW","2018/12/22 13:59:21","新北市新店區北宜路二段213號","121.553225","24.953395","6500600","新店區"
"231004","899-TW","2018/12/22 13:59:33","新北市新店區北新路二段160號","121.542931666667","24.975625","6500600","新店區"
"231024","AKT-0513","2018/12/22 13:59:14","新北市新店區新生街13巷20號","121.539075","24.9662033333333","6500600","新店區"
"235030","003-UY","2018/12/22 13:59:28","新北市中和區水源路6巷16號","121.503251666667","25.00327","6500300","中和區"
"235028","005-UY","2018/12/22 13:59:20","新北市中和區泰和街30巷40號","121.498655","25.0017466666667","6500300","中和區"
"235027","006-UY","2018/12/22 13:59:22","新北市中和區中正路542號","121.487391666667","24.9944416666667","6500300","中和區"
"235020","096-UM","2018/12/22 13:59:26","新北市中和區中正路1210號","121.480038333333","25.0105766666667","6500300","中和區"
"235003","097-UM","2018/12/22 13:59:17","新北市中和區秀朗路三段148號","121.524255","24.991135","6500300","中和區"
"235004","150-BY","2018/12/22 13:59:24","新北市中和區保健路46巷20弄2號","121.50897","24.9961583333333","6500300","中和區"
"235022","151-BY","2018/12/22 13:59:17","新北市中和區連城路534巷2號","121.475318333333","24.99143","6500300","中和區"
"235019","183-VK","2018/12/22 13:59:15","新北市中和區中山路三段206號","121.471623333333","25.0065","6500300","中和區"
"235002","185-VK","2018/12/22 13:59:30","新北市中和區大仁街20巷1號","121.517818333333","24.9932883333333","6500300","中和區"
"235013","186-VK","2018/12/22 13:59:27","新北市中和區景安路167巷31號","121.506836666667","24.994995","6500300","中和區"
"235031","255-BX","2018/12/22 13:59:31","新北市中和區新生街266號","121.483503333333","24.9973233333333","6500300","中和區"
"235008","293-VK","2018/12/22 13:59:24","新北市中和區中興街161巷3弄1號","121.50049","24.9909433333333","6500300","中和區"
"235036","301-VK","2018/12/22 13:59:17","新北市中和區中山路二段152號","121.501633333333","25.0028783333333","6500300","中和區"
"235006","KEA-2878","2018/12/22 13:59:15","新北市中和區秀朗路三段128巷2號","121.52468","24.992415","6500300","中和區"
"247011","KEA-2869","2018/12/22 13:59:20","新北市蘆洲區中興街24號","121.480741666667","25.0869216666667","6501400","蘆洲區"
"247005","KED-0682","2018/12/22 13:59:25","新北市蘆洲區永安南路二段50號","121.466055","25.0776566666667","6501400","蘆洲區"
"235014","4979-A6","2018/12/22 13:59:24","新北市中和區華新街50巷2號","121.507758333333","24.9840583333333","6500300","中和區"
"235033","4980-A6","2018/12/22 13:59:21","新北市中和區圓通路99號","121.499581666667","24.9967016666667","6500300","中和區"
"235034","558-UM","2018/12/22 13:59:23","新北市中和區中和路179號","121.50327","24.9998916666667","6500300","中和區"
"235009","565-BX","2018/12/22 13:59:24","新北市中和區景新街467巷20弄158號","121.514821666667","24.9876283333333","6500300","中和區"
"235018","640-BX","2018/12/22 13:59:31","新北市中和區莒光路158號","121.472631666667","25.0003233333333","6500300","中和區"
"235024","647-TV","2018/12/22 13:59:24","新北市中和區民治街154號","121.475446666667","25.0015816666667","6500300","中和區"
"235010","733-UM","2018/12/22 13:59:15","新北市中和區興南路一段117巷20號","121.509406666667","24.987105","6500300","中和區"
"235035","783-BX","2018/12/22 13:59:18","新北市中和區建一路150號","121.487903333333","24.998525","6500300","中和區"
"235026","800-TS","2018/12/22 13:59:18","新北市中和區中山路二段366巷38號","121.491681666667","25.0050983333333","6500300","中和區"
"235021","801-TS","2018/12/22 13:59:22","新北市中和區民利街40巷1弄12號","121.4789","24.9990783333333","6500300","中和區"
"235005","802-TS","2018/12/22 13:59:16","新北市中和區中安街40巷2號","121.51282","25.0029516666667","6500300","中和區"
"235016","805-TS","2018/12/22 13:59:26","新北市中和區興南路二段261巷7-1號","121.503216666667","24.979905","6500300","中和區"
"235012","896-TW","2018/12/22 13:59:13","新北市中和區華新街63號","121.508006666667","24.9841716666667","6500300","中和區"
"235017","900-TW","2018/12/22 13:59:15","新北市中和區和平路200巷33-3號","121.465251666667","24.9945483333333","6500300","中和區"
"235015","157-BY","2018/12/22 13:58:37","新北市中和區忠孝街31巷9號","121.510318333333","24.983275","6500300","中和區"
"235001","AAC-213","2018/12/22 13:59:22","新北市中和區秀朗路三段10巷14弄41-5號","121.524166666667","24.99641","6500300","中和區"
"235023","AAC-215","2018/12/22 13:59:34","新北市中和區圓通路367巷20弄21號","121.491528333333","24.9884","6500300","中和區"
"220013","072-UY","2018/12/22 13:59:23","新北市板橋區漢生東路315號","121.471845","25.0080066666667","6500100","板橋區"
"220034","073-UY","2018/12/22 13:59:28","新北市板橋區中正路236巷41號","121.457596666667","25.0193916666667","6500100","板橋區"
"220105","075-UY","2018/12/22 13:59:34","新北市板橋區雙十路三段10巷10號","121.472055","25.0307383333333","6500100","板橋區"
"220069","AAD-861","2018/12/22 13:59:26","新北市板橋區四川路一段104號","121.459525","25.004665","6500100","板橋區"
"247001","893-R6","2018/12/22 13:59:20","新北市蘆洲區永平街32巷62弄1號","121.460063333333","25.092945","6501400","蘆洲區"
"247015","546-UM","2018/12/22 13:59:16","新北市蘆洲區光華路44號","121.468798333333","25.0830716666667","6501400","蘆洲區"
"247019","057-VK","2018/12/22 13:59:24","新北市蘆洲區民族路422巷29號","121.473425","25.0934116666667","6501400","蘆洲區"
"247009","056-VK","2018/12/22 13:59:17","新北市蘆洲區集賢路224巷19號","121.481803333333","25.0869366666667","6501400","蘆洲區"
"247017","007-UY","2018/12/22 13:59:28","新北市蘆洲區民族路327巷142號","121.47552","25.089195","6501400","蘆洲區"
"247003","002-UY","2018/12/22 13:59:12","新北市蘆洲區中華街6號","121.463575","25.081715","6501400","蘆洲區"
"247021","001-UY","2018/12/22 13:59:24","新北市蘆洲區中正路263巷2號","121.46741","25.087455","6501400","蘆洲區"
"235029","251-BX","2018/12/22 13:59:15","新北市中和區勝利路35巷1弄35號","121.50033","25.0080166666667","6500300","中和區"
"228005","097-TW","2018/12/22 13:53:01","新北市貢寮區美豐里雞母嶺街52號","121.891096666667","25.06621","6502600","貢寮區"
"228004","212-TW","2018/12/22 13:59:29","新北市貢寮區龍崗里嵩陽街40號","121.906048333333","25.0155616666667","6502600","貢寮區"
"253003","6232-TK","2018/12/22 13:59:16","新北市石門區尖子鹿17-1號","121.575956666667","25.27772","6502200","石門區"
"253004","6251-TK","2018/12/22 13:59:21","新北市石門區草埔尾20-4號","121.603271666667","25.26267","6502200","石門區"
"253002","637-UY","2018/12/22 13:54:52","新北市石門區尖山湖18號","121.559613333333","25.24715","6502200","石門區"
"253001","KEC-0718","2018/12/22 13:59:33","新北市石門區八甲74號","121.529666666667","25.2637833333333","6502200","石門區"
"207002","749-BX","2018/12/22 13:58:51","新北市萬里區溪底里烏塗炭3-1號","121.636085","25.151215","6502800","萬里區"
"252005","073-UM","2018/12/22 13:59:23","新北市三芝區圓山里二坪頂79號","121.54089","25.24553","6502100","三芝區"
"207001","662-BX","2018/12/22 13:59:25","新北市萬里區磺潭里清水2-2號","121.64127","25.20259","6502800","萬里區"
"236068","105-UM","2018/12/22 13:59:22","新北市土城區金城路一段88巷10號","121.445653333333","24.9729283333333","6501300","土城區"
"236040","KED-0685","2018/12/22 13:59:23","新北市土城區城林路6巷80號","121.438535","24.97978","6501300","土城區"
"236074","166-UM","2018/12/22 13:59:27","新北市土城區永寧路32巷10弄8號","121.429063333333","24.9610066666667","6501300","土城區"
"236029","253-BX","2018/12/22 13:59:13","新北市土城區中央路二段263號","121.439855","24.9707983333333","6501300","土城區"
"236024","269-VK","2018/12/22 13:59:31","新北市土城區承天路67號","121.439541666667","24.9635083333333","6501300","土城區"
"236013","270-VK","2018/12/22 13:59:23","新北市土城區中正路65號","121.444445","24.9756583333333","6501300","土城區"
"236032","271-VK","2018/12/22 13:59:20","新北市土城區中華路二段87-1號","121.43925","24.977835","6501300","土城區"
"247007","KED-0683","2018/12/22 13:59:28","新北市三重區仁愛街747號","121.481248333333","25.080655","6501400","蘆洲區"
"236017","401-BY","2018/12/22 13:59:23","新北市土城區城林路6巷80號","121.438415","24.9798333333333","6501300","土城區"
"236057","912-UM","2018/12/22 13:59:32","新北市土城區中央路三段266號","121.426976666667","24.9638666666667","6501300","土城區"
"236045","913-UM","2018/12/22 13:59:34","新北市土城區城林路6巷80號","121.438503333333","24.9797783333333","6501300","土城區"
"236060","915-UM","2018/12/22 13:59:24","新北市土城區城林路6巷80號","121.438471666667","24.9797216666667","6501300","土城區"
"236054","AAC-216","2018/12/22 13:59:32","新北市土城區城林路6巷80號","121.438721666667","24.97971","6501300","土城區"
"221033","647-BX","2018/12/22 13:59:18","新北市新店區安康路二段380號","121.50044","24.9573683333333","6501100","汐止區"
"220027","145-BY","2018/12/22 13:59:13","新北市板橋區中正路135巷12弄1號","121.455715","25.0155783333333","6500100","板橋區"
"220028","200-UY","2018/12/22 13:59:14","新北市板橋區大觀路二段265巷1弄14號","121.44351","24.9984983333333","6500100","板橋區"
"220030","610-BX","2018/12/22 13:59:16","新北市板橋區滿平街77號","121.427916666667","24.9890766666667","6500100","板橋區"
"220040","267-BY","2018/12/22 13:59:22","新北市板橋區大同街14-4號","121.47751","25.0270033333333","6500100","板橋區"
"220004","276-BY","2018/12/22 13:59:27","新北市板橋區信義路91-2號","121.457365","24.9937866666667","6500100","板橋區"
"220020","277-BY","2018/12/22 13:59:21","新北市板橋區金門街365號","121.428405","24.9847166666667","6500100","板橋區"
"220050","280-UM","2018/12/22 13:59:15","新北市板橋區民生路二段188號","121.470246666667","25.0208133333333","6500100","板橋區"
"220019","283-VK","2018/12/22 13:59:14","新北市板橋區重慶路245巷11號","121.463705","25.0007266666667","6500100","板橋區"
"220043","285-UM","2018/12/22 13:59:20","新北市板橋區吳鳳路81巷54號","121.465076666667","25.0306733333333","6500100","板橋區"
"220031","286-VK","2018/12/22 13:59:18","新北市板橋區大觀路一段38巷148-1號","121.442925","25.004455","6500100","板橋區"
"220029","287-VK","2018/12/22 13:59:28","新北市板橋區光華街24巷1號","121.454023333333","25.012225","6500100","板橋區"
"220039","288-VK","2018/12/22 13:59:28","新北市板橋區裕民街42號","121.461801666667","25.0288433333333","6500100","板橋區"
"220009","295-UM","2018/12/22 13:59:25","新北市板橋區懷仁街85巷6號","121.477715","25.0185766666667","6500100","板橋區"
"220032","296-UM","2018/12/22 13:59:26","新北市板橋區龍興街38號","121.443105","25.0006566666667","6500100","板橋區"
"220001","299-UM","2018/12/22 13:59:26","新北市板橋區懷仁街10巷22-3號","121.475143333333","25.0196416666667","6500100","板橋區"
"220023","303-R5","2018/12/22 13:59:22","新北市板橋區大智街25巷32號","121.454128333333","25.014935","6500100","板橋區"
"220010","305-R5","2018/12/22 13:57:22","新北市板橋區三民路二段253-1號","121.478978333333","25.0116283333333","6500100","板橋區"
"220041","307-R5","2018/12/22 13:59:27","新北市板橋區松江街21號","121.468791666667","25.02657","6500100","板橋區"
"220047","317-R6","2018/12/22 13:59:19","新北市板橋區莊敬路148-1號","121.470485","25.022615","6500100","板橋區"
"220038","487-VK","2018/12/22 13:59:26","新北市板橋區文化路二段367號","121.473211666667","25.03105","6500100","板橋區"
"220037","491-VK","2018/12/22 13:59:30","新北市板橋區文化路二段182巷21號","121.472595","25.0268483333333","6500100","板橋區"
"220104","560-BX","2018/12/22 13:59:26","新北市板橋區中正路341巷35號","121.454176666667","25.0197433333333","6500100","板橋區"
"220052","561-BX","2018/12/22 13:59:33","新北市板橋區介壽街22-1號","121.467761666667","25.0200783333333","6500100","板橋區"
"220011","609-BX","2018/12/22 13:59:27","新北市板橋區三民路二段160號","121.479145","25.0150933333333","6500100","板橋區"
"220003","630-UY","2018/12/22 13:59:24","新北市板橋區民安街26-1號","121.466938333333","25.0112916666667","6500100","板橋區"
"220005","686-BX","2018/12/22 13:59:16","新北市板橋區重慶路199-1號","121.462836666667","25.0017266666667","6500100","板橋區"
"220025","687-BX","2018/12/22 13:59:19","新北市板橋區大觀路二段156巷83號","121.441031666667","25.00073","6500100","板橋區"
"220042","689-BX","2018/12/22 13:59:30","新北市板橋區民生路三段125號","121.466303333333","25.0258916666667","6500100","板橋區"
"220002","741-BX","2018/12/22 13:59:32","新北市板橋區重慶路95號","121.462256666667","25.0057183333333","6500100","板橋區"
"220051","KEA-2699","2018/12/22 13:59:29","新北市板橋區萬板路818巷9號","121.483003333333","25.0267533333333","6500100","板橋區"
"220014","829-TW","2018/12/22 13:59:28","新北市板橋區三民路二段154巷9號","121.478716666667","25.0150433333333","6500100","板橋區"
"220016","830-TW","2018/12/22 13:59:15","新北市板橋區中山路二段465巷40弄2號","121.481243333333","25.0214633333333","6500100","板橋區"
"220022","895-R6","2018/12/22 13:59:17","新北市板橋區府中路126-8號","121.454515","25.0093316666667","6500100","板橋區"
"220021","985-R7","2018/12/22 13:59:28","新北市板橋區北門街53號","121.455931666667","25.01163","6500100","板橋區"
"220046","AAC-210","2018/12/22 13:59:26","新北市板橋區新海路135巷29號","121.460031666667","25.0228783333333","6500100","板橋區"
"220012","AAC-253","2018/12/22 13:59:26","新北市板橋區中山路一段266號","121.471781666667","25.014775","6500100","板橋區"
"235032","KEA-2873","2018/12/22 13:59:17","新北市中和區連勝街38巷26號","121.497686666667","24.9981983333333","6500300","中和區"
"235025","KEA-2875","2018/12/22 13:59:08","新北市中和區民有街50號","121.47581","25.0048333333333","6500300","中和區"
"235011","KEA-2876","2018/12/22 13:59:13","新北市中和區興南路二段54巷2-2號","121.506305","24.9852716666667","6500300","中和區"
