"lineid","car","time","location","longitude","latitude","cityid","cityname"
"234078","298-R6","2018/12/22 14:29:12","新北市永和區福和路139號","121.521003333333","25.0077116666667","6500400","永和區"
"234062","337-UY","2018/12/22 14:29:27","新北市永和區中正路417號","121.517038333333","25.0048966666667","6500400","永和區"
"234068","552-UM","2018/12/22 14:29:24","新北市永和區永和路二段37號","121.514593333333","25.0105483333333","6500400","永和區"
"234084","553-UM","2018/12/22 14:29:22","新北市永和區光復街21號","121.516513333333","25.0174233333333","6500400","永和區"
"234028","746-BX","2018/12/22 14:29:21","新北市永和區民有街15號","121.516471666667","24.9967816666667","6500400","永和區"
"234052","KEA-2590","2018/12/22 14:29:17","新北市永和區環河東路一段80號","121.519565","25.0164166666667","6500400","永和區"
"234060","AAD-866","2018/12/22 14:29:29","新北市永和區中正路381號","121.51723","25.0036616666667","6500400","永和區"
"234040","862-TW","2018/12/22 14:29:15","新北市永和區自由街26號","121.514386666667","25.0064366666667","6500400","永和區"
"234048","863-TW","2018/12/22 14:29:31","新北市永和區新生路118巷1弄17號","121.506633333333","25.0144183333333","6500400","永和區"
"234025","9371-KE","2018/12/22 14:29:18","新北市中和區安樂路255號","121.514063333333","24.9998383333333","6500400","永和區"
"248017","225-UY","2018/12/22 14:25:58","新北市五股區外寮路13-1號","121.424478333333","25.0809066666667","6501500","五股區"
"234076","969-R7","2018/12/22 14:29:31","新北市永和區民族街81巷58號","121.52005","24.996545","6500400","永和區"
"234072","AAC-211","2018/12/22 14:29:18","新北市永和區環河東路一段124號","121.520651666667","25.0153883333333","6500400","永和區"
"234001","AAC-295","2018/12/22 14:29:21","新北市永和區大新街59號","121.516008333333","25.0083966666667","6500400","永和區"
"231002","002-UM","2018/12/22 14:29:18","新北市新店區中央路17號","121.533205","24.9782966666667","6500600","新店區"
"231027","0291-UT","2018/12/22 14:29:27","新北市新店區北新路二段228巷13號","121.543475","24.9771966666667","6500600","新店區"
"231028","046-UY","2018/12/22 14:29:30","新北市新店區安康路二段117號","121.512498333333","24.961605","6500600","新店區"
"231001","047-UY","2018/12/22 14:29:16","新北市新店區北新路一段96巷23號","121.543076666667","24.968665","6500600","新店區"
"231005","106-UY","2018/12/22 14:29:27","新北市新店區北新路三段98號","121.541815","24.981025","6500600","新店區"
"231020","108-UY","2018/12/22 14:29:22","新北市新店區桂山路81巷1號","121.567491666667","24.89931","6500600","新店區"
"231033","110-UY","2018/12/22 14:29:31","新北市新店區安和路二段232-1號","121.516981666667","24.97701","6500600","新店區"
"231012","187-VK","2018/12/22 14:29:25","新北市新店區中興路二段100巷1號","121.547641666667","24.9715333333333","6500600","新店區"
"231023","KEA-2219","2018/12/22 14:29:33","新北市新店區光明街94號","121.538888333333","24.9603383333333","6500600","新店區"
"231036","260-TV","2018/12/22 14:29:16","新北市新店區安祥路109巷90弄2號","121.477945","24.9597433333333","6500600","新店區"
"231003","268-BY","2018/12/22 14:29:20","新北市新店區中興路一段266-6號","121.545045","24.9676933333333","6500600","新店區"
"231018","278-BY","2018/12/22 14:29:15","新北市新店區中央路212號","121.529906666667","24.9735616666667","6500600","新店區"
"231017","AAD-862","2018/12/22 14:29:22","新北市新店區北宜路三段221號","121.592373333333","24.9532433333333","6500600","新店區"
"231038","3712-VJ","2018/12/22 14:29:13","新北市新店區溪洲路8巷42號","121.533381666667","24.962155","6500600","新店區"
"231037","4716-K9","2018/12/22 14:29:24","新北市新店區車子路8-1號","121.504386666667","24.9527416666667","6500600","新店區"
"231030","619-UM","2018/12/22 14:29:25","新北市新店區安民街65巷6號","121.51604","24.966885","6500600","新店區"
"231034","641-BX","2018/12/22 14:29:26","新北市新店區車子路11號","121.502978333333","24.951775","6500600","新店區"
"231013","719-UM","2018/12/22 14:29:23","新北市新店區民權路100-1號","121.53613","24.9833166666667","6500600","新店區"
"231035","719-UY","2018/12/22 14:29:33","新北市新店區安民街25號","121.515665","24.9649983333333","6500600","新店區"
"231029","897-TW","2018/12/22 14:29:25","新北市新店區安康路二段416號","121.496461666667","24.9551866666667","6500600","新店區"
"231006","898-TW","2018/12/22 14:29:35","新北市新店區北宜路二段338號","121.562618333333","24.9537716666667","6500600","新店區"
"231004","899-TW","2018/12/22 14:29:33","新北市新店區中正路282-1號","121.538385","24.97395","6500600","新店區"
"235030","003-UY","2018/12/22 14:29:29","新北市中和區景新街47號","121.50429","24.9990533333333","6500300","中和區"
"235028","005-UY","2018/12/22 14:29:19","新北市中和區南山路129號","121.502085","24.997155","6500300","中和區"
"235027","006-UY","2018/12/22 14:29:27","新北市中和區安邦街3號","121.495886666667","24.998355","6500300","中和區"
"235020","096-UM","2018/12/22 14:29:26","新北市中和區民富街3-1號","121.476593333333","25.0070683333333","6500300","中和區"
"235003","097-UM","2018/12/22 14:29:17","新北市中和區秀峰街103巷7弄4號","121.519446666667","24.9890166666667","6500300","中和區"
"235004","150-BY","2018/12/22 14:29:24","新北市中和區宜安路28號","121.512898333333","24.995985","6500300","中和區"
"235022","151-BY","2018/12/22 14:29:17","新北市中和區員山路36巷16-2號","121.485341666667","24.991595","6500300","中和區"
"235019","183-VK","2018/12/22 14:29:15","新北市中和區中山路三段181巷18弄39號","121.472625","25.0050233333333","6500300","中和區"
"235002","185-VK","2018/12/22 14:29:30","新北市中和區自立路117巷4弄21號","121.522743333333","24.9941366666667","6500300","中和區"
"235013","186-VK","2018/12/22 14:29:29","新北市中和區景新街269號","121.509026666667","24.9937783333333","6500300","中和區"
"235031","255-BX","2018/12/22 14:29:31","新北市中和區新生街186巷8號","121.483275","24.999695","6500300","中和區"
"235008","293-VK","2018/12/22 14:29:24","新北市中和區捷運路122號","121.505396666667","24.9914483333333","6500300","中和區"
"235036","301-VK","2018/12/22 14:29:17","新北市中和區中山路二段3巷22弄40號","121.505743333333","25.0039783333333","6500300","中和區"
"235006","KEA-2878","2018/12/22 14:29:11","新北市中和區中和路262巷43弄4號","121.509761666667","24.9997433333333","6500300","中和區"
"247011","KEA-2869","2018/12/22 14:29:20","新北市蘆洲區復興路233號","121.480215","25.0898016666667","6501400","蘆洲區"
"247005","KED-0682","2018/12/22 14:29:25","新北市蘆洲區中華街79號","121.461856666667","25.080245","6501400","蘆洲區"
"235014","4979-A6","2018/12/22 14:29:21","新北市中和區中正路589巷15號","121.485898333333","24.9937066666667","6500300","中和區"
"235033","4980-A6","2018/12/22 14:29:21","新北市中和區連城路134巷16號","121.495536666667","24.9996383333333","6500300","中和區"
"235034","558-UM","2018/12/22 14:29:23","新北市中和區景平路642號","121.497905","25.0003616666667","6500300","中和區"
"235009","565-BX","2018/12/22 14:29:24","新北市中和區景新街380號","121.51235","24.9900466666667","6500300","中和區"
"235018","640-BX","2018/12/22 14:29:24","新北市中和區國光街123號","121.469408333333","25.00093","6500300","中和區"
"235024","647-TV","2018/12/22 14:29:23","新北市中和區中山路二段523巷41號","121.4822","25.003195","6500300","中和區"
"235010","733-UM","2018/12/22 14:29:15","新北市中和區忠孝街37巷52號","121.511078333333","24.9849966666667","6500300","中和區"
"235035","783-BX","2018/12/22 14:29:23","新北市中和區建二路153號","121.487421666667","25.0036716666667","6500300","中和區"
"235026","800-TS","2018/12/22 14:29:18","新北市中和區建二路56號","121.486033333333","25.003705","6500300","中和區"
"235021","801-TS","2018/12/22 14:29:23","新北市中和區員山路465號","121.480478333333","25.0045116666667","6500300","中和區"
"235005","802-TS","2018/12/22 14:29:35","新北市中和區景安路55號","121.507251666667","24.9981316666667","6500300","中和區"
"235016","805-TS","2018/12/22 14:29:26","新北市中和區華新街143巷68號","121.506266666667","24.979235","6500300","中和區"
"235012","896-TW","2018/12/22 14:29:33","新北市中和區忠孝街46-2號","121.511246666667","24.9835333333333","6500300","中和區"
"235017","900-TW","2018/12/22 14:29:15","新北市中和區民德路197號","121.469141666667","24.9981366666667","6500300","中和區"
"235015","157-BY","2018/12/22 14:29:17","新北市中和區中興街132巷26號","121.49879","24.99162","6500300","中和區"
"235001","AAC-213","2018/12/22 14:29:22","新北市中和區秀朗路三段10巷14弄16號","121.524955","24.9966066666667","6500300","中和區"
"235023","AAC-215","2018/12/22 14:29:34","新北市中和區圓通路252巷1號","121.493541666667","24.9910183333333","6500300","中和區"
"220013","072-UY","2018/12/22 14:29:23","新北市板橋區國泰街75巷28弄56號","121.467745","25.004675","6500100","板橋區"
"220034","073-UY","2018/12/22 14:29:28","新北市板橋區國光路173巷3弄1號","121.460363333333","25.0187416666667","6500100","板橋區"
"220105","075-UY","2018/12/22 14:29:21","新北市板橋區民治街26巷15號","121.477553333333","25.03375","6500100","板橋區"
"220069","AAD-861","2018/12/22 14:29:26","新北市板橋區貴興路106巷16弄2號","121.45472","25.0035366666667","6500100","板橋區"
"247001","893-R6","2018/12/22 14:29:20","新北市蘆洲區永樂街38巷33弄2號","121.45804","25.0895083333333","6501400","蘆洲區"
"247015","546-UM","2018/12/22 14:29:16","新北市蘆洲區中正路185巷60號","121.466635","25.0846283333333","6501400","蘆洲區"
"247023","500-BY","2018/12/22 14:29:25","新北市蘆洲區中正路261號","121.467426666667","25.0872716666667","6501400","蘆洲區"
"247019","057-VK","2018/12/22 14:29:23","新北市蘆洲區水湳街415號","121.470633333333","25.0940766666667","6501400","蘆洲區"
"247009","056-VK","2018/12/22 14:29:17","新北市蘆洲區鷺江街17號","121.479078333333","25.0825266666667","6501400","蘆洲區"
"247013","053-VK","2018/12/22 14:29:21","新北市蘆洲區得勝街118號","121.471015","25.0827683333333","6501400","蘆洲區"
"247017","007-UY","2018/12/22 14:29:28","新北市蘆洲區復興路181號","121.479001666667","25.0893666666667","6501400","蘆洲區"
"247003","002-UY","2018/12/22 14:29:32","新北市蘆洲區永康街118號","121.458043333333","25.085325","6501400","蘆洲區"
"235029","251-BX","2018/12/22 14:29:15","新北市中和區永和路1-3號","121.499748333333","25.0030916666667","6500300","中和區"
"228005","097-TW","2018/12/22 14:29:21","新北市貢寮區美豐里巫里岸9-1號","121.901956666667","25.0700933333333","6502600","貢寮區"
"228004","212-TW","2018/12/22 14:29:29","新北市貢寮區雙玉里田寮洋街34-1號","121.931553333333","25.0149333333333","6502600","貢寮區"
"253003","6232-TK","2018/12/22 14:29:16","新北市石門區尖子鹿31-1號","121.579371666667","25.2668933333333","6502200","石門區"
"253004","6251-TK","2018/12/22 14:29:21","新北市石門區內阿里磅37-2號","121.580998333333","25.2377133333333","6502200","石門區"
"253002","637-UY","2018/12/22 14:29:32","新北市石門區七股14號","121.546318333333","25.2652516666667","6502200","石門區"
"253001","KEC-0718","2018/12/22 14:29:13","新北市石門區崁子腳89-1號","121.535516666667","25.27302","6502200","石門區"
"207002","749-BX","2018/12/22 14:29:31","新北市萬里區溪底里富士坪路16-1號","121.621806666667","25.1541016666667","6502800","萬里區"
"252005","073-UM","2018/12/22 14:29:23","新北市三芝區橫山里大坑94-1號","121.525958333333","25.25974","6502100","三芝區"
"207001","662-BX","2018/12/22 14:29:25","新北市萬里區磺潭里清水18-3號","121.639061666667","25.1990733333333","6502800","萬里區"
"236068","105-UM","2018/12/22 14:29:23","新北市土城區永豐路255巷27弄45號","121.47709","24.97374","6501300","土城區"
"236040","KED-0685","2018/12/22 14:29:35","新北市土城區學成路91巷1號","121.450543333333","24.9878116666667","6501300","土城區"
"236074","166-UM","2018/12/22 14:29:27","新北市土城區中央路四段45-1號","121.42233","24.9618383333333","6501300","土城區"
"236029","253-BX","2018/12/22 14:29:34","新北市土城區水源街30號","121.440891666667","24.9755883333333","6501300","土城區"
"236024","269-VK","2018/12/22 14:29:31","新北市土城區承天路18號","121.43942","24.9634066666667","6501300","土城區"
"236013","270-VK","2018/12/22 14:29:22","新北市土城區青雲路39巷7號","121.460315","24.9875683333333","6501300","土城區"
"236032","271-VK","2018/12/22 14:29:20","新北市土城區明德路一段311號","121.459495","24.97715","6501300","土城區"
"247007","KED-0683","2018/12/22 14:29:28","新北市蘆洲區信義路30巷22號","121.474366666667","25.0786866666667","6501400","蘆洲區"
"236017","401-BY","2018/12/22 14:29:23","新北市土城區永豐路202巷14號","121.466323333333","24.9833633333333","6501300","土城區"
"236057","912-UM","2018/12/22 14:29:32","新北市土城區中央路四段155號","121.415508333333","24.9570366666667","6501300","土城區"
"236045","913-UM","2018/12/22 14:29:35","新北市土城區明德路一段309號","121.45962","24.97716","6501300","土城區"
"236060","915-UM","2018/12/22 14:29:24","新北市土城區延壽路111巷10號","121.46885","24.9936966666667","6501300","土城區"
"236054","AAC-216","2018/12/22 14:29:31","新北市土城區中華路一段247號","121.440935","24.98176","6501300","土城區"
"221033","647-BX","2018/12/22 14:29:18","新北市汐止區新台五路一段131號","121.65222","25.0622116666667","6501100","汐止區"
"220027","145-BY","2018/12/22 14:29:33","新北市板橋區民權路302巷2號","121.457281666667","25.0165166666667","6500100","板橋區"
"220028","200-UY","2018/12/22 14:29:31","新北市板橋區大觀路二段37巷170號","121.449383333333","25.001745","6500100","板橋區"
"220030","610-BX","2018/12/22 14:29:31","新北市板橋區金門街353號","121.428813333333","24.98515","6500100","板橋區"
"220040","267-BY","2018/12/22 14:29:22","新北市板橋區文聖街149巷22號","121.479493333333","25.0285283333333","6500100","板橋區"
"220004","276-BY","2018/12/22 14:29:27","新北市板橋區干城路6號","121.45948","24.99416","6500100","板橋區"
"220020","277-BY","2018/12/22 14:29:28","新北市板橋區金門街235巷1號","121.432441666667","24.9893833333333","6500100","板橋區"
"220050","280-UM","2018/12/22 14:29:20","新北市板橋區莊敬路261號","121.473768333333","25.021595","6500100","板橋區"
"220019","283-VK","2018/12/22 14:29:28","新北市板橋區忠孝路24巷23號","121.460285","25.0008866666667","6500100","板橋區"
"220043","285-UM","2018/12/22 14:29:16","新北市板橋區銘傳街96-3號","121.469661666667","25.03163","6500100","板橋區"
"220031","286-VK","2018/12/22 14:29:18","新北市板橋區龍興街71巷26號","121.44264","25.002395","6500100","板橋區"
"220029","287-VK","2018/12/22 14:29:28","新北市板橋區大觀路一段29巷131弄33-16號","121.450766666667","25.0040133333333","6500100","板橋區"
"220039","288-VK","2018/12/22 14:29:33","新北市板橋區長江路一段48巷19弄1號","121.459443333333","25.0280166666667","6500100","板橋區"
"220009","295-UM","2018/12/22 14:29:25","新北市板橋區板新路209號","121.468498333333","25.0159733333333","6500100","板橋區"
"220032","296-UM","2018/12/22 14:29:29","新北市板橋區篤行路三段玉平巷76弄2號","121.428006666667","24.985575","6500100","板橋區"
"220001","299-UM","2018/12/22 14:29:26","新北市板橋區富山街53巷1弄64號","121.47794","25.02037","6500100","板橋區"
"220023","303-R5","2018/12/22 14:29:23","新北市板橋區中正路253巷7號","121.455298333333","25.0181083333333","6500100","板橋區"
"220010","305-R5","2018/12/22 14:29:16","新北市板橋區三民路二段153巷2弄12-5號","121.47956","25.0143733333333","6500100","板橋區"
"220041","307-R5","2018/12/22 14:29:27","新北市板橋區四維路137巷1弄21號","121.465206666667","25.0244833333333","6500100","板橋區"
"220047","317-R6","2018/12/22 14:29:28","新北市板橋區四維路208號","121.464033333333","25.0273633333333","6500100","板橋區"
"220038","487-VK","2018/12/22 14:29:23","新北市板橋區英士路59號","121.460588333333","25.0244266666667","6500100","板橋區"
"220037","491-VK","2018/12/22 14:29:30","新北市板橋區雙十路二段217號","121.473408333333","25.0291433333333","6500100","板橋區"
"220104","560-BX","2018/12/22 14:29:26","新北市板橋區中正路375巷42號","121.453703333333","25.0203983333333","6500100","板橋區"
"220052","561-BX","2018/12/22 14:29:33","新北市板橋區陽明街29巷1弄20號","121.464345","25.02199","6500100","板橋區"
"220011","609-BX","2018/12/22 14:29:29","新北市板橋區三民路一段31巷51號","121.481108333333","25.0233616666667","6500100","板橋區"
"220003","630-UY","2018/12/22 14:29:24","新北市板橋區重慶路290巷22弄16號","121.462196666667","24.9995283333333","6500100","板橋區"
"220005","686-BX","2018/12/22 14:29:16","新北市板橋區和平路34號","121.460506666667","24.99449","6500100","板橋區"
"220025","687-BX","2018/12/22 14:29:19","新北市板橋區大觀路一段35巷2號","121.449048333333","25.00838","6500100","板橋區"
"220042","689-BX","2018/12/22 14:29:30","新北市板橋區長江路一段110號","121.459743333333","25.0296733333333","6500100","板橋區"
"220002","741-BX","2018/12/22 14:29:26","新北市板橋區忠孝路239巷2號","121.466205","25.0030633333333","6500100","板橋區"
"220051","KEA-2699","2018/12/22 14:29:31","新北市板橋區雙十路二段46巷19號","121.476228333333","25.02827","6500100","板橋區"
"220014","829-TW","2018/12/22 14:29:25","新北市板橋區長安街138巷11號","121.473038333333","25.009195","6500100","板橋區"
"220016","830-TW","2018/12/22 14:29:21","新北市板橋區萬安街14號","121.484683333333","25.0225883333333","6500100","板橋區"
"220022","895-R6","2018/12/22 14:29:17","新北市板橋區館前西路138號","121.456386666667","25.0082366666667","6500100","板橋區"
"220021","985-R7","2018/12/22 14:29:27","新北市板橋區新生街92號","121.458203333333","25.0218116666667","6500100","板橋區"
"220046","AAC-210","2018/12/22 14:29:30","新北市板橋區文化路一段285巷1弄2號","121.464333333333","25.0187116666667","6500100","板橋區"
"220012","AAC-253","2018/12/22 14:29:25","新北市板橋區重慶路17號","121.46087","25.00801","6500100","板橋區"
"235032","KEA-2873","2018/12/22 14:29:17","新北市中和區莊敬路16巷8號","121.49995","25.0039783333333","6500300","中和區"
"235025","KEA-2875","2018/12/22 14:29:08","新北市中和區民利街31巷2弄8號","121.479813333333","24.9986733333333","6500300","中和區"
"235011","KEA-2876","2018/12/22 14:29:13","新北市中和區景平路259巷30號","121.507126666667","24.9927583333333","6500300","中和區"
