"lineid","car","time","location","longitude","latitude","cityid","cityname"
"234025","9371-KE","2018/12/22 14:49:18","新北市永和區雙和街52巷2號","121.509071666667","25.0031633333333","6500400","永和區"
"248017","225-UY","2018/12/22 14:25:58","新北市五股區外寮路13-1號","121.424478333333","25.0809066666667","6501500","五股區"
"231002","002-UM","2018/12/22 14:49:18","新北市新店區民權路68號","121.538306666667","24.983045","6500600","新店區"
"231027","0291-UT","2018/12/22 14:49:27","新北市新店區中正路336號","121.536706666667","24.9750116666667","6500600","新店區"
"231028","046-UY","2018/12/22 14:49:30","新北市新店區安德街84號","121.51002","24.9614116666667","6500600","新店區"
"231001","047-UY","2018/12/22 14:49:16","新北市新店區三民路38號","121.53627","24.9714383333333","6500600","新店區"
"231005","106-UY","2018/12/22 14:49:27","新北市新店區復興路2號","121.532535","24.988215","6500600","新店區"
"231020","108-UY","2018/12/22 14:49:22","新北市新店區新烏路二段442號","121.551625","24.9081766666667","6500600","新店區"
"231033","110-UY","2018/12/22 14:49:31","新北市新店區安泰路20號","121.485498333333","24.9486466666667","6500600","新店區"
"231012","187-VK","2018/12/22 14:49:25","新北市新店區寶橋路75號","121.545735","24.9752616666667","6500600","新店區"
"231023","KEA-2219","2018/12/22 14:49:33","新北市新店區檳榔路109號","121.544408333333","24.9616883333333","6500600","新店區"
"231026","256-BX","2018/12/22 14:49:29","新北市新店區安一路一段1-1號","121.519741666667","24.961085","6500600","新店區"
"231036","260-TV","2018/12/22 14:49:16","新北市新店區安祥路106巷288號","121.472611666667","24.958205","6500600","新店區"
"231003","268-BY","2018/12/22 14:49:20","新北市新店區中興路二段121巷1號","121.547615","24.9720633333333","6500600","新店區"
"231018","278-BY","2018/12/22 14:49:15","新北市新店區中央六街6號","121.5302","24.9743033333333","6500600","新店區"
"231017","AAD-862","2018/12/22 14:49:22","新北市新店區北宜路三段62號","121.574716666667","24.9512783333333","6500600","新店區"
"231038","3712-VJ","2018/12/22 14:49:33","新北市新店區溪洲路123號","121.530611666667","24.9639583333333","6500600","新店區"
"231037","4716-K9","2018/12/22 14:49:24","新北市新店區柴埕路60巷17號","121.507936666667","24.9657016666667","6500600","新店區"
"231025","4715-K9","2018/12/22 14:49:27","新北市新店區建國路192號","121.538013333333","24.980505","6500600","新店區"
"231030","619-UM","2018/12/22 14:49:25","新北市新店區安民街353號","121.516803333333","24.975565","6500600","新店區"
"231034","641-BX","2018/12/22 14:49:26","新北市新店區玫瑰路4-1號","121.493551666667","24.9513816666667","6500600","新店區"
"231039","718-UY","2018/12/22 14:49:17","新北市新店區安一路一段1-1號","121.519291666667","24.9612383333333","6500600","新店區"
"231013","719-UM","2018/12/22 14:49:23","新北市新店區北新路二段68號","121.542851666667","24.9724316666667","6500600","新店區"
"231035","719-UY","2018/12/22 14:49:14","新北市新店區安樂街12號","121.520733333333","24.9733933333333","6500600","新店區"
"231029","897-TW","2018/12/22 14:49:25","新北市新店區錦秀路11巷96弄2號","121.480123333333","24.9421333333333","6500600","新店區"
"231006","898-TW","2018/12/22 14:49:21","新北市新店區北宜路一段127巷4號","121.541676666667","24.9529266666667","6500600","新店區"
"231004","899-TW","2018/12/22 14:49:33","新北市新店區建國路131號","121.539426666667","24.9781666666667","6500600","新店區"
"231024","AKT-0513","2018/12/22 14:49:14","新北市新店區中華路83巷67號","121.538306666667","24.967245","6500600","新店區"
"235030","003-UY","2018/12/22 14:49:28","新北市中和區南工路36號","121.505788333333","25.0011366666667","6500300","中和區"
"235020","096-UM","2018/12/22 14:49:26","新北市中和區中山路三段114巷17號","121.475598333333","25.0079716666667","6500300","中和區"
"235003","097-UM","2018/12/22 14:49:17","新北市中和區安樂路139號","121.51451","24.996755","6500300","中和區"
"235004","150-BY","2018/12/22 14:49:24","新北市中和區景安路79巷21號","121.507041666667","24.99673","6500300","中和區"
"235022","151-BY","2018/12/22 14:49:28","新北市中和區員山路225號","121.48123","24.9980783333333","6500300","中和區"
"235013","186-VK","2018/12/22 14:49:27","新北市中和區景平路387號","121.502658333333","24.9943333333333","6500300","中和區"
"235031","255-BX","2018/12/22 14:49:31","新北市中和區民樂路81號","121.484755","25.0014683333333","6500300","中和區"
"235008","293-VK","2018/12/22 14:49:24","新北市中和區南山路231號","121.503468333333","24.9934233333333","6500300","中和區"
"235036","301-VK","2018/12/22 14:49:17","新北市中和區泰和街38巷38號","121.498356666667","25.0014966666667","6500300","中和區"
"235006","KEA-2878","2018/12/22 14:49:31","新北市中和區景平路3號","121.523788333333","24.9903683333333","6500300","中和區"
"247011","KEA-2869","2018/12/22 14:49:20","新北市蘆洲區中山一路236號","121.47271","25.0801933333333","6501400","蘆洲區"
"235014","4979-A6","2018/12/22 14:49:21","新北市中和區和平街164巷4號","121.506053333333","24.9923616666667","6500300","中和區"
"235034","558-UM","2018/12/22 14:49:24","新北市中和區景平路493號","121.500071666667","24.99782","6500300","中和區"
"235018","640-BX","2018/12/22 14:49:24","新北市中和區中山路三段209號","121.471815","25.0062483333333","6500300","中和區"
"235024","647-TV","2018/12/22 14:49:23","新北市中和區連城路316號","121.483528333333","24.996015","6500300","中和區"
"235010","733-UM","2018/12/22 14:49:35","新北市中和區仁愛街62號","121.511253333333","24.98786","6500300","中和區"
"235021","801-TS","2018/12/22 14:49:22","新北市中和區民樂路81號","121.48494","25.0014916666667","6500300","中和區"
"235005","802-TS","2018/12/22 14:49:15","新北市中和區圓通路208號","121.496048333333","24.9939166666667","6500300","中和區"
"235016","805-TS","2018/12/22 14:49:26","新北市中和區華新街30巷13號","121.507223333333","24.984295","6500300","中和區"
"235012","896-TW","2018/12/22 14:49:33","新北市中和區四維街37巷2號","121.512321666667","24.9868933333333","6500300","中和區"
"235017","900-TW","2018/12/22 14:49:35","新北市中和區國光街140號","121.468465","25.0013566666667","6500300","中和區"
"235015","157-BY","2018/12/22 14:49:17","新北市中和區復興路301巷7號","121.50155","24.9899066666667","6500300","中和區"
"235001","AAC-213","2018/12/22 14:49:22","新北市中和區秀朗路三段173-2號","121.52445","24.9913383333333","6500300","中和區"
"235023","AAC-215","2018/12/22 14:49:34","新北市中和區圓通路305巷5弄32號","121.494345","24.9902333333333","6500300","中和區"
"220013","072-UY","2018/12/22 14:49:23","新北市中和區中山路三段229巷51號","121.469213333333","25.0054566666667","6500100","板橋區"
"220034","073-UY","2018/12/22 14:49:28","新北市板橋區南雅西路二段7巷25號","121.451905","25.0094966666667","6500100","板橋區"
"220105","075-UY","2018/12/22 14:49:19","新北市板橋區文聖街11巷24號","121.47615","25.0329816666667","6500100","板橋區"
"220069","AAD-861","2018/12/22 14:49:26","新北市板橋區大明街25巷4弄12號","121.45755","25.0021483333333","6500100","板橋區"
"247001","893-R6","2018/12/22 14:49:20","新北市蘆洲區長榮路269巷32號","121.459311666667","25.0860566666667","6501400","蘆洲區"
"247015","546-UM","2018/12/22 14:49:16","新北市蘆洲區光華路119巷14號","121.467063333333","25.081725","6501400","蘆洲區"
"247013","053-VK","2018/12/22 14:49:21","新北市五股區中興路二段30-2號","121.462266666667","25.0759616666667","6501400","蘆洲區"
"235029","251-BX","2018/12/22 14:49:35","新北市中和區永和路90巷2弄16號","121.497918333333","25.0054883333333","6500300","中和區"
"228005","097-TW","2018/12/22 14:49:21","新北市貢寮區美豐里丹裡街69號","121.906596666667","25.0578533333333","6502600","貢寮區"
"228004","212-TW","2018/12/22 14:49:29","新北市貢寮區福隆里裕隆街3-1號","121.946153333333","25.0159483333333","6502600","貢寮區"
"253003","6232-TK","2018/12/22 14:48:56","新北市石門區尖子鹿51-1號","121.578231666667","25.274165","6502200","石門區"
"253004","6251-TK","2018/12/22 14:48:43","新北市石門區茂林社區86-1號","121.592748333333","25.2693733333333","6502200","石門區"
"253002","637-UY","2018/12/22 14:49:11","新北市石門區楓林46號","121.542976666667","25.278765","6502200","石門區"
"253001","KEC-0718","2018/12/22 14:49:33","新北市石門區崁子腳30-3號","121.537423333333","25.2864883333333","6502200","石門區"
"207002","749-BX","2018/12/22 14:49:31","新北市萬里區崁腳里崁腳路73號","121.647598333333","25.1596166666667","6502800","萬里區"
"252005","073-UM","2018/12/22 14:49:23","新北市三芝區埔坪里埔頭坑94號","121.509958333333","25.2502666666667","6502100","三芝區"
"207001","662-BX","2018/12/22 14:48:45","新北市萬里區雙興里二坪路1號","121.649478333333","25.1779616666667","6502800","萬里區"
"236068","105-UM","2018/12/22 14:49:22","新北市土城區明德路一段371號","121.453001666667","24.9796716666667","6501300","土城區"
"236040","KED-0685","2018/12/22 14:49:23","新北市土城區裕民路136巷4弄1號","121.451103333333","24.985665","6501300","土城區"
"236074","166-UM","2018/12/22 14:49:35","新北市土城區中央路四段165巷55號","121.416576666667","24.9559016666667","6501300","土城區"
"236029","253-BX","2018/12/22 14:49:33","新北市土城區忠義路26巷10號","121.439798333333","24.9699083333333","6501300","土城區"
"236024","269-VK","2018/12/22 14:49:31","新北市土城區慶安街19號","121.441786666667","24.9734166666667","6501300","土城區"
"236013","270-VK","2018/12/22 14:49:23","新北市土城區清水路261巷11弄2號","121.462641666667","24.9851233333333","6501300","土城區"
"236032","271-VK","2018/12/22 14:49:20","新北市土城區仁愛路54巷22弄2號","121.46158","24.97836","6501300","土城區"
"236017","401-BY","2018/12/22 14:49:26","新北市土城區延安街42-5號","121.467526666667","24.98521","6501300","土城區"
"236057","912-UM","2018/12/22 14:49:32","新北市土城區和平路51-1號","121.443488333333","24.9719533333333","6501300","土城區"
"236045","913-UM","2018/12/22 14:49:34","新北市土城區青雲路35號","121.460036666667","24.988595","6501300","土城區"
"236060","915-UM","2018/12/22 14:49:24","新北市土城區延和路201號","121.469456666667","24.9902133333333","6501300","土城區"
"236054","AAC-216","2018/12/22 14:49:31","新北市土城區裕民路137-1號","121.45153","24.98636","6501300","土城區"
"221033","647-BX","2018/12/22 14:49:18","新北市汐止區康寧街901號","121.651636666667","25.0749816666667","6501100","汐止區"
"220027","145-BY","2018/12/22 14:49:33","新北市板橋區復興街124號","121.460746666667","25.0179183333333","6500100","板橋區"
"220028","200-UY","2018/12/22 14:49:14","新北市板橋區大觀路二段79巷2弄16號","121.447368333333","25.0016383333333","6500100","板橋區"
"220030","610-BX","2018/12/22 14:49:15","新北市板橋區溪崑一街33號","121.430336666667","24.9913233333333","6500100","板橋區"
"220040","267-BY","2018/12/22 14:49:22","新北市板橋區懷德街127巷26-3號","121.479641666667","25.0312466666667","6500100","板橋區"
"220004","276-BY","2018/12/22 14:49:27","新北市板橋區四川路二段47巷2弄1號","121.454083333333","24.9949283333333","6500100","板橋區"
"220020","277-BY","2018/12/22 14:49:28","新北市板橋區金門街109巷35號","121.434156666667","24.9913","6500100","板橋區"
"220050","280-UM","2018/12/22 14:49:35","新北市板橋區莒光路178號","121.473965","25.0228733333333","6500100","板橋區"
"220019","283-VK","2018/12/22 14:49:27","新北市板橋區和平路174巷47號","121.46557","24.9937416666667","6500100","板橋區"
"220043","285-UM","2018/12/22 14:49:16","新北市板橋區漢生西路197-1號","121.463228333333","25.0244416666667","6500100","板橋區"
"220031","286-VK","2018/12/22 14:49:18","新北市板橋區僑中二街10巷30號","121.445801666667","25.0111066666667","6500100","板橋區"
"220029","287-VK","2018/12/22 14:49:28","新北市板橋區大觀路一段28巷91-1號","121.450116666667","25.0113616666667","6500100","板橋區"
"220039","288-VK","2018/12/22 14:49:33","新北市板橋區新海路72巷58號","121.462073333333","25.0233766666667","6500100","板橋區"
"220009","295-UM","2018/12/22 14:49:26","新北市板橋區縣民大道二段200巷27號","121.470478333333","25.0176733333333","6500100","板橋區"
"220032","296-UM","2018/12/22 14:49:27","新北市板橋區滿平街25號","121.426843333333","24.9897833333333","6500100","板橋區"
"220001","299-UM","2018/12/22 14:49:26","新北市板橋區中山路二段90巷35號","121.475921666667","25.0153983333333","6500100","板橋區"
"220023","303-R5","2018/12/22 14:49:31","新北市板橋區金華街10巷48弄20號","121.457628333333","25.0199233333333","6500100","板橋區"
"220010","305-R5","2018/12/22 14:49:16","新北市板橋區光復街33巷38號","121.482643333333","25.0188816666667","6500100","板橋區"
"220041","307-R5","2018/12/22 14:49:27","新北市板橋區裕民街151號","121.45853","25.026955","6500100","板橋區"
"220047","317-R6","2018/12/22 14:49:19","新北市板橋區裕民街95號","121.460281666667","25.0279916666667","6500100","板橋區"
"220038","487-VK","2018/12/22 14:49:23","新北市板橋區新海路385巷22弄12號","121.45774","25.02634","6500100","板橋區"
"220037","491-VK","2018/12/22 14:49:30","新北市板橋區文聖街107號","121.477793333333","25.0294166666667","6500100","板橋區"
"220104","560-BX","2018/12/22 14:49:26","新北市板橋區新生街53巷1弄10號","121.456951666667","25.0215183333333","6500100","板橋區"
"220052","561-BX","2018/12/22 14:49:13","新北市板橋區陽明街279巷1弄1號","121.461841666667","25.0260733333333","6500100","板橋區"
"220011","609-BX","2018/12/22 14:49:21","新北市板橋區三民路一段98號","121.479358333333","25.02146","6500100","板橋區"
"220003","630-UY","2018/12/22 14:49:23","新北市板橋區國慶路149巷29弄1號","121.460845","24.9977033333333","6500100","板橋區"
"220005","686-BX","2018/12/22 14:49:15","新北市板橋區信義路243號","121.460355","24.9910133333333","6500100","板橋區"
"220025","687-BX","2018/12/22 14:49:19","新北市板橋區僑中三街4號","121.446761666667","25.0045983333333","6500100","板橋區"
"220042","689-BX","2018/12/22 14:49:24","新北市板橋區長江路三段143號","121.475915","25.0347716666667","6500100","板橋區"
"220002","741-BX","2018/12/22 14:49:29","新北市板橋區忠孝路201巷40號","121.464926666667","25.0036616666667","6500100","板橋區"
"220051","KEA-2699","2018/12/22 14:49:29","新北市板橋區雙十路二段142號","121.473586666667","25.029065","6500100","板橋區"
"220014","829-TW","2018/12/22 14:49:31","新北市板橋區漢生東路193巷66號","121.47316","25.01204","6500100","板橋區"
"220016","830-TW","2018/12/22 14:49:15","新北市板橋區光復街140號","121.484438333333","25.0192666666667","6500100","板橋區"
"220022","895-R6","2018/12/22 14:49:20","新北市板橋區民權路87號","121.46098","25.0119233333333","6500100","板橋區"
"220021","985-R7","2018/12/22 14:49:30","新北市板橋區南雅西路二段188號","121.45159","25.0143116666667","6500100","板橋區"
"220046","AAC-210","2018/12/22 14:49:26","新北市板橋區光正街18巷7號","121.462553333333","25.0175483333333","6500100","板橋區"
"220012","AAC-253","2018/12/22 14:49:25","新北市板橋區實踐路39號","121.463733333333","25.00699","6500100","板橋區"
"235032","KEA-2873","2018/12/22 14:49:17","新北市中和區福祥路85巷2弄10號","121.49864","25.0060816666667","6500300","中和區"
"235025","KEA-2875","2018/12/22 14:49:08","新北市中和區員山路263號","121.481218333333","24.9993083333333","6500300","中和區"
"235011","KEA-2876","2018/12/22 14:49:13","新北市中和區和平街164-4號","121.50559","24.9921166666667","6500300","中和區"
