"lineid","car","time","location","longitude","latitude","cityid","cityname"
"231005","106-UY","2018/12/22 15:49:27","新北市新店區安康路一段355-3號","121.519545","24.9629433333333","6500600","新店區"
"231020","108-UY","2018/12/22 15:49:22","新北市新店區永興路41號","121.543545","24.93796","6500600","新店區"
"231033","110-UY","2018/12/22 15:49:31","新北市新店區雙城路129號","121.492665","24.9469183333333","6500600","新店區"
"231012","187-VK","2018/12/22 15:49:25","新北市新店區中興路三段160號","121.5445","24.9806766666667","6500600","新店區"
"231023","KEA-2219","2018/12/22 15:49:33","新北市新店區北新路一段189號","121.540205","24.964625","6500600","新店區"
"231026","256-BX","2018/12/22 15:49:29","新北市新店區民生路13號","121.53325","24.986655","6500600","新店區"
"231003","268-BY","2018/12/22 15:49:20","新北市新店區寶興路60巷4號","121.54987","24.97188","6500600","新店區"
"231018","278-BY","2018/12/22 15:49:15","新北市新店區中正路663巷7弄15號","121.532903333333","24.9900616666667","6500600","新店區"
"231017","AAD-862","2018/12/22 15:49:22","新北市新店區中華路65號","121.539841666667","24.9681833333333","6500600","新店區"
"231038","3712-VJ","2018/12/22 15:49:33","新北市新店區安康路二段228巷10號","121.509555","24.9598633333333","6500600","新店區"
"231037","4716-K9","2018/12/22 15:49:25","新北市新店區安興路105號","121.514718333333","24.9777316666667","6500600","新店區"
"231030","619-UM","2018/12/22 15:49:25","新北市新店區永安街72號","121.519853333333","24.986595","6500600","新店區"
"231034","641-BX","2018/12/22 15:49:26","新北市新店區玫瑰路57巷43號","121.497338333333","24.9464533333333","6500600","新店區"
"231039","718-UY","2018/12/22 15:49:17","新北市新店區寶中路45-3號","121.545103333333","24.9790716666667","6500600","新店區"
"231013","719-UM","2018/12/22 15:49:23","新北市新店區華潭街31號","121.529851666667","24.9544916666667","6500600","新店區"
"231035","719-UY","2018/12/22 15:49:14","新北市新店區安興路81號","121.515438333333","24.9751966666667","6500600","新店區"
"241011","013-R5","2018/12/22 15:49:33","新北市三重區文化北路129號","121.4978","25.0689366666667","6500200","三重區"
"241028","022-UY","2018/12/22 15:49:26","新北市三重區中正南路113號","121.494093333333","25.0576016666667","6500200","三重區"
"241008","059-VK","2018/12/22 15:49:27","新北市三重區重新路四段121號","121.484975","25.0519566666667","6500200","三重區"
"241022","060-VK","2018/12/22 15:49:34","新北市三重區重新路四段121號","121.483825","25.053165","6500200","三重區"
"241023","061-VK","2018/12/22 15:49:27","新北市三重區忠孝路三段84巷18號","121.480776666667","25.0646716666667","6500200","三重區"
"241015","062-VK","2018/12/22 15:49:35","新北市三重區重新路四段121號","121.485108333333","25.052035","6500200","三重區"
"241017","063-VK","2018/12/22 15:49:35","新北市三重區大仁街5號","121.491718333333","25.0637916666667","6500200","三重區"
"241024","065-VK","2018/12/22 15:49:25","新北市三重區重新路四段121號","121.484618333333","25.0525383333333","6500200","三重區"
"241002","090-VK","2018/12/22 15:49:31","新北市三重區重新路四段121號","121.48508","25.051795","6500200","三重區"
"241003","091-VK","2018/12/22 15:49:23","新北市三重區長元街105號","121.504616666667","25.066875","6500200","三重區"
"241005","262-UM","2018/12/22 15:49:17","新北市三重區福德南路108-14號","121.501578333333","25.0585416666667","6500200","三重區"
"241016","266-UM","2018/12/22 15:49:26","新北市三重區重新路四段121號","121.485203333333","25.0520216666667","6500200","三重區"
"241018","268-UM","2018/12/22 15:49:28","新北市三重區重新路四段121號","121.484816666667","25.0520266666667","6500200","三重區"
"241013","270-UM","2018/12/22 15:49:24","新北市三重區三和路三段28號","121.496383333333","25.0703583333333","6500200","三重區"
"241007","398-BY","2018/12/22 15:49:20","新北市三重區忠孝路三段99巷4號","121.480161666667","25.0643033333333","6500200","三重區"
"241004","475-VK","2018/12/22 15:49:32","新北市三重區重新路四段121號","121.484898333333","25.0518716666667","6500200","三重區"
"241020","478-VK","2018/12/22 15:49:18","新北市三重區忠孝路二段48號","121.48514","25.0703716666667","6500200","三重區"
"241014","543-UM","2018/12/22 15:49:20","新北市三重區重新路四段121號","121.485125","25.05207","6500200","三重區"
"241033","557-UM","2018/12/22 15:31:25","新北市三重區重新路五段283號","121.480983333333","25.0497833333333","6500200","三重區"
"241019","KEA-2593","2018/12/22 15:49:16","新北市三重區頂崁街193號","121.477496666667","25.0665683333333","6500200","三重區"
"241006","AAD-863","2018/12/22 15:49:22","新北市三重區重新路四段121號","121.484661666667","25.0520633333333","6500200","三重區"
"241026","743-BX","2018/12/22 15:49:31","新北市三重區福德南路150號","121.500613333333","25.0581916666667","6500200","三重區"
"241012","941-UM","2018/12/22 15:49:31","新北市三重區文化北路69號","121.498573333333","25.0665466666667","6500200","三重區"
"241029","942-UM","2018/12/22 15:49:23","新北市三重區正義南路181巷1號","121.499033333333","25.0571183333333","6500200","三重區"
"247011","KEA-2869","2018/12/22 15:49:20","新北市五股區中興路三段2巷10號","121.4488","25.0818283333333","6501400","蘆洲區"
"235033","4980-A6","2018/12/22 15:49:21","新北市中和區中正路637巷32號","121.484928333333","24.99453","6500300","中和區"
"235026","800-TS","2018/12/22 15:49:18","新北市中和區立業路51號","121.492755","25.007355","6500300","中和區"
"235023","AAC-215","2018/12/22 15:49:34","新北市中和區員山路59號","121.480888333333","24.9931666666667","6500300","中和區"
"227002","642-TC","2018/12/22 15:49:31","新北市雙溪區平林里外平林44號","121.852925","25.03631","6502500","雙溪區"
"227010","400-TW","2018/12/22 15:49:14","新北市雙溪區牡丹里自強路16號","121.865368333333","25.0392816666667","6502500","雙溪區"
"253003","6232-TK","2018/12/22 15:49:16","新北市石門區小坑9號","121.59436","25.2884016666667","6502200","石門區"
"236068","105-UM","2018/12/22 15:49:22","新北市土城區福安街70巷26號","121.418151666667","24.9652866666667","6501300","土城區"
"236074","166-UM","2018/12/22 15:49:34","新北市土城區中州路9號","121.414295","24.9576433333333","6501300","土城區"
"236024","269-VK","2018/12/22 15:49:31","新北市土城區中華路一段219號","121.442193333333","24.9841","6501300","土城區"
"236017","401-BY","2018/12/22 15:49:23","新北市土城區延吉街25號","121.472413333333","24.9883383333333","6501300","土城區"
"236057","912-UM","2018/12/22 15:49:32","新北市土城區中央路二段195號","121.442186666667","24.9751483333333","6501300","土城區"
"236054","AAC-216","2018/12/22 15:49:31","新北市土城區中華路二段62號","121.438868333333","24.976585","6501300","土城區"
"220029","287-VK","2018/12/22 15:49:28","新北市樹林區育德街121巷7號","121.389315","24.9681833333333","6500100","板橋區"
