"lineid","car","time","location","longitude","latitude","cityid","cityname"
"249005","172-UM","2018/12/22 17:19:33","新北市八里區荖阡坑路50-1號","121.410708333333","25.1210583333333","6502300","八里區"
"249001","173-UM","2018/12/22 17:19:27","新北市八里區中華路二段165巷3號","121.40766","25.1508516666667","6502300","八里區"
"249004","303-UY","2018/12/22 17:19:23","新北市八里區賢三街18號","121.418688333333","25.1589016666667","6502300","八里區"
"249002","305-UY","2018/12/22 17:19:35","新北市八里區龍米路二段117巷37號","121.44341","25.14194","6502300","八里區"
"249003","593-UM","2018/12/22 17:19:28","新北市八里區中山路二段459號","121.396353333333","25.1454766666667","6502300","八里區"
"244007","080-UY","2018/12/22 17:19:28","新北市林口區湖子17-5號","121.385735","25.0908483333333","6501700","林口區"
"244019","402-UM","2018/12/22 17:19:31","新北市林口區文化二路一段380號","121.374146666667","25.0764383333333","6501700","林口區"
"244023","483-VK","2018/12/22 17:19:10","新北市林口區隆林街32號","121.388238333333","25.0754033333333","6501700","林口區"
"244009","656-BX","2018/12/22 17:19:36","新北市林口區松柏路22號","121.379468333333","25.0923733333333","6501700","林口區"
"244025","837-TS","2018/12/22 17:19:16","新北市林口區文化三路一段466號","121.369223333333","25.075235","6501700","林口區"
"244021","838-TS","2018/12/22 17:19:22","新北市林口區粉寮路二段272-2號","121.404985","25.09499","6501700","林口區"
"231046","107-UY","2018/12/22 17:19:27","新北市新店區直潭路92號","121.530913333333","24.937565","6500600","新店區"
"241011","013-R5","2018/12/22 17:19:30","新北市三重區龍濱路191號","121.501903333333","25.0713183333333","6500200","三重區"
"241028","022-UY","2018/12/22 17:19:26","新北市三重區中正南路98號","121.494385","25.0585583333333","6500200","三重區"
"241008","059-VK","2018/12/22 17:19:27","新北市三重區下竹圍街8號","121.480925","25.07586","6500200","三重區"
"241022","060-VK","2018/12/22 17:19:34","新北市三重區中正北路64巷24號","121.486023333333","25.0637133333333","6500200","三重區"
"241023","061-VK","2018/12/22 17:19:27","新北市三重區三民街166號","121.482248333333","25.0655083333333","6500200","三重區"
"241015","062-VK","2018/12/22 17:19:15","新北市三重區長元街82-1號","121.501888333333","25.066295","6500200","三重區"
"241017","063-VK","2018/12/22 17:19:15","新北市三重區大同北路52號","121.495038333333","25.0630283333333","6500200","三重區"
"241024","065-VK","2018/12/22 17:19:25","新北市三重區中正北路203號","121.476878333333","25.0700066666667","6500200","三重區"
"241002","090-VK","2018/12/22 17:19:31","新北市三重區仁義街228巷1號","121.494866666667","25.0849216666667","6500200","三重區"
"241003","091-VK","2018/12/22 17:19:23","新北市三重區五華街146號","121.491191666667","25.0839616666667","6500200","三重區"
"241005","262-UM","2018/12/22 17:19:37","新北市三重區仁華街26號","121.483316666667","25.0820233333333","6500200","三重區"
"241016","266-UM","2018/12/22 17:17:25","新北市三重區大同北路54巷3號","121.494031666667","25.0635083333333","6500200","三重區"
"241009","267-UM","2018/12/22 17:19:17","新北市三重區仁愛街598號","121.484086666667","25.0809383333333","6500200","三重區"
"241018","268-UM","2018/12/22 17:19:28","新北市三重區安慶街177號","121.49359","25.0685333333333","6500200","三重區"
"241032","269-UM","2018/12/22 17:19:23","新北市三重區中華路18號","121.483213333333","25.0607216666667","6500200","三重區"
"241013","270-UM","2018/12/22 17:19:24","新北市三重區仁愛街82巷6號","121.49509","25.0734716666667","6500200","三重區"
"241007","398-BY","2018/12/22 17:19:28","新北市三重區慈愛街28號","121.484895","25.0788716666667","6500200","三重區"
"241031","462-BY","2018/12/22 17:19:20","新北市三重區新北大道一段7號","121.489563333333","25.0615166666667","6500200","三重區"
"241004","475-VK","2018/12/22 17:19:32","新北市三重區集賢路87-1號","121.493633333333","25.08682","6500200","三重區"
"241020","478-VK","2018/12/22 17:19:18","新北市三重區永德街17號","121.48915","25.0725716666667","6500200","三重區"
"241030","480-VK","2018/12/22 17:19:33","新北市三重區成功路73巷12號","121.48939","25.05185","6500200","三重區"
"241014","543-UM","2018/12/22 17:19:20","新北市三重區三和路二段83號","121.500143333333","25.0684183333333","6500200","三重區"
"241001","547-UM","2018/12/22 17:19:30","新北市三重區仁愛街269巷17號","121.493593333333","25.0790066666667","6500200","三重區"
"241019","KEA-2593","2018/12/22 17:19:27","新北市三重區自強路二段72號","121.488436666667","25.0698416666667","6500200","三重區"
"241026","743-BX","2018/12/22 17:19:31","新北市三重區正義南路20號","121.498191666667","25.061455","6500200","三重區"
"241012","941-UM","2018/12/22 17:19:31","新北市三重區仁福街64巷1號","121.49788","25.0747366666667","6500200","三重區"
"247012","KEA-2869","2018/12/22 17:19:32","新北市蘆洲區信義路319巷8號","121.477853333333","25.0861816666667","6501400","蘆洲區"
"247006","KED-0682","2018/12/22 17:19:17","新北市蘆洲區長安街73巷15號","121.462163333333","25.0795033333333","6501400","蘆洲區"
"247002","893-R6","2018/12/22 17:19:38","新北市蘆洲區永樂街38巷43號","121.458265","25.0897316666667","6501400","蘆洲區"
"247024","500-BY","2018/12/22 17:19:28","新北市蘆洲區長榮路166號","121.461086666667","25.0848866666667","6501400","蘆洲區"
"247020","057-VK","2018/12/22 17:19:22","新北市蘆洲區民族路335號","121.473116666667","25.09189","6501400","蘆洲區"
"247010","056-VK","2018/12/22 17:19:29","新北市蘆洲區中山一路120巷7弄34號","121.477221666667","25.0823783333333","6501400","蘆洲區"
"247014","053-VK","2018/12/22 17:19:16","新北市蘆洲區中正路54-1號","121.470585","25.082945","6501400","蘆洲區"
"247018","007-UY","2018/12/22 17:19:22","新北市蘆洲區民權路74號","121.474853333333","25.0873716666667","6501400","蘆洲區"
"247004","002-UY","2018/12/22 17:19:22","新北市蘆洲區永安南路二段276號","121.458088333333","25.08096","6501400","蘆洲區"
"247022","001-UY","2018/12/22 17:19:28","新北市蘆洲區三民路128巷88號","121.469785","25.0900283333333","6501400","蘆洲區"
"235065","251-BX","2018/12/22 17:00:54","新北市中和區員山路36巷16-2號","121.4852","24.9917366666667","6500300","中和區"
"228003","097-TW","2018/12/22 17:19:21","新北市貢寮區福隆里興隆街24-1號","121.94414","25.0166316666667","6502600","貢寮區"
"228001","212-TW","2018/12/22 17:19:18","新北市貢寮區仁理村尖山腳街18-3號","121.925516666667","25.04828","6502600","貢寮區"
"228002","585-TW","2018/12/22 17:19:26","新北市貢寮區雙玉里下雙溪街24號","121.922601666667","25.0099033333333","6502600","貢寮區"
"224006","676-BX","2018/12/22 17:19:34","新北市瑞芳區傑魚坑路245巷2號","121.788423333333","25.1063266666667","6501200","瑞芳區"
"224008","285-BY","2018/12/22 17:19:22","新北市瑞芳區侯硐路154號","121.826778333333","25.0843333333333","6501200","瑞芳區"
"224009","273-VK","2018/12/22 17:19:20","新北市瑞芳區汽車路21-4號","121.845233333333","25.110615","6501200","瑞芳區"
"224005","271-BY","2018/12/22 17:19:24","新北市瑞芳區鼻頭路115號","121.916316666667","25.1225366666667","6501200","瑞芳區"
"227002","642-TC","2018/12/22 17:19:31","新北市雙溪區上林里內平林90號","121.827578333333","25.0274766666667","6502500","雙溪區"
"227010","400-TW","2018/12/22 17:19:34","新北市雙溪區三貂里十三層14號","121.85362","25.078895","6502500","雙溪區"
"251004","009-UM","2018/12/22 17:19:21","新北市淡水區中正東路二段48巷20號","121.457585","25.1582283333333","6501000","淡水區"
"251013","KEA-2871","2018/12/22 17:19:19","新北市淡水區演戲埔腳9-1號","121.472853333333","25.1962866666667","6501000","淡水區"
"251016","179-VK","2018/12/22 17:19:32","新北市淡水區大竹圍63號","121.463058333333","25.1909166666667","6501000","淡水區"
"251014","180-VK","2018/12/22 17:19:25","新北市淡水區番子田132號","121.464635","25.2274416666667","6501000","淡水區"
"251008","181-VK","2018/12/22 17:19:17","新北市淡水區大同路263號","121.46671","25.1421533333333","6501000","淡水區"
"251015","182-VK","2018/12/22 17:19:27","新北市淡水區樹林口20-6號","121.478723333333","25.16943","6501000","淡水區"
"251010","413-VK","2018/12/22 17:19:32","新北市淡水區新民街一段123號","121.428126666667","25.18819","6501000","淡水區"
"251012","441-VK","2018/12/22 17:19:20","新北市淡水區北新路16號","121.444761666667","25.177625","6501000","淡水區"
"251007","442-VK","2018/12/22 17:19:22","新北市淡水區民生路60號","121.462126666667","25.137955","6501000","淡水區"
"251005","443-VK","2018/12/22 17:19:20","新北市淡水區鄧公路19-1號","121.450361666667","25.1700516666667","6501000","淡水區"
"251006","561-UM","2018/12/22 17:19:37","新北市淡水區中山路189號","121.4412","25.1744766666667","6501000","淡水區"
"251009","575-R6","2018/12/22 17:19:28","新北市淡水區三民街17號","121.438941666667","25.171835","6501000","淡水區"
"251011","650-BX","2018/12/22 17:19:28","新北市淡水區坪頂路128號","121.465288333333","25.161295","6501000","淡水區"
"251002","672-BX","2018/12/22 17:19:27","新北市淡水區中正路二段31號","121.419468333333","25.1816833333333","6501000","淡水區"
"251003","673-BX","2018/12/22 17:19:29","新北市淡水區中正路一段49號","121.424396666667","25.1775066666667","6501000","淡水區"
"207003","550-UM","2018/12/22 17:19:37","新北市萬里區萬里里獅頭路23號","121.693236666667","25.1782533333333","6502800","萬里區"
"252002","178-VK","2018/12/22 17:19:32","新北市三芝區忠孝街1-14號","121.505513333333","25.2539316666667","6502100","三芝區"
"252001","292-VK","2018/12/22 17:19:25","新北市三芝區長安街119號","121.498043333333","25.2596266666667","6502100","三芝區"
"237012","275-BY","2018/12/22 17:19:26","新北市三峽區中山路459巷137號","121.349986666667","24.9339166666667","6500900","三峽區"
"237010","706-TV","2018/12/22 17:19:24","新北市三峽區中山路459巷163-3號","121.348783333333","24.9331333333333","6500900","三峽區"
"247008","KED-0683","2018/12/22 17:19:28","新北市蘆洲區信義路30巷139號","121.475396666667","25.0765266666667","6501400","蘆洲區"
"242058","986-R7","2018/12/22 17:19:25","新北市新莊區新泰路357巷2號","121.442398333333","25.041375","6500500","新莊區"
"242027","615-BX","2018/12/22 17:19:32","新北市新莊區中港路303號","121.452863333333","25.044555","6500500","新莊區"
"242029","612-BX","2018/12/22 17:19:33","新北市新莊區幸福路772號","121.446958333333","25.0491433333333","6500500","新莊區"
"242044","566-BX","2018/12/22 17:19:25","新北市新莊區中正路661號","121.427576666667","25.0304583333333","6500500","新莊區"
"242048","497-BY","2018/12/22 17:19:24","新北市新莊區龍安路249巷1號","121.419118333333","25.02114","6500500","新莊區"
"242021","442-UM","2018/12/22 17:19:22","新北市新莊區中港路296號","121.452815","25.0447033333333","6500500","新莊區"
"242053","441-UM","2018/12/22 17:19:26","新北市新莊區環河路636-7號","121.436655","25.0108166666667","6500500","新莊區"
"242002","440-UM","2018/12/22 17:19:37","新北市新莊區瓊林路21-1號","121.445885","25.0287033333333","6500500","新莊區"
"242039","415-TV","2018/12/22 17:19:32","新北市新莊區新樹路215號","121.435521666667","25.02335","6500500","新莊區"
"242046","400-BY","2018/12/22 17:19:29","新北市新莊區新樹路65-7號","121.439326666667","25.0307816666667","6500500","新莊區"
"242023","362-BY","2018/12/22 17:19:28","新北市新莊區中港一街142號","121.446813333333","25.0449766666667","6500500","新莊區"
"242061","353-BY","2018/12/22 17:19:17","新北市泰山區磚雅厝3號","121.441926666667","25.0418633333333","6500500","新莊區"
"242011","132-UY","2018/12/22 17:19:19","新北市新莊區新泰路488號","121.442511666667","25.045775","6500500","新莊區"
"242034","135-UY","2018/12/22 17:19:22","新北市新莊區中環路一段287號","121.441908333333","25.0320566666667","6500500","新莊區"
"242013","173-VK","2018/12/22 17:19:18","新北市新莊區三和路12-21號","121.441943333333","25.0386683333333","6500500","新莊區"
"242019","175-VK","2018/12/22 17:19:21","新北市新莊區中平路82巷36-2號","121.446476666667","25.044895","6500500","新莊區"
"242007","176-VK","2018/12/22 17:19:23","新北市新莊區中港路303號","121.452851666667","25.0445766666667","6500500","新莊區"
"242017","346-TH","2018/12/22 17:19:22","新北市新莊區新泰路488號","121.442368333333","25.0458316666667","6500500","新莊區"
"242009","347-TH","2018/12/22 17:19:18","新北市新莊區中環路二段392-1號","121.442286666667","25.0456116666667","6500500","新莊區"
"242031","348-TH","2018/12/22 17:19:18","新北市新莊區新泰路413巷25號","121.442416666667","25.044355","6500500","新莊區"
"242004","349-TH","2018/12/22 17:19:36","新北市新莊區新泰路318號","121.445166666667","25.0415583333333","6500500","新莊區"
"242015","351-TH","2018/12/22 17:19:32","新北市新莊區新泰路326號","121.445076666667","25.041805","6500500","新莊區"
"238015","755-BX","2018/12/22 17:19:34","新北市樹林區大安路269號","121.419015","24.993665","6500700","樹林區"
"238023","601-UM","2018/12/22 17:19:30","新北市樹林區中正路433-2號","121.41498","25.0082333333333","6500700","樹林區"
"238019","599-UM","2018/12/22 17:19:16","新北市樹林區國凱街82-2號","121.42138","24.9792033333333","6500700","樹林區"
"238018","571-TV","2018/12/22 17:19:15","新北市樹林區鎮前街281-4號","121.41832","24.9850266666667","6500700","樹林區"
"238011","5061-A6","2018/12/22 17:19:22","新北市樹林區保安街一段48巷19號","121.42632","24.9948816666667","6500700","樹林區"
"238022","KEA-2213","2018/12/22 17:19:15","新北市樹林區忠孝街21號","121.42346","24.9825066666667","6500700","樹林區"
"238021","KEA-2539","2018/12/22 17:19:34","新北市樹林區西圳街一段98-2號","121.400001666667","24.9636066666667","6500700","樹林區"
"238025","303-VK","2018/12/22 17:19:34","新北市樹林區保安二街29號","121.424756666667","24.9937016666667","6500700","樹林區"
"238017","283-BY","2018/12/22 17:19:27","新北市樹林區光武街7-3號","121.41572","25.005335","6500700","樹林區"
"238014","282-BY","2018/12/22 17:19:18","新北市樹林區長壽街70巷26號","121.42187","24.994955","6500700","樹林區"
"238020","268-VK","2018/12/22 17:19:11","新北市樹林區千歲街101號","121.428518333333","25.000865","6500700","樹林區"
"238026","172-UY","2018/12/22 17:19:18","新北市樹林區東順街86-1號","121.408601666667","24.9757866666667","6500700","樹林區"
"238016","169-UY","2018/12/22 17:19:27","新北市樹林區中山路二段34號","121.41738","24.98491","6500700","樹林區"
"239007","AAC-297","2018/12/22 17:19:27","新北市鶯歌區仁愛路64號","121.35406","24.9549616666667","6500800","鶯歌區"
"239006","891-R6","2018/12/22 17:19:31","新北市鶯歌區德昌二街21號","121.333243333333","24.95907","6500800","鶯歌區"
"239008","527-UM","2018/12/22 17:19:33","新北市鶯歌區鶯桃路182巷96弄13號","121.340553333333","24.958055","6500800","鶯歌區"
"239005","526-UM","2018/12/22 17:19:22","新北市鶯歌區福德二街24號","121.329518333333","24.9671816666667","6500800","鶯歌區"
"239001","417-VK","2018/12/22 17:19:18","新北市鶯歌區尖山路218號","121.343371666667","24.9469","6500800","鶯歌區"
"239003","360-BY","2018/12/22 17:19:31","新北市鶯歌區德昌二街3巷1-1號","121.333226666667","24.9593166666667","6500800","鶯歌區"
"239002","359-BY","2018/12/22 17:19:30","新北市鶯歌區國慶街110號","121.35037","24.9543266666667","6500800","鶯歌區"
"239004","193-VK","2018/12/22 17:19:24","新北市鶯歌區文化路559號","121.352886666667","24.9471683333333","6500800","鶯歌區"
"242041","281-VK","2018/12/22 17:19:34","新北市新莊區中正路481號","121.441296666667","25.0337616666667","6500500","新莊區"
"242056","280-VK","2018/12/22 17:19:22","新北市新莊區中正路386號","121.441941666667","25.0349233333333","6500500","新莊區"
