"lineid","car","time","location","longitude","latitude","cityid","cityname"
"249005","172-UM","2018/12/22 17:29:33","新北市八里區荖阡坑路30號","121.405581666667","25.129195","6502300","八里區"
"249001","173-UM","2018/12/22 17:29:27","新北市八里區中華路一段1-5號","121.423271666667","25.1585883333333","6502300","八里區"
"249004","303-UY","2018/12/22 17:29:23","新北市八里區民治街173號","121.41338","25.1567933333333","6502300","八里區"
"249002","305-UY","2018/12/22 17:29:35","新北市八里區龍米路二段11號","121.448666666667","25.13933","6502300","八里區"
"249003","593-UM","2018/12/22 17:29:28","新北市八里區中山路二段315號","121.40061","25.14778","6502300","八里區"
"232011","375-UM","2018/12/22 17:29:21","新北市坪林區鶯子瀨12-1號","121.713553333333","24.9140066666667","6502000","坪林區"
"244007","080-UY","2018/12/22 17:29:28","新北市林口區湖北里5鄰24號","121.386136666667","25.0933","6501700","林口區"
"244019","402-UM","2018/12/22 17:29:31","新北市林口區公園路195號","121.372203333333","25.0723966666667","6501700","林口區"
"244013","KEA-2802","2018/12/22 17:29:33","新北市林口區粉寮69號","121.404811666667","25.0907816666667","6501700","林口區"
"244023","483-VK","2018/12/22 17:29:30","新北市林口區東明一街55巷1號","121.391925","25.071765","6501700","林口區"
"244009","656-BX","2018/12/22 17:29:36","新北市林口區文化一路二段329號","121.386058333333","25.0864033333333","6501700","林口區"
"244011","701-TV","2018/12/22 17:29:18","新北市林口區仁愛路一段645號","121.388643333333","25.07667","6501700","林口區"
"244025","837-TS","2018/12/22 17:29:36","新北市林口區文化三路一段368號","121.364905","25.0725416666667","6501700","林口區"
"244021","838-TS","2018/12/22 17:29:23","新北市林口區粉寮路37-1號","121.401193333333","25.0849933333333","6501700","林口區"
"231046","107-UY","2018/12/22 17:29:27","新北市新店區直潭路92號","121.530896666667","24.93758","6500600","新店區"
"241011","013-R5","2018/12/22 17:29:29","新北市三重區河邊北街124巷51號","121.502608333333","25.0712183333333","6500200","三重區"
"241028","022-UY","2018/12/22 17:29:26","新北市三重區新北大道一段252號","121.480301666667","25.061615","6500200","三重區"
"241023","061-VK","2018/12/22 17:29:27","新北市三重區忠孝路三段84巷30號","121.481526666667","25.064205","6500200","三重區"
"241015","062-VK","2018/12/22 17:29:35","新北市三重區開元街30號","121.503653333333","25.0658383333333","6500200","三重區"
"241017","063-VK","2018/12/22 17:29:35","新北市三重區大同北路34巷52號","121.493541666667","25.0619683333333","6500200","三重區"
"241024","065-VK","2018/12/22 17:29:25","新北市三重區大勇街82巷15弄30號","121.481246666667","25.0719933333333","6500200","三重區"
"241003","091-VK","2018/12/22 17:29:23","新北市三重區五華街141巷58號","121.493516666667","25.0866616666667","6500200","三重區"
"241005","262-UM","2018/12/22 17:29:37","新北市三重區永安北路二段5巷9號","121.481835","25.0809933333333","6500200","三重區"
"241016","266-UM","2018/12/22 17:29:32","新北市三重區信義西街41號","121.495306666667","25.064105","6500200","三重區"
"241018","268-UM","2018/12/22 17:29:27","新北市三重區新北大道一段7號","121.489568333333","25.0613116666667","6500200","三重區"
"241032","269-UM","2018/12/22 17:29:23","新北市三重區名源街61巷1號","121.481975","25.059285","6500200","三重區"
"241013","270-UM","2018/12/22 17:29:23","新北市三重區仁愛街125巷30號","121.497653333333","25.0761466666667","6500200","三重區"
"241025","271-UM","2018/12/22 17:29:32","新北市三重區中正北路311號","121.474011666667","25.07141","6500200","三重區"
"241007","398-BY","2018/12/22 17:29:20","新北市三重區三和路四段145巷126號","121.487503333333","25.079205","6500200","三重區"
"241020","478-VK","2018/12/22 17:29:18","新北市三重區後竹圍街236號","121.484948333333","25.071435","6500200","三重區"
"241030","480-VK","2018/12/22 17:29:33","新北市三重區新興路46號","121.491391666667","25.05368","6500200","三重區"
"241014","543-UM","2018/12/22 17:29:20","新北市三重區安和路17號","121.501366666667","25.0684566666667","6500200","三重區"
"241001","547-UM","2018/12/22 17:29:30","新北市三重區集賢路87-1號","121.493668333333","25.0868316666667","6500200","三重區"
"241019","KEA-2593","2018/12/22 17:29:36","新北市三重區自強路二段26巷14號","121.488986666667","25.069055","6500200","三重區"
"241012","941-UM","2018/12/22 17:29:31","新北市三重區仁興街39巷54號","121.501235","25.0766583333333","6500200","三重區"
"247012","KEA-2869","2018/12/22 17:29:31","新北市蘆洲區民族路33巷2號","121.477968333333","25.085135","6501400","蘆洲區"
"247006","KED-0682","2018/12/22 17:29:37","新北市蘆洲區長安街22巷31弄20號","121.464171666667","25.0805366666667","6501400","蘆洲區"
"247002","893-R6","2018/12/22 17:29:37","新北市蘆洲區永樂街38巷67弄23號","121.4578","25.0907566666667","6501400","蘆洲區"
"247016","546-UM","2018/12/22 17:29:36","新北市蘆洲區光華路22巷9號","121.469133333333","25.0838316666667","6501400","蘆洲區"
"247024","500-BY","2018/12/22 17:29:28","新北市蘆洲區長興路353號","121.460928333333","25.0912716666667","6501400","蘆洲區"
"247020","057-VK","2018/12/22 17:29:22","新北市蘆洲區水湳街417號","121.470723333333","25.0941083333333","6501400","蘆洲區"
"247010","056-VK","2018/12/22 17:29:29","新北市蘆洲區鷺江街12號","121.47903","25.0825483333333","6501400","蘆洲區"
"247014","053-VK","2018/12/22 17:29:16","新北市蘆洲區三民路38-2號","121.475498333333","25.0829466666667","6501400","蘆洲區"
"247018","007-UY","2018/12/22 17:29:22","新北市蘆洲區民權路85號","121.473161666667","25.0887416666667","6501400","蘆洲區"
"247004","002-UY","2018/12/22 17:29:22","新北市蘆洲區中原路13-5號","121.460663333333","25.0830916666667","6501400","蘆洲區"
"247022","001-UY","2018/12/22 17:29:28","新北市蘆洲區三民路339號","121.465151666667","25.0908366666667","6501400","蘆洲區"
"235065","251-BX","2018/12/22 17:00:54","新北市中和區員山路36巷16-2號","121.4852","24.9917366666667","6500300","中和區"
"228003","097-TW","2018/12/22 17:29:21","新北市貢寮區仁理村仁和路2-1號","121.923156666667","25.0486283333333","6502600","貢寮區"
"228001","212-TW","2018/12/22 17:29:18","新北市貢寮區仁理村仁愛路54號","121.92542","25.0533366666667","6502600","貢寮區"
"228002","585-TW","2018/12/22 17:29:26","新北市貢寮區福隆里興隆街23號","121.943138333333","25.0164716666667","6502600","貢寮區"
"224010","AGQ-8101","2018/12/22 17:29:25","新北市瑞芳區明燈路二段2巷14號","121.814398333333","25.1088","6501200","瑞芳區"
"224006","676-BX","2018/12/22 17:29:34","新北市瑞芳區靜安路四段98號","121.793358333333","25.110505","6501200","瑞芳區"
"224008","285-BY","2018/12/22 17:29:22","新北市瑞芳區九芎橋路8號","121.832358333333","25.0905133333333","6501200","瑞芳區"
"224009","273-VK","2018/12/22 17:29:20","新北市瑞芳區崙頂路3號","121.846545","25.10688","6501200","瑞芳區"
"224005","271-BY","2018/12/22 17:29:24","新北市瑞芳區南雅路1號","121.891591666667","25.119305","6501200","瑞芳區"
"227002","642-TC","2018/12/22 17:29:31","新北市雙溪區平林里外平林32號","121.855116666667","25.0352866666667","6502500","雙溪區"
"227010","400-TW","2018/12/22 17:29:34","新北市雙溪區三貂里定福路1-2號","121.85027","25.063855","6502500","雙溪區"
"251004","009-UM","2018/12/22 17:23:51","新北市淡水區中正東路二段88巷15號","121.459233333333","25.1506","6501000","淡水區"
"251013","KEA-2871","2018/12/22 17:29:19","新北市淡水區水尾子3號","121.464991666667","25.19506","6501000","淡水區"
"251016","179-VK","2018/12/22 17:29:32","新北市淡水區埤島75號","121.454348333333","25.193695","6501000","淡水區"
"251014","180-VK","2018/12/22 17:29:37","新北市淡水區公埔子13號","121.477206666667","25.2262333333333","6501000","淡水區"
"251008","181-VK","2018/12/22 17:29:37","新北市淡水區民富街121號","121.462301666667","25.14084","6501000","淡水區"
"251015","182-VK","2018/12/22 17:29:27","新北市淡水區三空泉21號","121.468751666667","25.1669066666667","6501000","淡水區"
"251010","413-VK","2018/12/22 17:29:32","新北市淡水區中正路二段211號","121.426215","25.189135","6501000","淡水區"
"251012","441-VK","2018/12/22 17:29:20","新北市淡水區北新路111號","121.448021666667","25.1784416666667","6501000","淡水區"
"251007","442-VK","2018/12/22 17:29:22","新北市淡水區民生路60號","121.462121666667","25.1379466666667","6501000","淡水區"
"251005","443-VK","2018/12/22 17:29:20","新北市淡水區鄧公路31巷1號","121.451338333333","25.1707966666667","6501000","淡水區"
"251006","561-UM","2018/12/22 17:29:31","新北市淡水區大仁街15號","121.442355","25.1750816666667","6501000","淡水區"
"251009","575-R6","2018/12/22 17:29:28","新北市淡水區新生街30巷64號","121.439583333333","25.1731333333333","6501000","淡水區"
"251011","650-BX","2018/12/22 17:29:28","新北市淡水區坪頂路712號","121.4825","25.158455","6501000","淡水區"
"251002","672-BX","2018/12/22 17:29:27","新北市淡水區中正路261號","121.431885","25.1748116666667","6501000","淡水區"
"251003","673-BX","2018/12/22 17:29:29","新北市淡水區中山路158號","121.440761666667","25.1728583333333","6501000","淡水區"
"207003","550-UM","2018/12/22 17:29:28","新北市萬里區龜吼里美崙路93號","121.685286666667","25.18509","6502800","萬里區"
"207004","225-TW","2018/12/22 17:29:21","新北市萬里區萬里里景美路11-2號","121.685603333333","25.1727533333333","6502800","萬里區"
"252002","178-VK","2018/12/22 17:29:32","新北市三芝區忠孝街1-15號","121.505551666667","25.2539433333333","6502100","三芝區"
"252001","292-VK","2018/12/22 17:29:25","新北市三芝區長安街119號","121.498045","25.2596283333333","6502100","三芝區"
"237012","275-BY","2018/12/22 17:29:26","新北市三峽區中山路459巷137號","121.349941666667","24.9339483333333","6500900","三峽區"
"237016","649-BX","2018/12/22 17:29:28","新北市三峽區中山路117號","121.36565","24.9358033333333","6500900","三峽區"
"237010","706-TV","2018/12/22 17:29:24","新北市三峽區中山路459巷163-3號","121.348811666667","24.9331266666667","6500900","三峽區"
"247008","KED-0683","2018/12/22 17:29:28","新北市蘆洲區信義路34巷80號","121.475366666667","25.077545","6501400","蘆洲區"
"242036","AAC-296","2018/12/22 17:29:26","新北市新莊區建國二路1號","121.434911666667","25.023615","6500500","新莊區"
"242058","986-R7","2018/12/22 17:29:25","新北市新莊區中正路432號","121.440646666667","25.0336466666667","6500500","新莊區"
"242027","615-BX","2018/12/22 17:29:33","新北市新莊區思源路32號","121.46019","25.0410016666667","6500500","新莊區"
"242025","613-BX","2018/12/22 17:29:29","新北市新莊區復興路二段20號","121.454138333333","25.043955","6500500","新莊區"
"242029","612-BX","2018/12/22 17:29:36","新北市新莊區復興路二段188號","121.459076666667","25.0444083333333","6500500","新莊區"
"242044","566-BX","2018/12/22 17:29:25","新北市新莊區富國路87號","121.420518333333","25.0257866666667","6500500","新莊區"
"242048","497-BY","2018/12/22 17:29:24","新北市新莊區龍安路257號","121.419805","25.02002","6500500","新莊區"
"242021","442-UM","2018/12/22 17:29:22","新北市新莊區中華路一段33號","121.451948333333","25.037525","6500500","新莊區"
"242053","441-UM","2018/12/22 17:29:26","新北市新莊區瓊林南路315號","121.43372","25.005805","6500500","新莊區"
"242002","440-UM","2018/12/22 17:29:21","新北市新莊區思明街2-2號","121.455475","25.0352783333333","6500500","新莊區"
"242039","415-TV","2018/12/22 17:29:32","新北市新莊區民安路262號","121.427443333333","25.0212583333333","6500500","新莊區"
"242046","400-BY","2018/12/22 17:29:33","新北市新莊區新樹路12號","121.44003","25.03187","6500500","新莊區"
"242023","362-BY","2018/12/22 17:29:28","新北市新莊區公園路150號","121.453165","25.04006","6500500","新莊區"
"242061","353-BY","2018/12/22 17:29:37","新北市新莊區瓊林南路7號","121.438356666667","25.02061","6500500","新莊區"
"242011","132-UY","2018/12/22 17:29:19","新北市新莊區中華路二段87號","121.452436666667","25.0491016666667","6500500","新莊區"
"242034","135-UY","2018/12/22 17:29:22","新北市新莊區新莊路378號","121.449216666667","25.0334683333333","6500500","新莊區"
"242051","172-VK","2018/12/22 17:29:25","新北市新莊區瓊林南路75-2號","121.434775","25.0142183333333","6500500","新莊區"
"242013","173-VK","2018/12/22 17:29:38","新北市新莊區中誠街93號","121.450046666667","25.047765","6500500","新莊區"
"242019","175-VK","2018/12/22 17:29:34","新北市新莊區中港路67號","121.455405","25.0386316666667","6500500","新莊區"
"242007","176-VK","2018/12/22 17:29:23","新北市新莊區自強街52號","121.454741666667","25.04674","6500500","新莊區"
"242017","346-TH","2018/12/22 17:29:22","新北市新莊區中港路287號","121.452743333333","25.0439566666667","6500500","新莊區"
"242009","347-TH","2018/12/22 17:29:38","新北市新莊區中原路193號","121.451981666667","25.0543216666667","6500500","新莊區"
"242031","348-TH","2018/12/22 17:29:38","新北市新莊區新泰路462號","121.443296666667","25.04482","6500500","新莊區"
"242004","349-TH","2018/12/22 17:29:36","新北市新莊區中華路二段20-2號","121.453296666667","25.04445","6500500","新莊區"
"242015","351-TH","2018/12/22 17:29:32","新北市新莊區新泰路146號","121.447821666667","25.03706","6500500","新莊區"
"238015","755-BX","2018/12/22 17:29:34","新北市樹林區復興路3號","121.422808333333","24.9947483333333","6500700","樹林區"
"238023","601-UM","2018/12/22 17:29:30","新北市樹林區三福街114號","121.406451666667","25.0162916666667","6500700","樹林區"
"238019","599-UM","2018/12/22 17:29:36","新北市樹林區太平路19號","121.419093333333","24.983455","6500700","樹林區"
"238018","571-TV","2018/12/22 17:29:35","新北市樹林區博愛街196號","121.424763333333","24.98963","6500700","樹林區"
"238011","5061-A6","2018/12/22 17:29:21","新北市樹林區博愛街205號","121.424238333333","24.9883733333333","6500700","樹林區"
"238022","KEA-2213","2018/12/22 17:29:15","新北市樹林區仁愛街37號","121.422186666667","24.982005","6500700","樹林區"
"238021","KEA-2539","2018/12/22 17:29:34","新北市樹林區西圳街一段203巷38號","121.393788333333","24.9592133333333","6500700","樹林區"
"238025","303-VK","2018/12/22 17:29:20","新北市樹林區保安街一段296號","121.419071666667","24.9973183333333","6500700","樹林區"
"238017","283-BY","2018/12/22 17:29:27","新北市樹林區中正路248巷1-4號","121.418013333333","25.0076966666667","6500700","樹林區"
"238014","282-BY","2018/12/22 17:29:23","新北市樹林區保安街一段294巷3號","121.419251666667","24.997635","6500700","樹林區"
"238020","268-VK","2018/12/22 17:29:31","新北市樹林區俊英街48號","121.428831666667","25.0025416666667","6500700","樹林區"
"238026","172-UY","2018/12/22 17:29:18","新北市樹林區中山路三段27巷1弄1號","121.401705","24.9744883333333","6500700","樹林區"
"238016","169-UY","2018/12/22 17:28:47","新北市樹林區長壽街22號","121.423078333333","24.9938216666667","6500700","樹林區"
"239007","AAC-297","2018/12/22 17:29:27","新北市鶯歌區鶯桃路182巷33號","121.339528333333","24.9576183333333","6500800","鶯歌區"
"239006","891-R6","2018/12/22 17:29:31","新北市鶯歌區鶯桃路311號","121.334038333333","24.9609883333333","6500800","鶯歌區"
"239008","527-UM","2018/12/22 17:29:33","新北市鶯歌區大湖路614號","121.334821666667","24.974675","6500800","鶯歌區"
"239005","526-UM","2018/12/22 17:29:32","新北市鶯歌區福隆一街75號","121.324273333333","24.9711366666667","6500800","鶯歌區"
"239001","417-VK","2018/12/22 17:29:18","新北市鶯歌區中正三路99號","121.33831","24.9409483333333","6500800","鶯歌區"
"239003","360-BY","2018/12/22 17:29:31","新北市鶯歌區德昌街50號","121.333055","24.9598516666667","6500800","鶯歌區"
"239002","359-BY","2018/12/22 17:29:18","新北市鶯歌區育才街29號","121.348926666667","24.9549816666667","6500800","鶯歌區"
"239004","193-VK","2018/12/22 17:29:24","新北市鶯歌區三鶯路12號","121.356495","24.9412383333333","6500800","鶯歌區"
"221010","269-BY","2018/12/22 17:29:31","新北市汐止區汐萬路一段256巷3號","121.65206","25.0746466666667","6501100","汐止區"
"242042","281-VK","2018/12/22 17:29:34","新北市新莊區新樹路113巷15號","121.43833","25.0267433333333","6500500","新莊區"
"242056","280-VK","2018/12/22 17:29:22","新北市新莊區新莊路478號","121.446811666667","25.033495","6500500","新莊區"
