"lineid","car","time","location","longitude","latitude","cityid","cityname"
"234046","148-BY","2018/12/22 19:09:23","新北市永和區永元路18巷38弄1號","121.524083333333","25.0002233333333","6500400","永和區"
"234081","298-R6","2018/12/22 19:09:39","新北市永和區永亨路83號","121.521995","25.0057133333333","6500400","永和區"
"234038","336-UY","2018/12/22 19:09:22","新北市永和區民樂街69巷3號","121.527496666667","24.9977966666667","6500400","永和區"
"234064","337-UY","2018/12/22 19:09:18","新北市永和區秀朗路二段15號","121.520955","25.0027083333333","6500400","永和區"
"234070","552-UM","2018/12/22 19:09:29","新北市永和區豫溪街137巷1弄14號","121.518961666667","25.0104666666667","6500400","永和區"
"234086","553-UM","2018/12/22 19:09:34","新北市永和區永貞路57號","121.519135","25.0044216666667","6500400","永和區"
"234017","745-BX","2018/12/22 19:09:37","新北市永和區文化路90巷15弄1號","121.513828333333","25.0158416666667","6500400","永和區"
"234030","746-BX","2018/12/22 19:09:19","新北市永和區四維街80號","121.523341666667","24.9983683333333","6500400","永和區"
"234054","KEA-2590","2018/12/22 19:09:26","新北市永和區中興街133巷6號","121.518751666667","25.01264","6500400","永和區"
"234007","839-RS","2018/12/22 19:09:33","新北市永和區中山路一段175-1號","121.509521666667","25.00901","6500400","永和區"
"234013","KEA-2591","2018/12/22 19:09:34","新北市永和區中山路一段91巷1號","121.511671666667","25.0107366666667","6500400","永和區"
"234061","AAD-866","2018/12/22 19:09:34","新北市永和區安樂路340號","121.514418333333","25.0061483333333","6500400","永和區"
"234042","862-TW","2018/12/22 19:09:36","新北市永和區永貞路330號","121.511313333333","25.0054883333333","6500400","永和區"
"234050","863-TW","2018/12/22 19:09:33","新北市永和區文化路135巷24弄2號","121.510453333333","25.0145783333333","6500400","永和區"
"234026","9371-KE","2018/12/22 19:09:21","新北市永和區安樂路276號","121.51471","25.0042666666667","6500400","永和區"
"234011","9373-KE","2018/12/22 19:09:33","新北市永和區仁愛路141巷30弄6號","121.511688333333","25.0115566666667","6500400","永和區"
"249005","172-UM","2018/12/22 19:09:33","新北市八里區中華路三段136號","121.39194","25.1327433333333","6502300","八里區"
"249001","173-UM","2018/12/22 19:09:26","新北市八里區龍米路二段228-7號","121.432298333333","25.1584833333333","6502300","八里區"
"249003","593-UM","2018/12/22 19:09:33","新北市八里區博物館路29號","121.413653333333","25.16257","6502300","八里區"
"248016","026-BX","2018/12/22 19:09:31","新北市五股區凌雲路一段134巷21號","121.450063333333","25.102795","6501500","五股區"
"248006","077-UY","2018/12/22 19:09:24","新北市五股區四維路117號","121.467551666667","25.0736433333333","6501500","五股區"
"248008","095-VK","2018/12/22 19:09:37","新北市五股區中興路一段122號","121.465835","25.07351","6501500","五股區"
"248020","225-UY","2018/12/22 19:09:02","新北市五股區凌雲路三段57號","121.425293333333","25.125005","6501500","五股區"
"248012","247-BX","2018/12/22 19:09:32","新北市五股區中興路四段48巷16號","121.438653333333","25.083415","6501500","五股區"
"248010","272-BY","2018/12/22 19:09:23","新北市五股區水碓一路23號","121.430615","25.071255","6501500","五股區"
"248004","655-BX","2018/12/22 19:09:28","新北市五股區五福路7號","121.434166666667","25.0878033333333","6501500","五股區"
"248002","678-BX","2018/12/22 19:09:22","新北市五股區凌雲路一段158巷6號","121.448016666667","25.1027833333333","6501500","五股區"
"234023","9380-KE","2018/12/22 19:09:39","新北市永和區中興街29巷11號","121.516343333333","25.01247","6500400","永和區"
"234077","969-R7","2018/12/22 19:09:33","新北市永和區民族街25號","121.518748333333","24.9996383333333","6500400","永和區"
"234074","AAC-211","2018/12/22 19:09:34","新北市永和區福和路131號","121.521358333333","25.007805","6500400","永和區"
"234067","AAC-212","2018/12/22 19:09:20","新北市永和區保平路23號","121.512646666667","25.0073916666667","6500400","永和區"
"234003","AAC-295","2018/12/22 19:09:32","新北市永和區保福路一段92號","121.51213","25.0104133333333","6500400","永和區"
"244019","402-UM","2018/12/22 19:09:31","新北市林口區文化二路一段565號","121.375038333333","25.0774483333333","6501700","林口區"
"244013","KEA-2802","2018/12/22 19:09:32","新北市林口區麗園二街1巷3-2號","121.377196666667","25.0703783333333","6501700","林口區"
"244023","483-VK","2018/12/22 19:09:30","新北市林口區文化三路二段77巷39號","121.373066666667","25.0802533333333","6501700","林口區"
"244009","656-BX","2018/12/22 19:09:36","新北市林口區林口路75號","121.38984","25.0796933333333","6501700","林口區"
"244011","701-TV","2018/12/22 19:09:38","新北市林口區竹林路61號","121.387623333333","25.0784216666667","6501700","林口區"
"244025","837-TS","2018/12/22 19:09:36","新北市林口區民族路206號","121.368516666667","25.0773816666667","6501700","林口區"
"243013","AAD-798","2018/12/22 19:09:30","新北市泰山區明志路三段277號","121.42318","25.0367733333333","6501600","泰山區"
"243009","297-R6","2018/12/22 19:09:39","新北市泰山區楓江路25巷9號","121.434428333333","25.0635716666667","6501600","泰山區"
"243016","KEA-2801","2018/12/22 19:09:29","新北市泰山區明志路二段364號","121.425586666667","25.04503","6501600","泰山區"
"243015","421-VK","2018/12/22 19:09:20","新北市泰山區明志路一段454號","121.43071","25.0557133333333","6501600","泰山區"
"243011","KEA-2215","2018/12/22 19:09:30","新北市泰山區明志路二段318號","121.426278333333","25.04595","6501600","泰山區"
"243010","KEA-2216","2018/12/22 19:09:38","新北市泰山區明志路一段483巷1弄3號","121.431081666667","25.055515","6501600","泰山區"
"243012","646-TV","2018/12/22 19:09:25","新北市泰山區辭修路36巷8弄1號","121.427858333333","25.058535","6501600","泰山區"
"243014","680-BX","2018/12/22 19:09:30","新北市泰山區泰林路二段466號","121.425413333333","25.0642016666667","6501600","泰山區"
"222003","436-BY","2018/12/22 19:09:19","新北市深坑區深南路162號","121.626101666667","25.0149733333333","6501800","深坑區"
"222002","659-BX","2018/12/22 19:09:29","新北市深坑區紅葉街61號","121.632216666667","25.0138716666667","6501800","深坑區"
"231041","002-UM","2018/12/22 19:09:33","新北市新店區溪園路405號","121.524063333333","24.9782316666667","6500600","新店區"
"231059","046-UY","2018/12/22 19:09:28","新北市新店區安和路一段6-1號","121.517116666667","24.9650416666667","6500600","新店區"
"231040","047-UY","2018/12/22 19:09:40","新北市新店區三民路155-1號","121.533841666667","24.97342","6500600","新店區"
"231044","106-UY","2018/12/22 19:09:18","新北市新店區中興路三段178號","121.544183333333","24.9811966666667","6500600","新店區"
"231046","107-UY","2018/12/22 19:09:27","新北市新店區華潭街26巷1弄1號","121.529413333333","24.9535316666667","6500600","新店區"
"231052","108-UY","2018/12/22 19:09:26","新北市新店區自強路153號","121.546033333333","24.921875","6500600","新店區"
"231062","110-UY","2018/12/22 19:09:32","新北市新店區安平路35巷2-1號","121.521426666667","24.9680916666667","6500600","新店區"
"231048","187-VK","2018/12/22 19:09:35","新北市新店區德正街27巷29弄68號","121.545801666667","24.9731033333333","6500600","新店區"
"231054","KEA-2219","2018/12/22 19:09:32","新北市新店區新店路94號","121.537175","24.9542866666667","6500600","新店區"
"231065","260-TV","2018/12/22 19:09:29","新北市新店區安祥路145巷2號","121.474733333333","24.9554683333333","6500600","新店區"
"231042","268-BY","2018/12/22 19:09:25","新北市新店區中興路一段195號","121.543336666667","24.9652333333333","6500600","新店區"
"231051","278-BY","2018/12/22 19:09:37","新北市新店區中正路400巷14號","121.535041666667","24.9780516666667","6500600","新店區"
"231050","AAD-862","2018/12/22 19:09:31","新北市新店區竹林路30巷10號","121.55163","24.951","6500600","新店區"
"231058","3713-VJ","2018/12/22 19:09:28","新北市新店區光明街98號","121.539066666667","24.96031","6500600","新店區"
"231066","4716-K9","2018/12/22 19:09:32","新北市新店區安康路二段341巷1號","121.497036666667","24.9553866666667","6500600","新店區"
"231056","4715-K9","2018/12/22 19:09:29","新北市新店區安興路141號","121.516628333333","24.9793916666667","6500600","新店區"
"231067","4772-VM","2018/12/22 19:09:27","新北市新店區安康路一段281巷12弄8號","121.523565","24.9616","6500600","新店區"
"231061","619-UM","2018/12/22 19:09:21","新北市新店區安康路一段222-1號","121.52279","24.9636983333333","6500600","新店區"
"231063","641-BX","2018/12/22 19:09:27","新北市新店區車子路110號","121.505236666667","24.9520733333333","6500600","新店區"
"231049","719-UM","2018/12/22 19:07:08","新北市新店區建國路219號","121.537581666667","24.9809566666667","6500600","新店區"
"231064","719-UY","2018/12/22 19:09:29","新北市新店區安忠路56巷6號","121.512896666667","24.95943","6500600","新店區"
"231060","897-TW","2018/12/22 19:09:35","新北市新店區安康路二段295-1號","121.502765","24.9575716666667","6500600","新店區"
"231045","898-TW","2018/12/22 19:09:28","新北市新店區北宜路一段154號","121.5403","24.9536416666667","6500600","新店區"
"231043","899-TW","2018/12/22 19:09:21","新北市新店區中興路三段1-20號","121.546631666667","24.9759716666667","6500600","新店區"
"231055","AKT-0513","2018/12/22 19:09:21","新北市新店區薏仁坑路6號","121.500433333333","24.9579616666667","6500600","新店區"
"241011","013-R5","2018/12/22 18:54:34","新北市三重區重新路四段121號","121.48496","25.0521516666667","6500200","三重區"
"241022","060-VK","2018/12/22 19:09:34","新北市三重區三民街155巷5號","121.484228333333","25.0645916666667","6500200","三重區"
"241035","KEA-2210","2018/12/22 19:09:26","新北市三重區信義西街138號","121.495411666667","25.0643916666667","6500200","三重區"
"241029","942-UM","2018/12/22 19:09:23","新北市三重區集美街222號","121.491945","25.05533","6500200","三重區"
"235066","003-UY","2018/12/22 19:09:18","新北市中和區保平路372號","121.506245","25.0032866666667","6500300","中和區"
"235064","005-UY","2018/12/22 19:09:29","新北市中和區泰和街38巷11號","121.498925","25.00049","6500300","中和區"
"235063","006-UY","2018/12/22 19:09:21","新北市中和區連城路249巷21弄2號","121.494076666667","24.9959966666667","6500300","中和區"
"235056","096-UM","2018/12/22 19:09:25","新北市中和區員山路548號","121.478825","25.0102666666667","6500300","中和區"
"235039","097-UM","2018/12/22 19:09:30","新北市中和區秀朗路三段177號","121.524338333333","24.991095","6500300","中和區"
"235040","150-BY","2018/12/22 19:09:39","新北市中和區宜安路121號","121.510105","24.997955","6500300","中和區"
"235058","151-BY","2018/12/22 19:09:25","新北市中和區員山路143巷2號","121.480801666667","24.9961383333333","6500300","中和區"
"235055","183-VK","2018/12/22 19:09:27","新北市中和區德光路13號","121.471178333333","25.0044266666667","6500300","中和區"
"235038","185-VK","2018/12/22 19:09:30","新北市中和區大仁街10巷13號","121.5184","24.9925866666667","6500300","中和區"
"235049","186-VK","2018/12/22 19:09:18","新北市中和區南華路46號","121.503985","24.9964733333333","6500300","中和區"
"235067","255-BX","2018/12/22 19:09:26","新北市中和區中正路797-2號","121.484535","25.00047","6500300","中和區"
"235044","293-VK","2018/12/22 19:09:31","新北市中和區中興街222-5號","121.500618333333","24.9895533333333","6500300","中和區"
"235072","301-VK","2018/12/22 19:09:24","新北市中和區福祥路10號","121.499541666667","25.0030383333333","6500300","中和區"
"235042","KEA-2878","2018/12/22 19:09:23","新北市中和區自強路3號","121.519891666667","24.9938216666667","6500300","中和區"
"235050","4979-A6","2018/12/22 19:09:28","新北市中和區復興路249巷11弄3號","121.50353","24.9897433333333","6500300","中和區"
"235069","4980-A6","2018/12/22 19:09:39","新北市中和區中和路165巷16號","121.503266666667","25.0004933333333","6500300","中和區"
"235070","558-UM","2018/12/22 19:09:24","新北市中和區中和路126號","121.503305","24.99966","6500300","中和區"
"235045","565-BX","2018/12/22 19:09:33","新北市中和區景新街437巷6號","121.513688333333","24.98912","6500300","中和區"
"235054","640-BX","2018/12/22 19:09:33","新北市中和區民德路175號","121.46869","24.9994483333333","6500300","中和區"
"235060","647-TV","2018/12/22 19:09:38","新北市中和區民享街89巷2弄16號","121.47485","25.0008083333333","6500300","中和區"
"235046","733-UM","2018/12/22 19:09:35","新北市中和區忠孝街1巷15號","121.508555","24.9837916666667","6500300","中和區"
"235071","783-BX","2018/12/22 19:09:23","新北市中和區連城路372號","121.48178","24.995395","6500300","中和區"
"235062","800-TS","2018/12/22 19:09:21","新北市中和區中山路二段526巷37號","121.485825","25.00599","6500300","中和區"
"235057","801-TS","2018/12/22 19:09:30","新北市中和區民利街89號","121.478038333333","24.9980383333333","6500300","中和區"
"235041","802-TS","2018/12/22 19:09:35","新北市中和區中和路228號","121.506588333333","24.99953","6500300","中和區"
"235052","805-TS","2018/12/22 19:09:27","新北市中和區興南路二段142巷19弄15號","121.502636666667","24.98344","6500300","中和區"
"235048","896-TW","2018/12/22 19:09:34","新北市中和區忠孝街3號","121.509503333333","24.98297","6500300","中和區"
"235053","900-TW","2018/12/22 19:09:38","新北市中和區華福街71巷4號","121.467336666667","24.99692","6500300","中和區"
"235051","157-BY","2018/12/22 19:09:30","新北市中和區興南路一段89號","121.509851666667","24.988845","6500300","中和區"
"235037","AAC-213","2018/12/22 19:09:27","新北市中和區秀朗路三段58-2號","121.525913333333","24.9951183333333","6500300","中和區"
"235059","AAC-215","2018/12/22 19:09:27","新北市中和區圓通路294巷17-5號","121.488753333333","24.99024","6500300","中和區"
"220065","072-UY","2018/12/22 19:09:32","新北市板橋區民族路219巷77號","121.468861666667","25.0089533333333","6500100","板橋區"
"220086","073-UY","2018/12/22 19:09:34","新北市板橋區中正路216巷150弄8號","121.460733333333","25.01912","6500100","板橋區"
"220106","075-UY","2018/12/22 19:09:38","新北市板橋區長江路二段280-1號","121.469973333333","25.032765","6500100","板橋區"
"220069","AAD-861","2018/12/22 19:09:33","新北市板橋區華興街29號","121.458465","25.0046333333333","6500100","板橋區"
"226004","312-R5","2018/12/22 19:09:36","新北市平溪區嶺腳里嶺腳寮24號","121.74795","25.0299583333333","6502400","平溪區"
"235065","251-BX","2018/12/22 19:09:19","新北市中和區莊敬路33號","121.500866666667","25.0049533333333","6500300","中和區"
"228003","097-TW","2018/12/22 19:09:41","新北市貢寮區和美里和美街36-1號","121.91219","25.0856883333333","6502600","貢寮區"
"228001","212-TW","2018/12/22 19:09:38","新北市貢寮區真理里新港街10號","121.925483333333","25.05436","6502600","貢寮區"
"228002","585-TW","2018/12/22 19:09:26","新北市貢寮區福隆里福隆街32-1號","121.945083333333","25.0174216666667","6502600","貢寮區"
"224010","AGQ-8101","2018/12/22 19:09:25","新北市瑞芳區基山街6-3號","121.845348333333","25.109195","6501200","瑞芳區"
"224006","676-BX","2018/12/22 19:09:38","新北市瑞芳區傑魚坑路200-1號","121.801345","25.1067916666667","6501200","瑞芳區"
"224011","420-VK","2018/12/22 18:51:09","新北市瑞芳區崙頂路3-1號","121.84692","25.1045783333333","6501200","瑞芳區"
"224008","285-BY","2018/12/22 19:09:22","新北市瑞芳區明燈路三段285號","121.798506666667","25.112185","6501200","瑞芳區"
"224007","275-VK","2018/12/22 19:09:35","新北市瑞芳區瑞竹路46號","121.763503333333","25.1033583333333","6501200","瑞芳區"
"224009","273-VK","2018/12/22 19:09:20","新北市瑞芳區洞頂路140號","121.859993333333","25.1186366666667","6501200","瑞芳區"
"227002","642-TC","2018/12/22 19:09:31","新北市雙溪區平林里外平林9-5號","121.859136666667","25.0380233333333","6502500","雙溪區"
"227010","400-TW","2018/12/22 19:09:27","新北市雙溪區牡丹里中正路46-4號","121.865051666667","25.0390383333333","6502500","雙溪區"
"253006","032-BX","2018/12/22 19:09:30","新北市石門區海灣新城40號","121.527193333333","25.28477","6502200","石門區"
"253005","295-VK","2018/12/22 19:09:34","新北市石門區阿里荖35-2號","121.606513333333","25.2807383333333","6502200","石門區"
"222001","KEA-2212","2018/12/22 19:09:19","新北市深坑區北深路一段300號","121.624253333333","25.0057383333333","6501800","深坑區"
"208002","KEA-2872","2018/12/22 19:09:35","新北市金山區中正路73號","121.633768333333","25.2217233333333","6502700","金山區"
"208003","665-BX","2018/12/22 19:09:39","新北市金山區中正路6號","121.636511666667","25.2223883333333","6502700","金山區"
"208001","761-BX","2018/12/22 19:09:36","新北市金山區金包里街68號","121.639073333333","25.22148","6502700","金山區"
"251013","KEA-2871","2018/12/22 19:09:19","新北市淡水區安子內12-1號","121.481505","25.219135","6501000","淡水區"
"251016","179-VK","2018/12/22 19:09:32","新北市淡水區淡金路三段70巷1號","121.448285","25.20037","6501000","淡水區"
"251014","180-VK","2018/12/22 19:09:25","新北市淡水區小中寮39號","121.487106666667","25.2274216666667","6501000","淡水區"
"251015","182-VK","2018/12/22 19:09:27","新北市淡水區南勢埔47巷25號","121.484728333333","25.1787383333333","6501000","淡水區"
"251010","413-VK","2018/12/22 19:09:32","新北市淡水區中正路一段156巷1號","121.421123333333","25.1802166666667","6501000","淡水區"
"251007","442-VK","2018/12/22 19:09:22","新北市淡水區民生路145巷35號","121.46702","25.1390133333333","6501000","淡水區"
"251005","443-VK","2018/12/22 19:09:40","新北市淡水區原德路11號","121.442126666667","25.1712616666667","6501000","淡水區"
"251001","559-UM","2018/12/22 19:09:38","新北市淡水區自強路201巷39號","121.462131666667","25.1267866666667","6501000","淡水區"
"251009","575-R6","2018/12/22 19:09:28","新北市淡水區清水街196號","121.440448333333","25.1710266666667","6501000","淡水區"
"251011","650-BX","2018/12/22 19:00:27","新北市淡水區中正東路二段143巷2弄1號","121.460761666667","25.1474283333333","6501000","淡水區"
"251002","672-BX","2018/12/22 19:09:27","新北市淡水區中山路87巷1號","121.442548333333","25.1704133333333","6501000","淡水區"
"251003","673-BX","2018/12/22 19:09:28","新北市淡水區中山北路一段87號","121.442296666667","25.1761916666667","6501000","淡水區"
"207003","550-UM","2018/12/22 19:09:37","新北市萬里區大鵬里萬里加投15-2號","121.650043333333","25.2096966666667","6502800","萬里區"
"207004","225-TW","2018/12/22 19:09:21","新北市萬里區萬里里瑪鋉下街52號","121.69159","25.1795766666667","6502800","萬里區"
"252002","178-VK","2018/12/22 19:09:32","新北市三芝區埔坪里埔頭坑78號","121.509275","25.2544116666667","6502100","三芝區"
"252003","249-BX","2018/12/22 19:09:30","新北市三芝區錫板里南勢崗5-3號","121.480128333333","25.2624316666667","6502100","三芝區"
"252001","292-VK","2018/12/22 19:09:25","新北市三芝區長勤街82號","121.500265","25.2551","6502100","三芝區"
"237004","KEA-2597","2018/12/22 19:09:27","新北市三峽區有木183號","121.444816666667","24.835335","6500900","三峽區"
"237007","153-BY","2018/12/22 19:09:26","新北市三峽區中正路二段42巷84號","121.364321666667","24.9204633333333","6500900","三峽區"
"237009","210-TH","2018/12/22 19:09:23","新北市三峽區中山路107巷10號","121.365163333333","24.9355683333333","6500900","三峽區"
"237013","252-BX","2018/12/22 19:09:24","新北市三峽區光明路69巷25號","121.376776666667","24.9291466666667","6500900","三峽區"
"237012","275-BY","2018/12/22 19:09:26","新北市三峽區三樹路222巷236弄23號","121.391368333333","24.943045","6500900","三峽區"
"237008","302-VK","2018/12/22 19:09:21","新北市三峽區大同路99號","121.374625","24.9270366666667","6500900","三峽區"
"237014","433-BY","2018/12/22 19:09:34","新北市三峽區復興路263號","121.366678333333","24.9388816666667","6500900","三峽區"
"237006","5529-G3","2018/12/22 19:09:30","新北市三峽區溪東路49號","121.400755","24.9350833333333","6500900","三峽區"
"237011","KEA-2596","2018/12/22 19:09:36","新北市三峽區介壽路三段113號","121.396763333333","24.941335","6500900","三峽區"
"237016","649-BX","2018/12/22 19:09:28","新北市三峽區建安63號","121.44733","24.9274633333333","6500900","三峽區"
"237010","706-TV","2018/12/22 19:09:24","新北市三峽區國光街322號","121.372148333333","24.9393683333333","6500900","三峽區"
"237005","AKY-6261","2018/12/22 19:09:26","新北市三峽區中山路459巷137號","121.350143333333","24.933815","6500900","三峽區"
"236070","105-UM","2018/12/22 19:09:33","新北市土城區裕生路38號","121.447985","24.9869966666667","6501300","土城區"
"236042","KED-0685","2018/12/22 19:09:22","新北市土城區學府路一段239號","121.45046","24.9833733333333","6501300","土城區"
"236079","166-UM","2018/12/22 19:09:30","新北市土城區龍泉路41號","121.415255","24.94362","6501300","土城區"
"236030","253-BX","2018/12/22 19:09:37","新北市土城區城林路6巷80號","121.438501666667","24.9796183333333","6501300","土城區"
"236026","269-VK","2018/12/22 19:09:30","新北市土城區中央路二段187號","121.442076666667","24.9756833333333","6501300","土城區"
"236014","270-VK","2018/12/22 19:09:28","新北市土城區學府路一段73號","121.456973333333","24.988205","6501300","土城區"
"236038","271-VK","2018/12/22 19:09:35","新北市土城區清水路145號","121.458381666667","24.9818033333333","6501300","土城區"
"236021","401-BY","2018/12/22 19:09:36","新北市土城區延峰街34巷2號","121.469518333333","24.9849033333333","6501300","土城區"
"236059","912-UM","2018/12/22 19:09:29","新北市土城區金城路一段131號","121.444796666667","24.9737166666667","6501300","土城區"
"236049","913-UM","2018/12/22 19:09:24","新北市土城區明德路一段365-1號","121.453643333333","24.9790633333333","6501300","土城區"
"236055","AAC-216","2018/12/22 19:09:37","新北市土城區學府路一段227號","121.451183333333","24.9841883333333","6501300","土城區"
"238015","755-BX","2018/12/22 19:09:33","新北市樹林區光明街10號","121.41102","24.9891766666667","6500700","樹林區"
"238023","601-UM","2018/12/22 19:09:30","新北市樹林區三興路58號","121.394218333333","25.01445","6500700","樹林區"
"238019","599-UM","2018/12/22 19:09:36","新北市樹林區東榮街91巷1弄2號","121.416156666667","24.9823316666667","6500700","樹林區"
"238022","KEA-2213","2018/12/22 19:09:35","新北市樹林區中山路二段151巷8弄25號","121.406158333333","24.97762","6500700","樹林區"
"238025","303-VK","2018/12/22 19:09:40","新北市樹林區民和街1號","121.384663333333","24.96739","6500700","樹林區"
"238017","283-BY","2018/12/22 19:09:27","新北市樹林區光興街50號","121.409801666667","25.0027033333333","6500700","樹林區"
"238014","282-BY","2018/12/22 19:09:18","新北市樹林區千歲街90號","121.426541666667","24.99787","6500700","樹林區"
"238020","268-VK","2018/12/22 19:09:31","新北市樹林區俊英街133巷4號","121.42394","25.0114516666667","6500700","樹林區"
"238026","172-UY","2018/12/22 19:09:38","新北市樹林區中山路三段122號","121.392376666667","24.97215","6500700","樹林區"
"239007","AAC-297","2018/12/22 19:09:27","新北市鶯歌區大湖路326巷42-1號","121.345911666667","24.969385","6500800","鶯歌區"
"239006","891-R6","2018/12/22 19:09:32","新北市鶯歌區鶯桃路296巷84弄28號","121.337363333333","24.9613533333333","6500800","鶯歌區"
"239008","527-UM","2018/12/22 19:09:33","新北市鶯歌區國際二路6巷6號","121.338605","24.9736916666667","6500800","鶯歌區"
"239005","526-UM","2018/12/22 19:09:22","新北市鶯歌區大湖路361巷74號","121.331136666667","24.977045","6500800","鶯歌區"
"239001","417-VK","2018/12/22 19:09:18","新北市鶯歌區永安街58號","121.33813","24.9563316666667","6500800","鶯歌區"
"239003","360-BY","2018/12/22 19:09:31","新北市鶯歌區中正二路54號","121.350913333333","24.9513316666667","6500800","鶯歌區"
"239002","359-BY","2018/12/22 19:09:18","新北市鶯歌區大湖路532號","121.337463333333","24.9724416666667","6500800","鶯歌區"
"239004","193-VK","2018/12/22 19:09:24","新北市鶯歌區二甲路106巷6號","121.333996666667","24.931365","6500800","鶯歌區"
"221036","130-UY","2018/12/22 19:09:06","新北市汐止區康寧街901號","121.650996666667","25.0752033333333","6501100","汐止區"
"221015","131-UY","2018/12/22 19:09:25","新北市汐止區汐萬路一段256巷3號","121.653381666667","25.0747","6501100","汐止區"
"221010","269-BY","2018/12/22 19:09:31","新北市汐止區康寧街901號","121.651456666667","25.0750766666667","6501100","汐止區"
"221012","278-VK","2018/12/22 19:09:37","新北市汐止區康寧街901號","121.650795","25.0752733333333","6501100","汐止區"
"221023","279-VK","2018/12/22 19:09:35","新北市汐止區康寧街901號","121.651578333333","25.0748916666667","6501100","汐止區"
"221032","280-BY","2018/12/22 19:09:34","新北市汐止區橫科路241-5號","121.622455","25.0487383333333","6501100","汐止區"
"221027","281-BY","2018/12/22 19:09:28","新北市汐止區康寧街901號","121.65148","25.0750316666667","6501100","汐止區"
"221029","298-VK","2018/12/22 19:09:33","新北市汐止區汐萬路一段256巷3號","121.652395","25.07466","6501100","汐止區"
"221021","299-VK","2018/12/22 19:09:28","新北市汐止區康寧街901號","121.651533333333","25.075","6501100","汐止區"
"221031","353-TW","2018/12/22 19:09:30","新北市汐止區福德一路1-1號","121.639633333333","25.070995","6501100","汐止區"
"221025","623-UM","2018/12/22 19:09:21","新北市汐止區康寧街901號","121.651588333333","25.074975","6501100","汐止區"
"221038","646-BX","2018/12/22 19:09:40","新北市汐止區康寧街901號","121.650766666667","25.075315","6501100","汐止區"
"221033","647-BX","2018/12/22 19:09:25","新北市汐止區南勢街3號","121.627091666667","25.037455","6501100","汐止區"
"221002","707-TV","2018/12/22 19:09:26","新北市汐止區大同路一段154-1號","121.632208333333","25.0560433333333","6501100","汐止區"
"221018","753-BX","2018/12/22 19:09:25","新北市汐止區汐萬路一段256巷3號","121.653441666667","25.0745366666667","6501100","汐止區"
"220079","145-BY","2018/12/22 19:09:29","新北市板橋區民權路202巷7弄3號","121.459915","25.0146916666667","6500100","板橋區"
"220080","200-UY","2018/12/22 19:09:25","新北市板橋區大觀路二段7巷40號","121.448431666667","25.0032983333333","6500100","板橋區"
"220082","610-BX","2018/12/22 19:09:33","新北市板橋區溪崑二街89號","121.427263333333","24.9894566666667","6500100","板橋區"
"220091","267-BY","2018/12/22 19:09:32","新北市板橋區三民路一段1巷37號","121.480068333333","25.0248866666667","6500100","板橋區"
"220056","276-BY","2018/12/22 19:09:34","新北市板橋區信義路74巷7弄1號","121.456645","24.9927716666667","6500100","板橋區"
"220072","277-BY","2018/12/22 19:09:29","新北市板橋區金門街369巷58號","121.428373333333","24.9817033333333","6500100","板橋區"
"220101","280-UM","2018/12/22 19:09:32","新北市板橋區莒光路219號","121.474208333333","25.0227333333333","6500100","板橋區"
"220071","283-VK","2018/12/22 19:09:36","新北市板橋區重慶路245巷32弄19號","121.465221666667","24.999995","6500100","板橋區"
"220094","285-UM","2018/12/22 19:09:27","新北市板橋區光武街136巷7號","121.465701666667","25.0301233333333","6500100","板橋區"
"220053","285-VK","2018/12/22 19:09:25","新北市板橋區懷仁街25巷7號","121.476665","25.0198966666667","6500100","板橋區"
"220083","286-VK","2018/12/22 19:09:34","新北市板橋區大觀路二段174巷173弄12號","121.441275","25.00393","6500100","板橋區"
"220081","287-VK","2018/12/22 19:09:34","新北市板橋區南雅西路二段156巷2號","121.451861666667","25.0133966666667","6500100","板橋區"
"220090","288-VK","2018/12/22 19:09:27","新北市板橋區長江路一段106巷13弄36號","121.461525","25.0296866666667","6500100","板橋區"
"220061","295-UM","2018/12/22 19:09:39","新北市板橋區中山路二段318巷30弄3號","121.48075","25.0185366666667","6500100","板橋區"
"220084","296-UM","2018/12/22 19:09:23","新北市板橋區溪崑二街22巷15號","121.428115","24.9917166666667","6500100","板橋區"
"220075","303-R5","2018/12/22 19:09:26","新北市板橋區南雅南路一段60-1號","121.455376666667","25.0053733333333","6500100","板橋區"
"220062","305-R5","2018/12/22 19:09:38","新北市板橋區三民路二段245巷69弄30-2號","121.481066666667","25.0134183333333","6500100","板橋區"
"220092","307-R5","2018/12/22 19:09:08","新北市板橋區松江街62號","121.468673333333","25.0275233333333","6500100","板橋區"
"220098","317-R6","2018/12/22 19:09:39","新北市板橋區民有街39-3號","121.465806666667","25.0257","6500100","板橋區"
"220089","487-VK","2018/12/22 19:09:28","新北市板橋區文化路一段114號","121.464813333333","25.0184383333333","6500100","板橋區"
"220088","491-VK","2018/12/22 19:09:39","新北市板橋區雙十路二段110號","121.47425","25.0286283333333","6500100","板橋區"
"220035","560-BX","2018/12/22 19:09:30","新北市板橋區中正路322-1號","121.454741666667","25.0213716666667","6500100","板橋區"
"220103","561-BX","2018/12/22 19:09:32","新北市板橋區文化路一段266號","121.467265","25.0205283333333","6500100","板橋區"
"220063","609-BX","2018/12/22 19:09:27","新北市板橋區三民路二段188號","121.479066666667","25.0148816666667","6500100","板橋區"
"220055","630-UY","2018/12/22 19:09:20","新北市板橋區新民街45號","121.46405","25.01101","6500100","板橋區"
"220057","686-BX","2018/12/22 19:09:25","新北市板橋區重慶路308巷12號","121.463341666667","24.997745","6500100","板橋區"
"220077","687-BX","2018/12/22 19:09:39","新北市板橋區大觀路二段163號","121.4453","25.00052","6500100","板橋區"
"220093","689-BX","2018/12/22 19:09:34","新北市板橋區漢生西路19號","121.463471666667","25.0181516666667","6500100","板橋區"
"220054","741-BX","2018/12/22 19:09:30","新北市板橋區校前街38號","121.460948333333","25.0031716666667","6500100","板橋區"
"220102","KEA-2699","2018/12/22 19:09:27","新北市板橋區田單街29號","121.482326666667","25.0288966666667","6500100","板橋區"
"220067","829-TW","2018/12/22 19:09:32","新北市板橋區長安街138巷1弄69號","121.474455","25.010805","6500100","板橋區"
"220068","830-TW","2018/12/22 19:09:23","新北市板橋區中山路二段443巷76號","121.480991666667","25.0222133333333","6500100","板橋區"
"220074","895-R6","2018/12/22 19:09:22","新北市板橋區中正路自強新村45-2號","121.454845","25.0138283333333","6500100","板橋區"
"220073","985-R7","2018/12/22 19:09:35","新北市板橋區中正路231號","121.455986666667","25.0179466666667","6500100","板橋區"
"220097","AAC-210","2018/12/22 19:09:34","新北市板橋區幸福路32巷3弄11號","121.460891666667","25.0205416666667","6500100","板橋區"
"220064","AAC-253","2018/12/22 19:09:34","新北市板橋區民生路一段33-1號","121.475923333333","25.01235","6500100","板橋區"
"235068","KEA-2873","2018/12/22 19:09:19","新北市中和區圓通路162巷39號","121.496456666667","24.9955833333333","6500300","中和區"
"235061","KEA-2875","2018/12/22 19:09:26","新北市中和區中山路三段145號","121.473878333333","25.005955","6500300","中和區"
"235047","KEA-2876","2018/12/22 19:09:41","新北市中和區興南路一段108號","121.509605","24.9887216666667","6500300","中和區"
