"lineid","car","time","location","longitude","latitude","cityid","cityname"
"234046","148-BY","2018/12/22 19:29:23","新北市永和區秀朗路二段257號","121.526318333333","24.9992416666667","6500400","永和區"
"234081","298-R6","2018/12/22 19:29:39","新北市永和區環河東路三段58號","121.526923333333","25.0060666666667","6500400","永和區"
"234038","336-UY","2018/12/22 19:29:28","新北市永和區民樂街30巷2號","121.527593333333","25.0012566666667","6500400","永和區"
"234064","337-UY","2018/12/22 19:29:38","新北市永和區得和路243巷27號","121.520703333333","25.00119","6500400","永和區"
"234070","552-UM","2018/12/22 19:29:29","新北市永和區警光街5-1號","121.519765","25.0095283333333","6500400","永和區"
"234086","553-UM","2018/12/22 19:29:34","新北市永和區林森路39巷1號","121.525575","25.0048866666667","6500400","永和區"
"234017","745-BX","2018/12/22 19:29:37","新北市永和區環河西路一段79號","121.51301","25.0178916666667","6500400","永和區"
"234030","746-BX","2018/12/22 19:29:31","新北市永和區民生路8號","121.522688333333","24.9978633333333","6500400","永和區"
"234054","KEA-2590","2018/12/22 19:29:26","新北市永和區復興街28號","121.51611","25.0129366666667","6500400","永和區"
"234007","839-RS","2018/12/22 19:29:33","新北市永和區永和路二段35號","121.514425","25.0102683333333","6500400","永和區"
"234013","KEA-2591","2018/12/22 19:29:34","新北市永和區信義路14號","121.514475","25.0121066666667","6500400","永和區"
"234061","AAD-866","2018/12/22 19:29:35","新北市永和區永貞路149號","121.515953333333","25.0040133333333","6500400","永和區"
"234042","862-TW","2018/12/22 19:29:36","新北市永和區中和路519巷16號","121.510821666667","25.00319","6500400","永和區"
"234050","863-TW","2018/12/22 19:29:33","新北市永和區信義路120號","121.512343333333","25.014685","6500400","永和區"
"234026","9371-KE","2018/12/22 19:29:21","新北市中和區安樂路241號","121.514166666667","24.99936","6500400","永和區"
"234011","9373-KE","2018/12/22 19:29:33","新北市永和區保福路二段163巷13弄16號","121.509168333333","25.0142633333333","6500400","永和區"
"249003","593-UM","2018/12/22 19:29:41","新北市八里區中山路二段339號","121.399686666667","25.1471783333333","6502300","八里區"
"248014","025-BX","2018/12/22 19:29:24","新北市五股區工商路154號","121.433305","25.0876216666667","6501500","五股區"
"248016","026-BX","2018/12/22 19:29:31","新北市五股區成泰路三段591號","121.452456666667","25.10293","6501500","五股區"
"248008","095-VK","2018/12/22 19:29:37","新北市五股區中興路一段97號","121.466656666667","25.0729383333333","6501500","五股區"
"248020","225-UY","2018/12/22 19:29:35","新北市五股區凌雲路三段45-2號","121.427835","25.120735","6501500","五股區"
"248012","247-BX","2018/12/22 19:29:37","新北市五股區成泰路二段91巷8號","121.437651666667","25.0844016666667","6501500","五股區"
"248010","272-BY","2018/12/22 19:29:23","新北市五股區水碓一路23號","121.430595","25.07125","6501500","五股區"
"248004","655-BX","2018/12/22 19:29:27","新北市五股區五福路62號","121.433221666667","25.0897383333333","6501500","五股區"
"248002","678-BX","2018/12/22 19:29:22","新北市五股區凌雲路一段158巷14-1號","121.44794","25.1034983333333","6501500","五股區"
"234023","9380-KE","2018/12/22 19:29:19","新北市永和區竹林路91巷38號","121.520956666667","25.0125066666667","6500400","永和區"
"234077","969-R7","2018/12/22 19:29:33","新北市永和區民族街43巷8號","121.518983333333","24.9983716666667","6500400","永和區"
"234074","AAC-211","2018/12/22 19:29:34","新北市永和區永和路二段254號","121.51623","25.014895","6500400","永和區"
"234067","AAC-212","2018/12/22 19:29:20","新北市永和區保平路115號","121.51082","25.0066266666667","6500400","永和區"
"234003","AAC-295","2018/12/22 19:29:37","新北市永和區福和路385號","121.51424","25.0076633333333","6500400","永和區"
"244023","483-VK","2018/12/22 19:29:30","新北市林口區民族路302-99號","121.370661666667","25.0794466666667","6501700","林口區"
"244009","656-BX","2018/12/22 19:29:36","新北市林口區瑞平里33-1號","121.348168333333","25.1280333333333","6501700","林口區"
"243013","AAD-798","2018/12/22 19:29:30","新北市泰山區明志路三段123巷1弄4號","121.425668333333","25.0407166666667","6501600","泰山區"
"243009","297-R6","2018/12/22 19:29:39","新北市泰山區半山雅3號","121.43142","25.0673916666667","6501600","泰山區"
"243016","KEA-2801","2018/12/22 19:29:29","新北市泰山區工專路20號","121.423725","25.0396733333333","6501600","泰山區"
"243015","421-VK","2018/12/22 19:29:38","新北市泰山區明志路二段136巷1-1號","121.427258333333","25.0511916666667","6501600","泰山區"
"243011","KEA-2215","2018/12/22 19:29:30","新北市泰山區貴子路19-1號","121.428016666667","25.040825","6501600","泰山區"
"243010","KEA-2216","2018/12/22 19:29:38","新北市泰山區民權街41號","121.429131666667","25.0508516666667","6501600","泰山區"
"243012","646-TV","2018/12/22 19:29:25","新北市泰山區明志路一段501巷19號","121.431433333333","25.05458","6501600","泰山區"
"243014","680-BX","2018/12/22 19:29:23","新北市泰山區泰林路二段21-20號","121.436131666667","25.0555966666667","6501600","泰山區"
"222003","436-BY","2018/12/22 19:29:39","新北市深坑區深南路51-1號","121.621251666667","25.00982","6501800","深坑區"
"222002","659-BX","2018/12/22 19:29:29","新北市深坑區北深路一段177號","121.632578333333","25.010885","6501800","深坑區"
"231041","002-UM","2018/12/22 19:29:33","新北市新店區中正路543-2號","121.533573333333","24.98724","6500600","新店區"
"231059","046-UY","2018/12/22 19:29:28","新北市新店區安和路三段7號","121.518025","24.98055","6500600","新店區"
"231040","047-UY","2018/12/22 19:29:40","新北市新店區北新路一段251號","121.540885","24.966055","6500600","新店區"
"231044","106-UY","2018/12/22 19:29:38","新北市新店區中興路三段143號","121.54454","24.979875","6500600","新店區"
"231046","107-UY","2018/12/22 19:29:27","新北市新店區環河路120號","121.536686666667","24.9681","6500600","新店區"
"231052","108-UY","2018/12/22 19:29:26","新北市新店區新烏路二段331號","121.550221666667","24.910595","6500600","新店區"
"231062","110-UY","2018/12/22 19:29:32","新北市新店區莒光路1號","121.527856666667","24.961865","6500600","新店區"
"231048","187-VK","2018/12/22 19:29:37","新北市新店區五峰路70巷3號","121.546283333333","24.9679316666667","6500600","新店區"
"231054","KEA-2219","2018/12/22 19:29:32","新北市新店區文中路51-5號","121.54041","24.9566283333333","6500600","新店區"
"231057","256-BX","2018/12/22 19:29:27","新北市新店區花園一路二段27號","121.551315","24.9325216666667","6500600","新店區"
"231065","260-TV","2018/12/22 19:29:29","新北市新店區安祥路109巷3弄64號","121.477531666667","24.9611316666667","6500600","新店區"
"231042","268-BY","2018/12/22 19:29:25","新北市新店區中興路一段24-2號","121.538643333333","24.958365","6500600","新店區"
"231051","278-BY","2018/12/22 19:29:37","新北市新店區中央四街85號","121.526195","24.9760766666667","6500600","新店區"
"231050","AAD-862","2018/12/22 19:29:31","新北市新店區竹林路157號","121.556103333333","24.9484233333333","6500600","新店區"
"231058","3713-VJ","2018/12/22 19:29:28","新北市新店區北新路二段226號","121.542903333333","24.9771983333333","6500600","新店區"
"231066","4716-K9","2018/12/22 19:29:32","新北市新店區安康路三段466-2號","121.484056666667","24.95085","6500600","新店區"
"231056","4715-K9","2018/12/22 19:29:29","新北市新店區柴埕路116號","121.50427","24.959695","6500600","新店區"
"231061","619-UM","2018/12/22 19:29:21","新北市新店區安康路一段351-1號","121.519421666667","24.9640283333333","6500600","新店區"
"231063","641-BX","2018/12/22 19:29:27","新北市新店區達觀路14巷3號","121.503288333333","24.94182","6500600","新店區"
"231049","719-UM","2018/12/22 19:29:08","新北市新店區二十張路1巷3弄3號","121.540571666667","24.9820783333333","6500600","新店區"
"231064","719-UY","2018/12/22 19:29:29","新北市新店區安忠路57巷1-5號","121.51328","24.9595616666667","6500600","新店區"
"231060","897-TW","2018/12/22 19:29:35","新北市新店區安康路二段51號","121.51438","24.9634466666667","6500600","新店區"
"231045","898-TW","2018/12/22 19:29:28","新北市新店區北宜路二段215號","121.553288333333","24.9534066666667","6500600","新店區"
"231043","899-TW","2018/12/22 19:29:21","新北市新店區北新路二段226號","121.54282","24.977265","6500600","新店區"
"241028","022-UY","2018/12/22 19:29:26","新北市三重區中寮街90號","121.493258333333","25.057955","6500200","三重區"
"241008","059-VK","2018/12/22 19:29:35","新北市三重區永福街135巷34號","121.477438333333","25.0771833333333","6500200","三重區"
"241022","060-VK","2018/12/22 19:29:34","新北市三重區三民街175巷1號","121.483646666667","25.0652783333333","6500200","三重區"
"241023","061-VK","2018/12/22 19:29:30","新北市三重區頂崁街99號","121.478035","25.0637966666667","6500200","三重區"
"241017","063-VK","2018/12/22 19:29:35","新北市三重區大智街76巷29號","121.493283333333","25.0657866666667","6500200","三重區"
"241009","267-UM","2018/12/22 19:29:37","新北市三重區溪尾街242巷54號","121.486415","25.0815033333333","6500200","三重區"
"241032","269-UM","2018/12/22 19:29:41","新北市三重區三陽路64號","121.483945","25.058685","6500200","三重區"
"241013","270-UM","2018/12/22 19:29:27","新北市三重區仁愛街129巷3號","121.495715","25.0750466666667","6500200","三重區"
"241025","271-UM","2018/12/22 19:29:36","新北市三重區頂崁街210巷28弄9號","121.4758","25.06718","6500200","三重區"
"241007","398-BY","2018/12/22 19:29:20","新北市三重區溪尾街128號","121.489181666667","25.0793483333333","6500200","三重區"
"241035","KEA-2210","2018/12/22 19:29:26","新北市三重區信義西街1號","121.498131666667","25.0648766666667","6500200","三重區"
"241031","462-BY","2018/12/22 19:29:20","新北市三重區集美街100號","121.488546666667","25.0541616666667","6500200","三重區"
"241020","478-VK","2018/12/22 19:29:37","新北市三重區三和路四段20巷15號","121.490473333333","25.0738733333333","6500200","三重區"
"241030","480-VK","2018/12/22 19:29:32","新北市三重區成功路41巷16號","121.49026","25.0517616666667","6500200","三重區"
"241006","AAD-863","2018/12/22 19:29:21","新北市三重區自強路三段76巷34號","121.484421666667","25.0737166666667","6500200","三重區"
"241026","743-BX","2018/12/22 19:29:39","新北市三重區文化南路47巷6號","121.499655","25.0611366666667","6500200","三重區"
"241012","941-UM","2018/12/22 19:29:19","新北市三重區河邊北街266號","121.501638333333","25.0765233333333","6500200","三重區"
"241029","942-UM","2018/12/22 19:29:23","新北市三重區環河南路220-8號","121.493361666667","25.0526783333333","6500200","三重區"
"235066","003-UY","2018/12/22 19:29:18","新北市中和區景新街48號","121.503763333333","24.9992633333333","6500300","中和區"
"235064","005-UY","2018/12/22 19:29:29","新北市中和區泰和街48號","121.4991","24.99968","6500300","中和區"
"235063","006-UY","2018/12/22 19:29:21","新北市中和區連城路203巷10弄7號","121.494845","24.997205","6500300","中和區"
"235056","096-UM","2018/12/22 19:29:25","新北市中和區民富街9號","121.476568333333","25.0072533333333","6500300","中和區"
"235039","097-UM","2018/12/22 19:29:30","新北市中和區秀峰街103巷6弄2號","121.520351666667","24.9898366666667","6500300","中和區"
"235040","150-BY","2018/12/22 19:29:39","新北市中和區景安路79巷50號","121.507898333333","24.9956266666667","6500300","中和區"
"235058","151-BY","2018/12/22 19:29:25","新北市中和區員山路36巷16-3號","121.484586666667","24.9911566666667","6500300","中和區"
"235055","183-VK","2018/12/22 19:29:27","新北市中和區莒光路84巷14號","121.471861666667","25.0020983333333","6500300","中和區"
"235038","185-VK","2018/12/22 19:29:30","新北市中和區自立路15巷8號","121.522896666667","24.9959033333333","6500300","中和區"
"235049","186-VK","2018/12/22 19:29:26","新北市中和區景新街279號","121.509433333333","24.9935466666667","6500300","中和區"
"235067","255-BX","2018/12/22 19:29:26","新北市中和區新生街264號","121.483631666667","24.997235","6500300","中和區"
"235044","293-VK","2018/12/22 19:29:31","新北市中和區捷運路155號","121.506505","24.9911166666667","6500300","中和區"
"235072","301-VK","2018/12/22 19:29:24","新北市中和區連城路263巷8弄7號","121.491766666667","24.9951966666667","6500300","中和區"
"235042","KEA-2878","2018/12/22 19:29:23","新北市中和區中和路262巷43弄4號","121.509745","24.99975","6500300","中和區"
"235050","4979-A6","2018/12/22 19:29:28","新北市中和區中正路571巷2弄11號","121.486143333333","24.9937316666667","6500300","中和區"
"235070","558-UM","2018/12/22 19:29:24","新北市中和區中和路77號","121.500786666667","25.000905","6500300","中和區"
"235045","565-BX","2018/12/22 19:29:33","新北市中和區景新街383巷46號","121.514105","24.9908016666667","6500300","中和區"
"235054","640-BX","2018/12/22 19:29:33","新北市中和區國光街102巷11弄16號","121.470681666667","25.001135","6500300","中和區"
"235060","647-TV","2018/12/22 19:29:38","新北市中和區新生街118巷14號","121.4829","25.0018166666667","6500300","中和區"
"235046","733-UM","2018/12/22 19:29:35","新北市中和區忠孝街37巷30號","121.51082","24.984285","6500300","中和區"
"235071","783-BX","2018/12/22 19:29:23","新北市中和區連城路469巷21弄22號","121.484098333333","24.9950983333333","6500300","中和區"
"235057","801-TS","2018/12/22 19:29:30","新北市中和區中山路三段5號","121.479735","25.0059883333333","6500300","中和區"
"235041","802-TS","2018/12/22 19:29:35","新北市中和區中安街80巷3號","121.511933333333","25.001995","6500300","中和區"
"235052","805-TS","2018/12/22 19:29:27","新北市中和區華新街143巷71弄29號","121.507863333333","24.9790783333333","6500300","中和區"
"235048","896-TW","2018/12/22 19:29:34","新北市中和區忠孝街99-3號","121.512021666667","24.986195","6500300","中和區"
"235053","900-TW","2018/12/22 19:29:18","新北市中和區民德路198號","121.468263333333","24.9988116666667","6500300","中和區"
"235051","157-BY","2018/12/22 19:29:30","新北市中和區景新街116號","121.505128333333","24.9983183333333","6500300","中和區"
"235037","AAC-213","2018/12/22 19:29:27","新北市中和區秀朗路三段10巷14弄21號","121.524571666667","24.9964766666667","6500300","中和區"
"235059","AAC-215","2018/12/22 19:29:27","新北市中和區圓通路252巷4號","121.49317","24.9916283333333","6500300","中和區"
"220065","072-UY","2018/12/22 19:29:32","新北市板橋區國泰街111巷4-2號","121.465713333333","25.006145","6500100","板橋區"
"220086","073-UY","2018/12/22 19:29:30","新北市板橋區中正路236巷90號","121.458413333333","25.0194683333333","6500100","板橋區"
"220106","075-UY","2018/12/22 19:29:18","新北市板橋區文化路二段426號","121.474245","25.0320233333333","6500100","板橋區"
"220069","AAD-861","2018/12/22 19:29:33","新北市板橋區貴興路106巷3號","121.455323333333","25.0025633333333","6500100","板橋區"
"247004","002-UY","2018/12/22 19:29:28","新北市蘆洲區長安街209號","121.459876666667","25.0822916666667","6501400","蘆洲區"
"226004","312-R5","2018/12/22 19:29:38","新北市平溪區十分里十分街235號","121.778226666667","25.0439833333333","6502400","平溪區"
"235065","251-BX","2018/12/22 19:29:19","新北市中和區中山路二段64巷16弄16號","121.503836666667","25.006185","6500300","中和區"
"228003","097-TW","2018/12/22 19:29:21","新北市貢寮區和美里和美街22-1號","121.912793333333","25.0826216666667","6502600","貢寮區"
"228001","212-TW","2018/12/22 19:29:17","新北市貢寮區真理里延平街68號","121.92539","25.05742","6502600","貢寮區"
"224011","420-VK","2018/12/22 19:19:49","新北市瑞芳區崙頂路3-1號","121.846983333333","25.10462","6501200","瑞芳區"
"227002","642-TC","2018/12/22 19:29:31","新北市雙溪區雙溪里太平路50號","121.864565","25.0352316666667","6502500","雙溪區"
"227010","400-TW","2018/12/22 19:29:27","新北市雙溪區新基里新基北街43號","121.868161666667","25.0396983333333","6502500","雙溪區"
"253006","032-BX","2018/12/22 19:29:30","新北市石門區中央路1-17號","121.560648333333","25.29075","6502200","石門區"
"253005","295-VK","2018/12/22 19:29:27","新北市石門區小坑9號","121.594345","25.28857","6502200","石門區"
"222001","KEA-2212","2018/12/22 19:29:39","新北市深坑區深坑街10號","121.615748333333","25.00281","6501800","深坑區"
"208002","KEA-2872","2018/12/22 19:29:35","新北市金山區仁愛路87巷1號","121.634621666667","25.2214933333333","6502700","金山區"
"208003","665-BX","2018/12/22 19:29:28","新北市金山區仁愛路66號","121.635095","25.2211783333333","6502700","金山區"
"208001","761-BX","2018/12/22 19:29:36","新北市金山區中正路168號","121.630653333333","25.2211966666667","6502700","金山區"
"251013","KEA-2871","2018/12/22 19:29:19","新北市淡水區大牛稠5號","121.47029","25.2196016666667","6501000","淡水區"
"251016","179-VK","2018/12/22 19:29:32","新北市淡水區下圭柔山119-51號","121.450726666667","25.2084833333333","6501000","淡水區"
"251014","180-VK","2018/12/22 19:29:25","新北市淡水區小中寮19-7號","121.484758333333","25.229605","6501000","淡水區"
"251015","182-VK","2018/12/22 19:29:27","新北市淡水區北新路三段123號","121.48765","25.18938","6501000","淡水區"
"251010","413-VK","2018/12/22 19:29:32","新北市淡水區中正路二段301號","121.426335","25.1901133333333","6501000","淡水區"
"251012","441-VK","2018/12/22 19:29:20","新北市淡水區崁頂108號","121.433238333333","25.2042516666667","6501000","淡水區"
"251007","442-VK","2018/12/22 19:29:21","新北市淡水區八勢路30巷19號","121.462435","25.153655","6501000","淡水區"
"251005","443-VK","2018/12/22 19:29:00","新北市淡水區水源街一段71巷11號","121.44446","25.17292","6501000","淡水區"
"251001","559-UM","2018/12/22 19:29:38","新北市淡水區民權路141號","121.460125","25.1364683333333","6501000","淡水區"
"251006","561-UM","2018/12/22 19:29:31","新北市淡水區大義街40號","121.44214","25.1783816666667","6501000","淡水區"
"251009","575-R6","2018/12/22 19:29:28","新北市淡水區大忠街5巷8號","121.443361666667","25.1765116666667","6501000","淡水區"
"251011","650-BX","2018/12/22 19:29:34","新北市淡水區中正東路二段143巷2弄1號","121.46062","25.1473533333333","6501000","淡水區"
"207003","550-UM","2018/12/22 19:29:37","新北市萬里區大鵬里萬里加投197-5號","121.643958333333","25.215105","6502800","萬里區"
"207004","225-TW","2018/12/22 19:29:21","新北市萬里區萬里里瑪鋉路127-12號","121.688853333333","25.1777383333333","6502800","萬里區"
"252002","178-VK","2018/12/22 19:29:32","新北市三芝區淡金路二段18-1號","121.502688333333","25.2595016666667","6502100","三芝區"
"252001","292-VK","2018/12/22 19:29:25","新北市三芝區長勤街63-1號","121.500101666667","25.25612","6502100","三芝區"
"237004","KEA-2597","2018/12/22 19:29:27","新北市三峽區有木206號","121.43909","24.8515333333333","6500900","三峽區"
"237007","153-BY","2018/12/22 19:29:26","新北市三峽區二鬮路136巷20弄83號","121.3582","24.9089066666667","6500900","三峽區"
"237009","210-TH","2018/12/22 19:29:23","新北市三峽區民權街42號","121.369711666667","24.9335216666667","6500900","三峽區"
"237013","252-BX","2018/12/22 19:29:30","新北市三峽區介壽路一段309號","121.38127","24.930575","6500900","三峽區"
"237012","275-BY","2018/12/22 19:29:36","新北市三峽區民生街95號","121.374491666667","24.9355383333333","6500900","三峽區"
"237008","302-VK","2018/12/22 19:29:40","新北市三峽區永安街89號","121.374761666667","24.9291116666667","6500900","三峽區"
"237014","433-BY","2018/12/22 19:29:34","新北市三峽區中山路67巷1號","121.366871666667","24.9343266666667","6500900","三峽區"
"237006","5529-G3","2018/12/22 19:29:30","新北市三峽區中正路一段336巷15弄2號","121.369973333333","24.92497","6500900","三峽區"
"237011","KEA-2596","2018/12/22 19:29:35","新北市三峽區介壽路二段6巷2號","121.389183333333","24.934575","6500900","三峽區"
"237016","649-BX","2018/12/22 19:29:28","新北市三峽區成福路39號","121.417678333333","24.9286833333333","6500900","三峽區"
"237010","706-TV","2018/12/22 19:29:24","新北市三峽區復興路183號","121.368751666667","24.9388","6500900","三峽區"
"237005","AKY-6261","2018/12/22 19:29:26","新北市三峽區中山路184巷19號","121.36446","24.9371816666667","6500900","三峽區"
"236070","105-UM","2018/12/22 19:29:32","新北市土城區裕民路185巷36弄10號","121.454298333333","24.9845066666667","6501300","土城區"
"236042","KED-0685","2018/12/22 19:29:22","新北市土城區學府路一段239號","121.450435","24.9833783333333","6501300","土城區"
"236079","166-UM","2018/12/22 19:29:30","新北市土城區中州路3巷43號","121.413421666667","24.956355","6501300","土城區"
"236030","253-BX","2018/12/22 19:29:37","新北市土城區中央路一段332號","121.443151666667","24.9813516666667","6501300","土城區"
"236026","269-VK","2018/12/22 19:29:30","新北市土城區中央路二段61巷22號","121.443235","24.978725","6501300","土城區"
"236021","401-BY","2018/12/22 19:29:26","新北市土城區峰廷街18號","121.469006666667","24.9873216666667","6501300","土城區"
"236049","913-UM","2018/12/22 19:29:24","新北市土城區清水路200號","121.460425","24.9818866666667","6501300","土城區"
"236055","AAC-216","2018/12/22 19:29:33","新北市土城區學府路一段276號","121.450193333333","24.9833266666667","6501300","土城區"
"242013","173-VK","2018/12/22 19:29:18","新北市新莊區三和路12-21號","121.442071666667","25.0387416666667","6500500","新莊區"
"238015","755-BX","2018/12/22 19:29:33","新北市樹林區中興街55-4號","121.420985","24.9912333333333","6500700","樹林區"
"238023","601-UM","2018/12/22 19:29:30","新北市樹林區三福街114號","121.406418333333","25.0163383333333","6500700","樹林區"
"238019","599-UM","2018/12/22 19:29:36","新北市樹林區鎮前街411巷1弄16號","121.415548333333","24.98313","6500700","樹林區"
"238018","571-TV","2018/12/22 19:29:35","新北市樹林區中華路227號","121.418811666667","24.9809283333333","6500700","樹林區"
"238011","5061-A6","2018/12/22 19:29:21","新北市樹林區中山路三段127-1號","121.396681666667","24.9733166666667","6500700","樹林區"
"238022","KEA-2213","2018/12/22 19:29:35","新北市樹林區名園街11號","121.419223333333","24.9795416666667","6500700","樹林區"
"238021","KEA-2539","2018/12/22 19:29:40","新北市樹林區學勤路450號","121.380683333333","24.9483033333333","6500700","樹林區"
"238025","303-VK","2018/12/22 19:29:19","新北市樹林區中山路一段115-4號","121.42266","24.99033","6500700","樹林區"
"238017","283-BY","2018/12/22 19:29:30","新北市樹林區光興街11巷1號","121.412365","25.0027216666667","6500700","樹林區"
"238014","282-BY","2018/12/22 19:29:38","新北市樹林區千歲街19巷7號","121.42465","24.9957783333333","6500700","樹林區"
"238020","268-VK","2018/12/22 19:29:30","新北市樹林區俊英街105-1號","121.425076666667","25.0096833333333","6500700","樹林區"
"238026","172-UY","2018/12/22 19:29:38","新北市樹林區佳園路三段12號","121.388026666667","24.9543566666667","6500700","樹林區"
"239007","AAC-297","2018/12/22 19:29:27","新北市鶯歌區中正一路阿南巷501號","121.379246666667","24.9637666666667","6500800","鶯歌區"
"239006","891-R6","2018/12/22 19:29:31","新北市鶯歌區鶯桃路91巷19號","121.338111666667","24.9525633333333","6500800","鶯歌區"
"239005","526-UM","2018/12/22 19:29:22","新北市鶯歌區中湖街315巷31號","121.345593333333","24.977565","6500800","鶯歌區"
"239001","417-VK","2018/12/22 19:29:38","新北市鶯歌區建國路401號","121.337963333333","24.95083","6500800","鶯歌區"
"239003","360-BY","2018/12/22 19:27:11","新北市樹林區中山路三段210-2號","121.380608333333","24.9678266666667","6500800","鶯歌區"
"239002","359-BY","2018/12/22 19:29:38","新北市鶯歌區大湖路185巷22號","121.342668333333","24.9704633333333","6500800","鶯歌區"
"239004","193-VK","2018/12/22 19:29:24","新北市鶯歌區二甲路47-1號","121.336315","24.9341166666667","6500800","鶯歌區"
"221036","130-UY","2018/12/22 19:29:26","新北市汐止區康寧街901號","121.651098333333","25.0751483333333","6501100","汐止區"
"221015","131-UY","2018/12/22 19:29:25","新北市汐止區康寧街901號","121.651586666667","25.0749816666667","6501100","汐止區"
"221010","269-BY","2018/12/22 19:29:31","新北市汐止區連峰街5巷2號","121.646596666667","25.0770433333333","6501100","汐止區"
"221012","278-VK","2018/12/22 19:29:37","新北市汐止區大同路三段194號","121.67448","25.0743333333333","6501100","汐止區"
"221023","279-VK","2018/12/22 19:29:35","新北市汐止區康寧街901號","121.651511666667","25.074875","6501100","汐止區"
"221027","281-BY","2018/12/22 19:29:28","新北市汐止區忠孝東路9號","121.658353333333","25.0659733333333","6501100","汐止區"
"221029","298-VK","2018/12/22 19:29:33","新北市汐止區汐萬路一段256巷1號","121.651706666667","25.0748416666667","6501100","汐止區"
"221021","299-VK","2018/12/22 19:29:28","新北市汐止區康寧街901號","121.651503333333","25.07502","6501100","汐止區"
"221031","353-TW","2018/12/22 19:29:30","新北市汐止區康寧街901號","121.650826666667","25.0752616666667","6501100","汐止區"
"221025","623-UM","2018/12/22 19:29:21","新北市汐止區新台五路二段6號","121.660175","25.0649683333333","6501100","汐止區"
"221038","646-BX","2018/12/22 19:29:19","新北市汐止區大同路二段341-1號","121.656196666667","25.0670533333333","6501100","汐止區"
"221033","647-BX","2018/12/22 19:29:25","新北市汐止區南勢街3號","121.627096666667","25.0374333333333","6501100","汐止區"
"221002","707-TV","2018/12/22 19:29:26","新北市汐止區大同路一段335號","121.638435","25.0593283333333","6501100","汐止區"
"220079","145-BY","2018/12/22 19:29:27","新北市板橋區民權路260巷25號","121.458821666667","25.0153666666667","6500100","板橋區"
"220080","200-UY","2018/12/22 19:29:25","新北市板橋區大觀路二段3巷90號","121.450135","25.0032266666667","6500100","板橋區"
"220082","610-BX","2018/12/22 19:29:33","新北市板橋區金門街126號","121.43289","24.9912666666667","6500100","板橋區"
"224002","257-TC","2018/12/22 19:29:19","新北市瑞芳區三爪子坑路89-17號","121.812176666667","25.1073266666667","6501200","瑞芳區"
"220091","267-BY","2018/12/22 19:29:32","新北市板橋區文聖街149巷23弄14號","121.479338333333","25.0288566666667","6500100","板橋區"
"220056","276-BY","2018/12/22 19:29:34","新北市板橋區信義路237號","121.460131666667","24.99093","6500100","板橋區"
"220072","277-BY","2018/12/22 19:29:29","新北市板橋區篤行路二段143號","121.429901666667","24.988165","6500100","板橋區"
"220101","280-UM","2018/12/22 19:29:37","新北市板橋區縣民大道三段37號","121.473958333333","25.0208883333333","6500100","板橋區"
"220071","283-VK","2018/12/22 19:29:35","新北市板橋區忠孝路48巷4弄1-1號","121.460838333333","25.000765","6500100","板橋區"
"220094","285-UM","2018/12/22 19:29:27","新北市板橋區銘傳街86號","121.469368333333","25.0314233333333","6500100","板橋區"
"220053","285-VK","2018/12/22 19:29:35","新北市板橋區富山街53巷1弄50號","121.477665","25.0197366666667","6500100","板橋區"
"220083","286-VK","2018/12/22 19:29:34","新北市板橋區大觀路一段38巷184號","121.441373333333","25.0044766666667","6500100","板橋區"
"220081","287-VK","2018/12/22 19:29:34","新北市板橋區大觀路一段28巷1弄102號","121.452048333333","25.0063666666667","6500100","板橋區"
"220090","288-VK","2018/12/22 19:29:41","新北市板橋區裕民街56巷3號","121.461241666667","25.028865","6500100","板橋區"
"220061","295-UM","2018/12/22 19:29:18","新北市板橋區中山路一段272巷18-1號","121.46937","25.01358","6500100","板橋區"
"220084","296-UM","2018/12/22 19:29:22","新北市板橋區滿平街133號","121.428835","24.988225","6500100","板橋區"
"220075","303-R5","2018/12/22 19:29:26","新北市板橋區中正路253巷27號","121.454146666667","25.0177116666667","6500100","板橋區"
"220062","305-R5","2018/12/22 19:29:38","新北市板橋區三民路二段123巷14號","121.479993333333","25.0155683333333","6500100","板橋區"
"220092","307-R5","2018/12/22 19:29:28","新北市板橋區陽明街20號","121.466381666667","25.0217","6500100","板橋區"
"220098","317-R6","2018/12/22 19:29:37","新北市板橋區民有街89巷8弄1-1號","121.464305","25.0273733333333","6500100","板橋區"
"220089","487-VK","2018/12/22 19:29:28","新北市板橋區龍泉街82巷11-4號","121.45588","25.02551","6500100","板橋區"
"220088","491-VK","2018/12/22 19:29:40","新北市板橋區文化路二段446號","121.474621666667","25.0324166666667","6500100","板橋區"
"220035","560-BX","2018/12/22 19:29:29","新北市板橋區中正路330號","121.454393333333","25.021675","6500100","板橋區"
"220103","561-BX","2018/12/22 19:29:28","新北市板橋區陽明街29巷29號","121.464026666667","25.02244","6500100","板橋區"
"220063","609-BX","2018/12/22 19:29:27","新北市板橋區中山路二段531巷17弄20號","121.482163333333","25.022035","6500100","板橋區"
"220055","630-UY","2018/12/22 19:29:20","新北市板橋區實踐路132號","121.464488333333","25.0026766666667","6500100","板橋區"
"220057","686-BX","2018/12/22 19:29:25","新北市板橋區和平路28號","121.460345","24.9945283333333","6500100","板橋區"
"220077","687-BX","2018/12/22 19:29:32","新北市板橋區僑中二街92巷1號","121.446233333333","25.0087966666667","6500100","板橋區"
"220093","689-BX","2018/12/22 19:29:33","新北市板橋區長江路一段91號","121.45912","25.0294316666667","6500100","板橋區"
"220054","741-BX","2018/12/22 19:29:30","新北市中和區德光路118號","121.468103333333","25.0037966666667","6500100","板橋區"
"220102","KEA-2699","2018/12/22 19:29:27","新北市板橋區松柏街25-3號","121.474963333333","25.030125","6500100","板橋區"
"220067","829-TW","2018/12/22 19:29:32","新北市板橋區漢生東路279巷8號","121.471843333333","25.0091433333333","6500100","板橋區"
"220068","830-TW","2018/12/22 19:29:23","新北市板橋區萬安街103巷3號","121.4834","25.0246233333333","6500100","板橋區"
"220074","895-R6","2018/12/22 19:29:25","新北市板橋區民權路170巷2號","121.459796666667","25.0129866666667","6500100","板橋區"
"220073","985-R7","2018/12/22 19:29:40","新北市板橋區瑞安街2號","121.45456","25.0234083333333","6500100","板橋區"
"220097","AAC-210","2018/12/22 19:29:36","新北市板橋區文化路一段285巷2弄31號","121.463855","25.0195866666667","6500100","板橋區"
"220064","AAC-253","2018/12/22 19:29:34","新北市板橋區中山路一段68號","121.461495","25.0099566666667","6500100","板橋區"
"235068","KEA-2873","2018/12/22 19:29:19","新北市中和區連勝街57巷11號","121.497963333333","24.9967533333333","6500300","中和區"
"235061","KEA-2875","2018/12/22 19:29:26","新北市中和區員山路199號","121.48121","24.9974","6500300","中和區"
"235047","KEA-2876","2018/12/22 19:29:11","新北市中和區景平路241巷15號","121.509256666667","24.99252","6500300","中和區"
