"lineid","car","time","location","longitude","latitude","cityid","cityname"
"234046","148-BY","2018/12/22 19:39:23","新北市永和區永利路121號","121.523855","25.0025483333333","6500400","永和區"
"234081","298-R6","2018/12/22 19:39:39","新北市永和區國中路104巷6號","121.52471","25.00692","6500400","永和區"
"234038","336-UY","2018/12/22 19:39:22","新北市永和區民樂街29號","121.52783","25.00153","6500400","永和區"
"234064","337-UY","2018/12/22 19:39:41","新北市永和區秀朗路一段192巷6弄14號","121.51918","25.0022266666667","6500400","永和區"
"234070","552-UM","2018/12/22 19:39:29","新北市永和區永和路二段234號","121.515696666667","25.0143266666667","6500400","永和區"
"234086","553-UM","2018/12/22 19:39:34","新北市永和區永亨路114號","121.523731666667","25.00437","6500400","永和區"
"234017","745-BX","2018/12/22 19:39:37","新北市永和區永和路二段425巷57弄1號","121.513698333333","25.0172866666667","6500400","永和區"
"234030","746-BX","2018/12/22 19:39:39","新北市永和區民生路37巷5號","121.523593333333","24.9980766666667","6500400","永和區"
"234054","KEA-2590","2018/12/22 19:39:35","新北市永和區竹林路41號","121.51805","25.0142833333333","6500400","永和區"
"234007","839-RS","2018/12/22 19:39:33","新北市中和區中和路388號","121.510926666667","25.0023333333333","6500400","永和區"
"234013","KEA-2591","2018/12/22 19:39:34","新北市永和區永平路201號","121.509471666667","25.0099633333333","6500400","永和區"
"234061","AAD-866","2018/12/22 19:39:34","新北市永和區中正路388號","121.517588333333","25.0014","6500400","永和區"
"234042","862-TW","2018/12/22 19:39:36","新北市中和區中和路306-1號","121.508978333333","25.0001133333333","6500400","永和區"
"234050","863-TW","2018/12/22 19:39:33","新北市永和區保安路132號","121.508916666667","25.01526","6500400","永和區"
"234026","9371-KE","2018/12/22 19:39:21","新北市永和區中和路501巷5號","121.510403333333","25.0026583333333","6500400","永和區"
"234011","9373-KE","2018/12/22 19:39:33","新北市永和區保生路55-1號","121.504545","25.01088","6500400","永和區"
"249002","305-UY","2018/12/22 19:39:27","新北市八里區頂寮二街33-1號","121.450363333333","25.1251766666667","6502300","八里區"
"249003","593-UM","2018/12/22 19:39:33","新北市八里區華峰三街42號","121.3992","25.14587","6502300","八里區"
"248014","025-BX","2018/12/22 19:39:24","新北市五股區五福路52巷11弄2號","121.433908333333","25.0898916666667","6501500","五股區"
"248016","026-BX","2018/12/22 19:39:31","新北市五股區成泰路四段18-2號","121.453638333333","25.1067033333333","6501500","五股區"
"248008","095-VK","2018/12/22 19:39:37","新北市五股區四維路116-2號","121.467875","25.0746233333333","6501500","五股區"
"248020","225-UY","2018/12/22 19:39:35","新北市五股區中直路13-1號","121.424398333333","25.1119933333333","6501500","五股區"
"248010","272-BY","2018/12/22 19:39:31","新北市五股區自強路166號","121.431881666667","25.0698683333333","6501500","五股區"
"248004","655-BX","2018/12/22 19:39:27","新北市五股區成泰路二段78號","121.437398333333","25.082235","6501500","五股區"
"248002","678-BX","2018/12/22 19:39:22","新北市五股區成泰路三段577巷52號","121.450686666667","25.1032233333333","6501500","五股區"
"234077","969-R7","2018/12/22 19:39:33","新北市永和區民權路1巷8號","121.520726666667","24.9983566666667","6500400","永和區"
"234074","AAC-211","2018/12/22 19:39:34","新北市永和區竹林路225巷5-1號","121.521286666667","25.008535","6500400","永和區"
"234067","AAC-212","2018/12/22 19:39:20","新北市永和區中山路一段213號","121.508598333333","25.008155","6500400","永和區"
"234003","AAC-295","2018/12/22 19:39:37","新北市永和區福和路379號","121.514348333333","25.0075983333333","6500400","永和區"
"244023","483-VK","2018/12/22 19:39:30","新北市林口區民富街88號","121.37025","25.074835","6501700","林口區"
"244009","656-BX","2018/12/22 19:39:36","新北市八里區中山路三段382號","121.368701666667","25.1358483333333","6501700","林口區"
"243013","AAD-798","2018/12/22 19:39:30","新北市泰山區應化街7號","121.423865","25.04372","6501600","泰山區"
"243009","297-R6","2018/12/22 19:39:39","新北市泰山區美寧街68號","121.431025","25.0646833333333","6501600","泰山區"
"243016","KEA-2801","2018/12/22 19:39:29","新北市泰山區明志路三段452號","121.420953333333","25.0325283333333","6501600","泰山區"
"243015","421-VK","2018/12/22 19:39:38","新北市泰山區民權街99號","121.428535","25.0494016666667","6501600","泰山區"
"243011","KEA-2215","2018/12/22 19:39:30","新北市泰山區貴子路41-1號","121.429741666667","25.039935","6501600","泰山區"
"243010","KEA-2216","2018/12/22 19:39:38","新北市泰山區明志路二段7巷17號","121.430765","25.0532666666667","6501600","泰山區"
"243012","646-TV","2018/12/22 19:39:25","新北市泰山區仁愛路100巷60號","121.433823333333","25.05435","6501600","泰山區"
"243014","680-BX","2018/12/22 19:39:23","新北市泰山區仁愛路126號","121.433895","25.0558033333333","6501600","泰山區"
"222003","436-BY","2018/12/22 19:29:44","新北市深坑區深南路51-1號","121.621251666667","25.00982","6501800","深坑區"
"222002","659-BX","2018/12/22 19:39:29","新北市深坑區北深路一段177號","121.632558333333","25.0108733333333","6501800","深坑區"
"231041","002-UM","2018/12/22 19:39:33","新北市新店區中正路487號","121.533866666667","24.98206","6500600","新店區"
"231059","046-UY","2018/12/22 19:39:28","新北市新店區安和路三段83號","121.51781","24.9838033333333","6500600","新店區"
"231040","047-UY","2018/12/22 19:39:40","新北市新店區中正路75巷71號","121.543065","24.9688716666667","6500600","新店區"
"231044","106-UY","2018/12/22 19:39:38","新北市新店區北新路三段179號","121.54082","24.9843183333333","6500600","新店區"
"231046","107-UY","2018/12/22 19:39:27","新北市新店區自由街13號","121.535545","24.9748483333333","6500600","新店區"
"231052","108-UY","2018/12/22 19:39:26","新北市新店區新烏路二段442號","121.55161","24.90833","6500600","新店區"
"231062","110-UY","2018/12/22 19:39:32","新北市新店區碧潭路36號","121.534248333333","24.9564333333333","6500600","新店區"
"231048","187-VK","2018/12/22 19:39:37","新北市新店區五峰路63巷8弄74號","121.547935","24.9684666666667","6500600","新店區"
"231054","KEA-2219","2018/12/22 19:39:32","新北市新店區文中路45號","121.539616666667","24.956615","6500600","新店區"
"231057","256-BX","2018/12/22 19:39:27","新北市新店區橘園一路11號","121.547975","24.9340166666667","6500600","新店區"
"231065","260-TV","2018/12/22 19:39:29","新北市新店區安祥路109巷6弄47號","121.475465","24.9573333333333","6500600","新店區"
"231042","268-BY","2018/12/22 19:39:25","新北市新店區中興路一段185號","121.543068333333","24.9649583333333","6500600","新店區"
"231051","278-BY","2018/12/22 19:39:37","新北市新店區中央二街48號","121.527211666667","24.9741266666667","6500600","新店區"
"231050","AAD-862","2018/12/22 19:39:31","新北市新店區秀水路6巷1號","121.555036666667","24.9539","6500600","新店區"
"231058","3713-VJ","2018/12/22 19:39:28","新北市新店區寶橋路56號","121.546063333333","24.9754566666667","6500600","新店區"
"231066","4716-K9","2018/12/22 19:39:32","新北市新店區安康路三段165巷2弄29號","121.487951666667","24.95139","6500600","新店區"
"231056","4715-K9","2018/12/22 19:39:29","新北市新店區中正路468號","121.533978333333","24.9795833333333","6500600","新店區"
"231067","4772-VM","2018/12/22 19:39:27","新北市新店區安民街5號","121.515246666667","24.9642","6500600","新店區"
"231061","619-UM","2018/12/22 19:39:21","新北市新店區安民街71號","121.516521666667","24.9670133333333","6500600","新店區"
"231063","641-BX","2018/12/22 19:39:27","新北市新店區達觀路40號","121.503425","24.9385816666667","6500600","新店區"
"231049","719-UM","2018/12/22 19:39:28","新北市新店區大豐路61號","121.539751666667","24.9796133333333","6500600","新店區"
"231064","719-UY","2018/12/22 19:39:29","新北市新店區安和路一段52巷2號","121.517645","24.9662433333333","6500600","新店區"
"231060","897-TW","2018/12/22 19:39:35","新北市新店區安康路二段161號","121.510183333333","24.9593866666667","6500600","新店區"
"231045","898-TW","2018/12/22 19:39:28","新北市新店區北宜路二段210號","121.559398333333","24.9543583333333","6500600","新店區"
"231043","899-TW","2018/12/22 19:39:21","新北市新店區中正路114號","121.542658333333","24.971045","6500600","新店區"
"231055","AKT-0513","2018/12/22 19:39:38","新北市新店區新生街5巷5號","121.540068333333","24.9657683333333","6500600","新店區"
"241028","022-UY","2018/12/22 19:39:26","新北市三重區中正南路163號","121.493813333333","25.0560516666667","6500200","三重區"
"241008","059-VK","2018/12/22 19:39:35","新北市三重區永福街74號","121.478913333333","25.07676","6500200","三重區"
"241022","060-VK","2018/12/22 19:39:34","新北市三重區重陽路二段72號","121.487218333333","25.064135","6500200","三重區"
"241023","061-VK","2018/12/22 19:39:30","新北市三重區忠孝路三段99巷4號","121.48009","25.0641716666667","6500200","三重區"
"241015","062-VK","2018/12/22 19:39:23","新北市三重區福德北路34號","121.502066666667","25.0651883333333","6500200","三重區"
"241017","063-VK","2018/12/22 19:39:35","新北市三重區重陽路三段5巷30號","121.491381666667","25.0654733333333","6500200","三重區"
"241009","267-UM","2018/12/22 19:39:37","新北市三重區三和路四段404號","121.481015","25.07968","6500200","三重區"
"241032","269-UM","2018/12/22 19:39:41","新北市三重區重陽路一段60巷47號","121.484888333333","25.0582483333333","6500200","三重區"
"241013","270-UM","2018/12/22 19:39:27","新北市三重區仁賢街23號","121.496216666667","25.0747616666667","6500200","三重區"
"241025","271-UM","2018/12/22 19:39:36","新北市三重區忠孝路三段84巷5號","121.48022","25.0644066666667","6500200","三重區"
"241007","398-BY","2018/12/22 19:39:40","新北市三重區仁美街64號","121.486531666667","25.0783066666667","6500200","三重區"
"241035","KEA-2210","2018/12/22 19:39:26","新北市三重區正義北路61-3號","121.497593333333","25.0645183333333","6500200","三重區"
"241031","462-BY","2018/12/22 19:39:40","新北市三重區重新路四段250-1號","121.486035","25.0534183333333","6500200","三重區"
"241020","478-VK","2018/12/22 19:39:37","新北市三重區自強路三段83號","121.487385","25.0747916666667","6500200","三重區"
"241030","480-VK","2018/12/22 19:39:32","新北市三重區新興路28巷20號","121.491655","25.0528033333333","6500200","三重區"
"241014","543-UM","2018/12/22 19:39:20","新北市三重區河邊北街92巷1號","121.504073333333","25.0694716666667","6500200","三重區"
"241001","547-UM","2018/12/22 19:39:30","新北市三重區福隆路117號","121.492765","25.0785316666667","6500200","三重區"
"241019","KEA-2593","2018/12/22 19:39:32","新北市三重區安慶街297巷3弄1號","121.488563333333","25.06796","6500200","三重區"
"241006","AAD-863","2018/12/22 19:39:21","新北市三重區三和路四段160巷67號","121.486095","25.07524","6500200","三重區"
"241026","743-BX","2018/12/22 19:39:19","新北市三重區正義南路60-6號","121.498726666667","25.06005","6500200","三重區"
"241012","941-UM","2018/12/22 19:39:38","新北市三重區仁興街33巷11號","121.499491666667","25.0755066666667","6500200","三重區"
"241029","942-UM","2018/12/22 19:39:23","新北市三重區同安街113號","121.494295","25.05632","6500200","三重區"
"235066","003-UY","2018/12/22 19:39:38","新北市中和區中和路196巷9弄1號","121.50522","24.99915","6500300","中和區"
"235064","005-UY","2018/12/22 19:39:29","新北市中和區南山路131-1號","121.502278333333","24.9965833333333","6500300","中和區"
"235063","006-UY","2018/12/22 19:39:21","新北市中和區連城路263巷5弄2號","121.492115","24.9960683333333","6500300","中和區"
"235056","096-UM","2018/12/22 19:39:25","新北市中和區中山路三段114巷68號","121.475946666667","25.00766","6500300","中和區"
"235039","097-UM","2018/12/22 19:39:30","新北市中和區景平路148號","121.518268333333","24.9919066666667","6500300","中和區"
"235040","150-BY","2018/12/22 19:39:19","新北市中和區宜安路96號","121.510718333333","24.9977366666667","6500300","中和區"
"235058","151-BY","2018/12/22 19:39:25","新北市中和區連城路525號","121.481596666667","24.995165","6500300","中和區"
"235055","183-VK","2018/12/22 19:39:27","新北市中和區民享街52號","121.474063333333","25.0025533333333","6500300","中和區"
"235038","185-VK","2018/12/22 19:39:30","新北市中和區自強路27巷8弄18號","121.52114","24.9930266666667","6500300","中和區"
"235049","186-VK","2018/12/22 19:39:38","新北市中和區明禮街15號","121.504871666667","24.9958566666667","6500300","中和區"
"235067","255-BX","2018/12/22 19:39:26","新北市中和區新生街222號","121.483778333333","24.998405","6500300","中和區"
"235044","293-VK","2018/12/22 19:39:31","新北市中和區南山路290號","121.507881666667","24.98744","6500300","中和區"
"235072","301-VK","2018/12/22 19:39:24","新北市中和區中正路432巷32號","121.490998333333","24.995805","6500300","中和區"
"235042","KEA-2878","2018/12/22 19:39:23","新北市中和區景安路79巷37弄12號","121.507973333333","24.9961466666667","6500300","中和區"
"235050","4979-A6","2018/12/22 19:39:28","新北市中和區中正路271-1號","121.495745","24.9935933333333","6500300","中和區"
"235070","558-UM","2018/12/22 19:39:24","新北市中和區泰和街46巷3號","121.49852","24.999795","6500300","中和區"
"235045","565-BX","2018/12/22 19:39:33","新北市中和區景新街367號","121.512041666667","24.9906916666667","6500300","中和區"
"235054","640-BX","2018/12/22 19:39:33","新北市中和區德光路76號","121.469185","25.0037033333333","6500300","中和區"
"235060","647-TV","2018/12/22 19:39:18","新北市中和區中山路二段523巷13號","121.48181","25.0041233333333","6500300","中和區"
"235046","733-UM","2018/12/22 19:39:35","新北市中和區忠孝街94號","121.511693333333","24.9845233333333","6500300","中和區"
"235071","783-BX","2018/12/22 19:39:23","新北市中和區中正路839巷29號","121.483593333333","25.00238","6500300","中和區"
"235057","801-TS","2018/12/22 19:39:30","新北市中和區員山路168號","121.481371666667","24.99978","6500300","中和區"
"235041","802-TS","2018/12/22 19:39:35","新北市中和區永貞路245號","121.513031666667","25.004045","6500300","中和區"
"235052","805-TS","2018/12/22 19:39:27","新北市中和區華新街206巷21弄4號","121.505873333333","24.9826666666667","6500300","中和區"
"235048","896-TW","2018/12/22 19:39:34","新北市中和區華新街44號","121.507876666667","24.9842066666667","6500300","中和區"
"235053","900-TW","2018/12/22 19:39:38","新北市中和區國光街215巷10弄6號","121.466713333333","25.0006666666667","6500300","中和區"
"235051","157-BY","2018/12/22 19:39:30","新北市中和區板南路132號","121.50245","24.9926716666667","6500300","中和區"
"235037","AAC-213","2018/12/22 19:39:27","新北市中和區秀朗路三段50巷2-1號","121.525703333333","24.9955516666667","6500300","中和區"
"235059","AAC-215","2018/12/22 19:39:27","新北市中和區圓通路284號","121.491488333333","24.9905866666667","6500300","中和區"
"220065","072-UY","2018/12/22 19:39:32","新北市板橋區國泰街39巷5弄10號","121.468723333333","25.0059833333333","6500100","板橋區"
"220086","073-UY","2018/12/22 19:39:30","新北市板橋區中正路1巷2弄2號","121.455793333333","25.0119583333333","6500100","板橋區"
"220106","075-UY","2018/12/22 19:39:38","新北市板橋區文化路608巷50-1號","121.479581666667","25.034475","6500100","板橋區"
"220069","AAD-861","2018/12/22 19:39:33","新北市板橋區貴興路119巷3號","121.455815","25.0021433333333","6500100","板橋區"
"247002","893-R6","2018/12/22 19:39:26","新北市蘆洲區長榮路709號","121.461076666667","25.0928983333333","6501400","蘆洲區"
"247004","002-UY","2018/12/22 19:39:28","新北市蘆洲區長安街102巷67號","121.462526666667","25.0823883333333","6501400","蘆洲區"
"226004","312-R5","2018/12/22 19:39:36","新北市平溪區靜安路三段392巷3號","121.784501666667","25.0495683333333","6502400","平溪區"
"235065","251-BX","2018/12/22 19:39:31","新北市中和區福美路245號","121.49913","25.005235","6500300","中和區"
"228003","097-TW","2018/12/22 19:39:41","新北市貢寮區真理里美艷山街15-3號","121.923731666667","25.068","6502600","貢寮區"
"228001","212-TW","2018/12/22 19:39:38","新北市貢寮區真理里延平街49號","121.924565","25.0556433333333","6502600","貢寮區"
"224011","420-VK","2018/12/22 19:19:49","新北市瑞芳區崙頂路3-1號","121.846983333333","25.10462","6501200","瑞芳區"
"227002","642-TC","2018/12/22 19:39:31","新北市雙溪區雙溪里太平路77號","121.865235","25.03603","6502500","雙溪區"
"227010","400-TW","2018/12/22 19:39:27","新北市雙溪區新基里中華路28-1號","121.866848333333","25.0368533333333","6502500","雙溪區"
"253006","032-BX","2018/12/22 19:39:30","新北市石門區小坑9號","121.594156666667","25.288685","6502200","石門區"
"222001","KEA-2212","2018/12/22 19:39:39","新北市深坑區深坑街148號","121.613041666667","25.00141","6501800","深坑區"
"208002","KEA-2872","2018/12/22 19:39:34","新北市金山區中正路33號","121.635178333333","25.2221033333333","6502700","金山區"
"208003","665-BX","2018/12/22 19:39:28","新北市金山區仁愛路1巷1號","121.638558333333","25.2200616666667","6502700","金山區"
"208001","761-BX","2018/12/22 19:39:37","新北市金山區重和里六股林口4號","121.607991666667","25.2230333333333","6502700","金山區"
"251013","KEA-2871","2018/12/22 19:39:19","新北市淡水區店子後9號","121.459938333333","25.218795","6501000","淡水區"
"251016","179-VK","2018/12/22 19:39:32","新北市淡水區下圭柔山119-51號","121.450726666667","25.20849","6501000","淡水區"
"251014","180-VK","2018/12/22 19:39:25","新北市淡水區中和里12-1號","121.478881666667","25.231365","6501000","淡水區"
"251015","182-VK","2018/12/22 19:39:36","新北市三芝區興華里車埕70-9號","121.493151666667","25.1941716666667","6501000","淡水區"
"251010","413-VK","2018/12/22 19:39:32","新北市淡水區崁頂92號","121.429461666667","25.2021616666667","6501000","淡水區"
"251012","441-VK","2018/12/22 19:39:40","新北市淡水區淡金路二段605號","121.44619","25.1934516666667","6501000","淡水區"
"251007","442-VK","2018/12/22 19:39:21","新北市淡水區中正東路一段111巷36號","121.455676666667","25.1613583333333","6501000","淡水區"
"251005","443-VK","2018/12/22 19:39:20","新北市淡水區原德路114號","121.443621666667","25.1738983333333","6501000","淡水區"
"251001","559-UM","2018/12/22 19:39:38","新北市淡水區民權路41號","121.459758333333","25.1402583333333","6501000","淡水區"
"251006","561-UM","2018/12/22 19:39:31","新北市淡水區中山北路一段207巷74號","121.441385","25.1794816666667","6501000","淡水區"
"251009","575-R6","2018/12/22 19:39:28","新北市淡水區中山北路一段198巷15號","121.44541","25.1792566666667","6501000","淡水區"
"251011","650-BX","2018/12/22 19:39:34","新北市淡水區紅樹林路195號","121.460611666667","25.1566333333333","6501000","淡水區"
"207003","550-UM","2018/12/22 19:39:37","新北市萬里區大鵬里下社1號","121.647786666667","25.2151683333333","6502800","萬里區"
"207004","225-TW","2018/12/22 19:39:21","新北市萬里區萬里里瑪鋉路21號","121.687238333333","25.1753466666667","6502800","萬里區"
"252002","178-VK","2018/12/22 19:39:32","新北市三芝區三民街14號","121.504175","25.2586916666667","6502100","三芝區"
"252001","292-VK","2018/12/22 19:39:25","新北市三芝區公正街66號","121.499798333333","25.2574716666667","6502100","三芝區"
"237004","KEA-2597","2018/12/22 19:39:27","新北市三峽區插角218-2號","121.415068333333","24.86812","6500900","三峽區"
"237007","153-BY","2018/12/22 19:39:26","新北市三峽區二鬮路136巷137號","121.35666","24.91065","6500900","三峽區"
"237009","210-TH","2018/12/22 19:39:23","新北市三峽區中園街59號","121.368131666667","24.9258383333333","6500900","三峽區"
"237013","252-BX","2018/12/22 19:39:24","新北市三峽區介壽路三段2號","121.395443333333","24.9361416666667","6500900","三峽區"
"237012","275-BY","2018/12/22 19:39:26","新北市三峽區安溪路309巷6號","121.373505","24.9328116666667","6500900","三峽區"
"237008","302-VK","2018/12/22 19:39:21","新北市三峽區永安街183號","121.373158333333","24.9269","6500900","三峽區"
"237014","433-BY","2018/12/22 19:39:34","新北市三峽區嘉添16號","121.368558333333","24.911955","6500900","三峽區"
"237006","5529-G3","2018/12/22 19:39:30","新北市三峽區中正路一段336巷15弄2號","121.369966666667","24.9249916666667","6500900","三峽區"
"237011","KEA-2596","2018/12/22 19:39:35","新北市三峽區中正路一段170號","121.372818333333","24.9285866666667","6500900","三峽區"
"237016","649-BX","2018/12/22 19:39:28","新北市三峽區橫溪路99巷4號","121.399313333333","24.9357","6500900","三峽區"
"237010","706-TV","2018/12/22 19:39:24","新北市三峽區復興路36-8號","121.373848333333","24.93677","6500900","三峽區"
"237005","AKY-6261","2018/12/22 19:39:26","新北市三峽區文化路256號","121.367126666667","24.9357583333333","6500900","三峽區"
"236070","105-UM","2018/12/22 19:39:32","新北市土城區金城路一段131號","121.444793333333","24.9737183333333","6501300","土城區"
"236042","KED-0685","2018/12/22 19:39:37","新北市土城區裕民路258號","121.454503333333","24.9828416666667","6501300","土城區"
"236079","166-UM","2018/12/22 19:39:30","新北市土城區中州路27巷87號","121.412598333333","24.95625","6501300","土城區"
"236030","253-BX","2018/12/22 19:39:37","新北市土城區福祥街64號","121.441563333333","24.9815633333333","6501300","土城區"
"236026","269-VK","2018/12/22 19:39:30","新北市土城區中央路二段61巷22號","121.443216666667","24.9787083333333","6501300","土城區"
"236038","271-VK","2018/12/22 19:39:35","新北市土城區仁愛路16巷11號","121.459983333333","24.9800233333333","6501300","土城區"
"236021","401-BY","2018/12/22 19:39:26","新北市土城區峰廷街18號","121.468955","24.9872933333333","6501300","土城區"
"236059","912-UM","2018/12/22 19:39:29","新北市土城區中央路二段78號","121.442485","24.9790366666667","6501300","土城區"
"236049","913-UM","2018/12/22 19:39:24","新北市土城區明德路一段71號","121.465783333333","24.98338","6501300","土城區"
"236063","915-UM","2018/12/22 19:39:24","新北市土城區延平街33巷1號","121.467873333333","24.9917583333333","6501300","土城區"
"236055","AAC-216","2018/12/22 19:39:33","新北市土城區學府路一段8號","121.459425","24.98844","6501300","土城區"
"242048","497-BY","2018/12/22 19:39:22","新北市新莊區後港一路3號","121.424116666667","25.0263033333333","6500500","新莊區"
"242034","135-UY","2018/12/22 19:39:22","新北市新莊區仁愛街16-5號","121.444378333333","25.03558","6500500","新莊區"
"242013","173-VK","2018/12/22 19:39:38","新北市新莊區中環路二段392-1號","121.442395","25.045645","6500500","新莊區"
"242031","348-TH","2018/12/22 19:39:37","新北市新莊區新泰路225巷43弄11號","121.444183333333","25.0385033333333","6500500","新莊區"
"242004","349-TH","2018/12/22 19:39:35","新北市新莊區化成路29巷42號","121.46346","25.0439066666667","6500500","新莊區"
"238015","755-BX","2018/12/22 19:39:33","新北市樹林區中山路一段108巷43號","121.421645","24.9915066666667","6500700","樹林區"
"238023","601-UM","2018/12/22 19:39:30","新北市樹林區三寶街1號","121.406525","25.0158766666667","6500700","樹林區"
"238019","599-UM","2018/12/22 19:39:36","新北市樹林區八德街35號","121.418503333333","24.983675","6500700","樹林區"
"238011","5061-A6","2018/12/22 19:39:21","新北市樹林區中山路三段245號","121.392888333333","24.972195","6500700","樹林區"
"238022","KEA-2213","2018/12/22 19:39:35","新北市樹林區國凱街50巷18號","121.420526666667","24.97831","6500700","樹林區"
"238021","KEA-2539","2018/12/22 19:39:25","新北市樹林區佳園路三段219巷37-2號","121.387673333333","24.9457433333333","6500700","樹林區"
"238025","303-VK","2018/12/22 19:39:40","新北市樹林區中山路一段163號","121.421813333333","24.9887083333333","6500700","樹林區"
"238017","283-BY","2018/12/22 19:39:27","新北市樹林區保安街二段107巷1弄5號","121.415123333333","25.0008883333333","6500700","樹林區"
"238014","282-BY","2018/12/22 19:39:38","新北市樹林區千歲街28巷11號","121.425895","24.9957466666667","6500700","樹林區"
"238020","268-VK","2018/12/22 19:39:30","新北市板橋區大觀路三段50巷67-4號","121.431681666667","24.9961766666667","6500700","樹林區"
"238026","172-UY","2018/12/22 19:39:38","新北市樹林區佳園路三段7號","121.388433333333","24.9554816666667","6500700","樹林區"
"239007","AAC-297","2018/12/22 19:39:27","新北市鶯歌區文化路421-1號","121.354081666667","24.9502383333333","6500800","鶯歌區"
"239006","891-R6","2018/12/22 19:39:31","新北市鶯歌區永昌街113號","121.339881666667","24.950375","6500800","鶯歌區"
"239001","417-VK","2018/12/22 19:39:38","新北市鶯歌區尖山埔路114號","121.344141666667","24.9502266666667","6500800","鶯歌區"
"239002","359-BY","2018/12/22 19:39:38","新北市鶯歌區大湖路6號","121.342956666667","24.959045","6500800","鶯歌區"
"221008","489-VK","2018/12/22 19:39:27","新北市汐止區康寧街61巷26號","121.619575","25.0674466666667","6501100","汐止區"
"221036","130-UY","2018/12/22 19:39:26","新北市汐止區康寧街901號","121.651048333333","25.0751216666667","6501100","汐止區"
"221015","131-UY","2018/12/22 19:39:25","新北市汐止區汐萬路一段312號","121.65048","25.07535","6501100","汐止區"
"221010","269-BY","2018/12/22 19:39:31","新北市汐止區汐萬路一段411號","121.64919","25.0793733333333","6501100","汐止區"
"221012","278-VK","2018/12/22 19:39:37","新北市汐止區汐平路一段5號","121.680726666667","25.0712683333333","6501100","汐止區"
"221023","279-VK","2018/12/22 19:39:35","新北市汐止區中興路270號","121.628923333333","25.0688633333333","6501100","汐止區"
"221027","281-BY","2018/12/22 19:39:28","新北市汐止區忠孝東路9號","121.65835","25.0659133333333","6501100","汐止區"
"221029","298-VK","2018/12/22 19:39:33","新北市汐止區汐萬路一段256巷1號","121.651705","25.0748133333333","6501100","汐止區"
"221021","299-VK","2018/12/22 19:39:28","新北市汐止區南興路6巷1號","121.651718333333","25.063435","6501100","汐止區"
"221031","353-TW","2018/12/22 19:39:30","新北市汐止區康寧街901號","121.650856666667","25.0752483333333","6501100","汐止區"
"221025","623-UM","2018/12/22 19:39:21","新北市汐止區福安街20巷3號","121.662513333333","25.06495","6501100","汐止區"
"221038","646-BX","2018/12/22 19:39:37","新北市汐止區忠孝東路247號","121.662951666667","25.06757","6501100","汐止區"
"221033","647-BX","2018/12/22 19:39:25","新北市汐止區南勢街1巷1號","121.627081666667","25.0374516666667","6501100","汐止區"
"221002","707-TV","2018/12/22 19:39:26","新北市汐止區大同路一段219巷27號","121.63323","25.058405","6501100","汐止區"
"220079","145-BY","2018/12/22 19:39:27","新北市板橋區民權路202巷17弄23-1號","121.459838333333","25.0165316666667","6500100","板橋區"
"220080","200-UY","2018/12/22 19:39:25","新北市板橋區大觀路二段37巷244號","121.449793333333","25.001795","6500100","板橋區"
"220082","610-BX","2018/12/22 19:39:33","新北市板橋區大觀路三段180巷30號","121.42991","24.9937383333333","6500100","板橋區"
"224002","257-TC","2018/12/22 19:39:39","新北市瑞芳區三爪子坑路13巷207號","121.815723333333","25.1060616666667","6501200","瑞芳區"
"220091","267-BY","2018/12/22 19:39:32","新北市板橋區懷德街181巷22號","121.480255","25.0302683333333","6500100","板橋區"
"220056","276-BY","2018/12/22 19:39:34","新北市板橋區國慶路18號","121.459423333333","24.9951466666667","6500100","板橋區"
"220072","277-BY","2018/12/22 19:39:29","新北市板橋區金門街255號","121.431861666667","24.9889566666667","6500100","板橋區"
"220101","280-UM","2018/12/22 19:39:37","新北市板橋區縣民大道三段93巷26號","121.474895","25.0224333333333","6500100","板橋區"
"220071","283-VK","2018/12/22 19:39:35","新北市板橋區四川路一段327號","121.458585","25.0003533333333","6500100","板橋區"
"220094","285-UM","2018/12/22 19:39:27","新北市板橋區四維路268號","121.46325","25.0285166666667","6500100","板橋區"
"220053","285-VK","2018/12/22 19:39:25","新北市板橋區中山路二段148巷30號","121.477116666667","25.0161533333333","6500100","板橋區"
"220083","286-VK","2018/12/22 19:39:34","新北市板橋區龍興街65巷33號","121.442718333333","25.0017466666667","6500100","板橋區"
"220081","287-VK","2018/12/22 19:39:34","新北市板橋區大觀路一段29巷139號","121.449675","25.0054883333333","6500100","板橋區"
"220090","288-VK","2018/12/22 19:39:21","新北市板橋區長江路一段48巷4弄1-3號","121.459156666667","25.028495","6500100","板橋區"
"220061","295-UM","2018/12/22 19:39:38","新北市板橋區漢生東路113巷27號","121.468381666667","25.0155783333333","6500100","板橋區"
"220084","296-UM","2018/12/22 19:39:22","新北市板橋區滿平二街10巷2弄16號","121.425481666667","24.9874666666667","6500100","板橋區"
"220075","303-R5","2018/12/22 19:39:26","新北市板橋區大勇街17號","121.45452","25.01722","6500100","板橋區"
"220062","305-R5","2018/12/22 19:39:38","新北市板橋區三民路二段79號","121.479596666667","25.0166933333333","6500100","板橋區"
"220092","307-R5","2018/12/22 19:39:37","新北市板橋區四維路259巷25號","121.462006666667","25.02744","6500100","板橋區"
"220098","317-R6","2018/12/22 19:39:37","新北市板橋區民生路三段281巷2弄4號","121.4636","25.0300416666667","6500100","板橋區"
"220089","487-VK","2018/12/22 19:39:28","新北市板橋區龍泉街56-1號","121.457098333333","25.0260116666667","6500100","板橋區"
"220088","491-VK","2018/12/22 19:39:37","新北市板橋區懷德街55號","121.477278333333","25.0327633333333","6500100","板橋區"
"220035","560-BX","2018/12/22 19:39:29","新北市板橋區金華街85巷19號","121.458233333333","25.0214466666667","6500100","板橋區"
"220103","561-BX","2018/12/22 19:39:27","新北市板橋區自由路40號","121.465703333333","25.0231816666667","6500100","板橋區"
"220063","609-BX","2018/12/22 19:39:28","新北市板橋區中山路二段312號","121.479855","25.0190433333333","6500100","板橋區"
"220055","630-UY","2018/12/22 19:39:20","新北市板橋區國慶路170號","121.4625","24.9962233333333","6500100","板橋區"
"220057","686-BX","2018/12/22 19:39:25","新北市板橋區和平路安樂巷54號","121.462306666667","24.99307","6500100","板橋區"
"220077","687-BX","2018/12/22 19:39:35","新北市板橋區僑中二街124巷2號","121.445478333333","25.0056566666667","6500100","板橋區"
"220093","689-BX","2018/12/22 19:39:34","新北市板橋區長江路二段295號","121.470538333333","25.0331516666667","6500100","板橋區"
"220054","741-BX","2018/12/22 19:39:30","新北市板橋區忠孝路忠義巷15弄95號","121.4653","25.005825","6500100","板橋區"
"220102","KEA-2699","2018/12/22 19:39:27","新北市板橋區松柏街31號","121.475208333333","25.0302883333333","6500100","板橋區"
"220067","829-TW","2018/12/22 19:39:37","新北市板橋區長安街261巷19號","121.472965","25.0109483333333","6500100","板橋區"
"220068","830-TW","2018/12/22 19:39:31","新北市板橋區中山路二段418號","121.482928333333","25.0210216666667","6500100","板橋區"
"220074","895-R6","2018/12/22 19:39:22","新北市板橋區福德街2巷17號","121.455581666667","25.0090533333333","6500100","板橋區"
"220073","985-R7","2018/12/22 19:39:25","新北市板橋區國光路67巷14號","121.459028333333","25.01875","6500100","板橋區"
"220097","AAC-210","2018/12/22 19:39:38","新北市板橋區文化路一段203號","121.463385","25.0167033333333","6500100","板橋區"
"220064","AAC-253","2018/12/22 19:39:34","新北市板橋區中山路一段60號","121.46136","25.009745","6500100","板橋區"
"235068","KEA-2873","2018/12/22 19:39:19","新北市中和區泰和街40號","121.499156666667","24.9998866666667","6500300","中和區"
"235061","KEA-2875","2018/12/22 19:39:26","新北市中和區員山路143巷4-4號","121.480736666667","24.9961783333333","6500300","中和區"
"235047","KEA-2876","2018/12/22 19:39:11","新北市中和區景安路203巷5號","121.50525","24.9929166666667","6500300","中和區"
