"lineid","car","time","location","longitude","latitude","cityid","cityname"
"234081","298-R6","2018/12/22 20:19:39","新北市永和區福和路7巷10弄7號","121.524798333333","25.0075516666667","6500400","永和區"
"234038","336-UY","2018/12/22 20:19:22","新北市永和區成功路一段13號","121.527131666667","25.00496","6500400","永和區"
"234064","337-UY","2018/12/22 20:19:38","新北市永和區得和路110號","121.51836","25.0001666666667","6500400","永和區"
"234070","552-UM","2018/12/22 20:19:29","新北市永和區福和路263巷7弄1號","121.517915","25.007","6500400","永和區"
"234086","553-UM","2018/12/22 20:19:34","新北市永和區永和路二段170號","121.51542","25.0131916666667","6500400","永和區"
"234017","745-BX","2018/12/22 20:19:37","新北市永和區仁愛路46號","121.514091666667","25.0134033333333","6500400","永和區"
"234030","746-BX","2018/12/22 20:19:39","新北市永和區民有街75巷10弄33號","121.519261666667","24.996035","6500400","永和區"
"234054","KEA-2590","2018/12/22 20:19:26","新北市永和區光復街4號","121.516466666667","25.0166933333333","6500400","永和區"
"234007","839-RS","2018/12/22 20:19:33","新北市永和區環河西路二段229巷1號","121.501358333333","25.0099566666667","6500400","永和區"
"234013","KEA-2591","2018/12/22 20:19:14","新北市永和區保生路24號","121.506568333333","25.007735","6500400","永和區"
"234061","AAD-866","2018/12/22 20:19:34","新北市永和區得和路9號","121.515131666667","25.0006666666667","6500400","永和區"
"234042","862-TW","2018/12/22 20:19:36","新北市中和區中和路350巷12弄2號","121.510848333333","25.0001416666667","6500400","永和區"
"234050","863-TW","2018/12/22 20:19:33","新北市永和區環河西路二段103號","121.506415","25.014735","6500400","永和區"
"249005","172-UM","2018/12/22 20:19:39","新北市八里區下罟子2-1號","121.388496666667","25.1417283333333","6502300","八里區"
"249001","173-UM","2018/12/22 20:19:26","新北市八里區中華路二段538-1號","121.399016666667","25.14508","6502300","八里區"
"249004","303-UY","2018/12/22 20:19:22","新北市八里區中山路一段129巷19-1號","121.413968333333","25.1586066666667","6502300","八里區"
"249002","305-UY","2018/12/22 20:19:27","新北市八里區龍米路一段446號","121.450726666667","25.1343916666667","6502300","八里區"
"249003","593-UM","2018/12/22 20:19:33","新北市八里區華峰一街68號","121.397983333333","25.146065","6502300","八里區"
"248010","272-BY","2018/12/22 20:19:23","新北市五股區新五路二段2巷26-1號","121.439886666667","25.0679283333333","6501500","五股區"
"248002","678-BX","2018/12/22 20:19:22","新北市五股區成泰路三段165號","121.44518","25.0918016666667","6501500","五股區"
"234023","9380-KE","2018/12/22 20:19:39","新北市永和區復興街39號","121.516506666667","25.0132933333333","6500400","永和區"
"234077","969-R7","2018/12/22 20:19:33","新北市永和區中正路39-1號","121.514421666667","24.9960416666667","6500400","永和區"
"234074","AAC-211","2018/12/22 20:19:34","新北市永和區豫溪街156-1號","121.522861666667","25.0097383333333","6500400","永和區"
"234067","AAC-212","2018/12/22 20:19:40","新北市永和區保平路179號","121.509401666667","25.0054633333333","6500400","永和區"
"234003","AAC-295","2018/12/22 20:19:37","新北市永和區永和路一段115-1號","121.513863333333","25.0080966666667","6500400","永和區"
"243013","AAD-798","2018/12/22 20:19:30","新北市泰山區新民路14巷1號","121.426536666667","25.0446716666667","6501600","泰山區"
"243009","297-R6","2018/12/22 20:19:39","新北市泰山區福泰街2號","121.43262","25.060325","6501600","泰山區"
"243016","KEA-2801","2018/12/22 20:19:29","新北市泰山區明志路三段5號","121.424793333333","25.04333","6501600","泰山區"
"243015","421-VK","2018/12/22 20:19:38","新北市泰山區仁愛路41號","121.432361666667","25.0550783333333","6501600","泰山區"
"243011","KEA-2215","2018/12/22 20:19:30","新北市泰山區壽山路134巷18號","121.41835","25.0310833333333","6501600","泰山區"
"243010","KEA-2216","2018/12/22 20:19:38","新北市泰山區明志路二段254巷14號","121.426131666667","25.0480216666667","6501600","泰山區"
"243012","646-TV","2018/12/22 20:19:25","新北市泰山區楓江路89號","121.437223333333","25.0636766666667","6501600","泰山區"
"243014","680-BX","2018/12/22 20:19:22","新北市泰山區泰林路二段262號","121.43168","25.0623433333333","6501600","泰山區"
"222003","436-BY","2018/12/22 20:19:37","新北市深坑區深坑街3巷8號","121.616835","25.0022666666667","6501800","深坑區"
"222002","659-BX","2018/12/22 20:19:33","新北市深坑區萬福路75巷39號","121.598548333333","25.009665","6501800","深坑區"
"231041","002-UM","2018/12/22 20:19:33","新北市新店區民權路78號","121.53804","24.9830133333333","6500600","新店區"
"231059","046-UY","2018/12/22 20:19:28","新北市新店區安德街57巷1號","121.510825","24.9618933333333","6500600","新店區"
"231040","047-UY","2018/12/22 20:19:21","新北市新店區北新路一段146號","121.542923333333","24.9705666666667","6500600","新店區"
"231044","106-UY","2018/12/22 20:19:18","新北市新店區北新路三段97號","121.541536666667","24.9818016666667","6500600","新店區"
"231052","108-UY","2018/12/22 20:19:26","新北市新店區松林路2號","121.5467","24.910905","6500600","新店區"
"231062","110-UY","2018/12/22 20:19:32","新北市新店區安泰路7巷16號","121.485743333333","24.9510133333333","6500600","新店區"
"231048","187-VK","2018/12/22 20:19:37","新北市新店區寶橋路98號","121.546733333333","24.9757866666667","6500600","新店區"
"231054","KEA-2219","2018/12/22 20:19:32","新北市新店區檳榔路109號","121.544568333333","24.9616266666667","6500600","新店區"
"221035","KEA-2785","2018/12/22 20:19:29","新北市汐止區長江街101-5號","121.65865","25.073215","6501100","汐止區"
"231057","256-BX","2018/12/22 20:19:33","新北市新店區花園五路二段27號","121.554655","24.9346066666667","6500600","新店區"
"231065","260-TV","2018/12/22 20:19:29","新北市新店區安祥路106巷112號","121.473953333333","24.9589666666667","6500600","新店區"
"231042","268-BY","2018/12/22 20:19:25","新北市新店區中興路二段100巷1號","121.547561666667","24.9716483333333","6500600","新店區"
"231051","278-BY","2018/12/22 20:19:37","新北市新店區中央六街90號","121.526321666667","24.97681","6500600","新店區"
"231050","AAD-862","2018/12/22 20:19:31","新北市新店區博愛街21號","121.541275","24.9736383333333","6500600","新店區"
"231058","3713-VJ","2018/12/22 20:19:28","新北市新店區安民街121巷12號","121.515396666667","24.9691883333333","6500600","新店區"
"231066","4716-K9","2018/12/22 20:19:35","新北市新店區安德街60巷35號","121.51051","24.96346","6500600","新店區"
"231056","4715-K9","2018/12/22 20:19:29","新北市新店區中正路302巷18號","121.538161666667","24.9751","6500600","新店區"
"231067","4772-VM","2018/12/22 20:19:26","新北市新店區秀山路72號","121.53138","24.9609266666667","6500600","新店區"
"231061","619-UM","2018/12/22 20:19:21","新北市新店區安興路33-1號","121.515826666667","24.970435","6500600","新店區"
"231063","641-BX","2018/12/22 20:19:27","新北市新店區薏仁坑路自強巷2號","121.497548333333","24.95883","6500600","新店區"
"231068","718-UY","2018/12/22 20:19:36","新北市新店區寶安街30號","121.542061666667","24.9823783333333","6500600","新店區"
"231049","719-UM","2018/12/22 20:19:28","新北市新店區北新路一段193號","121.540358333333","24.9647483333333","6500600","新店區"
"231064","719-UY","2018/12/22 20:19:29","新北市新店區安和路二段218號","121.518861666667","24.9759766666667","6500600","新店區"
"231060","897-TW","2018/12/22 20:19:35","新北市新店區錦秀路11巷90弄2號","121.480443333333","24.94323","6500600","新店區"
"231045","898-TW","2018/12/22 20:19:28","新北市新店區中興路一段136號","121.541986666667","24.9632566666667","6500600","新店區"
"231043","899-TW","2018/12/22 20:19:41","新北市新店區建國路133號","121.539418333333","24.97825","6500600","新店區"
"231055","AKT-0513","2018/12/22 20:19:41","新北市新店區安康路一段219號","121.525825","24.9630466666667","6500600","新店區"
"241028","022-UY","2018/12/22 20:19:26","新北市三重區大同南路135號","121.496515","25.05771","6500200","三重區"
"241008","059-VK","2018/12/22 20:19:35","新北市三重區永福街156號","121.480338333333","25.07447","6500200","三重區"
"241022","060-VK","2018/12/22 20:19:34","新北市三重區新北大道一段36號","121.488175","25.0614466666667","6500200","三重區"
"241023","061-VK","2018/12/22 20:19:30","新北市三重區忠孝路三段84巷5號","121.480241666667","25.0643716666667","6500200","三重區"
"241015","062-VK","2018/12/22 20:19:23","新北市三重區重新路一段126號","121.50031","25.0629666666667","6500200","三重區"
"241017","063-VK","2018/12/22 20:19:35","新北市三重區自強路一段147-1號","121.493978333333","25.0667266666667","6500200","三重區"
"241024","065-VK","2018/12/22 20:19:25","新北市三重區中正北路238號","121.481795","25.0678583333333","6500200","三重區"
"241002","090-VK","2018/12/22 20:19:31","新北市三重區五華街1巷96號","121.497478333333","25.0803316666667","6500200","三重區"
"241005","262-UM","2018/12/22 20:19:37","新北市三重區富華街2號","121.489273333333","25.0822883333333","6500200","三重區"
"241016","266-UM","2018/12/22 20:19:25","新北市三重區大同北路97-2號","121.4945","25.0636066666667","6500200","三重區"
"241009","267-UM","2018/12/22 20:19:37","新北市三重區三和路四段382巷97號","121.48029","25.0782366666667","6500200","三重區"
"241018","268-UM","2018/12/22 20:19:28","新北市三重區自強路一段155-1號","121.493728333333","25.067215","6500200","三重區"
"241032","269-UM","2018/12/22 20:19:21","新北市三重區捷運路37巷18號","121.484228333333","25.0567516666667","6500200","三重區"
"241013","270-UM","2018/12/22 20:19:27","新北市三重區三和路三段167巷3號","121.492101666667","25.0741066666667","6500200","三重區"
"241025","271-UM","2018/12/22 20:19:36","新北市三重區自由街18巷15號","121.479123333333","25.0663683333333","6500200","三重區"
"241007","398-BY","2018/12/22 20:19:40","新北市三重區溪尾街108巷36號","121.48801","25.07838","6500200","三重區"
"241035","KEA-2210","2018/12/22 20:19:26","新北市三重區正義北路33巷8號","121.49794","25.0637416666667","6500200","三重區"
"241031","462-BY","2018/12/22 20:19:20","新北市三重區三寧街15號","121.489353333333","25.0596783333333","6500200","三重區"
"241004","475-VK","2018/12/22 20:19:32","新北市三重區自強路四段108號","121.491473333333","25.0798516666667","6500200","三重區"
"241020","478-VK","2018/12/22 20:19:37","新北市三重區三和路三段170巷18號","121.492163333333","25.0728","6500200","三重區"
"241030","480-VK","2018/12/22 20:19:32","新北市三重區環河南路254巷53號","121.488031666667","25.0522933333333","6500200","三重區"
"241014","543-UM","2018/12/22 20:19:40","新北市三重區河邊北街96-1號","121.504058333333","25.0699733333333","6500200","三重區"
"241001","547-UM","2018/12/22 20:19:30","新北市三重區溪尾街46-1號","121.490803333333","25.0771883333333","6500200","三重區"
"241033","557-UM","2018/12/22 20:00:10","新北市三重區光復路一段68巷46號","121.470301666667","25.0492283333333","6500200","三重區"
"241019","KEA-2593","2018/12/22 20:19:32","新北市三重區自強路二段69號","121.488863333333","25.0698216666667","6500200","三重區"
"241006","AAD-863","2018/12/22 20:19:21","新北市三重區車路頭街135-1號","121.484235","25.0761883333333","6500200","三重區"
"241026","743-BX","2018/12/22 20:19:39","新北市三重區福德南路1-2號","121.502601666667","25.063595","6500200","三重區"
"241012","941-UM","2018/12/22 20:19:38","新北市三重區河邊北街379-1號","121.501688333333","25.07647","6500200","三重區"
"241029","942-UM","2018/12/22 20:19:42","新北市三重區重安街98號","121.492628333333","25.0562466666667","6500200","三重區"
"235066","003-UY","2018/12/22 20:19:38","新北市中和區保平路273號","121.507263333333","25.0039533333333","6500300","中和區"
"235039","097-UM","2018/12/22 20:19:30","新北市中和區大勇街29巷12-1號","121.515861666667","24.9945466666667","6500300","中和區"
"235067","255-BX","2018/12/22 20:19:26","新北市八里區荖阡坑路32號","121.403721666667","25.1274366666667","6500300","中和區"
"247012","KEA-2869","2018/12/22 20:19:28","新北市蘆洲區中興街17號","121.480641666667","25.0869483333333","6501400","蘆洲區"
"247006","KED-0682","2018/12/22 20:19:31","新北市蘆洲區九芎街153巷12號","121.465521666667","25.0787766666667","6501400","蘆洲區"
"235050","4979-A6","2018/12/22 20:19:28","新北市中和區景平路472號","121.505483333333","24.99358","6500300","中和區"
"235069","4980-A6","2018/12/22 20:19:37","新北市中和區南山路81巷51號","121.503875","24.9983166666667","6500300","中和區"
"235054","640-BX","2018/12/22 20:19:33","新北市八里區中山路三段112號","121.387723333333","25.14648","6500300","中和區"
"235026","800-TS","2018/12/22 20:03:35","新北市中和區員山路36巷16-3號","121.484913333333","24.9916033333333","6500300","中和區"
"235059","AAC-215","2018/12/22 20:19:27","新北市中和區員山路30-3號","121.483971666667","24.98777","6500300","中和區"
"247002","893-R6","2018/12/22 20:19:26","新北市蘆洲區長安街313巷12號","121.456523333333","25.08646","6501400","蘆洲區"
"247016","546-UM","2018/12/22 20:19:32","新北市蘆洲區光華路132巷39號","121.465771666667","25.0838266666667","6501400","蘆洲區"
"247024","500-BY","2018/12/22 20:19:27","新北市蘆洲區光榮路120巷8弄41號","121.464473333333","25.0878083333333","6501400","蘆洲區"
"247020","057-VK","2018/12/22 20:19:41","新北市蘆洲區仁愛街57號","121.47188","25.0933366666667","6501400","蘆洲區"
"247010","056-VK","2018/12/22 20:19:25","新北市蘆洲區信義路188巷2弄2號","121.479476666667","25.0843816666667","6501400","蘆洲區"
"247014","053-VK","2018/12/22 20:19:36","新北市蘆洲區成功路60號","121.472568333333","25.0805016666667","6501400","蘆洲區"
"247018","007-UY","2018/12/22 20:19:22","新北市蘆洲區民族路255巷8號","121.47642","25.0900283333333","6501400","蘆洲區"
"247004","002-UY","2018/12/22 20:19:28","新北市蘆洲區長安街220巷32號","121.459565","25.0850766666667","6501400","蘆洲區"
"247022","001-UY","2018/12/22 20:19:23","新北市蘆洲區三民路251號","121.468386666667","25.089235","6501400","蘆洲區"
"235065","251-BX","2018/12/22 20:19:39","新北市中和區永和路55號","121.497073333333","25.00544","6500300","中和區"
"224010","AGQ-8101","2018/12/22 20:19:38","新北市瑞芳區市下巷2號","121.844358333333","25.1090516666667","6501200","瑞芳區"
"222001","KEA-2212","2018/12/22 20:19:39","新北市深坑區北深路三段258號","121.59958","25.004365","6501800","深坑區"
"251004","009-UM","2018/12/22 20:19:35","新北市淡水區中正東路二段143巷2弄1號","121.460865","25.147355","6501000","淡水區"
"251013","KEA-2871","2018/12/22 20:19:39","新北市淡水區水汴頭4-3號","121.475678333333","25.2040716666667","6501000","淡水區"
"251016","179-VK","2018/12/22 20:19:32","新北市淡水區新埔子8號","121.449803333333","25.2281866666667","6501000","淡水區"
"251014","180-VK","2018/12/22 20:19:25","新北市淡水區石頭厝1號","121.458716666667","25.2355183333333","6501000","淡水區"
"251015","182-VK","2018/12/22 20:19:27","新北市淡水區淡金路三段446號","121.450675","25.2143733333333","6501000","淡水區"
"251010","413-VK","2018/12/22 20:19:32","新北市淡水區新民街一段132號","121.428126666667","25.1886833333333","6501000","淡水區"
"251012","441-VK","2018/12/22 20:19:39","新北市淡水區下圭柔山431-1號","121.449776666667","25.2103033333333","6501000","淡水區"
"251001","559-UM","2018/12/22 20:19:38","新北市淡水區淡金路二段507-9號","121.445651666667","25.1891566666667","6501000","淡水區"
"251006","561-UM","2018/12/22 20:19:31","新北市淡水區北新路169巷4號","121.45031","25.179535","6501000","淡水區"
"251009","575-R6","2018/12/22 20:19:28","新北市淡水區中正路90-3號","121.442416666667","25.169595","6501000","淡水區"
"251002","672-BX","2018/12/22 20:19:26","新北市淡水區中正路14巷2號","121.439241666667","25.1706383333333","6501000","淡水區"
"251003","673-BX","2018/12/22 20:19:08","新北市淡水區中山北路一段229號","121.444488333333","25.179505","6501000","淡水區"
"207004","225-TW","2018/12/22 20:19:21","新北市萬里區北基里仁四街2號","121.682061666667","25.1753316666667","6502800","萬里區"
"252002","178-VK","2018/12/22 20:19:32","新北市三芝區中正路一段54號","121.50352","25.25803","6502100","三芝區"
"252001","292-VK","2018/12/22 20:19:25","新北市三芝區中山路一段14號","121.500678333333","25.2580483333333","6502100","三芝區"
"237006","5529-G3","2018/12/22 20:19:30","新北市三峽區中正路二段41號","121.366708333333","24.9186683333333","6500900","三峽區"
"236070","105-UM","2018/12/22 20:19:32","新北市土城區福安街70巷26號","121.4181","24.9652733333333","6501300","土城區"
"236079","166-UM","2018/12/22 20:19:29","新北市土城區德安街4巷1號","121.422183333333","24.9648766666667","6501300","土城區"
"236030","253-BX","2018/12/22 20:19:37","新北市土城區中央路一段45巷22弄1號","121.449196666667","24.9899483333333","6501300","土城區"
"236026","269-VK","2018/12/22 20:19:31","新北市土城區裕生路102巷12號","121.44663","24.984895","6501300","土城區"
"236014","270-VK","2018/12/22 20:19:38","新北市土城區四川路2號","121.455763333333","24.99617","6501300","土城區"
"247008","KED-0683","2018/12/22 20:19:39","新北市蘆洲區集賢路236號","121.482186666667","25.0859583333333","6501400","蘆洲區"
"236059","912-UM","2018/12/22 20:19:29","新北市土城區大安路6號","121.432673333333","24.9657066666667","6501300","土城區"
"242036","AAC-296","2018/12/22 20:19:24","新北市新莊區建安街89號","121.42714","25.02454","6500500","新莊區"
"242058","986-R7","2018/12/22 20:19:25","新北市新莊區龍安路333號","121.422428333333","25.0192433333333","6500500","新莊區"
"242027","615-BX","2018/12/22 20:19:19","新北市新莊區中平路272號","121.444905","25.050325","6500500","新莊區"
"242025","613-BX","2018/12/22 20:19:29","新北市新莊區五工二路70巷15號","121.460685","25.0663533333333","6500500","新莊區"
"242029","612-BX","2018/12/22 20:19:39","新北市新莊區中原路257號","121.448755","25.0542916666667","6500500","新莊區"
"242044","566-BX","2018/12/22 20:19:38","新北市新莊區中正路893巷1-8號","121.41278","25.02159","6500500","新莊區"
"242048","497-BY","2018/12/22 20:19:22","新北市新莊區四維路188巷10號","121.421315","25.02101","6500500","新莊區"
"242021","442-UM","2018/12/22 20:19:29","新北市新莊區復興路一段15號","121.445888333333","25.0416166666667","6500500","新莊區"
"242053","441-UM","2018/12/22 20:19:25","新北市新莊區民安西路261巷8號","121.426685","25.0130716666667","6500500","新莊區"
"242002","440-UM","2018/12/22 20:19:37","新北市新莊區化成路31號","121.465105","25.0439466666667","6500500","新莊區"
"242039","415-TV","2018/12/22 20:19:30","新北市新莊區八德街153巷26號","121.42418","25.0191466666667","6500500","新莊區"
"242046","400-BY","2018/12/22 20:19:37","新北市新莊區中正路新生巷52號","121.417428333333","25.0232983333333","6500500","新莊區"
"242023","362-BY","2018/12/22 20:19:39","新北市新莊區化成路812號","121.464951666667","25.05977","6500500","新莊區"
"242061","353-BY","2018/12/22 20:19:22","新北市新莊區新樹路172-13號","121.434588333333","25.02177","6500500","新莊區"
"242011","132-UY","2018/12/22 20:19:39","新北市新莊區中信街35號","121.450448333333","25.0507383333333","6500500","新莊區"
"242034","135-UY","2018/12/22 20:19:22","新北市新莊區建中街90巷16號","121.446813333333","25.037755","6500500","新莊區"
"242051","172-VK","2018/12/22 20:19:25","新北市新莊區民安西路212巷2弄2號","121.425586666667","25.014885","6500500","新莊區"
"242013","173-VK","2018/12/22 20:19:18","新北市新莊區幸福路710巷5弄1號","121.449113333333","25.0497916666667","6500500","新莊區"
"242019","175-VK","2018/12/22 20:19:39","新北市新莊區銘德街83號","121.456261666667","25.0434716666667","6500500","新莊區"
"242007","176-VK","2018/12/22 20:19:23","新北市新莊區福壽街136巷38號","121.45922","25.051595","6500500","新莊區"
"242017","346-TH","2018/12/22 20:19:22","新北市新莊區中港一街49號","121.450536666667","25.0454483333333","6500500","新莊區"
"242009","347-TH","2018/12/22 20:19:38","新北市新莊區昌平街9號","121.45487","25.0517233333333","6500500","新莊區"
"242031","348-TH","2018/12/22 20:19:37","新北市新莊區三泰路4號","121.440758333333","25.0339883333333","6500500","新莊區"
"242004","349-TH","2018/12/22 20:19:38","新北市新莊區頭前路30號","121.467693333333","25.0525116666667","6500500","新莊區"
"242015","351-TH","2018/12/22 20:19:36","新北市新莊區中和街31巷28號","121.44676","25.0441333333333","6500500","新莊區"
"221008","489-VK","2018/12/22 20:19:27","新北市汐止區康寧街379號","121.62881","25.067755","6501100","汐止區"
"221036","130-UY","2018/12/22 20:19:26","新北市汐止區福安街37巷12號","121.663443333333","25.0650883333333","6501100","汐止區"
"221015","131-UY","2018/12/22 20:19:25","新北市汐止區建成路142巷19弄9號","121.661981666667","25.0737266666667","6501100","汐止區"
"221010","269-BY","2018/12/22 20:19:31","新北市汐止區八連路二段610巷17號","121.625153333333","25.11203","6501100","汐止區"
"221012","278-VK","2018/12/22 20:19:37","新北市汐止區保新街154號","121.688753333333","25.0681116666667","6501100","汐止區"
"221023","279-VK","2018/12/22 20:19:35","新北市汐止區湖前街110巷2弄16號","121.632108333333","25.0717783333333","6501100","汐止區"
"221027","281-BY","2018/12/22 20:19:33","新北市汐止區大同路二段403號","121.658173333333","25.0672716666667","6501100","汐止區"
"221029","298-VK","2018/12/22 20:19:33","新北市汐止區樟樹一路99巷7弄1號","121.641245","25.063615","6501100","汐止區"
"221021","299-VK","2018/12/22 20:19:28","新北市汐止區水源路一段291巷1號","121.654273333333","25.0585433333333","6501100","汐止區"
"221031","353-TW","2018/12/22 20:19:30","新北市汐止區中興路150巷13號","121.632946666667","25.0648866666667","6501100","汐止區"
"221025","623-UM","2018/12/22 20:19:33","新北市汐止區水源路二段70號","121.655821666667","25.0564933333333","6501100","汐止區"
"221038","646-BX","2018/12/22 20:19:40","新北市汐止區忠孝東路446號","121.666186666667","25.0725916666667","6501100","汐止區"
"221033","647-BX","2018/12/22 20:19:25","新北市汐止區東勢街215巷3弄3號","121.63411","25.0428516666667","6501100","汐止區"
"221002","707-TV","2018/12/22 20:19:26","新北市汐止區福德三路26號","121.637038333333","25.069325","6501100","汐止區"
"221018","753-BX","2018/12/22 20:19:25","新北市汐止區茄安路12號","121.67306","25.0678283333333","6501100","汐止區"
"224002","257-TC","2018/12/22 20:19:19","新北市瑞芳區大寮路356-1號","121.784896666667","25.10323","6501200","瑞芳區"
"220083","286-VK","2018/12/22 20:19:34","新北市板橋區僑中二街102巷40號","121.444601666667","25.0086516666667","6500100","板橋區"
"220081","287-VK","2018/12/22 20:19:34","新北市板橋區僑中一街102巷5弄15號","121.446051666667","25.0126616666667","6500100","板橋區"
"220090","288-VK","2018/12/22 20:08:22","新北市板橋區民生路二段120號","121.470546666667","25.0194633333333","6500100","板橋區"
"220090","293-UM","2018/12/22 20:19:25","新北市板橋區新海路72巷5弄10號","121.461988333333","25.0223766666667","6500100","板橋區"
"220061","295-UM","2018/12/22 20:19:38","新北市板橋區四川路一段326號","121.457855","25.000405","6500100","板橋區"
"242042","281-VK","2018/12/22 20:19:33","新北市新莊區壽山路73號","121.409495","25.0326666666667","6500500","新莊區"
"242056","280-VK","2018/12/22 20:19:21","新北市新莊區新莊路649巷7號","121.445068333333","25.032175","6500500","新莊區"
"220055","630-UY","2018/12/22 20:19:40","新北市板橋區重慶路290巷3號","121.461443333333","24.9986283333333","6500100","板橋區"
"220074","895-R6","2018/12/22 20:19:22","新北市板橋區館前西路66號","121.45768","25.0070783333333","6500100","板橋區"
"220064","AAC-253","2018/12/22 20:19:34","新北市板橋區長安街331巷17號","121.473891666667","25.0125833333333","6500100","板橋區"
"235068","KEA-2873","2018/12/22 20:19:19","新北市中和區勝利路35巷1弄3號","121.499131666667","25.0074816666667","6500300","中和區"
