"lineid","car","time","location","longitude","latitude","cityid","cityname"
"231063","641-BX","2018/12/22 21:39:27","新北市新店區薏仁坑路自強巷6號","121.496581666667","24.958335","6500600","新店區"
"241005","262-UM","2018/12/22 21:39:37","新北市三重區碧華街50號","121.483561666667","25.081245","6500200","三重區"
"235067","255-BX","2018/12/22 21:17:09","新北市中和區員山路36巷13號","121.484355","24.9913683333333","6500300","中和區"
"247012","KEA-2869","2018/12/22 21:39:28","新北市五股區凌雲路三段32號","121.431286666667","25.1081616666667","6501400","蘆洲區"
"235010","733-UM","2018/12/22 21:39:35","新北市中和區員山路36巷13號","121.484153333333","24.9907883333333","6500300","中和區"
"224011","420-VK","2018/12/22 21:39:29","新北市瑞芳區中正路72號","121.806045","25.1075183333333","6501200","瑞芳區"
"251004","009-UM","2018/12/22 21:39:39","新北市淡水區民生路15號","121.460728333333","25.1379516666667","6501000","淡水區"
"251016","179-VK","2018/12/22 21:39:32","新北市淡水區崁頂57-12號","121.444046666667","25.1970866666667","6501000","淡水區"
"251014","180-VK","2018/12/22 21:39:25","新北市淡水區興仁路161號","121.450496666667","25.21996","6501000","淡水區"
"251008","181-VK","2018/12/22 21:39:23","新北市淡水區水源街二段50號","121.450613333333","25.1738983333333","6501000","淡水區"
"251010","413-VK","2018/12/22 21:39:32","新北市淡水區沙崙路216巷56號","121.42625","25.184145","6501000","淡水區"
"251012","441-VK","2018/12/22 21:39:39","新北市淡水區淡金路四段223號","121.451668333333","25.222415","6501000","淡水區"
"251007","442-VK","2018/12/22 21:39:21","新北市淡水區水源街二段194號","121.456816666667","25.176015","6501000","淡水區"
"251005","443-VK","2018/12/22 21:37:20","新北市淡水區水源街一段60號","121.444905","25.1720566666667","6501000","淡水區"
"251001","559-UM","2018/12/22 21:39:38","新北市淡水區新市二路三段152號","121.43536","25.1942733333333","6501000","淡水區"
"251006","561-UM","2018/12/22 21:39:31","新北市淡水區中正路119號","121.439473333333","25.16978","6501000","淡水區"
"251009","575-R6","2018/12/22 21:39:38","新北市淡水區民生路52巷22弄5號","121.46258","25.13744","6501000","淡水區"
"251011","650-BX","2018/12/22 21:39:34","新北市淡水區新民街322巷11弄1號","121.435931666667","25.1836833333333","6501000","淡水區"
"251002","672-BX","2018/12/22 21:39:33","新北市淡水區學府路152號","121.446451666667","25.1742566666667","6501000","淡水區"
"251003","673-BX","2018/12/22 21:39:40","新北市淡水區新春街26號","121.436718333333","25.1812933333333","6501000","淡水區"
"220064","AAC-253","2018/12/22 21:39:34","新北市板橋區華東街1-10號","121.448373333333","24.9949383333333","6500100","板橋區"
