"lineid","car","time","location","longitude","latitude","cityid","cityname"
"234048","863-TW","2018/12/22 21:52:12","新北市永和區福和路1號","121.526385","25.00992","6500400","永和區"
"235010","733-UM","2018/12/22 21:40:14","新北市中和區員山路36巷13號","121.48415","24.9907933333333","6500300","中和區"
"251004","009-UM","2018/12/22 22:09:39","新北市淡水區民族路78號","121.462246666667","25.1355466666667","6501000","淡水區"
"251008","181-VK","2018/12/22 22:09:42","新北市淡水區學府路104號","121.449858333333","25.1717933333333","6501000","淡水區"
"251010","413-VK","2018/12/22 22:09:32","新北市淡水區沙崙路200號","121.42474","25.1839083333333","6501000","淡水區"
"251007","442-VK","2018/12/22 22:09:41","新北市淡水區北新路180號","121.449415","25.1787683333333","6501000","淡水區"
"251005","443-VK","2018/12/22 22:08:19","新北市淡水區鄧公路30巷2弄27號","121.453235","25.16915","6501000","淡水區"
"251011","650-BX","2018/12/22 22:09:34","新北市淡水區水碓街7號","121.44317","25.1771633333333","6501000","淡水區"
"220064","AAC-253","2018/12/22 21:55:18","新北市板橋區華東街1-10號","121.448376666667","24.9949333333333","6500100","板橋區"
