"lineid","car","time","location","longitude","latitude","cityid","cityname"
"234048","863-TW","2018/12/22 21:52:12","新北市永和區福和路1號","121.526385","25.00992","6500400","永和區"
"251004","009-UM","2018/12/22 22:19:39","新北市淡水區民族路72號","121.462263333333","25.1356266666667","6501000","淡水區"
"251008","181-VK","2018/12/22 22:19:23","新北市淡水區學府路104號","121.449856666667","25.1717783333333","6501000","淡水區"
"251010","413-VK","2018/12/22 22:19:32","新北市淡水區沙崙路200號","121.42477","25.1839166666667","6501000","淡水區"
"251007","442-VK","2018/12/22 22:19:41","新北市淡水區北新路180號","121.449415","25.1787866666667","6501000","淡水區"
"251011","650-BX","2018/12/22 22:19:34","新北市淡水區水碓街7號","121.443158333333","25.1771466666667","6501000","淡水區"
"220064","AAC-253","2018/12/22 21:55:18","新北市板橋區華東街1-10號","121.448376666667","24.9949333333333","6500100","板橋區"
