"lineid","car","time","location","longitude","latitude","cityid","cityname"
"251004","009-UM","2018/12/22 22:29:39","新北市淡水區民族路33號","121.462241666667","25.13573","6501000","淡水區"
"251008","181-VK","2018/12/22 22:29:43","新北市淡水區學府路112號","121.450153333333","25.1722166666667","6501000","淡水區"
"251010","413-VK","2018/12/22 22:29:32","新北市淡水區沙崙路200號","121.424776666667","25.1839266666667","6501000","淡水區"
"251007","442-VK","2018/12/22 22:29:21","新北市淡水區北新路180號","121.449438333333","25.1787966666667","6501000","淡水區"
"251011","650-BX","2018/12/22 22:29:34","新北市淡水區水碓街7號","121.44319","25.1771333333333","6501000","淡水區"
"247007","KED-0683","2018/12/22 22:22:09","新北市五股區中興路三段2巷10號","121.449228333333","25.0809183333333","6501400","蘆洲區"
