"lineid","car","time","location","longitude","latitude","cityid","cityname"
"248005","653-BX","2018/03/19 08:38:16","新北市五股區明德路12巷1號","121.433223333333","25.0715983333333","6501500","五股區"
"232001","290-BY","2018/03/19 08:39:01","新北市坪林區粗石斛6-1號","121.749115","24.9525633333333","6502000","坪林區"
"232012","291-BY","2018/03/19 08:39:27","新北市坪林區金瓜寮34-1號","121.676943333333","24.9058816666667","6502000","坪林區"
"232017","705-BZ","2018/03/19 08:39:28","新北市坪林區鷺鶿岫4-2號","121.784865","24.95624","6502000","坪林區"
"232005","758-BX","2018/03/19 08:39:13","新北市坪林區石16號","121.710171666667","24.9085766666667","6502000","坪林區"
"244012","069-UM","2018/03/19 08:39:18","新北市林口區中山路73號","121.39308","25.0784716666667","6501700","林口區"
"244006","080-UY","2018/03/19 08:39:15","新北市林口區林口路233號","121.387035","25.083415","6501700","林口區"
"244001","248-BX","2018/03/19 08:39:10","新北市林口區寶斗厝坑79號","121.332171666667","25.1185083333333","6501700","林口區"
"244018","403-UM","2018/03/19 08:39:22","新北市林口區粉寮69號","121.405008333333","25.0908566666667","6501700","林口區"
"244024","742-UY","2018/03/19 08:39:32","新北市林口區文化北路一段151號","121.357111666667","25.0701166666667","6501700","林口區"
"244022","483-VK","2018/03/19 08:39:26","新北市林口區東明二街109號","121.389216666667","25.0705633333333","6501700","林口區"
"244016","485-VK","2018/03/19 08:39:29","新北市林口區忠孝路380號","121.369533333333","25.0712133333333","6501700","林口區"
"244008","656-BX","2018/03/19 08:39:25","新北市林口區佳林路56巷41號","121.385198333333","25.0807733333333","6501700","林口區"
"244018","657-BX","2018/03/19 08:39:28","新北市林口區公園路163號","121.370853333333","25.0714366666667","6501700","林口區"
"244010","701-TV","2018/03/19 08:39:25","新北市林口區中正路17號","121.396643333333","25.0774066666667","6501700","林口區"
"244020","838-TS","2018/03/19 08:39:20","新北市林口區自強一街22號","121.398488333333","25.0781166666667","6501700","林口區"
"222005","289-BY","2018/03/19 08:39:22","新北市深坑區深南路125號","121.623408333333","25.0168133333333","6501800","深坑區"
"231007","189-VK","2018/03/19 08:39:30","新北市新店區新潭路三段236號","121.501006666667","24.9040866666667","6500600","新店區"
"231008","192-VK","2018/03/19 08:39:13","新北市新店區新烏路三段165巷12號","121.551516666667","24.9006516666667","6500600","新店區"
"235001","611-BX","2018/03/19 08:39:32","新北市中和區中山路二段523巷32弄7號","121.481605","25.0036983333333","6500300","中和區"
"226005","5620-A6","2018/03/19 08:39:27","新北市平溪區南山里南山坪126號","121.785506666667","25.046505","6502400","平溪區"
"226001","7418-A5","2018/03/19 08:35:50","新北市平溪區東勢里番仔坑3號","121.747831666667","25.0001533333333","6502400","平溪區"
"226003","AGD-0702","2018/03/19 08:39:17","新北市平溪區靜安路三段369號","121.780698333333","25.045795","6502400","平溪區"
"223006","022-BY","2018/03/19 08:39:20","新北市深坑區昇高坑路51-1號","121.629821666667","24.9949616666667","6501900","石碇區"
"223001","205-TH","2018/03/19 08:39:24","新北市石碇區北宜路六段直潭巷6號","121.658995","24.935075","6501900","石碇區"
"223008","406-TH","2018/03/19 08:39:11","新北市石碇區碇南路二段松柏崎巷45號","121.678088333333","25.0255433333333","6501900","石碇區"
"223001","592-UM","2018/03/19 08:39:30","新北市石碇區北宜路六段直潭巷6號","121.65951","24.9349083333333","6501900","石碇區"
"223004","660-BX","2018/03/19 08:39:15","新北市石碇區崩山3-2號","121.675651666667","24.9742933333333","6501900","石碇區"
"223007","661-BX","2018/03/19 08:39:26","新北市石碇區碇南路二段5-1號","121.67175","25.0261866666667","6501900","石碇區"
"223005","677-TV","2018/03/19 08:39:16","新北市石碇區崩山20號","121.676695","24.97267","6501900","石碇區"
"227005","282-VK","2018/03/19 08:39:12","新北市雙溪區外柑里四分子3-1號","121.837091666667","25.0022666666667","6502500","雙溪區"
"249004","440-VK","2018/03/19 08:20:19","新北市八里區博物館路10-1號","121.415261666667","25.1642466666667","6502300","八里區"
"252006","073-UM","2018/03/19 08:38:33","新北市三芝區錫板里海尾15-12號","121.477055","25.2544933333333","6502100","三芝區"
"252004","249-BX","2018/03/19 08:38:55","新北市三芝區興華里楓子林38號","121.490768333333","25.20786","6502100","三芝區"
"237001","159-UY","2018/03/19 08:39:24","新北市三峽區大觀路1號","121.3758","24.9436166666667","6500900","三峽區"
"236007","165-UM","2018/03/19 08:39:20","新北市土城區石門路57號","121.458941666667","24.9629083333333","6501300","土城區"
"236001","339-SR","2018/03/19 08:39:16","新北市土城區大暖路88號","121.422193333333","24.958435","6501300","土城區"
"236005","498-BY","2018/03/19 08:39:19","新北市土城區永安街99號","121.429981666667","24.9638433333333","6501300","土城區"
"242033","AAC-296","2018/03/19 08:39:25","新北市新莊區中正路348號","121.444166666667","25.0344766666667","6500500","新莊區"
"242057","986-R7","2018/03/19 08:39:31","新北市新莊區壽山路49-4號","121.414358333333","25.0308783333333","6500500","新莊區"
"242052","751-BX","2018/03/19 08:39:24","新北市新莊區光華街10號","121.428786666667","25.0108083333333","6500500","新莊區"
"242028","705-TV","2018/03/19 08:39:30","新北市新莊區幸福路862號","121.44371","25.0491233333333","6500500","新莊區"
"242026","615-BX","2018/03/19 08:39:25","新北市新莊區幸福路582號","121.45387","25.0494333333333","6500500","新莊區"
"242024","613-BX","2018/03/19 08:39:21","新北市新莊區五工三路97號","121.458013333333","25.06538","6500500","新莊區"
"242040","566-BX","2018/03/19 08:39:20","新北市新莊區天祥街69號","121.415816666667","25.0290633333333","6500500","新莊區"
"242045","497-BY","2018/03/19 08:39:19","新北市新莊區福營路338號","121.421653333333","25.0267233333333","6500500","新莊區"
"242049","441-UM","2018/03/19 08:39:27","新北市新莊區西盛街178號","121.428183333333","25.0188533333333","6500500","新莊區"
"242055","440-UM","2018/03/19 08:39:28","新北市新莊區豐年街豐2巷20號","121.447393333333","25.030815","6500500","新莊區"
"242035","415-TV","2018/03/19 08:39:30","新北市新莊區民安路166號","121.424945","25.0241583333333","6500500","新莊區"
"242006","413-TV","2018/03/19 08:39:11","新北市新莊區思源路597號","121.459706666667","25.0597566666667","6500500","新莊區"
"242043","400-BY","2018/03/19 08:39:27","新北市新莊區鳳山街56巷35號","121.413658333333","25.0266866666667","6500500","新莊區"
"242022","362-BY","2018/03/19 08:39:24","新北市新莊區化成路424號","121.465953333333","25.0511","6500500","新莊區"
"242059","353-BY","2018/03/19 08:39:23","新北市新莊區後港一路143號","121.43083","25.0277583333333","6500500","新莊區"
"242008","132-UY","2018/03/19 08:39:20","新北市新莊區昌平街71巷14號","121.45383","25.0536783333333","6500500","新莊區"
"242038","133-UY","2018/03/19 08:39:25","新北市新莊區民安路309號","121.429833333333","25.022595","6500500","新莊區"
"242030","135-UY","2018/03/19 08:39:26","新北市新莊區新泰路257號","121.44596","25.0398216666667","6500500","新莊區"
"242047","172-VK","2018/03/19 08:39:11","新北市新莊區後港一路13號","121.424146666667","25.0263983333333","6500500","新莊區"
"242016","175-VK","2018/03/19 08:39:25","新北市新莊區中港路370號","121.452213333333","25.047225","6500500","新莊區"
"242003","176-VK","2018/03/19 08:39:32","新北市新莊區化成路11巷50-2號","121.463201666667","25.0435133333333","6500500","新莊區"
"242014","346-TH","2018/03/19 08:39:19","新北市新莊區中平路184巷10弄5號","121.445476666667","25.048255","6500500","新莊區"
"242020","348-TH","2018/03/19 08:39:22","新北市新莊區新興街36巷2號","121.450726666667","25.03693","6500500","新莊區"
"242001","349-TH","2018/03/19 08:39:18","新北市新莊區新豐街2號","121.449051666667","25.0347416666667","6500500","新莊區"
"242012","351-TH","2018/03/19 08:39:28","新北市新莊區中誠街147巷7號","121.448871666667","25.0470283333333","6500500","新莊區"
"220064","282-UM","2018/03/19 08:39:28","新北市八里區中山路三段363號","121.375323333333","25.1384583333333","6500100","板橋區"
"242010","281-VK","2018/03/19 08:39:29","新北市新莊區中港路591巷2號","121.451215","25.052465","6500500","新莊區"
"242018","280-VK","2018/03/19 08:39:29","新北市新莊區中港路132巷6號","121.455611666667","25.0405133333333","6500500","新莊區"
