"lineid","car","time","location","longitude","latitude","cityid","cityname"
"248005","653-BX","2018/03/19 08:59:24","新北市五股區明德路12巷6號","121.433408333333","25.0718666666667","6501500","五股區"
"232012","291-BY","2018/03/19 08:59:27","新北市坪林區北宜路八段6號","121.701121666667","24.9358266666667","6502000","坪林區"
"232005","758-BX","2018/03/19 08:59:13","新北市坪林區魚堀14-1號","121.704235","24.9077983333333","6502000","坪林區"
"244012","069-UM","2018/03/19 08:59:18","新北市林口區中山路150-1號","121.391113333333","25.07872","6501700","林口區"
"244006","080-UY","2018/03/19 08:59:15","新北市林口區林口路235號","121.386983333333","25.08345","6501700","林口區"
"244018","403-UM","2018/03/19 08:39:22","新北市林口區粉寮69號","121.405008333333","25.0908566666667","6501700","林口區"
"244024","742-UY","2018/03/19 08:59:12","新北市林口區南勢街221巷32號","121.357661666667","25.0753083333333","6501700","林口區"
"244022","483-VK","2018/03/19 08:59:26","新北市林口區東湖路126號","121.384258333333","25.0732466666667","6501700","林口區"
"244016","485-VK","2018/03/19 08:59:29","新北市林口區公園路19號","121.366748333333","25.0675666666667","6501700","林口區"
"244008","656-BX","2018/03/19 08:59:25","新北市林口區民生路142號","121.379118333333","25.087995","6501700","林口區"
"244018","657-BX","2018/03/19 08:59:28","新北市林口區忠孝路512巷25號","121.371111666667","25.0683583333333","6501700","林口區"
"244010","701-TV","2018/03/19 08:59:25","新北市林口區仁愛路一段326號","121.391348333333","25.0765216666667","6501700","林口區"
"244020","838-TS","2018/03/19 08:59:20","新北市林口區工六路88號","121.400813333333","25.0769616666667","6501700","林口區"
"222005","289-BY","2018/03/19 08:59:22","新北市深坑區風格街31巷26號","121.627563333333","25.0175983333333","6501800","深坑區"
"231007","189-VK","2018/03/19 08:59:30","新北市新店區新潭路三段215巷25號","121.508106666667","24.90409","6500600","新店區"
"231008","192-VK","2018/03/19 08:59:13","新北市新店區廣興路16號","121.545965","24.9127266666667","6500600","新店區"
"235001","611-BX","2018/03/19 08:59:32","新北市中和區國光街112巷24弄1-3號","121.470421666667","25.0024266666667","6500300","中和區"
"226005","5620-A6","2018/03/19 08:59:27","新北市平溪區南山里南山坪15號","121.76923","25.0342416666667","6502400","平溪區"
"226001","7418-A5","2018/03/19 08:47:10","新北市平溪區東勢里東勢格41號","121.761921666667","24.98966","6502400","平溪區"
"226003","AGD-0702","2018/03/19 08:59:17","新北市平溪區十分里十分街239號","121.778075","25.0442016666667","6502400","平溪區"
"223006","022-BY","2018/03/19 08:59:20","新北市石碇區烏塗窟14-1號","121.65594","24.9750966666667","6501900","石碇區"
"223001","205-TH","2018/03/19 08:59:24","新北市石碇區北宜路六段水底寮巷23號","121.662921666667","24.9423233333333","6501900","石碇區"
"223008","406-TH","2018/03/19 08:59:11","新北市石碇區光明路13號","121.67999","25.0336283333333","6501900","石碇區"
"223001","592-UM","2018/03/19 08:59:30","新北市石碇區北宜路六段水底寮巷25號","121.666208333333","24.94336","6501900","石碇區"
"223004","660-BX","2018/03/19 08:59:15","新北市石碇區崩山53號","121.682386666667","24.9688866666667","6501900","石碇區"
"223007","661-BX","2018/03/19 08:59:26","新北市石碇區光明路16號","121.683485","25.03289","6501900","石碇區"
"223005","677-TV","2018/03/19 08:59:23","新北市石碇區崩山42-1號","121.679211666667","24.965605","6501900","石碇區"
"227005","282-VK","2018/03/19 08:59:12","新北市雙溪區泰平里溪尾寮46號","121.820108333333","24.9707716666667","6502500","雙溪區"
"252006","073-UM","2018/03/19 08:59:13","新北市三芝區古庄里四棧橋20號","121.48877","25.2612533333333","6502100","三芝區"
"252004","249-BX","2018/03/19 08:59:15","新北市三芝區興華里田心子32-6號","121.491885","25.1997","6502100","三芝區"
"236007","165-UM","2018/03/19 08:59:20","新北市土城區金城路一段49號","121.441196666667","24.9696883333333","6501300","土城區"
"236001","339-SR","2018/03/19 08:59:16","新北市土城區和平路46-1號","121.442935","24.97021","6501300","土城區"
"236005","498-BY","2018/03/19 08:59:19","新北市土城區承天路4巷10-1號","121.438273333333","24.959105","6501300","土城區"
"242033","AAC-296","2018/03/19 08:59:25","新北市新莊區建中街81巷10弄2號","121.44733","25.03609","6500500","新莊區"
"242057","986-R7","2018/03/19 08:59:11","新北市新莊區中正路879-8號","121.417686666667","25.0260883333333","6500500","新莊區"
"242052","751-BX","2018/03/19 08:59:24","新北市新莊區西盛街416巷2號","121.427268333333","25.0122316666667","6500500","新莊區"
"242028","705-TV","2018/03/19 08:59:30","新北市新莊區中原路349號","121.445133333333","25.054385","6500500","新莊區"
"242026","615-BX","2018/03/19 08:59:15","新北市新莊區立信一街48號","121.4433","25.04944","6500500","新莊區"
"242024","613-BX","2018/03/19 08:59:21","新北市新莊區五工一路86號","121.461438333333","25.0675483333333","6500500","新莊區"
"242040","566-BX","2018/03/19 08:59:20","新北市新莊區青山路一段8號","121.411886666667","25.02757","6500500","新莊區"
"242045","497-BY","2018/03/19 08:59:19","新北市新莊區裕民街19巷22號","121.419395","25.0243333333333","6500500","新莊區"
"242049","441-UM","2018/03/19 08:59:25","新北市新莊區民安西路252巷2號","121.425715","25.01376","6500500","新莊區"
"242055","440-UM","2018/03/19 08:59:28","新北市新莊區新泰路1號","121.449783333333","25.0320933333333","6500500","新莊區"
"242035","415-TV","2018/03/19 08:59:28","新北市新莊區建安街25巷12號","121.429611666667","25.0261316666667","6500500","新莊區"
"242006","413-TV","2018/03/19 08:59:31","新北市新莊區思源路177巷2號","121.459396666667","25.0452933333333","6500500","新莊區"
"242043","400-BY","2018/03/19 08:59:12","新北市新莊區新北大道七段780號","121.413048333333","25.024875","6500500","新莊區"
"242022","362-BY","2018/03/19 08:59:24","新北市新莊區化成路463-1號","121.464716666667","25.0624066666667","6500500","新莊區"
"242059","353-BY","2018/03/19 08:59:23","新北市新莊區新樹路247號","121.43495","25.0221933333333","6500500","新莊區"
"242008","132-UY","2018/03/19 08:59:20","新北市新莊區昌盛街65巷2弄12號","121.45548","25.0503133333333","6500500","新莊區"
"242038","133-UY","2018/03/19 08:59:16","新北市新莊區民安西路110號","121.426821666667","25.0189566666667","6500500","新莊區"
"242030","135-UY","2018/03/19 08:59:26","新北市新莊區新泰路213巷27號","121.445048333333","25.038415","6500500","新莊區"
"242047","172-VK","2018/03/19 08:59:17","新北市新莊區後港二路11號","121.423043333333","25.024295","6500500","新莊區"
"242016","175-VK","2018/03/19 08:59:25","新北市新莊區中港三街24號","121.450495","25.0464283333333","6500500","新莊區"
"242003","176-VK","2018/03/19 08:59:13","新北市新莊區化成路314巷15號","121.466668333333","25.0483116666667","6500500","新莊區"
"242014","346-TH","2018/03/19 08:59:19","新北市新莊區永樂街233號","121.44668","25.044255","6500500","新莊區"
"242020","348-TH","2018/03/19 08:59:29","新北市新莊區中興街49號","121.449213333333","25.0370833333333","6500500","新莊區"
"242001","349-TH","2018/03/19 08:59:25","新北市新莊區化成路82號","121.465198333333","25.043875","6500500","新莊區"
"242012","351-TH","2018/03/19 08:59:28","新北市新莊區幸福路678巷2號","121.45081","25.0497866666667","6500500","新莊區"
"220064","282-UM","2018/03/19 08:59:28","新北市新莊區中平路377巷28號","121.442246666667","25.052705","6500100","板橋區"
"242010","281-VK","2018/03/19 08:59:29","新北市新莊區中港路531巷140號","121.449495","25.0514283333333","6500500","新莊區"
"242018","280-VK","2018/03/19 08:59:15","新北市新莊區博愛路1巷1號","121.456571666667","25.042475","6500500","新莊區"
