"lineid","car","time","location","longitude","latitude","cityid","cityname"
"248005","653-BX","2018/03/19 10:09:19","新北市五股區新五路二段240號","121.439488333333","25.08016","6501500","五股區"
"244022","483-VK","2018/03/19 10:09:26","新北市林口區文化三路一段555巷88-1號","121.368841666667","25.0767016666667","6501700","林口區"
"244018","657-BX","2018/03/19 10:09:28","新北市林口區麗園二街27號","121.379968333333","25.06941","6501700","林口區"
"231007","189-VK","2018/03/19 10:09:29","新北市新店區新潭路三段215巷25號","121.508153333333","24.9040766666667","6500600","新店區"
"231008","192-VK","2018/03/19 10:09:13","新北市新店區廣興路158-1號","121.537028333333","24.9083316666667","6500600","新店區"
"223005","677-TV","2018/03/19 10:09:22","新北市石碇區小粗坑(潭邊里)9-2號","121.678945","24.98635","6501900","石碇區"
"227005","282-VK","2018/03/19 10:09:12","新北市雙溪區泰平里灣潭路36號","121.811433333333","24.9287766666667","6502500","雙溪區"
"252004","249-BX","2018/03/19 10:09:15","新北市三芝區福德里埔尾13-1號","121.504338333333","25.244585","6502100","三芝區"
"252006","AAC-283","2018/03/19 10:09:32","新北市三芝區古庄里古庄103號","121.495331666667","25.2715883333333","6502100","三芝區"
"237001","159-UY","2018/03/19 10:09:24","新北市三峽區國際二街21-5號","121.373233333333","24.943625","6500900","三峽區"
"236007","165-UM","2018/03/19 10:09:20","新北市土城區永平街72號","121.427146666667","24.9590916666667","6501300","土城區"
"236005","498-BY","2018/03/19 10:09:19","新北市土城區復興街15號","121.427136666667","24.9692766666667","6501300","土城區"
"242001","349-TH","2018/03/19 10:09:18","新北市林口區太平里180號","121.366403333333","25.134415","6500500","新莊區"
