"lineid","car","time","location","longitude","latitude","cityid","cityname"
"244018","403-UM","2018/03/19 11:40:09","新北市林口區粉寮69號","121.404973333333","25.0908466666667","6501700","林口區"
"243007","380-SR","2018/03/19 12:08:16","新北市泰山區黎明路25號","121.422248333333","25.06066","6501600","泰山區"
"231008","192-VK","2018/03/19 12:09:13","新北市新店區新烏路一段127-1號","121.546918333333","24.9370833333333","6500600","新店區"
"227005","282-VK","2018/03/19 12:09:32","新北市雙溪區三貂里定福路1-2號","121.850751666667","25.063405","6502500","雙溪區"
"249004","440-VK","2018/03/19 12:02:45","新北市八里區挖子尾街16號","121.41527","25.1642783333333","6502300","八里區"
