"lineid","car","time","location","longitude","latitude","cityid","cityname"
"234078","298-R6","2018/03/19 12:27:32","新北市永和區福和路7巷11弄16號","121.525938333333","25.00773","6500400","永和區"
"234036","336-UY","2018/03/19 12:27:26","新北市永和區福和路1號","121.526495","25.0101583333333","6500400","永和區"
"234084","338-UY","2018/03/19 12:27:35","新北市永和區福和路1號","121.525055","25.0090566666667","6500400","永和區"
"234015","745-BX","2018/03/19 12:27:19","新北市永和區福和路1號","121.526461666667","25.00958","6500400","永和區"
"234012","KEA-2591","2018/03/19 12:27:31","新北市永和區環河西路一段87-1號","121.512591666667","25.018155","6500400","永和區"
"234040","862-TW","2018/03/19 12:27:33","新北市永和區福和路218號","121.519363333333","25.0076133333333","6500400","永和區"
"234048","863-TW","2018/03/19 12:27:23","新北市永和區福和路1號","121.526398333333","25.009855","6500400","永和區"
"234076","969-R7","2018/03/19 12:27:28","新北市永和區福和路1號","121.526381666667","25.00974","6500400","永和區"
"234066","AAC-212","2018/03/19 12:27:25","新北市永和區福和路1號","121.526451666667","25.0096916666667","6500400","永和區"
"243007","380-SR","2018/03/19 12:08:16","新北市泰山區黎明路25號","121.422248333333","25.06066","6501600","泰山區"
"227005","282-VK","2018/03/19 12:27:32","新北市雙溪區三貂里政光路3-1號","121.850811666667","25.063395","6502500","雙溪區"
"249004","440-VK","2018/03/19 12:02:45","新北市八里區挖子尾街16號","121.41527","25.1642783333333","6502300","八里區"
