"lineid","car","time","location","longitude","latitude","cityid","cityname"
"234044","148-BY","2018/03/19 13:49:19","新北市永和區永利路153號","121.524623333333","25.0034816666667","6500400","永和區"
"234005","207-UY","2018/03/19 13:49:29","新北市永和區中和路619號","121.512853333333","25.0046966666667","6500400","永和區"
"234078","298-R6","2018/03/19 13:49:34","新北市永和區林森路68號","121.523821666667","25.0040133333333","6500400","永和區"
"234036","336-UY","2018/03/19 13:49:26","新北市永和區民樂街55巷10號","121.52792","24.9985016666667","6500400","永和區"
"234062","337-UY","2018/03/19 13:49:37","新北市永和區中正路368巷4號","121.517998333333","25.0008","6500400","永和區"
"234084","338-UY","2018/03/19 13:49:35","新北市永和區永利路42號","121.518706666667","25.00542","6500400","永和區"
"234068","552-UM","2018/03/19 13:49:20","新北市永和區竹林路86號","121.519361666667","25.0126166666667","6500400","永和區"
"234015","745-BX","2018/03/19 13:49:19","新北市永和區文化路11號","121.515196666667","25.0149883333333","6500400","永和區"
"234028","746-BX","2018/03/19 13:49:35","新北市永和區民生路47巷11號","121.523481666667","24.9977733333333","6500400","永和區"
"234052","KEA-2590","2018/03/19 13:49:34","新北市永和區竹林路75巷25弄7號","121.520031666667","25.0145016666667","6500400","永和區"
"234012","KEA-2591","2018/03/19 13:49:31","新北市永和區仁愛路222號","121.50875","25.0119366666667","6500400","永和區"
"234060","AAD-866","2018/03/19 13:49:38","新北市永和區中正路144號","121.514735","24.9962983333333","6500400","永和區"
"234040","862-TW","2018/03/19 13:49:33","新北市永和區中和路389巷2-1號","121.508446666667","25.0003733333333","6500400","永和區"
"234048","863-TW","2018/03/19 13:49:23","新北市永和區保安路73號","121.50877","25.0149816666667","6500400","永和區"
"248015","026-BX","2018/03/19 13:49:18","新北市五股區凌雲路一段149巷42號","121.448593333333","25.1009283333333","6501500","五股區"
"248007","095-VK","2018/03/19 13:49:21","新北市五股區中興路一段149號","121.465073333333","25.07337","6501500","五股區"
"248019","225-UY","2018/03/19 13:42:52","新北市五股區孝義路118號","121.440958333333","25.1215383333333","6501500","五股區"
"248011","247-BX","2018/03/19 13:49:28","新北市五股區成泰路二段195巷1號","121.440403333333","25.0873983333333","6501500","五股區"
"248003","677-BX","2018/03/19 13:49:14","新北市五股區民義路二段46號","121.413983333333","25.1014183333333","6501500","五股區"
"248001","678-BX","2018/03/19 13:49:33","新北市五股區成泰路三段454號","121.451435","25.100335","6501500","五股區"
"248009","682-TV","2018/03/19 13:49:27","新北市五股區水碓九路20號","121.42791","25.0717516666667","6501500","五股區"
"234022","9380-KE","2018/03/19 13:49:30","新北市永和區豫溪街57巷8弄6號","121.517591666667","25.0104216666667","6500400","永和區"
"234076","969-R7","2018/03/19 13:49:35","新北市永和區民權路36巷10號","121.51961","24.9989716666667","6500400","永和區"
"234072","AAC-211","2018/03/19 13:49:30","新北市永和區豫溪街189巷1號","121.522575","25.0102733333333","6500400","永和區"
"234066","AAC-212","2018/03/19 13:49:25","新北市永和區保平路236巷29號","121.507968333333","25.0068416666667","6500400","永和區"
"234001","AAC-295","2018/03/19 13:49:24","新北市永和區永和路一段63號","121.512995","25.006825","6500400","永和區"
"244001","248-BX","2018/03/19 13:49:19","新北市林口區汕頭18號","121.363491666667","25.1344733333333","6501700","林口區"
"243004","AAD-798","2018/03/19 13:49:21","新北市泰山區泰林路二段73巷29號","121.4344","25.0578633333333","6501600","泰山區"
"243007","380-SR","2018/03/19 13:49:27","新北市泰山區憲訓路36號","121.42915","25.0651133333333","6501600","泰山區"
"243001","KEA-2216","2018/03/19 13:49:34","新北市泰山區泰林路二段262號","121.43173","25.0623183333333","6501600","泰山區"
"243005","646-TV","2018/03/19 13:49:33","新北市泰山區明志路三段206巷10號","121.42322","25.0380233333333","6501600","泰山區"
"243008","680-BX","2018/03/19 13:49:28","新北市泰山區明志路二段135號","121.427623333333","25.0507966666667","6501600","泰山區"
"231002","002-UM","2018/03/19 13:49:33","新北市新店區溪園路393號","121.524265","24.97911","6500600","新店區"
"231025","0293-UT","2018/03/19 13:49:16","新北市新店區中央五街7號","121.530023333333","24.9742233333333","6500600","新店區"
"231028","046-UY","2018/03/19 13:49:26","新北市新店區安和路三段9巷1號","121.517986666667","24.98062","6500600","新店區"
"231030","047-UY","2018/03/19 13:49:37","新北市新店區安康路一段244-1號","121.521238333333","24.9639166666667","6500600","新店區"
"231029","106-UY","2018/03/19 13:49:23","新北市新店區安康路二段113號","121.51254","24.9617816666667","6500600","新店區"
"231018","107-UY","2018/03/19 13:49:19","新北市新店區中正路400巷8號","121.534953333333","24.9777766666667","6500600","新店區"
"231011","108-UY","2018/03/19 13:49:30","新北市新店區中興路二段67巷14號","121.54606","24.9711483333333","6500600","新店區"
"231019","187-VK","2018/03/19 13:49:28","新北市新店區新烏路二段40號","121.544833333333","24.92835","6500600","新店區"
"231014","KEA-2219","2018/03/19 13:49:36","新北市新店區竹林路99號","121.554528333333","24.95047","6500600","新店區"
"231026","256-BX","2018/03/19 13:49:32","新北市新店區平等街48巷27號","121.534888333333","24.9732166666667","6500600","新店區"
"231010","278-BY","2018/03/19 13:49:21","新北市新店區平等街48巷1號","121.535761666667","24.9730766666667","6500600","新店區"
"231023","AAD-862","2018/03/19 13:49:22","新北市新店區國校路65巷1號","121.538365","24.95408","6500600","新店區"
"231027","3712-VJ","2018/03/19 13:49:28","新北市新店區中興路一段24-2號","121.53851","24.9583516666667","6500600","新店區"
"231024","4716-K9","2018/03/19 13:49:31","新北市新店區新生街55號","121.5388","24.9669683333333","6500600","新店區"
"231038","4715-K9","2018/03/19 13:49:19","新北市新店區安康路一段323-1號","121.521813333333","24.963735","6500600","新店區"
"231036","512-UM","2018/03/19 13:49:35","新北市新店區安祥路110巷47號","121.473276666667","24.9567416666667","6500600","新店區"
"231013","513-UM","2018/03/19 13:49:33","新北市新店區二十張路25巷18弄9號","121.539265","24.9816033333333","6500600","新店區"
"231035","515-UM","2018/03/19 13:49:21","新北市新店區安忠路57巷9弄1號","121.513423333333","24.9583116666667","6500600","新店區"
"231006","617-UM","2018/03/19 13:49:31","新北市新店區北宜路一段202號","121.543273333333","24.9529616666667","6500600","新店區"
"231001","619-UM","2018/03/19 13:49:20","新北市新店區三民路66號","121.535058333333","24.9722583333333","6500600","新店區"
"231003","641-BX","2018/03/19 13:49:25","新北市新店區光明街138巷22號","121.540325","24.9609066666667","6500600","新店區"
"231034","645-TV","2018/03/19 13:49:32","新北市新店區達觀路16-7號","121.502175","24.941015","6500600","新店區"
"231031","720-UM","2018/03/19 13:49:30","新北市新店區莒光路103-2號","121.522698333333","24.9528316666667","6500600","新店區"
"231005","897-TW","2018/03/19 13:49:24","新北市新店區寶中路121-1號","121.54963","24.9794066666667","6500600","新店區"
"231004","899-TW","2018/03/19 13:49:22","新北市新店區寶橋路132號","121.547388333333","24.9760383333333","6500600","新店區"
"231037","AKT-0513","2018/03/19 13:49:29","新北市新店區安康路三段410號","121.485735","24.95159","6500600","新店區"
"235030","003-UY","2018/03/19 13:49:24","新北市中和區水源路18巷4弄9號","121.50396","25.0029383333333","6500300","中和區"
"235028","005-UY","2018/03/19 13:49:30","新北市中和區景平路589-1號","121.497328333333","25.00035","6500300","中和區"
"235027","006-UY","2018/03/19 13:49:15","新北市中和區連城路319巷5弄1號","121.489191666667","24.9953666666667","6500300","中和區"
"235020","096-UM","2018/03/19 13:49:29","新北市中和區立德街329號","121.481535","25.0104466666667","6500300","中和區"
"235003","097-UM","2018/03/19 13:49:26","新北市中和區大勇街29巷2-5號","121.516156666667","24.9943216666667","6500300","中和區"
"235029","098-UM","2018/03/19 13:49:19","新北市中和區中山路二段2巷45弄38號","121.501323333333","25.0069233333333","6500300","中和區"
"235004","150-BY","2018/03/19 13:49:21","新北市中和區保健路48巷7號","121.50995","24.9967666666667","6500300","中和區"
"235022","151-BY","2018/03/19 13:49:24","新北市中和區連城路518巷8號","121.4764","24.992635","6500300","中和區"
"235019","183-VK","2018/03/19 13:49:30","新北市中和區民生街85巷1弄1號","121.468956666667","25.0046183333333","6500300","中和區"
"235002","185-VK","2018/03/19 13:49:34","新北市中和區立人街24-5號","121.518836666667","24.9941983333333","6500300","中和區"
"235013","186-VK","2018/03/19 13:49:21","新北市中和區景安路177巷17號","121.506043333333","24.9943","6500300","中和區"
"235031","255-BX","2018/03/19 13:49:31","新北市中和區新生街260號","121.48361","24.9973683333333","6500300","中和區"
"235008","293-VK","2018/03/19 13:49:34","新北市中和區中興街154號","121.499893333333","24.99185","6500300","中和區"
"235036","301-VK","2018/03/19 13:49:18","新北市中和區連城路4號","121.499178333333","25.0023633333333","6500300","中和區"
"235007","352-BY","2018/03/19 13:49:17","新北市中和區成功路139號","121.525963333333","24.9901816666667","6500300","中和區"
"235032","377-QA","2018/03/19 13:49:35","新北市中和區圓通路281巷3號","121.495653333333","24.9927183333333","6500300","中和區"
"235025","378-QA","2018/03/19 13:49:17","新北市中和區民享街69巷8號","121.474635","25.0022566666667","6500300","中和區"
"235035","269-TV","2018/03/19 13:49:28","新北市中和區立德街26巷5弄28號","121.48956","25.0083","6500300","中和區"
"235014","4979-A6","2018/03/19 13:49:27","新北市中和區景新街496巷30弄10號","121.513131666667","24.98555","6500300","中和區"
"235033","4980-A6","2018/03/19 13:49:32","新北市中和區泰和街4號","121.499998333333","25.001115","6500300","中和區"
"235006","551-UM","2018/03/19 13:49:27","新北市中和區秀朗路三段100巷1號","121.52564","24.993195","6500300","中和區"
"235034","558-UM","2018/03/19 13:49:19","新北市中和區南山路6號","121.502025","24.9986233333333","6500300","中和區"
"235009","565-BX","2018/03/19 13:49:26","新北市中和區景安路192號","121.504331666667","24.9917216666667","6500300","中和區"
"235018","640-BX","2018/03/19 13:49:37","新北市中和區民享街68巷13號","121.473568333333","25.0017816666667","6500300","中和區"
"235024","647-TV","2018/03/19 13:49:29","新北市中和區中山路三段142號","121.473835","25.0062666666667","6500300","中和區"
"235011","732-UM","2018/03/19 13:49:30","新北市中和區興南路二段34巷55弄1號","121.504861666667","24.9862316666667","6500300","中和區"
"235010","733-UM","2018/03/19 13:49:26","新北市中和區仁愛街36巷36號","121.511208333333","24.9866166666667","6500300","中和區"
"235026","800-TS","2018/03/19 13:49:13","新北市中和區景平路712號","121.49676","25.0027183333333","6500300","中和區"
"235021","801-TS","2018/03/19 13:49:26","新北市中和區民安街22巷20號","121.479518333333","25.0015116666667","6500300","中和區"
"235005","802-TS","2018/03/19 13:49:27","新北市中和區永貞路268號","121.513658333333","25.0037966666667","6500300","中和區"
"235016","805-TS","2018/03/19 13:49:25","新北市中和區興南路二段399巷86號","121.500215","24.97829","6500300","中和區"
"235012","896-TW","2018/03/19 13:49:34","新北市中和區南山路218號","121.506351666667","24.990375","6500300","中和區"
"235017","911-UM","2018/03/19 13:49:21","新北市中和區華福街42巷3號","121.466381666667","24.9962166666667","6500300","中和區"
"235015","157-BY","2018/03/19 13:49:24","新北市中和區華新街109巷11弄3-10號","121.508815","24.97968","6500300","中和區"
"235001","AAC-213","2018/03/19 13:49:17","新北市中和區秀朗路三段128巷9弄1號","121.524585","24.993105","6500300","中和區"
"235023","AAC-215","2018/03/19 13:49:26","新北市中和區圓通路290-4號","121.490218333333","24.989315","6500300","中和區"
"220016","013-TV","2018/03/19 13:49:24","新北市板橋區民生路二段56-6號","121.47076","25.018675","6500100","板橋區"
"220013","072-UY","2018/03/19 13:49:23","新北市板橋區漢生東路281號","121.471296666667","25.0089883333333","6500100","板橋區"
"220034","073-UY","2018/03/19 13:49:33","新北市板橋區大智街64號","121.454096666667","25.0155216666667","6500100","板橋區"
"220046","075-UY","2018/03/19 13:49:27","新北市板橋區民生路二段161巷9號","121.470201666667","25.01956","6500100","板橋區"
"220017","AAD-861","2018/03/19 13:49:19","新北市板橋區縣民大道一段98號","121.4569","25.0056083333333","6500100","板橋區"
"247009","341-TH","2018/03/19 13:49:19","新北市蘆洲區集賢路222-6號","121.482598333333","25.0865066666667","6501400","蘆洲區"
"247003","337-TH","2018/03/19 13:49:33","新北市蘆洲區中原路32號","121.460025","25.0827983333333","6501400","蘆洲區"
"247005","336-TH","2018/03/19 13:49:30","新北市蘆洲區和平路77號","121.469238333333","25.079035","6501400","蘆洲區"
"247007","056-VK","2018/03/19 13:49:28","新北市蘆洲區重陽一街3號","121.481836666667","25.0815133333333","6501400","蘆洲區"
"247019","053-VK","2018/03/19 13:49:35","新北市蘆洲區民族路422巷48弄28號","121.474753333333","25.093075","6501400","蘆洲區"
"253003","6232-TK","2018/03/19 13:49:32","新北市石門區尖子鹿8-1號","121.57521","25.27995","6502200","石門區"
"253001","6251-TK","2018/03/19 13:49:22","新北市三芝區新庄里新庄子96號","121.515503333333","25.2757116666667","6502200","石門區"
"253002","637-UY","2018/03/19 13:49:35","新北市石門區尖山湖3號","121.566416666667","25.2437233333333","6502200","石門區"
"253004","8270-PC","2018/03/19 13:49:38","新北市石門區阿里荖62號","121.607811666667","25.2674783333333","6502200","石門區"
"207002","749-BX","2018/03/19 13:49:25","新北市萬里區崁腳里崁腳路166號","121.645106666667","25.1558683333333","6502800","萬里區"
"207001","662-BX","2018/03/19 13:49:18","新北市萬里區磺潭里公館崙58號","121.6287","25.20563","6502800","萬里區"
"252005","AAC-283","2018/03/19 13:49:19","新北市三芝區圓山里二坪頂77-1號","121.537501666667","25.2386833333333","6502100","三芝區"
"236064","105-UM","2018/03/19 13:49:27","新北市土城區城林路6巷80號","121.438201666667","24.9796933333333","6501300","土城區"
"236040","107-UM","2018/03/19 13:49:31","新北市土城區亞洲路58巷5弄10號","121.43362","24.9742166666667","6501300","土城區"
"236074","166-UM","2018/03/19 13:49:22","新北市土城區中華路二段214號","121.437586666667","24.9683483333333","6501300","土城區"
"236028","253-BX","2018/03/19 13:49:35","新北市土城區自強街37號","121.433003333333","24.9733966666667","6501300","土城區"
"236024","269-VK","2018/03/19 13:49:27","新北市土城區中華路二段168-1號","121.43745","24.972145","6501300","土城區"
"236012","270-VK","2018/03/19 13:49:33","新北市土城區亞洲路46巷22號","121.434526666667","24.9747066666667","6501300","土城區"
"236032","271-VK","2018/03/19 13:49:30","新北市土城區亞洲路58巷5弄8號","121.433608333333","24.97432","6501300","土城區"
"236005","498-BY","2018/03/19 13:49:30","新北市土城區中華路一段301號","121.43997","24.9793383333333","6501300","土城區"
"236056","912-UM","2018/03/19 13:49:24","新北市土城區中華路二段126號","121.437725","24.9735366666667","6501300","土城區"
"236060","915-UM","2018/03/19 13:49:22","新北市土城區亞洲路46巷22號","121.434263333333","24.9747766666667","6501300","土城區"
"236052","AAC-216","2018/03/19 13:49:38","新北市土城區亞洲路58巷5弄10號","121.43362","24.9742616666667","6501300","土城區"
"242047","172-VK","2018/03/19 13:49:18","新北市新莊區民安西路478號","121.432153333333","25.0075116666667","6500500","新莊區"
"221032","280-BY","2018/03/19 13:49:23","新北市汐止區仁愛路27號","121.659395","25.0636633333333","6501100","汐止區"
"220027","145-BY","2018/03/19 13:49:32","新北市板橋區中正路37號","121.45627","25.0131133333333","6500100","板橋區"
"220028","200-UY","2018/03/19 13:49:29","新北市板橋區大觀路二段265巷72弄11號","121.44199","24.9969466666667","6500100","板橋區"
"220105","KEA-2550","2018/03/19 13:49:32","新北市板橋區民生路二段161巷1號","121.470171666667","25.0200716666667","6500100","板橋區"
"220030","610-BX","2018/03/19 13:49:37","新北市板橋區篤行路三段玉平巷68弄2號","121.428041666667","24.9862066666667","6500100","板橋區"
"220004","276-BY","2018/03/19 13:49:30","新北市土城區四川路8號","121.455676666667","24.9960966666667","6500100","板橋區"
"220020","277-BY","2018/03/19 13:49:28","新北市板橋區金門街25巷5號","121.433801666667","24.9945033333333","6500100","板橋區"
"220043","280-UM","2018/03/19 13:49:32","新北市板橋區民生路二段161巷3號","121.470158333333","25.019795","6500100","板橋區"
"220012","282-UM","2018/03/19 13:49:22","新北市板橋區民生路二段36-1號","121.4721","25.01676","6500100","板橋區"
"220019","283-VK","2018/03/19 13:49:30","新北市板橋區忠孝路176巷46號","121.465298333333","25.0016316666667","6500100","板橋區"
"220001","285-VK","2018/03/19 13:49:23","新北市板橋區民生路二段123號","121.47068","25.0186566666667","6500100","板橋區"
"220031","286-VK","2018/03/19 13:49:24","新北市板橋區僑中二街126巷2號","121.445316666667","25.0052316666667","6500100","板橋區"
"220029","287-VK","2018/03/19 13:49:37","新北市板橋區光華街13巷23號","121.453265","25.0113283333333","6500100","板橋區"
"220039","288-VK","2018/03/19 13:49:28","新北市板橋區民生路二段161巷9號","121.47034","25.019555","6500100","板橋區"
"220009","293-UM","2018/03/19 13:49:38","新北市板橋區太和街4巷1號","121.473868333333","25.01985","6500100","板橋區"
"220032","296-UM","2018/03/19 13:49:31","新北市板橋區大觀路二段150巷56號","121.44156","25.00033","6500100","板橋區"
"220023","303-R5","2018/03/19 13:49:33","新北市板橋區南雅西路一段174巷1弄7號","121.453013333333","25.0073916666667","6500100","板橋區"
"220010","305-R5","2018/03/19 13:49:30","新北市板橋區中山路二段36號","121.472885","25.01527","6500100","板橋區"
"220041","307-R5","2018/03/19 13:49:37","新北市板橋區民生路二段120號","121.470591666667","25.0196066666667","6500100","板橋區"
"220104","560-BX","2018/03/19 13:49:33","新北市板橋區中正路325巷5弄6號","121.453285","25.0192383333333","6500100","板橋區"
"220052","561-BX","2018/03/19 13:49:35","新北市板橋區民生路二段120號","121.470368333333","25.0196983333333","6500100","板橋區"
"220011","609-BX","2018/03/19 13:49:32","新北市板橋區民生路二段121號","121.47075","25.0185083333333","6500100","板橋區"
"220040","637-BX","2018/03/19 13:49:29","新北市板橋區民生路二段175號","121.469935","25.02023","6500100","板橋區"
"220005","686-BX","2018/03/19 13:49:35","新北市板橋區南雅南路二段144巷60號","121.450128333333","24.9972883333333","6500100","板橋區"
"220025","687-BX","2018/03/19 13:49:24","新北市板橋區金門街16號","121.433403333333","24.9944283333333","6500100","板橋區"
"220002","741-BX","2018/03/19 13:49:34","新北市板橋區板城路421號","121.448091666667","24.9956633333333","6500100","板橋區"
"220051","KEA-2699","2018/03/19 13:49:18","新北市板橋區民生路二段89-6號","121.470556666667","25.018845","6500100","板橋區"
"220003","827-TW","2018/03/19 13:49:27","新北市板橋區縣民大道二段56號","121.462771666667","25.01216","6500100","板橋區"
"220014","830-TW","2018/03/19 13:49:20","新北市板橋區民生路一段53號","121.475655","25.0131066666667","6500100","板橋區"
"220022","895-R6","2018/03/19 13:49:26","新北市板橋區府中路38號","121.457571666667","25.0096416666667","6500100","板橋區"
"220021","985-R7","2018/03/19 13:49:28","新北市板橋區館前西路93號","121.457181666667","25.0073316666667","6500100","板橋區"
"220018","AAC-253","2018/03/19 13:49:36","新北市板橋區四川路一段66號","121.459665","25.005485","6500100","板橋區"
