"lineid","car","time","location","longitude","latitude","cityid","cityname"
"234005","207-UY","2018/03/19 14:19:08","新北市永和區永貞路361巷2號","121.508911666667","25.00786","6500400","永和區"
"234078","298-R6","2018/03/19 14:19:12","新北市永和區國中路148號","121.523026666667","25.0070416666667","6500400","永和區"
"234036","336-UY","2018/03/19 14:19:06","新北市永和區成功路一段93巷1號","121.527223333333","25.002795","6500400","永和區"
"234062","337-UY","2018/03/19 14:19:02","新北市永和區得和路121號","121.518745","25.0002366666667","6500400","永和區"
"234084","338-UY","2018/03/19 14:19:15","新北市永和區永和路二段37號","121.51461","25.01069","6500400","永和區"
"234068","552-UM","2018/03/19 14:19:00","新北市永和區福和路263巷7弄1號","121.517895","25.00697","6500400","永和區"
"234028","746-BX","2018/03/19 14:19:17","新北市永和區民權路49巷5弄35號","121.521741666667","24.997885","6500400","永和區"
"234052","KEA-2590","2018/03/19 14:19:14","新北市永和區光復街4號","121.516421666667","25.0167316666667","6500400","永和區"
"234012","KEA-2591","2018/03/19 14:19:11","新北市永和區保生路54號","121.50549","25.0087533333333","6500400","永和區"
"234060","AAD-866","2018/03/19 14:19:11","新北市永和區安樂路166號","121.514646666667","25.0007583333333","6500400","永和區"
"234040","862-TW","2018/03/19 14:19:13","新北市永和區安樂路208-1號","121.515046666667","25.0020083333333","6500400","永和區"
"234048","863-TW","2018/03/19 14:19:03","新北市永和區文化路234號","121.509826666667","25.0171133333333","6500400","永和區"
"234025","9371-KE","2018/03/19 14:19:06","新北市永和區安樂路144巷15號","121.51465","25.0002333333333","6500400","永和區"
"248015","026-BX","2018/03/19 14:19:18","新北市五股區成泰路三段544-12號","121.45283","25.1022683333333","6501500","五股區"
"248019","225-UY","2018/03/19 14:04:01","新北市五股區凌雲路三段57號","121.425341666667","25.1250166666667","6501500","五股區"
"248011","247-BX","2018/03/19 14:19:08","新北市五股區工商路99巷18號","121.436811666667","25.0849516666667","6501500","五股區"
"248003","677-BX","2018/03/19 14:19:14","新北市五股區五福路51號","121.433","25.0897233333333","6501500","五股區"
"248001","678-BX","2018/03/19 14:19:13","新北市五股區成泰路三段643號","121.452753333333","25.1048216666667","6501500","五股區"
"248009","682-TV","2018/03/19 14:19:17","新北市五股區水碓一路23號","121.430666666667","25.0714233333333","6501500","五股區"
"234022","9380-KE","2018/03/19 14:19:19","新北市永和區博愛街37號","121.518751666667","25.0158966666667","6500400","永和區"
"234076","969-R7","2018/03/19 14:19:07","新北市永和區民族街73巷6號","121.51895","24.996735","6500400","永和區"
"234072","AAC-211","2018/03/19 14:19:10","新北市永和區福和路1號","121.52514","25.0091066666667","6500400","永和區"
"234066","AAC-212","2018/03/19 14:19:05","新北市永和區保平路292巷46弄2號","121.50741","25.0053566666667","6500400","永和區"
"234001","AAC-295","2018/03/19 14:19:04","新北市永和區中正路613號","121.516145","25.009825","6500400","永和區"
"244001","248-BX","2018/03/19 14:19:19","新北市林口區文化三路二段796號","121.380433333333","25.08726","6501700","林口區"
"243004","AAD-798","2018/03/19 14:19:01","新北市泰山區仁義路179號","121.432971666667","25.0541433333333","6501600","泰山區"
"243003","297-R6","2018/03/19 14:19:13","新北市泰山區貴子路15巷4弄2號","121.426541666667","25.0421966666667","6501600","泰山區"
"243007","380-SR","2018/03/19 14:19:07","新北市泰山區公園路42號","121.428871666667","25.0544","6501600","泰山區"
"243006","421-VK","2018/03/19 14:19:16","新北市泰山區泰林路二段253號","121.431806666667","25.062225","6501600","泰山區"
"243002","KEA-2215","2018/03/19 14:19:02","新北市泰山區明志路二段32巷5號","121.429355","25.05351","6501600","泰山區"
"243001","KEA-2216","2018/03/19 14:19:15","新北市泰山區和平街13巷23號","121.434451666667","25.0656733333333","6501600","泰山區"
"243005","646-TV","2018/03/19 14:19:15","新北市泰山區明志路三段145巷53弄2號","121.426726666667","25.0393816666667","6501600","泰山區"
"243008","680-BX","2018/03/19 14:19:08","新北市泰山區明志路三段146號","121.424501666667","25.0397233333333","6501600","泰山區"
"231002","002-UM","2018/03/19 14:19:13","新北市新店區中央路2號","121.533925","24.9791933333333","6500600","新店區"
"231025","0293-UT","2018/03/19 14:19:16","新北市新店區二十張路92號","121.536261666667","24.9798133333333","6500600","新店區"
"231028","046-UY","2018/03/19 14:19:06","新北市新店區安和路一段15號","121.516851666667","24.9641416666667","6500600","新店區"
"231030","047-UY","2018/03/19 14:19:17","新北市新店區安民街13號","121.515301666667","24.9645533333333","6500600","新店區"
"231029","106-UY","2018/03/19 14:19:03","新北市新店區安康路二段161號","121.510286666667","24.9593833333333","6500600","新店區"
"231018","107-UY","2018/03/19 14:19:19","新北市新店區中央四街39號","121.528225","24.9747","6500600","新店區"
"231011","108-UY","2018/03/19 14:19:10","新北市新店區五峰路61巷9-1號","121.549441666667","24.9696366666667","6500600","新店區"
"231019","187-VK","2018/03/19 14:19:08","新北市新店區桂山路30號","121.557576666667","24.903405","6500600","新店區"
"231014","KEA-2219","2018/03/19 14:19:16","新北市新店區北宜路三段62號","121.574371666667","24.9511283333333","6500600","新店區"
"231023","AAD-862","2018/03/19 14:19:07","新北市新店區光明街35號","121.538571666667","24.9597283333333","6500600","新店區"
"231027","3712-VJ","2018/03/19 14:19:08","新北市新店區北新路一段285號","121.541255","24.96687","6500600","新店區"
"231038","4715-K9","2018/03/19 14:19:19","新北市新店區溪洲路6巷40-1號","121.53362","24.9630233333333","6500600","新店區"
"231036","512-UM","2018/03/19 14:19:15","新北市新店區安祥路109巷90弄76號","121.475985","24.9584866666667","6500600","新店區"
"231013","513-UM","2018/03/19 14:19:13","新北市新店區建國路128巷3-1號","121.538956666667","24.9793133333333","6500600","新店區"
"231035","515-UM","2018/03/19 14:19:01","新北市新店區光華街8巷17號","121.517915","24.9695116666667","6500600","新店區"
"231006","617-UM","2018/03/19 14:19:11","新北市新店區北宜路二段599號","121.568165","24.95559","6500600","新店區"
"231001","619-UM","2018/03/19 14:19:10","新北市新店區北新路一段331號","121.541783333333","24.9685383333333","6500600","新店區"
"231003","641-BX","2018/03/19 14:19:04","新北市新店區中興路一段216號","121.543953333333","24.9658033333333","6500600","新店區"
"231034","645-TV","2018/03/19 14:19:12","新北市新店區黎明路3號","121.503198333333","24.9522583333333","6500600","新店區"
"231031","720-UM","2018/03/19 14:19:10","新北市新店區溪洲路123號","121.53031","24.9634233333333","6500600","新店區"
"231005","897-TW","2018/03/19 14:19:04","新北市新店區中興路三段216號","121.54356","24.982465","6500600","新店區"
"231004","899-TW","2018/03/19 14:19:02","新北市新店區北新路二段1號","121.54271","24.9711966666667","6500600","新店區"
"231037","AKT-0513","2018/03/19 14:19:09","新北市新店區安康路二段269號","121.504478333333","24.9573183333333","6500600","新店區"
"235030","003-UY","2018/03/19 14:19:04","新北市中和區中和路102號","121.502661666667","24.9997333333333","6500300","中和區"
"235028","005-UY","2018/03/19 14:19:10","新北市中和區泰和街8號","121.499673333333","25.0013166666667","6500300","中和區"
"235027","006-UY","2018/03/19 14:19:15","新北市中和區連勝街121巷6號","121.495026666667","24.9948633333333","6500300","中和區"
"235020","096-UM","2018/03/19 14:19:09","新北市中和區員山路470號","121.479883333333","25.00654","6500300","中和區"
"235003","097-UM","2018/03/19 14:19:06","新北市中和區秀峰街119巷8弄2號","121.519515","24.9897633333333","6500300","中和區"
"235029","098-UM","2018/03/19 14:18:59","新北市中和區中山路二段2巷5弄6號","121.50434","25.0061933333333","6500300","中和區"
"235004","150-BY","2018/03/19 14:19:09","新北市中和區宜安路47巷8號","121.511471666667","24.9965333333333","6500300","中和區"
"235022","151-BY","2018/03/19 14:19:04","新北市中和區連城路469巷70弄2號","121.483438333333","24.993725","6500300","中和區"
"235019","183-VK","2018/03/19 14:19:10","新北市中和區中山路三段181巷2號","121.472828333333","25.00598","6500300","中和區"
"235002","185-VK","2018/03/19 14:19:14","新北市中和區大仁街10巷37號","121.519553333333","24.9924233333333","6500300","中和區"
"235013","186-VK","2018/03/19 14:19:01","新北市中和區景新街230巷2號","121.508055","24.9941466666667","6500300","中和區"
"235031","255-BX","2018/03/19 14:19:11","新北市中和區新生街199號","121.483838333333","25.0000566666667","6500300","中和區"
"235008","293-VK","2018/03/19 14:19:13","新北市中和區中興街183號","121.5006","24.9901333333333","6500300","中和區"
"235036","301-VK","2018/03/19 14:19:18","新北市中和區景平路705號","121.496453333333","25.00354","6500300","中和區"
"235007","352-BY","2018/03/19 14:19:17","新北市中和區景平路280號","121.513486666667","24.9925633333333","6500300","中和區"
"235032","377-QA","2018/03/19 14:18:55","新北市中和區景平路493巷12弄7號","121.498926666667","24.9971416666667","6500300","中和區"
"235025","378-QA","2018/03/19 14:19:17","新北市中和區民利街61巷15號","121.478846666667","24.9980683333333","6500300","中和區"
"235035","269-TV","2018/03/19 14:19:07","新北市中和區連城路519號","121.482036666667","24.9953466666667","6500300","中和區"
"235014","4979-A6","2018/03/19 14:19:07","新北市中和區復興路280巷18弄2號","121.502566666667","24.9917183333333","6500300","中和區"
"235033","4980-A6","2018/03/19 14:19:12","新北市中和區中山路二段178巷1號","121.500656666667","25.002915","6500300","中和區"
"235006","551-UM","2018/03/19 14:19:16","新北市中和區大勇街60巷14弄1號","121.518715","24.994535","6500300","中和區"
"235034","558-UM","2018/03/19 14:18:59","新北市中和區景平路690號","121.496813333333","25.0015916666667","6500300","中和區"
"235009","565-BX","2018/03/19 14:19:06","新北市中和區景新街423巷35弄34號","121.51392","24.9904033333333","6500300","中和區"
"235018","640-BX","2018/03/19 14:19:02","新北市中和區民德路105-1號","121.469026666667","25.0007666666667","6500300","中和區"
"235024","647-TV","2018/03/19 14:19:02","新北市中和區中山路三段35-1號","121.478628333333","25.0057733333333","6500300","中和區"
"235011","732-UM","2018/03/19 14:19:10","新北市中和區和平街54巷9號","121.508983333333","24.991635","6500300","中和區"
"235010","733-UM","2018/03/19 14:19:05","新北市中和區華新街115號","121.507343333333","24.9821066666667","6500300","中和區"
"235026","800-TS","2018/03/19 14:19:13","新北市中和區中山路二段434號","121.489548333333","25.0041483333333","6500300","中和區"
"235021","801-TS","2018/03/19 14:19:06","新北市中和區員山路423巷15號","121.480433333333","25.0028316666667","6500300","中和區"
"235005","802-TS","2018/03/19 14:18:47","新北市中和區中安街218號","121.511953333333","24.9989316666667","6500300","中和區"
"235016","805-TS","2018/03/19 14:19:06","新北市中和區興南路二段128巷4號","121.504135","24.98369","6500300","中和區"
"235012","896-TW","2018/03/19 14:19:14","新北市中和區華新街109巷24號","121.508391666667","24.9803933333333","6500300","中和區"
"235017","911-UM","2018/03/19 14:19:21","新北市中和區華安街17巷28號","121.467828333333","24.9982366666667","6500300","中和區"
"235015","157-BY","2018/03/19 14:19:06","新北市中和區和平街2巷4弄5號","121.510156666667","24.9908533333333","6500300","中和區"
"235001","AAC-213","2018/03/19 14:19:17","新北市中和區秀朗路三段50巷12弄8號","121.524105","24.9954116666667","6500300","中和區"
"235023","AAC-215","2018/03/19 14:19:05","新北市中和區圓通路286巷10號","121.491545","24.991235","6500300","中和區"
"220016","013-TV","2018/03/19 14:19:05","新北市板橋區林森街1巷33-3號","121.482831666667","25.0243783333333","6500100","板橋區"
"220013","072-UY","2018/03/19 14:19:03","新北市板橋區民族路170巷14號","121.467231666667","25.007335","6500100","板橋區"
"220034","073-UY","2018/03/19 14:19:13","新北市板橋區中正路216巷8號","121.456328333333","25.0184033333333","6500100","板橋區"
"220046","075-UY","2018/03/19 14:19:07","新北市板橋區公館街252號","121.459985","25.0212783333333","6500100","板橋區"
"220017","AAD-861","2018/03/19 14:18:59","新北市板橋區華興街21巷23號","121.45877","25.00366","6500100","板橋區"
"247023","893-R6","2018/03/19 14:19:20","新北市蘆洲區長榮路707號","121.460921666667","25.0927616666667","6501400","蘆洲區"
"247013","546-UM","2018/03/19 14:19:16","新北市蘆洲區中山一路176號","121.474233333333","25.081155","6501400","蘆洲區"
"247021","500-BY","2018/03/19 14:19:04","新北市蘆洲區仁愛街333-1號","121.46787","25.0935133333333","6501400","蘆洲區"
"247009","341-TH","2018/03/19 14:18:59","新北市蘆洲區三民路26巷22號","121.477445","25.082935","6501400","蘆洲區"
"247011","339-TH","2018/03/19 14:19:16","新北市蘆洲區民權路3巷20號","121.47541","25.0850783333333","6501400","蘆洲區"
"247003","337-TH","2018/03/19 14:19:13","新北市蘆洲區長安街172巷17號","121.459828333333","25.08371","6501400","蘆洲區"
"247005","336-TH","2018/03/19 14:19:10","新北市蘆洲區長安街22巷44號","121.465181666667","25.080375","6501400","蘆洲區"
"247017","057-VK","2018/03/19 14:19:04","新北市蘆洲區民權路66號","121.475078333333","25.087215","6501400","蘆洲區"
"247007","056-VK","2018/03/19 14:19:19","新北市蘆洲區信義路74號","121.47647","25.07943","6501400","蘆洲區"
"247019","053-VK","2018/03/19 14:19:15","新北市蘆洲區民族路446-2號","121.472836666667","25.0919733333333","6501400","蘆洲區"
"247015","007-UY","2018/03/19 14:19:01","新北市蘆洲區中正路185巷31弄44號","121.467145","25.0831333333333","6501400","蘆洲區"
"247001","002-UY","2018/03/19 14:19:19","新北市蘆洲區永樂街74號","121.457111666667","25.088575","6501400","蘆洲區"
"253003","6232-TK","2018/03/19 14:19:12","新北市石門區尖子鹿42號","121.579651666667","25.265995","6502200","石門區"
"253001","6251-TK","2018/03/19 14:19:02","新北市石門區八甲66-2號","121.52741","25.2748516666667","6502200","石門區"
"253002","637-UY","2018/03/19 14:19:15","新北市石門區大丘田51號","121.550165","25.271755","6502200","石門區"
"253004","8270-PC","2018/03/19 14:19:18","新北市石門區內阿里磅5號","121.589615","25.2533883333333","6502200","石門區"
"207002","749-BX","2018/03/19 14:19:05","新北市萬里區溪底里瑞泉路9號","121.603278333333","25.1437683333333","6502800","萬里區"
"207001","662-BX","2018/03/19 14:18:58","新北市萬里區磺潭里清水18號","121.637888333333","25.1976733333333","6502800","萬里區"
"252005","AAC-283","2018/03/19 14:18:58","新北市三芝區橫山里大坑23-5號","121.524088333333","25.2554183333333","6502100","三芝區"
"236064","105-UM","2018/03/19 14:19:07","新北市土城區明德路一段126號","121.463666666667","24.9791716666667","6501300","土城區"
"236040","107-UM","2018/03/19 14:19:11","新北市土城區樂利街3巷30號","121.448606666667","24.9864833333333","6501300","土城區"
"236074","166-UM","2018/03/19 14:19:02","新北市土城區永平街15巷10號","121.428611666667","24.96246","6501300","土城區"
"236028","253-BX","2018/03/19 14:19:15","新北市土城區順風路29號","121.440226666667","24.9769783333333","6501300","土城區"
"236024","269-VK","2018/03/19 14:19:07","新北市土城區承天路67號","121.439601666667","24.963415","6501300","土城區"
"236012","270-VK","2018/03/19 14:19:13","新北市土城區青雲路39巷7號","121.460373333333","24.9875366666667","6501300","土城區"
"236032","271-VK","2018/03/19 14:19:15","新北市土城區青雲路483巷5號","121.459431666667","24.9739933333333","6501300","土城區"
"236016","401-BY","2018/03/19 14:19:09","新北市土城區延吉街308號","121.464063333333","24.9840166666667","6501300","土城區"
"236005","498-BY","2018/03/19 14:19:10","新北市土城區中華路一段56巷25號","121.444426666667","24.9895883333333","6501300","土城區"
"236056","912-UM","2018/03/19 14:19:04","新北市土城區中央路四段209號","121.413888333333","24.9559183333333","6501300","土城區"
"236044","913-UM","2018/03/19 14:19:12","新北市土城區明德路一段375-3號","121.454535","24.9783283333333","6501300","土城區"
"236060","915-UM","2018/03/19 14:19:02","新北市土城區延壽路44巷15號","121.47147","24.993005","6501300","土城區"
"236052","AAC-216","2018/03/19 14:19:18","新北市土城區中華路二段104號","121.438051666667","24.9742983333333","6501300","土城區"
"221032","280-BY","2018/03/19 14:19:03","新北市汐止區新台五路一段73-1號","121.644206666667","25.059905","6501100","汐止區"
"220027","145-BY","2018/03/19 14:19:12","新北市板橋區民權路202巷17弄26號","121.45976","25.01668","6500100","板橋區"
"220028","200-UY","2018/03/19 14:06:09","新北市板橋區大觀路二段108號","121.444065","24.99937","6500100","板橋區"
"220105","KEA-2550","2018/03/19 14:19:15","新北市板橋區宏國路111號","121.470366666667","25.0321466666667","6500100","板橋區"
"220030","610-BX","2018/03/19 14:19:17","新北市板橋區篤行路三段玉平巷76弄18號","121.427323333333","24.9860783333333","6500100","板橋區"
"220050","245-BX","2018/03/19 14:19:14","新北市板橋區莊敬路21號","121.47377","25.0279383333333","6500100","板橋區"
"220004","276-BY","2018/03/19 14:19:10","新北市板橋區信義路105-1號","121.457398333333","24.9936766666667","6500100","板橋區"
"220020","277-BY","2018/03/19 14:19:08","新北市板橋區金門街372巷33號","121.427431666667","24.985","6500100","板橋區"
"220043","280-UM","2018/03/19 14:19:12","新北市板橋區光武街110巷52號","121.467298333333","25.0303583333333","6500100","板橋區"
"220012","282-UM","2018/03/19 14:19:02","新北市板橋區縣民大道二段1號","121.462063333333","25.011885","6500100","板橋區"
"220019","283-VK","2018/03/19 14:19:10","新北市板橋區仁愛路73巷12號","121.461015","25.0003633333333","6500100","板橋區"
"220001","285-VK","2018/03/19 14:19:02","新北市板橋區富山街10號","121.478643333333","25.0219216666667","6500100","板橋區"
"220031","286-VK","2018/03/19 14:19:04","新北市板橋區龍興街95巷6號","121.443803333333","25.002605","6500100","板橋區"
"220029","287-VK","2018/03/19 14:19:17","新北市板橋區南雅西路一段186號","121.452935","25.008215","6500100","板橋區"
"220039","288-VK","2018/03/19 14:19:08","新北市板橋區四維路349巷16號","121.461566666667","25.0296966666667","6500100","板橋區"
"220009","293-UM","2018/03/19 14:19:18","新北市板橋區光復街192巷20號","121.481458333333","25.0189383333333","6500100","板橋區"
"220032","296-UM","2018/03/19 14:19:11","新北市板橋區溪崑二街75號","121.428131666667","24.9901683333333","6500100","板橋區"
"220023","303-R5","2018/03/19 14:19:16","新北市板橋區南雅南路一段3巷25-11號","121.45662","25.0057783333333","6500100","板橋區"
"220010","305-R5","2018/03/19 14:19:10","新北市板橋區三民路二段153巷36弄2號","121.48112","25.0141366666667","6500100","板橋區"
"220041","307-R5","2018/03/19 14:19:16","新北市板橋區光武街48巷29號","121.467806666667","25.0268816666667","6500100","板橋區"
"220047","317-R6","2018/03/19 14:19:18","新北市板橋區民有街87號","121.464781666667","25.02762","6500100","板橋區"
"220038","487-VK","2018/03/19 14:19:17","新北市板橋區文化路一段357號","121.466788333333","25.02115","6500100","板橋區"
"220037","491-VK","2018/03/19 14:19:01","新北市板橋區文化路二段182巷3弄53號","121.472496666667","25.0288566666667","6500100","板橋區"
"220104","560-BX","2018/03/19 14:19:19","新北市板橋區中正路360巷51號","121.456218333333","25.02287","6500100","板橋區"
"220052","561-BX","2018/03/19 14:19:15","新北市板橋區文化路一段188巷7弄13號","121.467568333333","25.0198166666667","6500100","板橋區"
"220011","609-BX","2018/03/19 14:19:12","新北市板橋區三民路二段202-16號","121.478925","25.013565","6500100","板橋區"
"220040","637-BX","2018/03/19 14:19:09","新北市板橋區文聖街206號","121.48024","25.025755","6500100","板橋區"
"220005","686-BX","2018/03/19 14:19:15","新北市板橋區和平路161巷22號","121.463366666667","24.9966633333333","6500100","板橋區"
"220025","687-BX","2018/03/19 14:19:04","新北市板橋區龍興街2號","121.442696666667","24.9994283333333","6500100","板橋區"
"220002","741-BX","2018/03/19 14:19:14","新北市板橋區四川路一段87巷75號","121.460666666667","25.0062016666667","6500100","板橋區"
"220051","KEA-2699","2018/03/19 14:19:18","新北市板橋區文聖街160號","121.47899","25.027205","6500100","板橋區"
"220003","827-TW","2018/03/19 14:19:07","新北市板橋區館前東路156巷8號","121.464351666667","25.0072833333333","6500100","板橋區"
"220014","830-TW","2018/03/19 14:19:00","新北市板橋區長安街138巷1弄47號","121.474061666667","25.0103283333333","6500100","板橋區"
"220045","831-TW","2018/03/19 14:19:18","新北市板橋區大同街27號","121.477683333333","25.02712","6500100","板橋區"
"220042","833-TW","2018/03/19 14:19:10","新北市板橋區文化路一段279號","121.464791666667","25.0185783333333","6500100","板橋區"
"220022","895-R6","2018/03/19 14:19:16","新北市板橋區府中路42號","121.457428333333","25.0095133333333","6500100","板橋區"
"220021","985-R7","2018/03/19 14:19:18","新北市板橋區中正路189號","121.456355","25.0168516666667","6500100","板橋區"
"220018","AAC-253","2018/03/19 14:19:11","新北市板橋區忠孝路95號","121.462361666667","25.0022233333333","6500100","板橋區"
