"lineid","car","time","location","longitude","latitude","cityid","cityname"
"234048","863-TW","2018/03/19 15:18:43","新北市八里區下罟子15-9號","121.380378333333","25.13954","6500400","永和區"
"248003","677-BX","2018/03/19 15:19:02","新北市五股區中興路四段31號","121.438451666667","25.0827933333333","6501500","五股區"
"244001","248-BX","2018/03/19 15:18:59","新北市林口區粉寮路一段77號","121.39652","25.078835","6501700","林口區"
"243008","680-BX","2018/03/19 15:19:08","新北市泰山區明志路二段194號","121.42753","25.0496166666667","6501600","泰山區"
"231002","002-UM","2018/03/19 15:19:13","新北市新店區中正路700巷3號","121.533753333333","24.99138","6500600","新店區"
"231025","0293-UT","2018/03/19 15:18:56","新北市新店區中央路2號","121.533908333333","24.9791416666667","6500600","新店區"
"231028","046-UY","2018/03/19 15:19:05","新北市新店區僑信路74巷13號","121.499126666667","24.9483116666667","6500600","新店區"
"231030","047-UY","2018/03/19 15:18:57","新北市新店區安和路二段205巷5號","121.517536666667","24.9750466666667","6500600","新店區"
"231029","106-UY","2018/03/19 15:19:03","新北市新店區安康路三段738號","121.473841666667","24.9420033333333","6500600","新店區"
"231018","107-UY","2018/03/19 15:18:59","新北市新店區中央六街33號","121.528998333333","24.97525","6500600","新店區"
"231011","108-UY","2018/03/19 15:19:12","新北市新店區復興路1巷1號","121.540398333333","24.9866266666667","6500600","新店區"
"231019","187-VK","2018/03/19 15:19:08","新北市新店區花園二路三段17號","121.556273333333","24.9317","6500600","新店區"
"231026","256-BX","2018/03/19 15:19:03","新北市新店區中正路265巷21號","121.537785","24.9731416666667","6500600","新店區"
"231023","AAD-862","2018/03/19 15:19:07","新北市新店區北新路一段64巷39弄4號","121.542593333333","24.9657783333333","6500600","新店區"
"231024","4716-K9","2018/03/19 15:19:11","新北市新店區新祥街6-1號","121.541415","24.9687883333333","6500600","新店區"
"231036","512-UM","2018/03/19 15:18:55","新北市新店區安祥路69巷17號","121.481871666667","24.9613883333333","6500600","新店區"
"231035","515-UM","2018/03/19 15:19:01","新北市新店區永平街23巷9號","121.516723333333","24.982945","6500600","新店區"
"231006","617-UM","2018/03/19 15:19:11","新北市新店區中興路一段216號","121.543885","24.9657166666667","6500600","新店區"
"231001","619-UM","2018/03/19 15:19:05","新北市新店區北新路一段275號","121.541141666667","24.9668116666667","6500600","新店區"
"231003","641-BX","2018/03/19 15:19:04","新北市新店區寶高路120巷1號","121.554623333333","24.9760116666667","6500600","新店區"
"231034","645-TV","2018/03/19 15:18:52","新北市新店區如意街3巷2號","121.495533333333","24.94915","6500600","新店區"
"231039","718-UY","2018/03/19 15:18:55","新北市新店區寶元路一段65號","121.54217","24.9858283333333","6500600","新店區"
"231031","720-UM","2018/03/19 15:19:10","新北市新店區和成街15巷31號","121.48879","24.9471566666667","6500600","新店區"
"231005","897-TW","2018/03/19 15:19:04","新北市新店區建國路219-1號","121.537608333333","24.981325","6500600","新店區"
"231004","899-TW","2018/03/19 15:19:02","新北市新店區建國路31號","121.540125","24.9741633333333","6500600","新店區"
"231037","AKT-0513","2018/03/19 15:19:09","新北市新店區安興路91巷9號","121.512775","24.9753216666667","6500600","新店區"
"241013","270-UM","2018/03/19 15:19:10","新北市三重區重新路四段121號","121.484801666667","25.0525416666667","6500200","三重區"
"235030","003-UY","2018/03/19 15:19:04","新北市中和區保平路326巷23號","121.506498333333","25.0046116666667","6500300","中和區"
"235003","097-UM","2018/03/19 15:19:06","新北市中和區安平路38號","121.509923333333","24.994965","6500300","中和區"
"235014","4979-A6","2018/03/19 15:19:07","新北市中和區景平路464巷2弄2號","121.505806666667","24.993875","6500300","中和區"
"235033","4980-A6","2018/03/19 15:19:12","新北市中和區圓通路160-1號","121.497665","24.99556","6500300","中和區"
"235012","896-TW","2018/03/19 15:18:54","新北市中和區興南路一段20-1號","121.511338333333","24.991075","6500300","中和區"
"235023","AAC-215","2018/03/19 15:19:05","新北市中和區圓通路435巷2-13號","121.487785","24.9862933333333","6500300","中和區"
"220046","075-UY","2018/03/19 15:19:13","新北市板橋區文化路一段221巷18號","121.462995","25.0178183333333","6500100","板橋區"
"253003","6232-TK","2018/03/19 15:19:12","新北市石門區小坑9號","121.594361666667","25.2884066666667","6502200","石門區"
"253001","6251-TK","2018/03/19 15:19:02","新北市石門區小坑9號","121.594465","25.28919","6502200","石門區"
"253002","637-UY","2018/03/19 15:18:55","新北市石門區尖子鹿79號","121.572031666667","25.2959033333333","6502200","石門區"
"253004","8270-PC","2018/03/19 15:18:57","新北市石門區小坑9號","121.594328333333","25.2886533333333","6502200","石門區"
"207002","749-BX","2018/03/19 15:19:05","新北市萬里區崁腳里內中福路2-1號","121.669198333333","25.1654166666667","6502800","萬里區"
"207001","662-BX","2018/03/19 15:18:58","新北市萬里區磺潭里員潭路1-1號","121.646453333333","25.2024683333333","6502800","萬里區"
"236064","105-UM","2018/03/19 15:19:07","新北市土城區裕民路185巷36弄10號","121.45437","24.9845766666667","6501300","土城區"
"236040","107-UM","2018/03/19 15:19:11","新北市土城區裕民路185巷7號","121.453916666667","24.9847833333333","6501300","土城區"
"236074","166-UM","2018/03/19 15:19:02","新北市土城區溪頭路7巷2號","121.412833333333","24.9553616666667","6501300","土城區"
"236028","253-BX","2018/03/19 15:18:54","新北市土城區中央路一段318巷4弄12號","121.443266666667","24.9823866666667","6501300","土城區"
"236024","269-VK","2018/03/19 15:19:07","新北市土城區學府路二段253號","121.444966666667","24.977915","6501300","土城區"
"236012","270-VK","2018/03/19 15:18:53","新北市土城區學府路一段36號","121.458103333333","24.9885466666667","6501300","土城區"
"236032","271-VK","2018/03/19 15:19:10","新北市土城區國際路125號","121.467821666667","24.97613","6501300","土城區"
"236016","401-BY","2018/03/19 15:19:09","新北市土城區峰廷街3號","121.469081666667","24.9873516666667","6501300","土城區"
"236056","912-UM","2018/03/19 15:19:04","新北市土城區金城路一段43號","121.440298333333","24.969395","6501300","土城區"
"236044","913-UM","2018/03/19 15:19:12","新北市土城區明德路一段28號","121.465126666667","24.984755","6501300","土城區"
"236060","915-UM","2018/03/19 15:19:02","新北市土城區延和路107號","121.467666666667","24.99041","6501300","土城區"
"236052","AAC-216","2018/03/19 15:18:58","新北市土城區學府路一段152號","121.45459","24.9868466666667","6501300","土城區"
"238002","755-BX","2018/03/19 15:19:05","新北市樹林區復興路196號","121.419971666667","24.99101","6500700","樹林區"
"238010","601-UM","2018/03/19 15:19:05","新北市樹林區中正路433-1號","121.414926666667","25.007685","6500700","樹林區"
"238006","599-UM","2018/03/19 15:18:55","新北市樹林區八德街94號","121.420826666667","24.980265","6500700","樹林區"
"238005","571-TV","2018/03/19 15:19:10","新北市樹林區樹新路217號","121.431048333333","25.0003583333333","6500700","樹林區"
"238011","5061-A6","2018/03/19 15:19:10","新北市樹林區鎮前街168號","121.424285","24.9899266666667","6500700","樹林區"
"238009","KEA-2213","2018/03/19 15:19:12","新北市樹林區仁愛街76號","121.424411666667","24.9831583333333","6500700","樹林區"
"238003","KEA-2539","2018/03/19 15:19:04","新北市樹林區西圳街一段183巷29-3號","121.395428333333","24.96001","6500700","樹林區"
"238012","303-VK","2018/03/19 15:19:11","新北市樹林區中山路一段296號","121.420373333333","24.9864483333333","6500700","樹林區"
"238001","283-BY","2018/03/19 15:19:08","新北市樹林區保安街二段2號","121.416636666667","24.9996066666667","6500700","樹林區"
"238001","282-BY","2018/03/19 15:19:00","新北市樹林區大安路161號","121.421488333333","24.9966183333333","6500700","樹林區"
"238007","268-VK","2018/03/19 15:18:57","新北市樹林區中正路7-1號","121.43021","24.99759","6500700","樹林區"
"238013","172-UY","2018/03/19 15:18:54","新北市樹林區味王街46巷11號","121.403705","24.9737433333333","6500700","樹林區"
"238003","169-UY","2018/03/19 15:18:55","新北市樹林區中山路二段10號","121.417516666667","24.9850616666667","6500700","樹林區"
"221032","280-BY","2018/03/19 15:19:03","新北市汐止區樟樹二路330巷76號","121.643745","25.0705833333333","6501100","汐止區"
"220028","200-UY","2018/03/19 15:19:09","新北市板橋區南雅西路二段7巷25號","121.45184","25.0096583333333","6500100","板橋區"
"220050","245-BX","2018/03/19 15:18:55","新北市板橋區莊敬路77號","121.473128333333","25.0267383333333","6500100","板橋區"
"220001","285-VK","2018/03/19 15:18:57","新北市板橋區中山路二段417號","121.480831666667","25.01981","6500100","板橋區"
"220031","286-VK","2018/03/19 15:19:04","新北市板橋區僑中二街104巷15號","121.44531","25.007935","6500100","板橋區"
"220029","287-VK","2018/03/19 15:18:57","新北市板橋區僑中一街102巷5弄9號","121.446361666667","25.012655","6500100","板橋區"
"220009","293-UM","2018/03/19 15:19:03","新北市板橋區四川路一段276號","121.458658333333","25.0010966666667","6500100","板橋區"
"220041","307-R5","2018/03/19 15:19:11","新北市板橋區民權路182號","121.459181666667","25.0134783333333","6500100","板橋區"
"220038","487-VK","2018/03/19 15:18:57","新北市板橋區四維路255號","121.463485","25.027915","6500100","板橋區"
"220037","491-VK","2018/03/19 15:19:00","新北市板橋區民治街84號","121.479406666667","25.03221","6500100","板橋區"
"220052","561-BX","2018/03/19 15:18:55","新北市板橋區新海路196號","121.461105","25.0237333333333","6500100","板橋區"
"220011","609-BX","2018/03/19 15:18:52","新北市板橋區三民路一段102號","121.479333333333","25.0211566666667","6500100","板橋區"
"220051","KEA-2699","2018/03/19 15:18:57","新北市板橋區縣民大道二段166號","121.468443333333","25.01662","6500100","板橋區"
"220014","830-TW","2018/03/19 15:19:00","新北市板橋區中山路二段305號","121.478763333333","25.0184666666667","6500100","板橋區"
"220042","833-TW","2018/03/19 15:19:10","新北市板橋區長江路二段268號","121.46956","25.0327916666667","6500100","板橋區"
"220018","AAC-253","2018/03/19 15:19:11","新北市板橋區德興街16號","121.453386666667","24.9944","6500100","板橋區"
