"lineid","car","time","location","longitude","latitude","cityid","cityname"
"249005","172-UM","2018/03/19 17:29:26","新北市八里區荖阡坑路67號","121.405515","25.1286916666667","6502300","八里區"
"249001","173-UM","2018/03/19 17:29:08","新北市八里區中華路一段1-5號","121.423235","25.1586566666667","6502300","八里區"
"249004","303-UY","2018/03/19 17:29:25","新北市八里區民治街102號","121.413403333333","25.1568416666667","6502300","八里區"
"249002","305-UY","2018/03/19 17:29:12","新北市八里區龍米路二段1-1號","121.44925","25.1382766666667","6502300","八里區"
"249003","593-UM","2018/03/19 17:29:20","新北市八里區中山路二段398號","121.400516666667","25.1479366666667","6502300","八里區"
"244013","069-UM","2018/03/19 17:29:24","新北市林口區粉寮路17巷1號","121.398453333333","25.0807033333333","6501700","林口區"
"244007","080-UY","2018/03/19 17:29:13","新北市林口區湖子45號","121.384843333333","25.0944716666667","6501700","林口區"
"244019","403-UM","2018/03/19 17:19:29","新北市林口區粉寮路二段160巷40號","121.405533333333","25.091075","6501700","林口區"
"244025","742-UY","2018/03/19 17:29:25","新北市林口區仁愛二路63號","121.368461666667","25.0754483333333","6501700","林口區"
"244023","483-VK","2018/03/19 17:29:13","新北市林口區東明一街15巷12號","121.39307","25.07208","6501700","林口區"
"244009","656-BX","2018/03/19 17:29:22","新北市林口區中北一街14號","121.38576","25.08696","6501700","林口區"
"244019","657-BX","2018/03/19 17:29:17","新北市林口區文化二路一段338號","121.372573333333","25.07492","6501700","林口區"
"244010","701-TV","2018/03/19 17:29:15","新北市林口區中正路345巷1弄1號","121.387968333333","25.0772666666667","6501700","林口區"
"244021","838-TS","2018/03/19 17:29:17","新北市林口區粉寮路60-17號","121.404283333333","25.09026","6501700","林口區"
"231046","278-BY","2018/03/19 17:29:11","新北市新店區直潭路92號","121.530921666667","24.937665","6500600","新店區"
"241011","013-R5","2018/03/19 17:29:10","新北市三重區介壽路39巷179號","121.502368333333","25.0705366666667","6500200","三重區"
"241015","062-VK","2018/03/19 17:29:22","新北市三重區長元街65巷8弄18號","121.503298333333","25.0665066666667","6500200","三重區"
"241017","063-VK","2018/03/19 17:29:15","新北市三重區大同北路34巷52號","121.493613333333","25.0619733333333","6500200","三重區"
"241024","065-VK","2018/03/19 17:29:18","新北市三重區大勇街82巷15弄21號","121.480718333333","25.07194","6500200","三重區"
"241026","066-VK","2018/03/19 17:29:25","新北市三重區正義南路67號","121.498316666667","25.0602366666667","6500200","三重區"
"241002","090-VK","2018/03/19 17:29:16","新北市三重區仁義街333號","121.495068333333","25.0846433333333","6500200","三重區"
"241003","091-VK","2018/03/19 17:29:21","新北市三重區富福街2號","121.489875","25.0831566666667","6500200","三重區"
"241005","262-UM","2018/03/19 17:29:14","新北市三重區永安北路二段5巷2號","121.481706666667","25.0811083333333","6500200","三重區"
"241016","265-UM","2018/03/19 17:29:08","新北市三重區信義西街41號","121.495268333333","25.064","6500200","三重區"
"241018","268-UM","2018/03/19 17:28:50","新北市三重區大智街65號","121.492536666667","25.067965","6500200","三重區"
"241032","269-UM","2018/03/19 17:29:17","新北市三重區名源街61巷3號","121.481893333333","25.0593416666667","6500200","三重區"
"241013","270-UM","2018/03/19 17:29:10","新北市三重區仁愛街141巷8號","121.495638333333","25.0755783333333","6500200","三重區"
"241025","271-UM","2018/03/19 17:29:20","新北市三重區中正北路209號","121.476495","25.0699816666667","6500200","三重區"
"241007","398-BY","2018/03/19 17:29:07","新北市三重區三和路四段145巷167號","121.4878","25.0792616666667","6500200","三重區"
"241020","413-TH","2018/03/19 17:29:19","新北市三重區忠孝路一段107號","121.489158333333","25.0721","6500200","三重區"
"241030","480-VK","2018/03/19 17:29:23","新北市三重區新興路55號","121.49128","25.0538883333333","6500200","三重區"
"241014","543-UM","2018/03/19 17:29:21","新北市三重區安和路15號","121.501283333333","25.0684283333333","6500200","三重區"
"241023","545-UM","2018/03/19 17:29:17","新北市三重區三民街146巷3弄2號","121.48164","25.0645633333333","6500200","三重區"
"241019","KEA-2593","2018/03/19 17:29:10","新北市三重區自強路二段50巷19-1號","121.488205","25.06943","6500200","三重區"
"241024","743-BX","2018/03/19 17:29:11","新北市三重區國道路一段58巷15號","121.481353333333","25.072085","6500200","三重區"
"241012","941-UM","2018/03/19 17:29:15","新北市三重區仁興街41號","121.499208333333","25.0758283333333","6500200","三重區"
"241033","AAC-255","2018/03/19 17:29:19","新北市三重區中興北街72號","121.46895","25.0528183333333","6500200","三重區"
"235061","378-QA","2018/03/19 17:18:21","新北市中和區員山路36巷16-2號","121.485293333333","24.9916883333333","6500300","中和區"
"247024","893-R6","2018/03/19 17:29:24","新北市蘆洲區長興路389號","121.46111","25.0917283333333","6501400","蘆洲區"
"247014","546-UM","2018/03/19 17:29:19","新北市蘆洲區三民路33號","121.475398333333","25.0830133333333","6501400","蘆洲區"
"247022","500-BY","2018/03/19 17:29:16","新北市蘆洲區三民路256號","121.467583333333","25.0901066666667","6501400","蘆洲區"
"247010","341-TH","2018/03/19 17:29:23","新北市蘆洲區中山一路120巷16號","121.477731666667","25.081795","6501400","蘆洲區"
"247012","339-TH","2018/03/19 17:29:20","新北市蘆洲區民族路38號","121.476581666667","25.0844033333333","6501400","蘆洲區"
"247004","337-TH","2018/03/19 17:29:21","新北市蘆洲區長安街237號","121.459263333333","25.0829566666667","6501400","蘆洲區"
"247006","336-TH","2018/03/19 17:29:07","新北市蘆洲區長安街22巷43號","121.465218333333","25.080695","6501400","蘆洲區"
"247018","057-VK","2018/03/19 17:29:14","新北市蘆洲區民義街30巷12號","121.472008333333","25.0882716666667","6501400","蘆洲區"
"247008","056-VK","2018/03/19 17:29:17","新北市蘆洲區民生街105號","121.473425","25.078555","6501400","蘆洲區"
"247020","053-VK","2018/03/19 17:29:25","新北市蘆洲區水湳街389號","121.469641666667","25.093715","6501400","蘆洲區"
"247016","007-UY","2018/03/19 17:29:24","新北市蘆洲區光華路22巷7號","121.469218333333","25.0837233333333","6501400","蘆洲區"
"247002","002-UY","2018/03/19 17:29:11","新北市蘆洲區永樂街38巷57弄10-2號","121.457921666667","25.0904866666667","6501400","蘆洲區"
"228003","097-TW","2018/03/19 17:29:14","新北市貢寮區仁理村研海街62-2號","121.925723333333","25.0441083333333","6502600","貢寮區"
"228002","585-TW","2018/03/19 17:29:09","新北市貢寮區福隆里興隆街21-2號","121.932976666667","25.01878","6502600","貢寮區"
"228001","670-TC","2018/03/19 17:29:10","新北市貢寮區仁理村仁愛路34號","121.925008333333","25.0532616666667","6502600","貢寮區"
"224010","AGQ-8101","2018/03/19 17:29:23","新北市瑞芳區逢甲路41號","121.808453333333","25.1090066666667","6501200","瑞芳區"
"224006","676-BX","2018/03/19 17:29:20","新北市瑞芳區傑魚坑路13號","121.794191666667","25.1105416666667","6501200","瑞芳區"
"224008","285-BY","2018/03/19 17:29:24","新北市瑞芳區九芎橋路14號","121.832163333333","25.0913933333333","6501200","瑞芳區"
"224007","275-VK","2018/03/19 17:29:10","新北市瑞芳區靜安路四段2巷1號","121.79385","25.0843116666667","6501200","瑞芳區"
"224009","273-VK","2018/03/19 17:29:24","新北市瑞芳區汽車路9-12號","121.846138333333","25.1110116666667","6501200","瑞芳區"
"224005","271-BY","2018/03/19 17:29:25","新北市瑞芳區洞頂路212-2號","121.861515","25.1248033333333","6501200","瑞芳區"
"227001","400-TW","2018/03/19 17:29:17","新北市雙溪區平林里外平林14號","121.855815","25.0347966666667","6502500","雙溪區"
"251009","008-UM","2018/03/19 17:29:24","新北市淡水區新生街88號","121.439525","25.1746416666667","6501000","淡水區"
"251004","009-UM","2018/03/19 17:29:21","新北市淡水區中正東路二段88巷15號","121.459066666667","25.1505","6501000","淡水區"
"251005","010-UM","2018/03/19 17:29:22","新北市淡水區鄧公路31巷7號","121.451563333333","25.1707583333333","6501000","淡水區"
"251002","012-UM","2018/03/19 17:29:26","新北市淡水區中正路261號","121.431653333333","25.174835","6501000","淡水區"
"251013","179-VK","2018/03/19 17:29:24","新北市淡水區大竹圍5號","121.466495","25.1952316666667","6501000","淡水區"
"251014","180-VK","2018/03/19 17:29:20","新北市淡水區公埔子20-6號","121.469046666667","25.2273866666667","6501000","淡水區"
"251008","181-VK","2018/03/19 17:29:23","新北市淡水區大同路122巷15號","121.463295","25.13975","6501000","淡水區"
"251015","182-VK","2018/03/19 17:29:13","新北市淡水區三空泉21號","121.468958333333","25.1660533333333","6501000","淡水區"
"251010","413-VK","2018/03/19 17:29:18","新北市淡水區中正路二段211號","121.426125","25.1891","6501000","淡水區"
"251012","441-VK","2018/03/19 17:29:23","新北市淡水區北新路113號","121.448298333333","25.1785433333333","6501000","淡水區"
"251016","442-VK","2018/03/19 17:29:12","新北市淡水區社厝坑9-1號","121.466883333333","25.1924833333333","6501000","淡水區"
"251006","561-UM","2018/03/19 17:29:14","新北市淡水區大仁街56號","121.44276","25.175875","6501000","淡水區"
"251007","577-R6","2018/03/19 17:29:09","新北市淡水區民生路47-4號","121.462033333333","25.1379516666667","6501000","淡水區"
"251011","650-BX","2018/03/19 17:29:22","新北市淡水區坪頂路712號","121.482441666667","25.1585","6501000","淡水區"
"251003","766-UM","2018/03/19 17:29:21","新北市淡水區中山路159-1號","121.44076","25.172895","6501000","淡水區"
"207003","550-UM","2018/03/19 17:29:18","新北市萬里區龜吼里翡翠路17號","121.683435","25.1868266666667","6502800","萬里區"
"207004","225-TW","2018/03/19 17:29:22","新北市萬里區萬里里景美路11-3號","121.685971666667","25.1729933333333","6502800","萬里區"
"252002","178-VK","2018/03/19 17:29:14","新北市三芝區忠孝街1-14號","121.50549","25.2539383333333","6502100","三芝區"
"237011","KEA-2596","2018/03/19 17:29:08","新北市三峽區中山路459巷163-3號","121.348713333333","24.9329466666667","6500900","三峽區"
"242034","AAC-296","2018/03/19 17:29:17","新北市新莊區瓊林路42-1號","121.447565","25.0295716666667","6500500","新莊區"
"242058","986-R7","2018/03/19 17:29:16","新北市新莊區中正路498號","121.43604","25.0329216666667","6500500","新莊區"
"242053","751-BX","2018/03/19 17:29:07","新北市新莊區瓊林南路305巷35號","121.43574","25.00504","6500500","新莊區"
"242029","705-TV","2018/03/19 17:29:18","新北市新莊區復興路二段172號","121.458368333333","25.0443283333333","6500500","新莊區"
"242027","615-BX","2018/03/19 17:29:24","新北市新莊區思源路63號","121.460196666667","25.04045","6500500","新莊區"
"242025","613-BX","2018/03/19 17:29:18","新北市新莊區復興路二段39號","121.454511666667","25.04406","6500500","新莊區"
"242042","566-BX","2018/03/19 17:29:15","新北市新莊區新樹路113巷17號","121.438975","25.0264533333333","6500500","新莊區"
"242046","497-BY","2018/03/19 17:29:08","新北市新莊區新樹路12-1號","121.439706666667","25.0312866666667","6500500","新莊區"
"242050","441-UM","2018/03/19 17:29:17","新北市新莊區新樹路449巷5號","121.433038333333","25.0136316666667","6500500","新莊區"
"242056","440-UM","2018/03/19 17:29:24","新北市新莊區新莊路453號","121.449648333333","25.03324","6500500","新莊區"
"242036","415-TV","2018/03/19 17:29:14","新北市新莊區建國二路5號","121.434731666667","25.0237516666667","6500500","新莊區"
"242007","413-TV","2018/03/19 17:29:08","新北市新莊區中華路二段2號","121.453096666667","25.0444666666667","6500500","新莊區"
"242044","400-BY","2018/03/19 17:29:09","新北市新莊區富國路76號","121.420011666667","25.0259233333333","6500500","新莊區"
"242023","362-BY","2018/03/19 17:29:10","新北市新莊區公園路152號","121.453228333333","25.040105","6500500","新莊區"
"242060","353-BY","2018/03/19 17:29:23","新北市新莊區瓊林南路12-9號","121.436405","25.0193416666667","6500500","新莊區"
"242009","132-UY","2018/03/19 17:29:15","新北市新莊區中原路228號","121.453021666667","25.0545216666667","6500500","新莊區"
"242039","133-UY","2018/03/19 17:29:08","新北市新莊區民安路284號","121.427911666667","25.0215466666667","6500500","新莊區"
"242031","135-UY","2018/03/19 17:29:10","新北市新莊區新泰路413巷5號","121.443216666667","25.0443666666667","6500500","新莊區"
"242048","172-VK","2018/03/19 17:29:26","新北市新莊區龍安路256號","121.421336666667","25.0195383333333","6500500","新莊區"
"242017","175-VK","2018/03/19 17:29:12","新北市新莊區復興路一段201號","121.452101666667","25.0436166666667","6500500","新莊區"
"242004","176-VK","2018/03/19 17:29:27","新北市新莊區中港路278號","121.453165","25.0441283333333","6500500","新莊區"
"242015","346-TH","2018/03/19 17:29:26","新北市新莊區新泰路197號","121.44718","25.0379316666667","6500500","新莊區"
"242021","348-TH","2018/03/19 17:29:22","新北市新莊區中正路211號","121.452343333333","25.0361433333333","6500500","新莊區"
"242002","349-TH","2018/03/19 17:29:18","新北市新莊區新莊路154號","121.455241666667","25.0354233333333","6500500","新莊區"
"242013","351-TH","2018/03/19 17:29:20","新北市新莊區中誠街13號","121.451808333333","25.04806","6500500","新莊區"
"238015","755-BX","2018/03/19 17:29:18","新北市樹林區大安路267號","121.419033333333","24.9937516666667","6500700","樹林區"
"238006","599-UM","2018/03/19 17:29:15","新北市樹林區八德街37-3號","121.419158333333","24.983145","6500700","樹林區"
"238018","571-TV","2018/03/19 17:29:15","新北市樹林區鎮前街281-4號","121.418315","24.9851166666667","6500700","樹林區"
"238024","5061-A6","2018/03/19 17:29:10","新北市樹林區中華路6-3號","121.424701666667","24.9840433333333","6500700","樹林區"
"238022","KEA-2213","2018/03/19 17:29:21","新北市樹林區仁愛街18號","121.42217","24.981935","6500700","樹林區"
"238021","KEA-2539","2018/03/19 17:29:13","新北市樹林區民權街16-1號","121.397266666667","24.95805","6500700","樹林區"
"238025","303-VK","2018/03/19 17:29:25","新北市樹林區保安街一段350號","121.417781666667","24.99823","6500700","樹林區"
"238017","283-BY","2018/03/19 17:29:08","新北市樹林區中正路232號","121.418395","25.0070266666667","6500700","樹林區"
"238014","282-BY","2018/03/19 17:29:20","新北市樹林區大安路211號","121.420348333333","24.9952733333333","6500700","樹林區"
"238020","268-VK","2018/03/19 17:29:16","新北市樹林區俊英街32號","121.429048333333","25.0020816666667","6500700","樹林區"
"238026","172-UY","2018/03/19 17:29:25","新北市樹林區新興街9號","121.400201666667","24.973555","6500700","樹林區"
"238016","169-UY","2018/03/19 17:29:14","新北市樹林區長壽街28巷4弄2號","121.423271666667","24.9943533333333","6500700","樹林區"
"239007","AAC-297","2018/03/19 17:29:19","新北市鶯歌區仁愛路3號","121.353543333333","24.9566566666667","6500800","鶯歌區"
"239006","891-R6","2018/03/19 17:29:12","新北市鶯歌區鶯桃路472巷22號","121.333273333333","24.9657133333333","6500800","鶯歌區"
"239008","527-UM","2018/03/19 17:29:07","新北市鶯歌區大湖路361巷81-1號","121.333491666667","24.9758883333333","6500800","鶯歌區"
"239005","526-UM","2018/03/19 17:29:10","新北市鶯歌區福隆一街1號","121.325685","24.97191","6500800","鶯歌區"
"239001","417-VK","2018/03/19 17:29:17","新北市鶯歌區中正三路151號","121.336708333333","24.9401283333333","6500800","鶯歌區"
"239003","360-BY","2018/03/19 17:29:09","新北市鶯歌區德昌街110號","121.331998333333","24.9604016666667","6500800","鶯歌區"
"239002","359-BY","2018/03/19 17:29:20","新北市鶯歌區育才街12號","121.34942","24.9550083333333","6500800","鶯歌區"
"239004","193-VK","2018/03/19 17:29:22","新北市鶯歌區三鶯路12號","121.356551666667","24.94121","6500800","鶯歌區"
"221008","489-VK","2018/03/19 17:29:23","新北市汐止區康寧街901號","121.651301666667","25.0750283333333","6501100","汐止區"
"221033","647-BX","2018/03/19 17:29:18","新北市汐止區大同路二段273號","121.652245","25.0672666666667","6501100","汐止區"
"242011","281-VK","2018/03/19 17:29:25","新北市新莊區中華路二段83號","121.452591666667","25.0479266666667","6500500","新莊區"
"242019","280-VK","2018/03/19 17:29:02","新北市新莊區中港路60號","121.455508333333","25.0386783333333","6500500","新莊區"
