"lineid","car","time","location","longitude","latitude","cityid","cityname"
"234026","9371-KE","2018/03/19 17:39:21","新北市永和區中正路730號","121.515495","25.010105","6500400","永和區"
"249005","172-UM","2018/03/19 17:39:26","新北市八里區荖阡坑路34號","121.402778333333","25.1297683333333","6502300","八里區"
"249001","173-UM","2018/03/19 17:39:28","新北市八里區龍米路二段185號","121.434373333333","25.1581766666667","6502300","八里區"
"249004","303-UY","2018/03/19 17:39:25","新北市八里區大崁一街8號","121.420395","25.1580933333333","6502300","八里區"
"249002","305-UY","2018/03/19 17:39:32","新北市八里區頂寮二街121巷18-12號","121.447135","25.1265833333333","6502300","八里區"
"249003","593-UM","2018/03/19 17:39:20","新北市八里區中山路二段310號","121.40442","25.1500316666667","6502300","八里區"
"248006","077-UY","2018/03/19 17:39:33","新北市五股區中興路二段83巷26-6號","121.460013333333","25.0750916666667","6501500","五股區"
"232011","375-UM","2018/03/19 17:39:36","新北市坪林區水柳腳37號","121.709898333333","24.93522","6502000","坪林區"
"244013","069-UM","2018/03/19 17:39:24","新北市林口區中正路559號","121.381101666667","25.0768783333333","6501700","林口區"
"244007","080-UY","2018/03/19 17:39:33","新北市林口區林口路270號","121.38617","25.0846366666667","6501700","林口區"
"244019","403-UM","2018/03/19 17:19:29","新北市林口區粉寮路二段160巷40號","121.405533333333","25.091075","6501700","林口區"
"244025","742-UY","2018/03/19 17:39:25","新北市林口區文化二路一段289-5號","121.367513333333","25.071895","6501700","林口區"
"244023","483-VK","2018/03/19 17:39:33","新北市林口區興林路152巷16號","121.388186666667","25.0715416666667","6501700","林口區"
"244017","485-VK","2018/03/19 17:39:22","新北市林口區忠孝路407號","121.370431666667","25.0706016666667","6501700","林口區"
"244009","656-BX","2018/03/19 17:39:23","新北市林口區中北三街350號","121.383371666667","25.0844566666667","6501700","林口區"
"244019","657-BX","2018/03/19 17:39:22","新北市林口區公園路128號","121.371095","25.071305","6501700","林口區"
"244010","701-TV","2018/03/19 17:39:35","新北市林口區佳林路154號","121.384173333333","25.077105","6501700","林口區"
"244021","838-TS","2018/03/19 17:39:37","新北市林口區東林街20號","121.395958333333","25.079125","6501700","林口區"
"222002","659-BX","2018/03/19 17:39:33","新北市深坑區深南路31號","121.619428333333","25.009525","6501800","深坑區"
"231046","278-BY","2018/03/19 17:39:31","新北市新店區直潭路92號","121.530931666667","24.9376566666667","6500600","新店區"
"241017","063-VK","2018/03/19 17:39:35","新北市三重區大同北路18號","121.495338333333","25.0622233333333","6500200","三重區"
"241005","262-UM","2018/03/19 17:39:34","新北市三重區碧華街133號","121.486261666667","25.0819283333333","6500200","三重區"
"241016","265-UM","2018/03/19 17:39:37","新北市三重區重新路二段21號","121.497983333333","25.0626016666667","6500200","三重區"
"241007","398-BY","2018/03/19 17:39:27","新北市三重區車路頭街76號","121.484353333333","25.073895","6500200","三重區"
"241014","543-UM","2018/03/19 17:39:21","新北市三重區龍濱路96號","121.502268333333","25.0700116666667","6500200","三重區"
"241023","545-UM","2018/03/19 17:39:37","新北市三重區三民街163號","121.483618333333","25.0648366666667","6500200","三重區"
"241019","KEA-2593","2018/03/19 17:39:29","新北市三重區六張街211號","121.488575","25.06862","6500200","三重區"
"241024","743-BX","2018/03/19 17:39:30","新北市三重區大勇街11號","121.483435","25.071525","6500200","三重區"
"241012","941-UM","2018/03/19 17:39:34","新北市三重區龍濱路190號","121.50109","25.0733033333333","6500200","三重區"
"241033","AAC-255","2018/03/19 17:39:19","新北市三重區光復路一段49號","121.472096666667","25.0488466666667","6500200","三重區"
"235064","005-UY","2018/03/19 17:39:34","新北市中和區員山路36巷16-3號","121.485111666667","24.9913083333333","6500300","中和區"
"235061","378-QA","2018/03/19 17:18:21","新北市中和區員山路36巷16-2號","121.485293333333","24.9916883333333","6500300","中和區"
"247024","893-R6","2018/03/19 17:39:24","新北市蘆洲區長樂路159號","121.462111666667","25.0881133333333","6501400","蘆洲區"
"247014","546-UM","2018/03/19 17:39:36","新北市蘆洲區中正路15號","121.471351666667","25.082095","6501400","蘆洲區"
"247022","500-BY","2018/03/19 17:39:36","新北市蘆洲區三民路285號","121.46708","25.0898766666667","6501400","蘆洲區"
"247010","341-TH","2018/03/19 17:39:23","新北市蘆洲區集賢路412號","121.47985","25.0814183333333","6501400","蘆洲區"
"247012","339-TH","2018/03/19 17:39:30","新北市蘆洲區民權路8-1號","121.47665","25.0860066666667","6501400","蘆洲區"
"247004","337-TH","2018/03/19 17:39:21","新北市蘆洲區長安街249巷29號","121.457845","25.08254","6501400","蘆洲區"
"247006","336-TH","2018/03/19 17:39:27","新北市蘆洲區長安街23巷5號","121.463738333333","25.0787616666667","6501400","蘆洲區"
"247018","057-VK","2018/03/19 17:39:34","新北市蘆洲區民權路61巷4弄2號","121.473476666667","25.088065","6501400","蘆洲區"
"247008","056-VK","2018/03/19 17:39:36","新北市蘆洲區和平路19巷8號","121.472245","25.07879","6501400","蘆洲區"
"247020","053-VK","2018/03/19 17:39:25","新北市蘆洲區民族路464-1號","121.471778333333","25.0917133333333","6501400","蘆洲區"
"247016","007-UY","2018/03/19 17:39:24","新北市蘆洲區光華路46巷22號","121.468306666667","25.0837433333333","6501400","蘆洲區"
"247002","002-UY","2018/03/19 17:39:31","新北市蘆洲區永平街35號","121.458331666667","25.0909166666667","6501400","蘆洲區"
"228003","097-TW","2018/03/19 17:39:34","新北市貢寮區仁理村仁和路214號","121.923628333333","25.0531366666667","6502600","貢寮區"
"228002","585-TW","2018/03/19 17:39:29","新北市貢寮區福隆里龜壽谷街27號","121.951588333333","25.0133116666667","6502600","貢寮區"
"228001","670-TC","2018/03/19 17:39:30","新北市貢寮區真理里新港街26巷28-6號","121.927715","25.0554333333333","6502600","貢寮區"
"224010","AGQ-8101","2018/03/19 17:39:23","新北市瑞芳區岳王路140號","121.809148333333","25.1113216666667","6501200","瑞芳區"
"224006","676-BX","2018/03/19 17:39:26","新北市瑞芳區傑魚坑路126號","121.7917","25.1103983333333","6501200","瑞芳區"
"224002","639-TC","2018/03/19 17:39:25","新北市瑞芳區逢甲路17號","121.809481666667","25.1084166666667","6501200","瑞芳區"
"224008","285-BY","2018/03/19 17:39:24","新北市瑞芳區瑞柑新村51號","121.828808333333","25.106565","6501200","瑞芳區"
"224007","275-VK","2018/03/19 17:39:29","新北市平溪區新寮里五分寮10-2號","121.800725","25.0749533333333","6501200","瑞芳區"
"224009","273-VK","2018/03/19 17:39:31","新北市瑞芳區崙頂路2-1號","121.846495","25.10716","6501200","瑞芳區"
"224005","271-BY","2018/03/19 17:39:25","新北市瑞芳區海濱路22號","121.83086","25.125235","6501200","瑞芳區"
"227001","400-TW","2018/03/19 17:39:37","新北市雙溪區三貂里定福路1-2號","121.850465","25.06383","6502500","雙溪區"
"251009","008-UM","2018/03/19 17:39:24","新北市淡水區中正路208號","121.439563333333","25.1702366666667","6501000","淡水區"
"251004","009-UM","2018/03/19 17:39:21","新北市淡水區中正東路二段88巷37-28號","121.459553333333","25.1432233333333","6501000","淡水區"
"251005","010-UM","2018/03/19 17:39:21","新北市淡水區鄧公路33巷1號","121.451483333333","25.1711183333333","6501000","淡水區"
"251001","011-UM","2018/03/19 17:39:17","新北市淡水區民權路92巷35-1號","121.462221666667","25.126675","6501000","淡水區"
"251002","012-UM","2018/03/19 17:39:28","新北市淡水區中山路151-9號","121.440148333333","25.1724933333333","6501000","淡水區"
"251013","179-VK","2018/03/19 17:39:24","新北市淡水區演戲埔腳6-1號","121.472675","25.1931733333333","6501000","淡水區"
"251014","180-VK","2018/03/19 17:39:20","新北市淡水區水碓5-3號","121.477051666667","25.222065","6501000","淡水區"
"251008","181-VK","2018/03/19 17:39:23","新北市淡水區八勢路30巷19號","121.462475","25.1537166666667","6501000","淡水區"
"251015","182-VK","2018/03/19 17:37:13","新北市淡水區樹林口7號","121.47956","25.16765","6501000","淡水區"
"251010","413-VK","2018/03/19 17:39:18","新北市淡水區淡海路284號","121.419936666667","25.18924","6501000","淡水區"
"251012","441-VK","2018/03/19 17:39:23","新北市淡水區北新路200巷8號","121.4517","25.1797116666667","6501000","淡水區"
"251016","442-VK","2018/03/19 17:39:32","新北市淡水區埤島39-15號","121.452688333333","25.195895","6501000","淡水區"
"251006","561-UM","2018/03/19 17:39:34","新北市淡水區大信街7號","121.44167","25.1763666666667","6501000","淡水區"
"251007","577-R6","2018/03/19 17:39:29","新北市淡水區民生路124巷2號","121.463831666667","25.1381216666667","6501000","淡水區"
"251011","650-BX","2018/03/19 17:39:22","新北市淡水區小坪頂13-3號","121.486593333333","25.1561866666667","6501000","淡水區"
"251003","766-UM","2018/03/19 17:39:21","新北市淡水區中山北路一段47號","121.441671666667","25.1753866666667","6501000","淡水區"
"207003","550-UM","2018/03/19 17:39:39","新北市萬里區龜吼里漁澳路5-1號","121.686543333333","25.1942366666667","6502800","萬里區"
"207004","225-TW","2018/03/19 17:39:21","新北市萬里區中幅里中福路21號","121.682796666667","25.1648333333333","6502800","萬里區"
"252002","178-VK","2018/03/19 17:39:34","新北市三芝區中正路二段22號","121.50434","25.25511","6502100","三芝區"
"252001","292-VK","2018/03/19 17:39:24","新北市三芝區育英街1號","121.501781666667","25.2588216666667","6502100","三芝區"
"237013","252-BX","2018/03/19 17:39:19","新北市三峽區愛國路33-9號","121.374775","24.933105","6500900","三峽區"
"237008","302-VK","2018/03/19 17:39:26","新北市三峽區中山路459巷52-1號","121.356751666667","24.9360266666667","6500900","三峽區"
"237006","5529-G3","2018/03/19 17:39:30","新北市三峽區介壽路一段550號","121.387346666667","24.9334116666667","6500900","三峽區"
"237011","KEA-2596","2018/03/19 17:39:28","新北市三峽區民權街134號","121.368663333333","24.9319066666667","6500900","三峽區"
"237010","706-TV","2018/03/19 17:39:25","新北市三峽區中山路130號","121.365383333333","24.9360683333333","6500900","三峽區"
"236042","107-UM","2018/03/19 17:39:26","新北市土城區亞洲路58巷5弄2號","121.433891666667","24.97471","6501300","土城區"
"236078","166-UM","2018/03/19 17:39:33","新北市土城區亞洲路58巷5弄10號","121.433638333333","24.9742516666667","6501300","土城區"
"236030","253-BX","2018/03/19 17:39:30","新北市土城區亞洲路58巷5弄8號","121.43358","24.9743666666667","6501300","土城區"
"236053","AAC-216","2018/03/19 17:39:30","新北市土城區亞洲路58巷5弄2號","121.433843333333","24.9744916666667","6501300","土城區"
"242034","AAC-296","2018/03/19 17:39:38","新北市新莊區新莊路621號","121.445601666667","25.032865","6500500","新莊區"
"242058","986-R7","2018/03/19 17:39:36","新北市新莊區中正路695號","121.425675","25.0299466666667","6500500","新莊區"
"242053","751-BX","2018/03/19 17:39:27","新北市新莊區新樹路697號","121.432338333333","25.0022683333333","6500500","新莊區"
"242029","705-TV","2018/03/19 17:39:18","新北市新莊區復興路一段161號","121.450873333333","25.0433533333333","6500500","新莊區"
"242027","615-BX","2018/03/19 17:39:24","新北市新莊區福壽街116號","121.457978333333","25.0508216666667","6500500","新莊區"
"242025","613-BX","2018/03/19 17:39:18","新北市新莊區思源路331號","121.46002","25.0496316666667","6500500","新莊區"
"242042","566-BX","2018/03/19 17:39:35","新北市新莊區中正路514巷17號","121.43301","25.033","6500500","新莊區"
"242046","497-BY","2018/03/19 17:39:28","新北市新莊區建國一路21號","121.433878333333","25.031555","6500500","新莊區"
"242050","441-UM","2018/03/19 17:39:37","新北市新莊區西盛街189號","121.42896","25.0171983333333","6500500","新莊區"
"242056","440-UM","2018/03/19 17:39:25","新北市新莊區泰豐街30巷16號","121.448831666667","25.0320333333333","6500500","新莊區"
"242036","415-TV","2018/03/19 17:39:34","新北市新莊區後港一路136號","121.42965","25.0273583333333","6500500","新莊區"
"242007","413-TV","2018/03/19 17:39:28","新北市新莊區福樂街122號","121.456996666667","25.0478033333333","6500500","新莊區"
"242044","400-BY","2018/03/19 17:39:29","新北市新莊區富國路65巷7號","121.419896666667","25.0265016666667","6500500","新莊區"
"242023","362-BY","2018/03/19 17:39:10","新北市新莊區公園路224號","121.45648","25.0405583333333","6500500","新莊區"
"242060","353-BY","2018/03/19 17:39:28","新北市新莊區瓊林南路171-5號","121.433893333333","25.0109116666667","6500500","新莊區"
"242009","132-UY","2018/03/19 17:39:35","新北市新莊區昌明街14巷10號","121.457461666667","25.0532933333333","6500500","新莊區"
"242039","133-UY","2018/03/19 17:39:29","新北市新莊區民安東路41號","121.429063333333","25.0209716666667","6500500","新莊區"
"242031","135-UY","2018/03/19 17:39:37","新北市新莊區新泰路361巷3號","121.443716666667","25.0429316666667","6500500","新莊區"
"242048","172-VK","2018/03/19 17:39:26","新北市新莊區萬安街139號","121.420543333333","25.0220533333333","6500500","新莊區"
"242017","175-VK","2018/03/19 17:39:32","新北市新莊區復興路一段149巷21弄13號","121.449526666667","25.0440333333333","6500500","新莊區"
"242004","176-VK","2018/03/19 17:39:27","新北市新莊區自立街200號","121.456676666667","25.04547","6500500","新莊區"
"242015","346-TH","2018/03/19 17:39:26","新北市新莊區新泰路406巷2弄1號","121.444426666667","25.043955","6500500","新莊區"
"242021","348-TH","2018/03/19 17:39:22","新北市新莊區中華路一段90號","121.45224","25.039505","6500500","新莊區"
"242002","349-TH","2018/03/19 17:39:38","新北市新莊區新莊路286號","121.451488333333","25.0337983333333","6500500","新莊區"
"242013","351-TH","2018/03/19 17:39:40","新北市新莊區中誠街93號","121.450061666667","25.0477333333333","6500500","新莊區"
"238015","755-BX","2018/03/19 17:39:18","新北市樹林區啟智街25號","121.420926666667","24.9933883333333","6500700","樹林區"
"238006","599-UM","2018/03/19 17:39:35","新北市樹林區太平路127巷10號","121.419758333333","24.9806066666667","6500700","樹林區"
"238018","571-TV","2018/03/19 17:39:35","新北市樹林區博愛街196號","121.424753333333","24.9895566666667","6500700","樹林區"
"238024","5061-A6","2018/03/19 17:39:29","新北市樹林區八德街584號","121.398586666667","24.969295","6500700","樹林區"
"238022","KEA-2213","2018/03/19 17:39:41","新北市樹林區太元街28號","121.417968333333","24.98023","6500700","樹林區"
"238021","KEA-2539","2018/03/19 17:39:33","新北市樹林區佳園路二段175號","121.38969","24.9562766666667","6500700","樹林區"
"238025","303-VK","2018/03/19 17:39:31","新北市樹林區保安街三段55號","121.412548333333","25.0112883333333","6500700","樹林區"
"238017","283-BY","2018/03/19 17:39:28","新北市樹林區三德街20-4號","121.414006666667","25.0129716666667","6500700","樹林區"
"238014","282-BY","2018/03/19 17:39:30","新北市樹林區保安街一段356號","121.417776666667","24.9983233333333","6500700","樹林區"
"238020","268-VK","2018/03/19 17:39:36","新北市樹林區俊英街120號","121.427345","25.0056233333333","6500700","樹林區"
"238026","172-UY","2018/03/19 17:36:45","新北市樹林區新興街19巷36弄1號","121.402371666667","24.9734566666667","6500700","樹林區"
"238016","169-UY","2018/03/19 17:39:34","新北市樹林區育英街161號","121.419025","24.9894233333333","6500700","樹林區"
"239007","AAC-297","2018/03/19 17:39:38","新北市鶯歌區國光街72號","121.34151","24.9579816666667","6500800","鶯歌區"
"239006","891-R6","2018/03/19 17:39:32","新北市鶯歌區永和街34巷23號","121.33384","24.9671533333333","6500800","鶯歌區"
"239008","527-UM","2018/03/19 17:39:27","新北市鶯歌區大湖路732巷29號","121.333186666667","24.9780216666667","6500800","鶯歌區"
"239005","526-UM","2018/03/19 17:39:30","新北市鶯歌區福隆二街15號","121.325191666667","24.9719216666667","6500800","鶯歌區"
"239001","417-VK","2018/03/19 17:39:37","新北市鶯歌區中正三路236號","121.330918333333","24.9372366666667","6500800","鶯歌區"
"239003","360-BY","2018/03/19 17:39:28","新北市鶯歌區鶯桃路188-1號","121.33802","24.9585216666667","6500800","鶯歌區"
"239002","359-BY","2018/03/19 17:39:20","新北市鶯歌區育智路86號","121.344996666667","24.9546583333333","6500800","鶯歌區"
"239004","193-VK","2018/03/19 17:39:22","新北市鶯歌區三鶯路135-1號","121.361356666667","24.9455466666667","6500800","鶯歌區"
"221008","489-VK","2018/03/19 17:39:23","新北市汐止區康寧街901號","121.651326666667","25.0750233333333","6501100","汐止區"
"221010","269-BY","2018/03/19 17:39:36","新北市汐止區汐萬路一段418巷46號","121.651186666667","25.0790583333333","6501100","汐止區"
"221023","279-VK","2018/03/19 17:39:40","新北市汐止區康寧街901號","121.651683333333","25.07495","6501100","汐止區"
"221032","280-BY","2018/03/19 17:39:34","新北市汐止區汐萬路一段256巷1號","121.651928333333","25.0748933333333","6501100","汐止區"
"221031","353-TW","2018/03/19 17:39:24","新北市汐止區康寧街901號","121.651781666667","25.07495","6501100","汐止區"
"221033","647-BX","2018/03/19 17:39:38","新北市汐止區林森街78號","121.624025","25.0404033333333","6501100","汐止區"
"221018","753-BX","2018/03/19 17:39:33","新北市汐止區汐萬路一段273號","121.650383333333","25.0745616666667","6501100","汐止區"
"242011","281-VK","2018/03/19 17:39:26","新北市新莊區中港路623號","121.451208333333","25.053835","6500500","新莊區"
"242019","280-VK","2018/03/19 17:39:22","新北市新莊區中港路151號","121.45511","25.0409516666667","6500500","新莊區"
