"lineid","car","time","location","longitude","latitude","cityid","cityname"
"234042","862-TW","2018/03/19 18:09:32","新北市永和區福和路1號","121.52638","25.0097416666667","6500400","永和區"
"234026","9371-KE","2018/03/19 18:09:21","新北市永和區秀朗路一段10巷21號","121.513278333333","25.006195","6500400","永和區"
"249005","172-UM","2018/03/19 18:09:25","新北市八里區荖阡坑路15號","121.401715","25.1398583333333","6502300","八里區"
"249001","173-UM","2018/03/19 18:09:28","新北市八里區龍米路二段30號","121.44861","25.1398833333333","6502300","八里區"
"249004","303-UY","2018/03/19 18:09:25","新北市八里區龍米路二段200巷3號","121.433706666667","25.1587866666667","6502300","八里區"
"249002","305-UY","2018/03/19 18:09:32","新北市八里區龍米路一段356巷46號","121.452205","25.1301583333333","6502300","八里區"
"249003","593-UM","2018/03/19 18:09:20","新北市八里區中華路二段266號","121.40495","25.1492683333333","6502300","八里區"
"248016","026-BX","2018/03/19 18:09:16","新北市五股區成泰路三段221巷18號","121.445686666667","25.09345","6501500","五股區"
"248006","077-UY","2018/03/19 18:09:33","新北市五股區中興路二段77-1號","121.46101","25.077125","6501500","五股區"
"248008","095-VK","2018/03/19 18:09:28","新北市五股區中興路二段182巷15弄13-2號","121.457123333333","25.08121","6501500","五股區"
"248018","225-UY","2018/03/19 18:09:18","新北市五股區成泰路三段74號","121.44431","25.0896933333333","6501500","五股區"
"248012","247-BX","2018/03/19 18:09:28","新北市五股區新五路三段9號","121.444341666667","25.0895716666667","6501500","五股區"
"248014","261-SL","2018/03/19 18:09:19","新北市五股區成泰路一段237-12號","121.436648333333","25.080385","6501500","五股區"
"248004","677-BX","2018/03/19 18:09:23","新北市五股區成泰路二段136號","121.438095","25.08373","6501500","五股區"
"248002","678-BX","2018/03/19 18:09:15","新北市五股區新五路三段9號","121.44439","25.0892616666667","6501500","五股區"
"248010","682-TV","2018/03/19 18:09:18","新北市五股區成泰路一段219-6號","121.435156666667","25.07758","6501500","五股區"
"232011","375-UM","2018/03/19 18:09:16","新北市坪林區水柳腳14號","121.711401666667","24.9354866666667","6502000","坪林區"
"244013","069-UM","2018/03/19 18:09:24","新北市林口區中山路3號","121.396611666667","25.0781066666667","6501700","林口區"
"244007","080-UY","2018/03/19 18:09:33","新北市林口區林口路142號","121.388065","25.0820066666667","6501700","林口區"
"244025","742-UY","2018/03/19 18:09:25","新北市林口區南勢二街152-9號","121.358695","25.07306","6501700","林口區"
"244023","483-VK","2018/03/19 18:09:33","新北市林口區仁愛路二段161號","121.382185","25.073745","6501700","林口區"
"244017","485-VK","2018/03/19 18:09:22","新北市林口區忠孝路480號","121.370223333333","25.0705233333333","6501700","林口區"
"244009","656-BX","2018/03/19 18:09:22","新北市林口區中山路305號","121.383786666667","25.0804633333333","6501700","林口區"
"244019","657-BX","2018/03/19 18:09:17","新北市林口區文化一路一段24號","121.370205","25.068725","6501700","林口區"
"244010","701-TV","2018/03/19 18:09:35","新北市林口區中正路79號","121.39481","25.0773733333333","6501700","林口區"
"244021","838-TS","2018/03/19 18:09:17","新北市林口區新寮27-1號","121.397091666667","25.0677733333333","6501700","林口區"
"243013","646-TV","2018/03/19 18:09:14","新北市泰山區南林路93號","121.415461666667","25.0511716666667","6501600","泰山區"
"222003","436-BY","2018/03/19 18:09:20","新北市深坑區腳坑6號","121.610176666667","24.9946783333333","6501800","深坑區"
"222002","659-BX","2018/03/19 18:09:33","新北市深坑區文化街52號","121.618826666667","25.0015516666667","6501800","深坑區"
"231059","046-UY","2018/03/19 18:09:36","新北市新店區安華路28-1號","121.519586666667","24.9608866666667","6500600","新店區"
"231061","047-UY","2018/03/19 18:09:33","新北市新店區安華路28-1號","121.519048333333","24.9607533333333","6500600","新店區"
"231060","106-UY","2018/03/19 18:09:32","新北市新店區安華路28-1號","121.519618333333","24.9608616666667","6500600","新店區"
"231050","KEA-2219","2018/03/19 18:09:33","新北市新店區安華路28-1號","121.519811666667","24.9612033333333","6500600","新店區"
"221015","KEA-2785","2018/03/19 18:09:28","新北市汐止區鄉長路二段29-1號","121.668228333333","25.0830716666667","6501100","汐止區"
"231046","278-BY","2018/03/19 18:09:31","新北市新店區直潭路99-1號","121.531846666667","24.9395316666667","6500600","新店區"
"231054","AAD-862","2018/03/19 18:09:26","新北市新店區安華路28-1號","121.519955","24.9612433333333","6500600","新店區"
"231058","3712-VJ","2018/03/19 18:09:14","新北市新店區安華路28-1號","121.519348333333","24.9607516666667","6500600","新店區"
"231056","3713-VJ","2018/03/19 18:09:26","新北市新店區安華路28-1號","121.519241666667","24.9606483333333","6500600","新店區"
"231055","4716-K9","2018/03/19 18:09:35","新北市新店區安華路28-1號","121.519681666667","24.9612366666667","6500600","新店區"
"231049","513-UM","2018/03/19 18:09:35","新北市新店區安華路28-1號","121.519648333333","24.9611833333333","6500600","新店區"
"231047","719-UY","2018/03/19 18:09:26","新北市新店區安華路28-1號","121.5198","24.9613016666667","6500600","新店區"
"231062","720-UM","2018/03/19 18:09:30","新北市新店區安華路28-1號","121.519305","24.9613633333333","6500600","新店區"
"231044","897-TW","2018/03/19 18:09:34","新北市新店區安華路28-1號","121.519526666667","24.9607833333333","6500600","新店區"
"231043","899-TW","2018/03/19 18:09:35","新北市新店區安華路28-1號","121.519238333333","24.9608283333333","6500600","新店區"
"231066","AKT-0513","2018/03/19 18:09:20","新北市新店區安華路28-1號","121.519453333333","24.9605833333333","6500600","新店區"
"241033","AAC-255","2018/03/19 18:09:19","新北市三重區中興北街139號","121.46917","25.0514683333333","6500200","三重區"
"235066","003-UY","2018/03/19 18:09:24","新北市中和區連城路1號","121.499403333333","25.0022683333333","6500300","中和區"
"235064","005-UY","2018/03/19 18:09:34","新北市中和區中正路271號","121.495866666667","24.9937233333333","6500300","中和區"
"235063","006-UY","2018/03/19 18:09:26","新北市中和區員山路36巷16-3號","121.485018333333","24.9913683333333","6500300","中和區"
"235056","096-UM","2018/03/19 18:09:31","新北市中和區連城路469巷13號","121.48363","24.9953666666667","6500300","中和區"
"235039","097-UM","2018/03/19 18:09:32","新北市中和區中正路637巷52弄1號","121.485465","24.9935433333333","6500300","中和區"
"235065","098-UM","2018/03/19 18:09:29","新北市中和區橋和路172號","121.494593333333","25.00639","6500300","中和區"
"235058","151-BY","2018/03/19 18:09:26","新北市中和區圓通路367巷33弄1號","121.49396","24.9855","6500300","中和區"
"235055","183-VK","2018/03/19 18:09:30","新北市中和區員山路36巷16-3號","121.485023333333","24.99136","6500300","中和區"
"235038","185-VK","2018/03/19 18:09:20","新北市中和區景平路116號","121.519556666667","24.9917433333333","6500300","中和區"
"235043","352-BY","2018/03/19 18:09:23","新北市中和區中正路637巷60弄61號","121.485403333333","24.9931883333333","6500300","中和區"
"235061","378-QA","2018/03/19 18:09:31","新北市中和區連城路467-4號","121.483796666667","24.9961183333333","6500300","中和區"
"235050","4979-A6","2018/03/19 18:09:14","新北市中和區中正路271號","121.495925","24.99372","6500300","中和區"
"235042","551-UM","2018/03/19 18:09:25","新北市中和區景平路159巷29弄5號","121.51302","24.99126","6500300","中和區"
"235045","565-BX","2018/03/19 18:09:32","新北市中和區錦和路350-1號","121.490526666667","24.9935633333333","6500300","中和區"
"235054","640-BX","2018/03/19 18:09:23","新北市中和區連城路583巷17號","121.478813333333","24.9933333333333","6500300","中和區"
"235060","647-TV","2018/03/19 18:09:24","新北市中和區員山路36巷16-3號","121.48482","24.9917516666667","6500300","中和區"
"235062","800-TS","2018/03/19 18:09:18","新北市中和區中山路二段504號","121.48663","25.0049683333333","6500300","中和區"
"235041","802-TS","2018/03/19 18:09:28","新北市中和區員山路36巷16-2號","121.485341666667","24.9916666666667","6500300","中和區"
"235052","805-TS","2018/03/19 18:09:24","新北市中和區中正路13號","121.503076666667","24.9932833333333","6500300","中和區"
"235051","157-BY","2018/03/19 18:09:23","新北市中和區板南路100號","121.5039","24.992475","6500300","中和區"
"235037","AAC-213","2018/03/19 18:09:25","新北市中和區景平路149號","121.514001666667","24.9921433333333","6500300","中和區"
"247012","339-TH","2018/03/19 18:09:20","新北市蘆洲區民族路156號","121.479595","25.0861483333333","6501400","蘆洲區"
"247016","007-UY","2018/03/19 18:09:24","新北市蘆洲區中正路176號","121.467145","25.0877316666667","6501400","蘆洲區"
"247002","002-UY","2018/03/19 18:09:31","新北市蘆洲區永平街32巷69弄25號","121.459078333333","25.093735","6501400","蘆洲區"
"226004","312-R5","2018/03/19 18:09:31","新北市平溪區薯榔里薯榔寮20號","121.716731666667","25.0197216666667","6502400","平溪區"
"228003","097-TW","2018/03/19 18:09:34","新北市貢寮區真理里美艷山街6-2號","121.928851666667","25.0607816666667","6502600","貢寮區"
"228002","585-TW","2018/03/19 18:09:29","新北市貢寮區福連里福興街37-1號","121.991853333333","25.0112083333333","6502600","貢寮區"
"228001","670-TC","2018/03/19 18:09:30","新北市貢寮區真理里新港街26巷55弄2-1號","121.927341666667","25.052885","6502600","貢寮區"
"224010","AGQ-8101","2018/03/19 18:00:43","新北市瑞芳區汽車路7-3號","121.848048333333","25.1093616666667","6501200","瑞芳區"
"224006","676-BX","2018/03/19 18:09:20","新北市瑞芳區民權街3-2號","121.808065","25.1074366666667","6501200","瑞芳區"
"224002","639-TC","2018/03/19 18:09:24","新北市瑞芳區三爪子坑路32巷92號","121.809583333333","25.10649","6501200","瑞芳區"
"224008","285-BY","2018/03/19 18:09:24","新北市瑞芳區員山子路23號","121.821126666667","25.1032716666667","6501200","瑞芳區"
"224007","275-VK","2018/03/19 18:09:29","新北市瑞芳區四腳亭坑路2-3號","121.776165","25.1091233333333","6501200","瑞芳區"
"224009","273-VK","2018/03/19 18:09:24","新北市瑞芳區山尖路187號","121.85161","25.11153","6501200","瑞芳區"
"224005","271-BY","2018/03/19 18:09:25","新北市瑞芳區深澳路1號","121.816491666667","25.1285833333333","6501200","瑞芳區"
"227001","400-TW","2018/03/19 18:09:26","新北市雙溪區共和里東榮街31號","121.866191666667","25.0335733333333","6502500","雙溪區"
"253005","032-BX","2018/03/19 18:09:20","新北市石門區福安街7號","121.568428333333","25.2928166666667","6502200","石門區"
"253006","295-VK","2018/03/19 18:09:34","新北市石門區老梅路52巷25弄2-1號","121.546565","25.2877716666667","6502200","石門區"
"222001","KEA-2212","2018/03/19 18:09:22","新北市深坑區北深路二段184號","121.614068333333","25.002435","6501800","深坑區"
"208002","KEA-2872","2018/03/19 18:09:33","新北市金山區三界壇路99巷14號","121.620411666667","25.2276883333333","6502700","金山區"
"208003","665-BX","2018/03/19 18:09:27","新北市金山區民生路200號","121.644955","25.221865","6502700","金山區"
"208001","761-BX","2018/03/19 18:09:25","新北市金山區磺港里磺港路111號","121.646301666667","25.2267166666667","6502700","金山區"
"251009","008-UM","2018/03/19 18:09:24","新北市淡水區大忠街34巷7號","121.443516666667","25.1755066666667","6501000","淡水區"
"251004","009-UM","2018/03/19 18:09:20","新北市淡水區民權路191號","121.459858333333","25.13322","6501000","淡水區"
"251005","010-UM","2018/03/19 18:09:22","新北市淡水區水源街一段141號","121.447238333333","25.1718783333333","6501000","淡水區"
"251001","011-UM","2018/03/19 18:09:17","新北市淡水區自立路15巷1號","121.463068333333","25.1298366666667","6501000","淡水區"
"251002","012-UM","2018/03/19 18:09:20","新北市淡水區中正東路一段129號","121.455451666667","25.15922","6501000","淡水區"
"251013","179-VK","2018/03/19 18:09:24","新北市淡水區竹圍子9-6號","121.476678333333","25.1926316666667","6501000","淡水區"
"251014","180-VK","2018/03/19 18:09:20","新北市淡水區南平14-3號","121.487186666667","25.2201216666667","6501000","淡水區"
"251008","181-VK","2018/03/19 18:09:23","新北市淡水區中正東路二段7號","121.458041666667","25.1584666666667","6501000","淡水區"
"251015","182-VK","2018/03/19 18:09:13","新北市淡水區興福寮88巷1號","121.48543","25.1650416666667","6501000","淡水區"
"251010","413-VK","2018/03/19 18:09:18","新北市淡水區中正路二段50巷10號","121.419876666667","25.183315","6501000","淡水區"
"251012","441-VK","2018/03/19 18:09:23","新北市淡水區北新路三段157號","121.488925","25.1903883333333","6501000","淡水區"
"251016","442-VK","2018/03/19 18:09:32","新北市淡水區下圭柔山15-1號","121.452446666667","25.2017366666667","6501000","淡水區"
"251006","561-UM","2018/03/19 18:09:14","新北市淡水區真理街3巷24-1號","121.437848333333","25.1765866666667","6501000","淡水區"
"251011","650-BX","2018/03/19 18:09:22","新北市淡水區三空泉9-1號","121.474336666667","25.1630983333333","6501000","淡水區"
"251003","766-UM","2018/03/19 18:09:21","新北市淡水區大忠街113巷10號","121.446948333333","25.17758","6501000","淡水區"
"207003","550-UM","2018/03/19 18:09:18","新北市萬里區野柳里港西路11號","121.68509","25.2041416666667","6502800","萬里區"
"207004","225-TW","2018/03/19 18:09:21","新北市萬里區中幅里中福路93號","121.676128333333","25.169665","6502800","萬里區"
"252003","249-BX","2018/03/19 18:09:16","新北市三芝區埔頭里埔頭39-3號","121.499608333333","25.2611716666667","6502100","三芝區"
"252001","292-VK","2018/03/19 18:09:24","新北市三芝區中興街二段2號","121.49839","25.2566766666667","6502100","三芝區"
"237004","KEA-2597","2018/03/19 18:09:15","新北市三峽區大埔路150-2號","121.364818333333","24.8982983333333","6500900","三峽區"
"237007","153-BY","2018/03/19 18:09:30","新北市三峽區中正路二段323-1號","121.366138333333","24.910275","6500900","三峽區"
"237009","210-TH","2018/03/19 18:09:28","新北市三峽區大仁路50巷7號","121.365325","24.937835","6500900","三峽區"
"237013","252-BX","2018/03/19 18:09:18","新北市三峽區長泰街42號","121.378275","24.9322516666667","6500900","三峽區"
"237012","275-BY","2018/03/19 18:09:24","新北市三峽區民生街19巷7弄18號","121.377186666667","24.9355216666667","6500900","三峽區"
"237008","302-VK","2018/03/19 18:09:26","新北市三峽區白雞44-19號","121.378171666667","24.909595","6500900","三峽區"
"237014","433-BY","2018/03/19 18:09:36","新北市三峽區復興路166號","121.37104","24.9384233333333","6500900","三峽區"
"237006","5529-G3","2018/03/19 18:09:30","新北市三峽區溪東路178巷8號","121.405968333333","24.9324383333333","6500900","三峽區"
"237011","KEA-2596","2018/03/19 18:09:28","新北市三峽區溪東路72號","121.40163","24.9343666666667","6500900","三峽區"
"237010","706-TV","2018/03/19 18:09:25","新北市三峽區中園街3號","121.368601666667","24.92751","6500900","三峽區"
"237005","AKY-6261","2018/03/19 18:09:16","新北市三峽區和平街24-1號","121.370243333333","24.9362666666667","6500900","三峽區"
"236069","105-UM","2018/03/19 18:09:28","新北市土城區明德路一段128巷1號","121.463486666667","24.979145","6501300","土城區"
"236042","107-UM","2018/03/19 18:09:26","新北市土城區中華路一段223號","121.442066666667","24.9838883333333","6501300","土城區"
"236078","166-UM","2018/03/19 18:09:33","新北市土城區永寧路32巷24號","121.42858","24.9607916666667","6501300","土城區"
"236030","253-BX","2018/03/19 18:09:30","新北市土城區員福街50號","121.440666666667","24.97896","6501300","土城區"
"236026","269-VK","2018/03/19 18:09:15","新北市土城區承天路67號","121.439566666667","24.9634416666667","6501300","土城區"
"236014","270-VK","2018/03/19 18:09:18","新北市土城區立清街65號","121.460271666667","24.9870583333333","6501300","土城區"
"236036","271-VK","2018/03/19 18:09:30","新北市土城區青雲路449號","121.458806666667","24.9749133333333","6501300","土城區"
"236020","401-BY","2018/03/19 18:09:14","新北市土城區城林路6巷80號","121.438273333333","24.9797333333333","6501300","土城區"
"236058","912-UM","2018/03/19 18:09:27","新北市土城區中央路四段88號","121.418555","24.9593933333333","6501300","土城區"
"236048","913-UM","2018/03/19 18:09:28","新北市土城區明德路一段365-1號","121.453543333333","24.97905","6501300","土城區"
"236062","915-UM","2018/03/19 18:09:22","新北市土城區金城路二段39巷2-1號","121.45015","24.9780133333333","6501300","土城區"
"236053","AAC-216","2018/03/19 18:09:30","新北市土城區中華路二段62號","121.438941666667","24.97663","6501300","土城區"
"242034","AAC-296","2018/03/19 18:08:57","新北市新莊區新豐街61號","121.446615","25.033495","6500500","新莊區"
"242058","986-R7","2018/03/19 18:09:35","新北市新莊區新北大道七段239號","121.413081666667","25.0296266666667","6500500","新莊區"
"242053","751-BX","2018/03/19 18:09:27","新北市新莊區民安西路327巷4弄1號","121.428098333333","25.0115483333333","6500500","新莊區"
"242029","705-TV","2018/03/19 18:09:31","新北市新莊區中平路158號","121.444823333333","25.0475266666667","6500500","新莊區"
"242027","615-BX","2018/03/19 18:09:24","新北市新莊區幸福路530號","121.455831666667","25.0494033333333","6500500","新莊區"
"242025","613-BX","2018/03/19 18:09:18","新北市新莊區五工一路97巷1號","121.460551666667","25.0677583333333","6500500","新莊區"
"242042","566-BX","2018/03/19 18:09:35","新北市新莊區中正路694巷3弄18號","121.417641666667","25.0285333333333","6500500","新莊區"
"242046","497-BY","2018/03/19 18:09:28","新北市新莊區福營路357號","121.424296666667","25.02807","6500500","新莊區"
"242050","441-UM","2018/03/19 18:09:32","新北市新莊區民本街11巷27號","121.428873333333","25.0203366666667","6500500","新莊區"
"242056","440-UM","2018/03/19 18:09:24","新北市新莊區豐年街豐1巷39號","121.447845","25.0313433333333","6500500","新莊區"
"242036","415-TV","2018/03/19 18:09:34","新北市新莊區後港一路65巷11弄11號","121.425736666667","25.027115","6500500","新莊區"
"242007","413-TV","2018/03/19 18:09:28","新北市新莊區中華路二段42號","121.45413","25.0456183333333","6500500","新莊區"
"242044","400-BY","2018/03/19 18:09:29","新北市新莊區中正路726-5號","121.415718333333","25.0241066666667","6500500","新莊區"
"242023","362-BY","2018/03/19 18:09:30","新北市新莊區幸福路836號","121.44516","25.049125","6500500","新莊區"
"242060","353-BY","2018/03/19 18:09:28","新北市新莊區新樹路83號","121.437756666667","25.027395","6500500","新莊區"
"242009","132-UY","2018/03/19 18:09:15","新北市新莊區中華路二段260號","121.452523333333","25.0531516666667","6500500","新莊區"
"242039","133-UY","2018/03/19 18:09:29","新北市新莊區民安西路40號","121.427218333333","25.0209516666667","6500500","新莊區"
"242031","135-UY","2018/03/19 18:09:31","新北市新莊區新泰路275號","121.445641666667","25.04039","6500500","新莊區"
"242048","172-VK","2018/03/19 18:09:26","新北市新莊區民安路49號","121.42394","25.0262","6500500","新莊區"
"242017","175-VK","2018/03/19 18:09:32","新北市新莊區中港路333號","121.45236","25.0451266666667","6500500","新莊區"
"242004","176-VK","2018/03/19 18:09:27","新北市新莊區中華路二段9號","121.453865","25.04558","6500500","新莊區"
"242015","346-TH","2018/03/19 18:09:26","新北市新莊區中平路152巷35號","121.446238333333","25.0473466666667","6500500","新莊區"
"242021","348-TH","2018/03/19 18:09:22","新北市新莊區建興街66號","121.44994","25.0391583333333","6500500","新莊區"
"242002","349-TH","2018/03/19 18:09:30","新北市新莊區新莊路69號","121.45824","25.0369233333333","6500500","新莊區"
"242013","351-TH","2018/03/19 18:09:20","新北市新莊區瓊泰路63巷23弄9號","121.44221","25.02804","6500500","新莊區"
"238015","755-BX","2018/03/19 18:09:18","新北市樹林區大安路349號","121.416493333333","24.99055","6500700","樹林區"
"238023","601-UM","2018/03/19 18:09:25","新北市樹林區龍興街34號","121.402798333333","25.01577","6500700","樹林區"
"238019","599-UM","2018/03/19 18:09:15","新北市樹林區水源街32巷67號","121.425046666667","24.980125","6500700","樹林區"
"238018","571-TV","2018/03/19 18:09:35","新北市樹林區樹新路207號","121.429798333333","24.998085","6500700","樹林區"
"238024","5061-A6","2018/03/19 18:09:29","新北市樹林區保安街一段136-1號","121.422968333333","24.995075","6500700","樹林區"
"238022","KEA-2213","2018/03/19 18:09:21","新北市樹林區太平路225巷2號","121.418578333333","24.977055","6500700","樹林區"
"238021","KEA-2539","2018/03/19 18:09:33","新北市樹林區柑園街一段260號","121.39111","24.9564683333333","6500700","樹林區"
"238025","303-VK","2018/03/19 18:09:25","新北市樹林區保安街一段327-3號","121.417518333333","24.9984733333333","6500700","樹林區"
"238017","283-BY","2018/03/19 18:09:28","新北市樹林區中正路743號","121.411146666667","25.0145316666667","6500700","樹林區"
"238014","282-BY","2018/03/19 18:09:20","新北市樹林區中正路45巷10號","121.426475","24.9992366666667","6500700","樹林區"
"238020","268-VK","2018/03/19 18:09:16","新北市樹林區三龍街118巷23號","121.41539","25.01728","6500700","樹林區"
"238026","172-UY","2018/03/19 18:09:25","新北市樹林區佳園路一段82-1號","121.393315","24.9696783333333","6500700","樹林區"
"238016","169-UY","2018/03/19 18:09:34","新北市樹林區復興路295巷20弄11號","121.419083333333","24.9881933333333","6500700","樹林區"
"239007","AAC-297","2018/03/19 18:09:18","新北市鶯歌區尖山埔路165巷3弄1號","121.346361666667","24.950385","6500800","鶯歌區"
"239006","891-R6","2018/03/19 18:09:32","新北市鶯歌區鶯桃路383號","121.333625","24.963605","6500800","鶯歌區"
"239008","527-UM","2018/03/19 18:09:27","新北市鶯歌區朝陽街2號","121.336231666667","24.9765683333333","6500800","鶯歌區"
"239005","526-UM","2018/03/19 18:09:30","新北市鶯歌區鶯桃路668巷73號","121.329931666667","24.9718133333333","6500800","鶯歌區"
"239001","417-VK","2018/03/19 18:09:17","新北市鶯歌區高職東街19巷38號","121.34094","24.941975","6500800","鶯歌區"
"239003","360-BY","2018/03/19 18:09:28","新北市鶯歌區福安街1號","121.334068333333","24.9638516666667","6500800","鶯歌區"
"239002","359-BY","2018/03/19 18:09:20","新北市鶯歌區中山路329巷3號","121.343691666667","24.9565866666667","6500800","鶯歌區"
"221008","489-VK","2018/03/19 18:09:23","新北市汐止區康寧街315號","121.627026666667","25.0677716666667","6501100","汐止區"
"221036","130-UY","2018/03/19 18:09:25","新北市汐止區大同路三段141號","121.669301666667","25.077735","6501100","汐止區"
"221010","269-BY","2018/03/19 18:09:33","新北市汐止區汐萬路二段275巷3弄1號","121.645361666667","25.0887683333333","6501100","汐止區"
"221012","278-VK","2018/03/19 18:09:22","新北市汐止區保一街51號","121.674475","25.0800483333333","6501100","汐止區"
"221023","279-VK","2018/03/19 18:09:20","新北市汐止區明峰街179-1號","121.628513333333","25.06996","6501100","汐止區"
"221032","280-BY","2018/03/19 18:09:34","新北市汐止區橫科路53號","121.618438333333","25.0508683333333","6501100","汐止區"
"221027","281-BY","2018/03/19 18:09:26","新北市汐止區大同路二段532號","121.66133","25.068585","6501100","汐止區"
"221029","298-VK","2018/03/19 18:09:31","新北市汐止區樟樹二路134號","121.639965","25.065835","6501100","汐止區"
"221031","353-TW","2018/03/19 18:09:31","新北市汐止區中興路173-3號","121.630751666667","25.0665666666667","6501100","汐止區"
"221035","622-UM","2018/03/19 18:09:32","新北市汐止區大同路二段204號","121.653345","25.0649416666667","6501100","汐止區"
"221025","623-UM","2018/03/19 18:09:34","新北市汐止區秀峰路151巷1號","121.660848333333","25.0620083333333","6501100","汐止區"
"221038","646-BX","2018/03/19 18:09:10","新北市汐止區仁愛路116號","121.662788333333","25.0636733333333","6501100","汐止區"
"221033","647-BX","2018/03/19 18:09:18","新北市汐止區宜興街20巷21號","121.622265","25.0409016666667","6501100","汐止區"
"221002","707-TV","2018/03/19 18:09:35","新北市汐止區福德一路213號","121.634773333333","25.06534","6501100","汐止區"
"221018","753-BX","2018/03/19 18:09:33","新北市汐止區茄苳路55號","121.66624","25.0707866666667","6501100","汐止區"
"242011","281-VK","2018/03/19 18:09:25","新北市新莊區中榮街58號","121.449256666667","25.0526883333333","6500500","新莊區"
"242019","280-VK","2018/03/19 18:09:25","新北市新莊區公園路129-5號","121.457441666667","25.0408366666667","6500500","新莊區"
