"lineid","car","time","location","longitude","latitude","cityid","cityname"
"234046","148-BY","2018/03/19 19:39:13","新北市永和區秀朗路二段97號","121.523338333333","25.00183","6500400","永和區"
"234007","207-UY","2018/03/19 19:39:16","新北市中和區中和路472號","121.512396666667","25.0040566666667","6500400","永和區"
"234081","298-R6","2018/03/19 19:39:27","新北市永和區林森路20巷22號","121.525798333333","25.0058766666667","6500400","永和區"
"234038","336-UY","2018/03/19 19:39:29","新北市永和區成功路一段137號","121.526796666667","25.0015633333333","6500400","永和區"
"234064","337-UY","2018/03/19 19:39:32","新北市永和區秀朗路一段192巷6弄12號","121.51906","25.00232","6500400","永和區"
"234086","338-UY","2018/03/19 19:39:28","新北市永和區永亨路165巷1-4號","121.526176666667","25.0041766666667","6500400","永和區"
"234070","552-UM","2018/03/19 19:39:25","新北市永和區永和路二段233號","121.515611666667","25.0141266666667","6500400","永和區"
"234017","745-BX","2018/03/19 19:39:24","新北市永和區環河西路一段51巷22號","121.514176666667","25.0176316666667","6500400","永和區"
"234030","746-BX","2018/03/19 19:39:21","新北市永和區民生路37巷16號","121.52357","24.9980133333333","6500400","永和區"
"234054","KEA-2590","2018/03/19 19:39:18","新北市永和區竹林路39巷18號","121.518613333333","25.0146316666667","6500400","永和區"
"234013","KEA-2591","2018/03/19 19:39:32","新北市永和區永平路224-1號","121.509006666667","25.0107","6500400","永和區"
"234061","AAD-866","2018/03/19 19:39:27","新北市永和區中正路458號","121.51747","25.0029766666667","6500400","永和區"
"234042","862-TW","2018/03/19 19:39:12","新北市永和區中和路305巷2弄1號","121.506686666667","25.00004","6500400","永和區"
"234050","863-TW","2018/03/19 19:39:14","新北市永和區保安路132號","121.508953333333","25.01535","6500400","永和區"
"234026","9371-KE","2018/03/19 19:39:21","新北市永和區中和路501巷10號","121.510535","25.0026833333333","6500400","永和區"
"249004","303-UY","2018/03/19 19:39:24","新北市八里區仁愛路10號","121.413281666667","25.1623533333333","6502300","八里區"
"249002","305-UY","2018/03/19 19:39:32","新北市八里區頂寮二街33-1號","121.450341666667","25.125195","6502300","八里區"
"249003","593-UM","2018/03/19 19:39:13","新北市八里區中華路二段540號","121.399061666667","25.1456033333333","6502300","八里區"
"248016","026-BX","2018/03/19 19:39:16","新北市五股區成泰路四段44號","121.45592","25.1104216666667","6501500","五股區"
"248008","095-VK","2018/03/19 19:39:28","新北市五股區四維路118巷9號","121.468808333333","25.0743366666667","6501500","五股區"
"248018","225-UY","2018/03/19 19:33:18","新北市五股區壟路11-1號","121.415903333333","25.0846583333333","6501500","五股區"
"248012","247-BX","2018/03/19 19:39:28","新北市五股區成泰路二段91巷8號","121.437768333333","25.0843783333333","6501500","五股區"
"248014","261-SL","2018/03/19 19:39:13","新北市五股區五福路68巷1弄9號","121.433215","25.0907116666667","6501500","五股區"
"248004","677-BX","2018/03/19 19:39:23","新北市五股區成泰路二段82號","121.437433333333","25.08226","6501500","五股區"
"248002","678-BX","2018/03/19 19:39:35","新北市五股區成泰路三段577巷49號","121.450733333333","25.1031766666667","6501500","五股區"
"234077","969-R7","2018/03/19 19:39:16","新北市永和區民族街67巷25號","121.51945","24.9971383333333","6500400","永和區"
"234074","AAC-211","2018/03/19 19:39:33","新北市永和區竹林路225巷9號","121.521411666667","25.008585","6500400","永和區"
"234067","AAC-212","2018/03/19 19:39:27","新北市永和區中山路一段191巷15弄2-1號","121.509898333333","25.0079316666667","6500400","永和區"
"234003","AAC-295","2018/03/19 19:39:25","新北市永和區永和路一段15號","121.512918333333","25.0055583333333","6500400","永和區"
"243012","AAD-798","2018/03/19 19:39:19","新北市泰山區仁愛路100巷9號","121.433448333333","25.0552383333333","6501600","泰山區"
"243011","297-R6","2018/03/19 19:39:21","新北市泰山區明志路三段204巷10弄1號","121.423328333333","25.03841","6501600","泰山區"
"243015","380-SR","2018/03/19 19:39:27","新北市泰山區明志路二段194號","121.427506666667","25.0495666666667","6501600","泰山區"
"243014","421-VK","2018/03/19 19:39:22","新北市泰山區泰林路二段33-7號","121.435226666667","25.0564366666667","6501600","泰山區"
"243010","KEA-2215","2018/03/19 19:39:31","新北市泰山區民生路11號","121.42972","25.05262","6501600","泰山區"
"243009","KEA-2216","2018/03/19 19:39:24","新北市泰山區美寧街60號","121.430915","25.0646816666667","6501600","泰山區"
"243013","646-TV","2018/03/19 19:35:43","新北市泰山區應化街13號","121.423833333333","25.04372","6501600","泰山區"
"243016","680-BX","2018/03/19 19:39:30","新北市泰山區中山路三段114號","121.417881666667","25.032065","6501600","泰山區"
"222003","436-BY","2018/03/19 19:33:24","新北市深坑區深南路51-1號","121.621163333333","25.00996","6501800","深坑區"
"222002","659-BX","2018/03/19 19:39:33","新北市深坑區北深路一段177號","121.632548333333","25.0109066666667","6501800","深坑區"
"231041","002-UM","2018/03/19 19:39:28","新北市新店區中正路485號","121.533841666667","24.982055","6500600","新店區"
"231059","046-UY","2018/03/19 19:39:15","新北市新店區安和路二段207號","121.517765","24.9753366666667","6500600","新店區"
"231061","047-UY","2018/03/19 19:39:13","新北市新店區安民街164號","121.516831666667","24.9704916666667","6500600","新店區"
"231060","106-UY","2018/03/19 19:39:32","新北市新店區安康路二段161號","121.510148333333","24.9593466666667","6500600","新店區"
"231051","107-UY","2018/03/19 19:39:24","新北市新店區中央四街22號","121.52902","24.9741266666667","6500600","新店區"
"231052","187-VK","2018/03/19 19:39:16","新北市新店區新烏路二段422號","121.551761666667","24.90912","6500600","新店區"
"231050","KEA-2219","2018/03/19 19:39:33","新北市新店區郵政路21號","121.556385","24.9513933333333","6500600","新店區"
"221015","KEA-2785","2018/03/19 19:39:28","新北市汐止區康寧街901號","121.65145","25.0749766666667","6501100","汐止區"
"231057","256-BX","2018/03/19 19:39:25","新北市新店區橘園一路7號","121.548051666667","24.9340283333333","6500600","新店區"
"231046","278-BY","2018/03/19 19:39:32","新北市新店區自由街51號","121.534666666667","24.97347","6500600","新店區"
"231054","AAD-862","2018/03/19 19:39:32","新北市新店區文中路40號","121.539598333333","24.9565166666667","6500600","新店區"
"231058","3712-VJ","2018/03/19 19:39:14","新北市新店區中正路102巷8弄2號","121.543385","24.9711266666667","6500600","新店區"
"231067","4772-VM","2018/03/19 19:39:30","新北市新店區精忠路10-1號","121.532661666667","24.9590883333333","6500600","新店區"
"231065","512-UM","2018/03/19 19:39:22","新北市新店區安祥路109巷61號","121.477253333333","24.95994","6500600","新店區"
"231049","513-UM","2018/03/19 19:39:18","新北市新店區大豐路72號","121.539015","24.9794033333333","6500600","新店區"
"231064","515-UM","2018/03/19 19:39:22","新北市新店區安和路一段53號","121.517525","24.966045","6500600","新店區"
"231045","617-UM","2018/03/19 19:39:32","新北市新店區北宜路二段415號","121.55996","24.9544833333333","6500600","新店區"
"231040","619-UM","2018/03/19 19:39:15","新北市新店區北新路一段96巷23號","121.543011666667","24.968865","6500600","新店區"
"231042","641-BX","2018/03/19 19:39:24","新北市新店區中興路一段203號","121.54369","24.96578","6500600","新店區"
"231063","645-TV","2018/03/19 19:39:27","新北市新店區達觀路14巷2號","121.503226666667","24.941305","6500600","新店區"
"231047","719-UY","2018/03/19 19:39:26","新北市新店區五峰路63巷8弄16號","121.546961666667","24.96911","6500600","新店區"
"231062","720-UM","2018/03/19 19:39:30","新北市新店區碧潭路64號","121.534775","24.95704","6500600","新店區"
"231044","897-TW","2018/03/19 19:39:35","新北市新店區北新路三段115號","121.541415","24.9824366666667","6500600","新店區"
"231043","899-TW","2018/03/19 19:39:20","新北市新店區北新路二段82號","121.543011666667","24.9727816666667","6500600","新店區"
"231066","AKT-0513","2018/03/19 19:39:20","新北市新店區安康路二段339號","121.497865","24.9556183333333","6500600","新店區"
"241011","013-R5","2018/03/19 19:39:29","新北市三重區秀江街198號","121.497591666667","25.071585","6500200","三重區"
"241028","022-UY","2018/03/19 19:39:29","新北市三重區中正南路190號","121.4939","25.0560783333333","6500200","三重區"
"241008","059-VK","2018/03/19 19:39:31","新北市三重區永福街131號","121.47891","25.0768216666667","6500200","三重區"
"241009","060-VK","2018/03/19 19:39:29","新北市三重區三和路四段400巷28號","121.480133333333","25.07915","6500200","三重區"
"241031","061-VK","2018/03/19 19:39:25","新北市三重區重新路四段248號","121.486068333333","25.05354","6500200","三重區"
"241015","062-VK","2018/03/19 19:39:21","新北市三重區福德北路34號","121.50206","25.0652216666667","6500200","三重區"
"241017","063-VK","2018/03/19 19:39:15","新北市三重區大仁街1號","121.491636666667","25.063565","6500200","三重區"
"241026","066-VK","2018/03/19 19:39:27","新北市三重區光興街53號","121.49901","25.060165","6500200","三重區"
"241022","267-UM","2018/03/19 19:39:31","新北市三重區中正北路166號","121.484306666667","25.0661566666667","6500200","三重區"
"241032","269-UM","2018/03/19 19:39:17","新北市三重區重陽路一段60巷73號","121.484248333333","25.0582233333333","6500200","三重區"
"241013","270-UM","2018/03/19 19:39:17","新北市三重區仁賢街12號","121.495885","25.0746533333333","6500200","三重區"
"241025","271-UM","2018/03/19 19:39:15","新北市三重區大有街1-10號","121.477581666667","25.0661466666667","6500200","三重區"
"241007","398-BY","2018/03/19 19:39:27","新北市三重區溪尾街126巷100號","121.487495","25.07865","6500200","三重區"
"241020","413-TH","2018/03/19 19:39:31","新北市三重區三和路四段20巷63號","121.489555","25.073625","6500200","三重區"
"241035","462-BY","2018/03/19 19:39:28","新北市三重區正義北路61-1號","121.497273333333","25.0645333333333","6500200","三重區"
"241001","478-VK","2018/03/19 19:39:21","新北市三重區仁愛街315巷12號","121.493065","25.0796333333333","6500200","三重區"
"241030","480-VK","2018/03/19 19:39:23","新北市三重區新興路28巷7號","121.491751666667","25.0530016666667","6500200","三重區"
"241014","543-UM","2018/03/19 19:39:21","新北市三重區河邊北街82號","121.504303333333","25.0689966666667","6500200","三重區"
"241023","545-UM","2018/03/19 19:39:17","新北市三重區忠孝路三段99巷21號","121.479455","25.06431","6500200","三重區"
"241019","KEA-2593","2018/03/19 19:39:29","新北市三重區六張街194巷1弄2號","121.488516666667","25.068025","6500200","三重區"
"241006","AAD-863","2018/03/19 19:39:32","新北市三重區聯華街113號","121.485113333333","25.075125","6500200","三重區"
"241012","941-UM","2018/03/19 19:39:34","新北市三重區河邊北街256巷33號","121.500545","25.0759716666667","6500200","三重區"
"241029","942-UM","2018/03/19 19:39:20","新北市三重區重安街102號","121.492975","25.0559183333333","6500200","三重區"
"235066","003-UY","2018/03/19 19:39:24","新北市中和區中和路196巷10號","121.505028333333","24.9990983333333","6500300","中和區"
"235064","005-UY","2018/03/19 19:39:14","新北市中和區南山路81巷60號","121.503988333333","24.9980616666667","6500300","中和區"
"235063","006-UY","2018/03/19 19:39:26","新北市中和區連城路203巷10弄19號","121.495061666667","24.996815","6500300","中和區"
"235056","096-UM","2018/03/19 19:39:31","新北市中和區員山路581巷2-10號","121.477423333333","25.0089683333333","6500300","中和區"
"235039","097-UM","2018/03/19 19:39:32","新北市中和區秀峰街103巷7弄2號","121.519985","24.989525","6500300","中和區"
"235065","098-UM","2018/03/19 19:39:28","新北市中和區永和路6號","121.499978333333","25.00299","6500300","中和區"
"235040","150-BY","2018/03/19 19:39:31","新北市中和區宜安路102號","121.510396666667","24.997735","6500300","中和區"
"235058","151-BY","2018/03/19 19:39:26","新北市中和區員山路124巷40號","121.48257","24.9959733333333","6500300","中和區"
"235055","183-VK","2018/03/19 19:39:30","新北市中和區中山路三段181巷18弄11號","121.472668333333","25.00487","6500300","中和區"
"235049","186-VK","2018/03/19 19:39:17","新北市中和區景新街224-20號","121.50801","24.9945116666667","6500300","中和區"
"235067","255-BX","2018/03/19 19:39:22","新北市中和區新生街176巷14號","121.482968333333","24.9999383333333","6500300","中和區"
"235044","293-VK","2018/03/19 19:39:06","新北市中和區興南路一段93巷2號","121.509621666667","24.988545","6500300","中和區"
"235072","301-VK","2018/03/19 19:39:19","新北市中和區錦和路93巷2弄1號","121.49025","24.995685","6500300","中和區"
"235043","352-BY","2018/03/19 19:39:23","新北市中和區興南路一段83號","121.509968333333","24.9889933333333","6500300","中和區"
"235068","377-QA","2018/03/19 19:39:35","新北市中和區中和路53號","121.5005","25.0013716666667","6500300","中和區"
"235061","378-QA","2018/03/19 19:39:31","新北市中和區民利街9巷2弄4號","121.480578333333","24.9987316666667","6500300","中和區"
"235071","269-TV","2018/03/19 19:39:18","新北市中和區中正路839巷29號","121.483595","25.0023333333333","6500300","中和區"
"235050","4979-A6","2018/03/19 19:39:14","新北市中和區和城路一段271巷1號","121.485385","24.991775","6500300","中和區"
"235042","551-UM","2018/03/19 19:39:25","新北市中和區中和路262巷45號","121.510065","24.9999166666667","6500300","中和區"
"235034","558-UM","2018/03/19 19:39:16","新北市中和區景平路666-1號","121.497428333333","25.00073","6500300","中和區"
"235045","565-BX","2018/03/19 19:39:12","新北市中和區景新街475號","121.5135","24.9877133333333","6500300","中和區"
"235054","640-BX","2018/03/19 19:39:23","新北市中和區國光街87號","121.470483333333","25.0000916666667","6500300","中和區"
"235060","647-TV","2018/03/19 19:39:24","新北市中和區中山路二段523巷9號","121.481718333333","25.0041633333333","6500300","中和區"
"235047","732-UM","2018/03/19 19:39:30","新北市中和區景平路379號","121.504043333333","24.9932233333333","6500300","中和區"
"235046","733-UM","2018/03/19 19:39:29","新北市中和區忠孝街59號","121.511811666667","24.984645","6500300","中和區"
"235057","801-TS","2018/03/19 19:39:29","新北市中和區員山路176號","121.481346666667","25.000065","6500300","中和區"
"235041","802-TS","2018/03/19 19:39:28","新北市中和區中和路460號","121.512238333333","25.0037916666667","6500300","中和區"
"235052","805-TS","2018/03/19 19:39:24","新北市中和區華新街206巷8號","121.506471666667","24.982335","6500300","中和區"
"235048","896-TW","2018/03/19 19:39:25","新北市中和區忠孝街2-6號","121.509128333333","24.982985","6500300","中和區"
"235053","900-TW","2018/03/19 19:39:23","新北市中和區國光街184巷25號","121.467513333333","25.0021233333333","6500300","中和區"
"235051","157-BY","2018/03/19 19:39:23","新北市中和區南華路7號","121.50209","24.9955683333333","6500300","中和區"
"235037","AAC-213","2018/03/19 19:39:25","新北市中和區秀朗路三段50巷4弄4號","121.525703333333","24.9956816666667","6500300","中和區"
"235059","AAC-215","2018/03/19 19:39:19","新北市中和區錦和路356號","121.490596666667","24.9914666666667","6500300","中和區"
"220068","013-TV","2018/03/19 19:39:29","新北市板橋區中山路二段555號","121.483965","25.0217616666667","6500100","板橋區"
"220086","073-UY","2018/03/19 19:39:22","新北市板橋區國光路157號","121.459853333333","25.0182","6500100","板橋區"
"220069","AAD-861","2018/03/19 19:39:19","新北市板橋區稚暉街2巷46號","121.455165","25.0029433333333","6500100","板橋區"
"247004","337-TH","2018/03/19 19:39:25","新北市蘆洲區長安街98巷20號","121.463016666667","25.081715","6501400","蘆洲區"
"247008","056-VK","2018/03/19 19:39:17","新北市蘆洲區中山一路105-1號","121.476658333333","25.08152","6501400","蘆洲區"
"226004","312-R5","2018/03/19 19:39:31","新北市平溪區十分里十分街57號","121.77559","25.0414666666667","6502400","平溪區"
"228003","097-TW","2018/03/19 19:39:13","新北市貢寮區真理里美艷山街15-3號","121.923725","25.0679516666667","6502600","貢寮區"
"228001","670-TC","2018/03/19 19:39:30","新北市貢寮區真理里延平街49號","121.924618333333","25.0556466666667","6502600","貢寮區"
"224010","AGQ-8101","2018/03/19 19:39:23","新北市瑞芳區基山街31巷24號","121.84622","25.1103866666667","6501200","瑞芳區"
"224002","639-TC","2018/03/19 19:39:24","新北市瑞芳區民享新村13號","121.816646666667","25.1057833333333","6501200","瑞芳區"
"227008","642-TC","2018/03/19 19:39:13","新北市雙溪區新基里新基北街22號","121.867221666667","25.03891","6502500","雙溪區"
"227001","400-TW","2018/03/19 19:39:26","新北市雙溪區雙溪里太平路14號","121.864275","25.035175","6502500","雙溪區"
"253006","295-VK","2018/03/19 19:39:34","新北市石門區小坑12-8號","121.595136666667","25.285285","6502200","石門區"
"222001","KEA-2212","2018/03/19 19:39:21","新北市深坑區北深路二段200號","121.61301","25.0015333333333","6501800","深坑區"
"208002","KEA-2872","2018/03/19 19:39:33","新北市金山區仁愛路78巷2號","121.634663333333","25.2215733333333","6502700","金山區"
"208003","665-BX","2018/03/19 19:39:26","新北市金山區仁愛路15號","121.63768","25.2193233333333","6502700","金山區"
"208001","761-BX","2018/03/19 19:39:27","新北市金山區六股里下六股51-1號","121.617325","25.22166","6502700","金山區"
"251009","008-UM","2018/03/19 19:39:24","新北市淡水區中山北路一段184巷7號","121.445308333333","25.1786466666667","6501000","淡水區"
"251004","009-UM","2018/03/19 19:39:19","新北市淡水區中正東路二段88巷41號","121.459536666667","25.1426433333333","6501000","淡水區"
"251005","010-UM","2018/03/19 19:39:21","新北市淡水區原德路108巷1號","121.443456666667","25.1736733333333","6501000","淡水區"
"251001","011-UM","2018/03/19 19:39:17","新北市淡水區民權路51號","121.459768333333","25.1390483333333","6501000","淡水區"
"251013","179-VK","2018/03/19 19:39:28","新北市淡水區頂田寮13號","121.462378333333","25.21428","6501000","淡水區"
"251014","180-VK","2018/03/19 19:39:20","新北市淡水區桂竹圍4-1號","121.474598333333","25.232095","6501000","淡水區"
"251015","182-VK","2018/03/19 19:39:13","新北市淡水區大埤頭1號","121.492736666667","25.1945466666667","6501000","淡水區"
"251010","413-VK","2018/03/19 19:39:18","新北市淡水區崁頂三路153號","121.430976666667","25.2011916666667","6501000","淡水區"
"251012","441-VK","2018/03/19 19:39:23","新北市淡水區中山北路三段156號","121.44557","25.1957316666667","6501000","淡水區"
"251016","442-VK","2018/03/19 19:39:12","新北市淡水區淡金路三段350巷18號","121.450801666667","25.2083716666667","6501000","淡水區"
"251006","561-UM","2018/03/19 19:39:34","新北市淡水區中山北路一段207巷44號","121.442656666667","25.1793316666667","6501000","淡水區"
"251007","577-R6","2018/03/19 19:39:29","新北市淡水區坪頂路19號","121.455638333333","25.1606833333333","6501000","淡水區"
"251011","650-BX","2018/03/19 19:39:28","新北市淡水區八勢一街7-18號","121.460651666667","25.157285","6501000","淡水區"
"207003","550-UM","2018/03/19 19:39:18","新北市萬里區大鵬里下社15-4號","121.64772","25.2185516666667","6502800","萬里區"
"207004","225-TW","2018/03/19 19:39:21","新北市萬里區萬里里瑪鋉路21號","121.687228333333","25.17535","6502800","萬里區"
"252002","178-VK","2018/03/19 19:39:14","新北市三芝區三民街29號","121.504511666667","25.2585583333333","6502100","三芝區"
"252001","292-VK","2018/03/19 19:39:24","新北市三芝區公正街9號","121.499756666667","25.2575033333333","6502100","三芝區"
"237004","KEA-2597","2018/03/19 19:39:15","新北市三峽區插角232號","121.41404","24.869025","6500900","三峽區"
"237007","153-BY","2018/03/19 19:39:30","新北市三峽區二鬮路136巷24弄21號","121.356233333333","24.9106033333333","6500900","三峽區"
"237009","210-TH","2018/03/19 19:39:28","新北市三峽區中園街121號","121.367515","24.923825","6500900","三峽區"
"237013","252-BX","2018/03/19 19:39:18","新北市三峽區介壽路一段386號","121.383148333333","24.9306916666667","6500900","三峽區"
"237012","275-BY","2018/03/19 19:39:24","新北市三峽區民生街3號","121.374591666667","24.9354083333333","6500900","三峽區"
"237008","302-VK","2018/03/19 19:39:26","新北市三峽區永安街113巷10號","121.374381666667","24.9284033333333","6500900","三峽區"
"237014","433-BY","2018/03/19 19:39:16","新北市三峽區嘉添51號","121.3687","24.9110283333333","6500900","三峽區"
"237006","5529-G3","2018/03/19 19:39:30","新北市三峽區中正路一段336巷15弄2號","121.369941666667","24.9249433333333","6500900","三峽區"
"237005","AKY-6261","2018/03/19 19:39:16","新北市三峽區中山路219巷17弄2號","121.36331","24.9362333333333","6500900","三峽區"
"236069","105-UM","2018/03/19 19:39:28","新北市土城區清水路25巷25號","121.453311666667","24.98076","6501300","土城區"
"236042","107-UM","2018/03/19 19:39:26","新北市土城區學士路11號","121.453721666667","24.9828983333333","6501300","土城區"
"236078","166-UM","2018/03/19 19:39:33","新北市土城區中州路27巷78號","121.412623333333","24.9563666666667","6501300","土城區"
"236030","253-BX","2018/03/19 19:39:30","新北市土城區福祥街48號","121.441368333333","24.9811516666667","6501300","土城區"
"236026","269-VK","2018/03/19 19:39:15","新北市土城區中央路二段61巷26號","121.443325","24.9787133333333","6501300","土城區"
"236036","271-VK","2018/03/19 19:39:30","新北市土城區清水路98巷3弄7號","121.45799","24.98093","6501300","土城區"
"236020","401-BY","2018/03/19 19:39:14","新北市土城區明峰街83號","121.468946666667","24.9873866666667","6501300","土城區"
"236048","913-UM","2018/03/19 19:39:28","新北市土城區明德路一段59號","121.465418333333","24.9845716666667","6501300","土城區"
"236062","915-UM","2018/03/19 19:39:22","新北市土城區延平街37號","121.468053333333","24.99194","6501300","土城區"
"236053","AAC-216","2018/03/19 19:39:30","新北市土城區學府路一段66號","121.457018333333","24.98839","6501300","土城區"
"242034","AAC-296","2018/03/19 19:39:17","新北市新莊區福海街33巷2號","121.445153333333","25.0342516666667","6500500","新莊區"
"242029","705-TV","2018/03/19 19:39:26","新北市新莊區新泰路357巷3弄57號","121.442148333333","25.0391783333333","6500500","新莊區"
"242025","613-BX","2018/03/19 19:39:30","新北市新莊區新北大道四段2號","121.451291666667","25.060155","6500500","新莊區"
"242046","497-BY","2018/03/19 19:39:27","新北市新莊區瓊林南路1號","121.438648333333","25.0207583333333","6500500","新莊區"
"242044","400-BY","2018/03/19 19:39:24","新北市新莊區新泰路357巷3弄57號","121.442301666667","25.0395383333333","6500500","新莊區"
"242023","362-BY","2018/03/19 19:39:22","新北市新莊區中港路301號","121.452898333333","25.04449","6500500","新莊區"
"242031","135-UY","2018/03/19 19:39:35","新北市新莊區新泰路215號","121.446485","25.038805","6500500","新莊區"
"242048","172-VK","2018/03/19 19:39:26","新北市新莊區民安路37巷1號","121.423783333333","25.026835","6500500","新莊區"
"242004","176-VK","2018/03/19 19:39:28","新北市新莊區化成路29巷16號","121.464396666667","25.04394","6500500","新莊區"
"242021","348-TH","2018/03/19 19:39:24","新北市新莊區新泰路357巷3弄51號","121.442348333333","25.04004","6500500","新莊區"
"242013","351-TH","2018/03/19 19:39:33","新北市新莊區中誠街144號","121.448766666667","25.0475433333333","6500500","新莊區"
"238015","755-BX","2018/03/19 19:39:13","新北市樹林區中興街24號","121.42092","24.9905916666667","6500700","樹林區"
"238023","601-UM","2018/03/19 19:39:24","新北市樹林區三福街75號","121.407506666667","25.0163316666667","6500700","樹林區"
"238019","599-UM","2018/03/19 19:39:26","新北市樹林區東榮街8號","121.418113333333","24.9837666666667","6500700","樹林區"
"238018","571-TV","2018/03/19 19:39:14","新北市樹林區中山路三段210-2號","121.38176","24.9656716666667","6500700","樹林區"
"238024","5061-A6","2018/03/19 19:39:29","新北市樹林區育德街76巷1號","121.388658333333","24.9682416666667","6500700","樹林區"
"238022","KEA-2213","2018/03/19 19:39:21","新北市樹林區名園街53號","121.41986","24.978335","6500700","樹林區"
"238021","KEA-2539","2018/03/19 19:39:33","新北市樹林區大成路155-1號","121.381665","24.948915","6500700","樹林區"
"238025","303-VK","2018/03/19 19:39:25","新北市樹林區中山路二段168號","121.412255","24.9824883333333","6500700","樹林區"
"238017","283-BY","2018/03/19 19:39:28","新北市樹林區保安街二段45巷13弄6號","121.415173333333","24.9996616666667","6500700","樹林區"
"238014","282-BY","2018/03/19 19:39:20","新北市樹林區千歲街30巷11號","121.426066666667","24.9963333333333","6500700","樹林區"
"238020","268-VK","2018/03/19 19:39:16","新北市板橋區大觀路三段50巷89號","121.431313333333","24.9964166666667","6500700","樹林區"
"238026","172-UY","2018/03/19 19:36:25","新北市樹林區佳園路二段15巷9弄6號","121.394296666667","24.9633083333333","6500700","樹林區"
"238016","169-UY","2018/03/19 19:39:14","新北市樹林區東和街6號","121.405118333333","24.980315","6500700","樹林區"
"239007","AAC-297","2018/03/19 19:39:18","新北市鶯歌區大湖路328號","121.345471666667","24.97032","6500800","鶯歌區"
"239006","891-R6","2018/03/19 19:39:32","新北市鶯歌區永昌街180號","121.33951","24.950485","6500800","鶯歌區"
"239005","526-UM","2018/03/19 19:39:30","新北市鶯歌區中湖街303巷1號","121.347841666667","24.9774633333333","6500800","鶯歌區"
"239003","360-BY","2018/03/19 19:38:48","新北市樹林區中山路三段210-2號","121.380713333333","24.9666783333333","6500800","鶯歌區"
"239004","193-VK","2018/03/19 19:39:22","新北市鶯歌區二甲路中心巷13號","121.337406666667","24.936035","6500800","鶯歌區"
"221008","489-VK","2018/03/19 19:39:22","新北市汐止區康寧街61巷69號","121.620345","25.0679166666667","6501100","汐止區"
"221036","130-UY","2018/03/19 19:39:25","新北市汐止區康寧街901號","121.651683333333","25.0749066666667","6501100","汐止區"
"221010","269-BY","2018/03/19 19:39:16","新北市汐止區汐萬路二段23巷2號","121.649478333333","25.08118","6501100","汐止區"
"221012","278-VK","2018/03/19 19:39:22","新北市汐止區汐平路一段5號","121.680725","25.07125","6501100","汐止區"
"221023","279-VK","2018/03/19 19:39:26","新北市汐止區中興路250號","121.629148333333","25.068535","6501100","汐止區"
"221032","280-BY","2018/03/19 19:39:13","新北市汐止區汐萬路一段256巷3號","121.652546666667","25.0745966666667","6501100","汐止區"
"221027","281-BY","2018/03/19 19:39:26","新北市汐止區忠孝東路9號","121.658211666667","25.0660066666667","6501100","汐止區"
"221029","298-VK","2018/03/19 19:39:31","新北市汐止區康寧街901號","121.6516","25.07496","6501100","汐止區"
"221021","299-VK","2018/03/19 19:39:29","新北市汐止區南興路6巷3號","121.651746666667","25.0632616666667","6501100","汐止區"
"221031","353-TW","2018/03/19 19:39:24","新北市汐止區康寧街901號","121.650733333333","25.0752966666667","6501100","汐止區"
"221025","623-UM","2018/03/19 19:39:34","新北市汐止區福安街20巷5號","121.662481666667","25.0648833333333","6501100","汐止區"
"221038","646-BX","2018/03/19 19:39:30","新北市汐止區忠孝東路241號","121.662803333333","25.06736","6501100","汐止區"
"221033","647-BX","2018/03/19 19:39:17","新北市汐止區南勢街1巷4號","121.626858333333","25.03749","6501100","汐止區"
"221002","707-TV","2018/03/19 19:39:15","新北市汐止區大同路一段219巷27號","121.63323","25.0584166666667","6501100","汐止區"
"220079","145-BY","2018/03/19 19:39:26","新北市板橋區建國街93號","121.459685","25.0174016666667","6500100","板橋區"
"220080","200-UY","2018/03/19 19:39:25","新北市板橋區大觀路二段37巷256號","121.449941666667","25.002015","6500100","板橋區"
"220106","KEA-2550","2018/03/19 19:39:28","新北市板橋區民治街26巷23號","121.477358333333","25.0335666666667","6500100","板橋區"
"220082","610-BX","2018/03/19 19:39:27","新北市板橋區大觀路三段160巷36號","121.429908333333","24.9940216666667","6500100","板橋區"
"220101","245-BX","2018/03/19 19:39:30","新北市板橋區縣民大道三段33巷17-1號","121.473931666667","25.02121","6500100","板橋區"
"220056","276-BY","2018/03/19 19:39:21","新北市板橋區四川路二段47巷1弄2號","121.454141666667","24.9949366666667","6500100","板橋區"
"220072","277-BY","2018/03/19 19:39:29","新北市板橋區金門街215巷2弄21號","121.433085","24.9886466666667","6500100","板橋區"
"220094","280-UM","2018/03/19 19:39:30","新北市板橋區銘傳街51號","121.469796666667","25.03176","6500100","板橋區"
"220064","282-UM","2018/03/19 19:39:15","新北市板橋區民權路45號","121.461916666667","25.0112033333333","6500100","板橋區"
"220071","283-VK","2018/03/19 19:39:25","新北市板橋區四川路一段325巷3弄5號","121.459485","25.000515","6500100","板橋區"
"220053","285-VK","2018/03/19 19:39:28","新北市板橋區中山路二段253號","121.477391666667","25.0175","6500100","板橋區"
"220083","286-VK","2018/03/19 19:39:31","新北市板橋區龍興街65巷22號","121.44318","25.00163","6500100","板橋區"
"220081","287-VK","2018/03/19 19:39:30","新北市板橋區大觀路一段29巷139號","121.449653333333","25.0055166666667","6500100","板橋區"
"220090","288-VK","2018/03/19 19:39:28","新北市板橋區長江路一段48巷9號","121.459178333333","25.0285083333333","6500100","板橋區"
"220061","293-UM","2018/03/19 19:39:25","新北市板橋區中山路一段279號","121.469521666667","25.0137733333333","6500100","板橋區"
"220084","296-UM","2018/03/19 19:39:32","新北市板橋區滿平二街2巷1弄50號","121.424831666667","24.98807","6500100","板橋區"
"242011","281-VK","2018/03/19 19:39:21","新北市新莊區中和街195號","121.44808","25.05216","6500500","新莊區"
"220075","303-R5","2018/03/19 19:39:17","新北市板橋區大勇街10巷2號","121.453886666667","25.0170516666667","6500100","板橋區"
"220062","305-R5","2018/03/19 19:39:17","新北市板橋區三民路二段81巷23號","121.480418333333","25.0167316666667","6500100","板橋區"
"220092","307-R5","2018/03/19 19:39:31","新北市板橋區文化路一段387巷20號","121.466295","25.022205","6500100","板橋區"
"220098","317-R6","2018/03/19 19:39:24","新北市板橋區四維路269巷33號","121.46177","25.0276566666667","6500100","板橋區"
"220089","487-VK","2018/03/19 19:39:30","新北市板橋區雨農路21號","121.461465","25.0243566666667","6500100","板橋區"
"242019","280-VK","2018/03/19 19:39:27","新北市新莊區三和路12-21號","121.442175","25.0383933333333","6500500","新莊區"
"220088","491-VK","2018/03/19 19:39:32","新北市板橋區仁化街150號","121.477645","25.0330466666667","6500100","板橋區"
"220035","560-BX","2018/03/19 19:39:32","新北市板橋區金華街85巷42號","121.45919","25.0213416666667","6500100","板橋區"
"220103","561-BX","2018/03/19 19:39:26","新北市板橋區文化路一段339號","121.466555","25.0207433333333","6500100","板橋區"
"220065","568-UM","2018/03/19 19:39:22","新北市板橋區國泰街2號","121.469256666667","25.0068316666667","6500100","板橋區"
"220063","609-BX","2018/03/19 19:39:25","新北市板橋區中山路二段539巷18弄3號","121.483101666667","25.0224266666667","6500100","板橋區"
"220091","637-BX","2018/03/19 19:39:16","新北市板橋區懷德街139巷6號","121.479441666667","25.0303516666667","6500100","板橋區"
"220057","686-BX","2018/03/19 19:39:33","新北市板橋區和平路29號","121.459748333333","24.9958116666667","6500100","板橋區"
"220077","687-BX","2018/03/19 19:39:24","新北市板橋區僑中一街98號","121.446851666667","25.0116933333333","6500100","板橋區"
"220093","689-BX","2018/03/19 19:39:21","新北市板橋區新海路466號","121.457575","25.0284583333333","6500100","板橋區"
"220054","741-BX","2018/03/19 19:39:22","新北市板橋區忠孝路271號","121.467248333333","25.0029916666667","6500100","板橋區"
"220102","KEA-2699","2018/03/19 19:39:27","新北市板橋區文化路二段410巷41號","121.474926666667","25.0302483333333","6500100","板橋區"
"220055","827-TW","2018/03/19 19:39:25","新北市板橋區國慶路149巷7-3號","121.461196666667","24.9969516666667","6500100","板橋區"
"220067","829-TW","2018/03/19 19:39:30","新北市板橋區漢生東路279巷12號","121.471993333333","25.00896","6500100","板橋區"
"220096","831-TW","2018/03/19 19:39:32","新北市板橋區民生路二段226巷6弄2號","121.469698333333","25.0217783333333","6500100","板橋區"
"220074","895-R6","2018/03/19 19:39:30","新北市板橋區後菜園街1號","121.457813333333","25.0103416666667","6500100","板橋區"
"220073","985-R7","2018/03/19 19:39:25","新北市板橋區國光路49巷17號","121.459","25.01878","6500100","板橋區"
"220097","AAC-210","2018/03/19 19:39:20","新北市板橋區幸福路32巷4弄16號","121.461488333333","25.0214633333333","6500100","板橋區"
"220070","AAC-253","2018/03/19 19:39:34","新北市板橋區民族路208號","121.468343333333","25.0075566666667","6500100","板橋區"
