"lineid","car","time","location","longitude","latitude","cityid","cityname"
"234046","148-BY","2018/03/19 19:49:13","新北市永和區永亨路176號","121.526035","25.00274","6500400","永和區"
"234007","207-UY","2018/03/19 19:49:16","新北市中和區中和路236號","121.506985","24.9995616666667","6500400","永和區"
"234081","298-R6","2018/03/19 19:49:15","新北市永和區永亨路100號","121.523115","25.00486","6500400","永和區"
"234038","336-UY","2018/03/19 19:49:09","新北市永和區民樂街39巷18弄22號","121.528503333333","24.9993916666667","6500400","永和區"
"234064","337-UY","2018/03/19 19:49:12","新北市永和區中正路368巷4號","121.518015","25.000785","6500400","永和區"
"234086","338-UY","2018/03/19 19:49:07","新北市永和區永亨路70號","121.521148333333","25.00602","6500400","永和區"
"234070","552-UM","2018/03/19 19:49:05","新北市永和區竹林路88號","121.519413333333","25.0125383333333","6500400","永和區"
"234017","745-BX","2018/03/19 19:49:04","新北市永和區忠孝街26巷8號","121.51537","25.0167233333333","6500400","永和區"
"234030","746-BX","2018/03/19 19:49:21","新北市永和區民生路67巷39號","121.524835","24.99747","6500400","永和區"
"234054","KEA-2590","2018/03/19 19:49:18","新北市永和區竹林路75巷15-2號","121.519748333333","25.013715","6500400","永和區"
"234013","KEA-2591","2018/03/19 19:49:21","新北市永和區仁愛路204號","121.509276666667","25.012275","6500400","永和區"
"234061","AAD-866","2018/03/19 19:49:07","新北市永和區中正路106號","121.514438333333","24.9959316666667","6500400","永和區"
"234042","862-TW","2018/03/19 19:49:12","新北市永和區中和路389巷11弄1號","121.508085","25.0008966666667","6500400","永和區"
"234050","863-TW","2018/03/19 19:49:18","新北市永和區保安路140號","121.508621666667","25.0150583333333","6500400","永和區"
"234026","9371-KE","2018/03/19 19:49:21","新北市永和區雙和街25巷6號","121.508851666667","25.0018566666667","6500400","永和區"
"234011","9373-KE","2018/03/19 19:49:04","新北市永和區仁愛路352巷86號","121.501365","25.0077566666667","6500400","永和區"
"249001","173-UM","2018/03/19 19:49:05","新北市八里區中華路二段252號","121.405395","25.1496516666667","6502300","八里區"
"249004","303-UY","2018/03/19 19:49:04","新北市八里區仁愛路37號","121.413386666667","25.1607116666667","6502300","八里區"
"249002","305-UY","2018/03/19 19:49:12","新北市八里區頂寮五街17號","121.451448333333","25.1261033333333","6502300","八里區"
"249003","593-UM","2018/03/19 19:49:13","新北市八里區中華路二段538-4號","121.398816666667","25.14507","6502300","八里區"
"248016","026-BX","2018/03/19 19:49:16","新北市五股區成泰路三段601巷16號","121.452025","25.10331","6501500","五股區"
"248008","095-VK","2018/03/19 19:49:15","新北市五股區四維路169號","121.467675","25.075135","6501500","五股區"
"248018","225-UY","2018/03/19 19:33:18","新北市五股區壟路11-1號","121.415903333333","25.0846583333333","6501500","五股區"
"248012","247-BX","2018/03/19 19:49:08","新北市五股區蓬萊路24號","121.433866666667","25.0798933333333","6501500","五股區"
"248014","261-SL","2018/03/19 19:49:13","新北市五股區五福路42巷10號","121.43426","25.0896183333333","6501500","五股區"
"248004","677-BX","2018/03/19 19:49:03","新北市五股區成泰路一段149-7號","121.435316666667","25.07378","6501500","五股區"
"248002","678-BX","2018/03/19 19:49:15","新北市五股區成泰路四段14號","121.453251666667","25.106775","6501500","五股區"
"248010","682-TV","2018/03/19 19:49:18","新北市五股區登林路74-3號","121.431068333333","25.0693116666667","6501500","五股區"
"234077","969-R7","2018/03/19 19:49:16","新北市永和區民權路29巷6號","121.520445","24.9977983333333","6500400","永和區"
"234074","AAC-211","2018/03/19 19:49:02","新北市永和區竹林路213巷22號","121.521928333333","25.00891","6500400","永和區"
"234067","AAC-212","2018/03/19 19:49:07","新北市永和區中山路一段255巷22號","121.508488333333","25.0071566666667","6500400","永和區"
"234003","AAC-295","2018/03/19 19:49:14","新北市永和區福和路343號","121.51562","25.0072133333333","6500400","永和區"
"243012","AAD-798","2018/03/19 19:49:19","新北市泰山區全興路20號","121.432301666667","25.0588983333333","6501600","泰山區"
"243011","297-R6","2018/03/19 19:49:21","新北市泰山區明志路三段182巷13號","121.423501666667","25.0390616666667","6501600","泰山區"
"243015","380-SR","2018/03/19 19:49:07","新北市泰山區文程路18巷5號","121.428411666667","25.0489766666667","6501600","泰山區"
"243014","421-VK","2018/03/19 19:49:02","新北市泰山區泰林路二段33-7號","121.435201666667","25.056435","6501600","泰山區"
"243010","KEA-2215","2018/03/19 19:49:11","新北市泰山區民生路33號","121.430656666667","25.0521516666667","6501600","泰山區"
"243009","KEA-2216","2018/03/19 19:49:04","新北市泰山區美寧街68號","121.43102","25.0646533333333","6501600","泰山區"
"243013","646-TV","2018/03/19 19:35:43","新北市泰山區應化街13號","121.423833333333","25.04372","6501600","泰山區"
"243016","680-BX","2018/03/19 19:49:10","新北市泰山區中山路三段114號","121.418033333333","25.0321166666667","6501600","泰山區"
"222003","436-BY","2018/03/19 19:49:12","新北市深坑區深南路51-1號","121.62119","25.00997","6501800","深坑區"
"222002","659-BX","2018/03/19 19:49:13","新北市深坑區北深路一段300號","121.624321666667","25.0058033333333","6501800","深坑區"
"231041","002-UM","2018/03/19 19:49:08","新北市新店區中央路224號","121.529711666667","24.972875","6500600","新店區"
"231059","046-UY","2018/03/19 19:49:15","新北市新店區安和路一段9號","121.516786666667","24.9640366666667","6500600","新店區"
"231061","047-UY","2018/03/19 19:49:13","新北市新店區安民街290號","121.517613333333","24.9733083333333","6500600","新店區"
"231060","106-UY","2018/03/19 19:49:12","新北市新店區安康路二段161號","121.510128333333","24.95931","6500600","新店區"
"231051","107-UY","2018/03/19 19:49:04","新北市新店區中央三街55號","121.527325","24.9747483333333","6500600","新店區"
"231052","187-VK","2018/03/19 19:49:16","新北市新店區新烏路三段112號","121.552876666667","24.9034616666667","6500600","新店區"
"231050","KEA-2219","2018/03/19 19:48:13","新北市新店區北宜路二段579巷6號","121.565268333333","24.9544933333333","6500600","新店區"
"221015","KEA-2785","2018/03/19 19:49:08","新北市汐止區茄苳路43號","121.66582","25.07094","6501100","汐止區"
"231057","256-BX","2018/03/19 19:49:05","新北市新店區梅崗一路10號","121.555985","24.931365","6500600","新店區"
"231046","278-BY","2018/03/19 19:49:11","新北市新店區三民路159巷19弄40號","121.532233333333","24.9733133333333","6500600","新店區"
"231054","AAD-862","2018/03/19 19:49:21","新北市新店區光明街53號","121.538718333333","24.9601716666667","6500600","新店區"
"231058","3712-VJ","2018/03/19 19:49:14","新北市新店區安和路三段4巷1-3號","121.518241666667","24.980565","6500600","新店區"
"231067","4772-VM","2018/03/19 19:49:11","新北市新店區精忠路10-1號","121.532668333333","24.959085","6500600","新店區"
"231065","512-UM","2018/03/19 19:49:22","新北市新店區安祥路109巷149號","121.4776","24.9585433333333","6500600","新店區"
"231049","513-UM","2018/03/19 19:49:15","新北市新店區民權路127巷15號","121.535678333333","24.9817","6500600","新店區"
"231064","515-UM","2018/03/19 19:49:02","新北市新店區安和路二段111號","121.51878","24.97009","6500600","新店區"
"231045","617-UM","2018/03/19 19:49:12","新北市新店區北宜路二段382號","121.564475","24.9529133333333","6500600","新店區"
"231040","619-UM","2018/03/19 19:49:15","新北市新店區北新路一段96巷23號","121.54304","24.9688233333333","6500600","新店區"
"231042","641-BX","2018/03/19 19:49:04","新北市新店區中興路一段268-2號","121.54512","24.9678783333333","6500600","新店區"
"231063","645-TV","2018/03/19 19:49:07","新北市新店區黎明路3號","121.50353","24.9524416666667","6500600","新店區"
"231068","718-UY","2018/03/19 19:49:11","新北市新店區安華路28-1號","121.51929","24.96118","6500600","新店區"
"231047","719-UY","2018/03/19 19:49:06","新北市新店區中興路二段100巷1號","121.547645","24.9715133333333","6500600","新店區"
"231062","720-UM","2018/03/19 19:49:10","新北市新店區永業路103號","121.528698333333","24.94852","6500600","新店區"
"231044","897-TW","2018/03/19 19:49:14","新北市新店區復興路44-2號","121.538541666667","24.9867333333333","6500600","新店區"
"231043","899-TW","2018/03/19 19:49:15","新北市新店區中正路213號","121.539825","24.9728416666667","6500600","新店區"
"231066","AKT-0513","2018/03/19 19:49:20","新北市新店區薏仁坑路自強巷6號","121.496448333333","24.9585016666667","6500600","新店區"
"241011","013-R5","2018/03/19 19:49:09","新北市三重區介壽路20號","121.498535","25.0700466666667","6500200","三重區"
"241028","022-UY","2018/03/19 19:49:09","新北市三重區中正南路158號","121.494091666667","25.0572216666667","6500200","三重區"
"241008","059-VK","2018/03/19 19:49:11","新北市三重區永福街147-7號","121.478681666667","25.0762666666667","6500200","三重區"
"241009","060-VK","2018/03/19 19:49:10","新北市三重區三和路四段396巷29號","121.480213333333","25.0789133333333","6500200","三重區"
"241031","061-VK","2018/03/19 19:49:05","新北市三重區重新路四段248號","121.48612","25.0535083333333","6500200","三重區"
"241015","062-VK","2018/03/19 19:49:03","新北市三重區三和路一段7號","121.503963333333","25.06447","6500200","三重區"
"241017","063-VK","2018/03/19 19:49:15","新北市三重區重陽路三段5巷8弄29號","121.489573333333","25.06659","6500200","三重區"
"241024","065-VK","2018/03/19 19:49:18","新北市三重區國道路一段58巷15號","121.481393333333","25.0720433333333","6500200","三重區"
"241026","066-VK","2018/03/19 19:49:07","新北市三重區文化南路42號","121.50041","25.0602533333333","6500200","三重區"
"241003","091-VK","2018/03/19 19:49:21","新北市三重區五華街93巷16號","121.492556666667","25.0840916666667","6500200","三重區"
"241005","262-UM","2018/03/19 19:49:14","新北市三重區溪尾街307號","121.487606666667","25.0839216666667","6500200","三重區"
"241016","265-UM","2018/03/19 19:49:08","新北市三重區正德街43號","121.495773333333","25.0627366666667","6500200","三重區"
"241022","267-UM","2018/03/19 19:49:10","新北市三重區新北大道一段7號","121.489665","25.0615083333333","6500200","三重區"
"241018","268-UM","2018/03/19 19:49:10","新北市三重區雙園街57巷34弄13號","121.494095","25.0683083333333","6500200","三重區"
"241032","269-UM","2018/03/19 19:49:17","新北市三重區重陽路一段44巷9號","121.486025","25.0577966666667","6500200","三重區"
"241013","270-UM","2018/03/19 19:49:17","新北市三重區仁愛街92巷13號","121.494768333333","25.0738683333333","6500200","三重區"
"241025","271-UM","2018/03/19 19:49:15","新北市三重區忠孝路三段52號","121.480668333333","25.065655","6500200","三重區"
"241007","398-BY","2018/03/19 19:49:07","新北市三重區三和路四段133號","121.484571666667","25.07798","6500200","三重區"
"241020","413-TH","2018/03/19 19:49:11","新北市三重區三和路四段12號","121.491485","25.0739183333333","6500200","三重區"
"241035","462-BY","2018/03/19 19:49:08","新北市三重區文化北路25號","121.499601666667","25.06379","6500200","三重區"
"241004","475-VK","2018/03/19 19:49:06","新北市三重區五華街74號","121.493408333333","25.082025","6500200","三重區"
"241001","478-VK","2018/03/19 19:49:21","新北市三重區仁愛街327巷45-1號","121.493283333333","25.080135","6500200","三重區"
"241030","480-VK","2018/03/19 19:49:03","新北市三重區環河南路254巷22-1號","121.490378333333","25.0509816666667","6500200","三重區"
"241014","543-UM","2018/03/19 19:49:01","新北市三重區長安街77號","121.501671666667","25.0673816666667","6500200","三重區"
"241023","545-UM","2018/03/19 19:49:17","新北市三重區頂崁街172號","121.477605","25.0659416666667","6500200","三重區"
"241019","KEA-2593","2018/03/19 19:49:09","新北市三重區自強路二段74巷25號","121.487768333333","25.069615","6500200","三重區"
"241006","AAD-863","2018/03/19 19:49:12","新北市三重區力行路二段51號","121.482291666667","25.0743366666667","6500200","三重區"
"241012","941-UM","2018/03/19 19:49:14","新北市三重區仁興街56巷52號","121.497953333333","25.075395","6500200","三重區"
"241029","942-UM","2018/03/19 19:49:20","新北市三重區光明路25號","121.4912","25.05854","6500200","三重區"
"241033","AAC-255","2018/03/19 19:49:20","新北市三重區中興南街66號","121.47064","25.0440016666667","6500200","三重區"
"235066","003-UY","2018/03/19 19:49:04","新北市中和區南工路56號","121.506016666667","25.0016","6500300","中和區"
"235064","005-UY","2018/03/19 19:49:14","新北市中和區南山路127巷30弄2號","121.50374","24.9975133333333","6500300","中和區"
"235063","006-UY","2018/03/19 19:49:06","新北市中和區連城路263巷7弄2號","121.492246666667","24.9957933333333","6500300","中和區"
"235056","096-UM","2018/03/19 19:49:11","新北市中和區中山路三段114巷46號","121.475838333333","25.007295","6500300","中和區"
"235039","097-UM","2018/03/19 19:49:12","新北市中和區景平路172號","121.51706","24.992595","6500300","中和區"
"235065","098-UM","2018/03/19 19:49:08","新北市中和區福祥路90巷7弄5號","121.499463333333","25.00611","6500300","中和區"
"235040","150-BY","2018/03/19 19:49:02","新北市中和區安和路39號","121.509771666667","24.9946416666667","6500300","中和區"
"235058","151-BY","2018/03/19 19:49:06","新北市中和區員山路146-1號","121.481371666667","24.9968316666667","6500300","中和區"
"235055","183-VK","2018/03/19 19:49:10","新北市中和區德光路17號","121.471121666667","25.004415","6500300","中和區"
"235049","186-VK","2018/03/19 19:49:17","新北市中和區中正路76號","121.500756666667","24.99375","6500300","中和區"
"235067","255-BX","2018/03/19 19:49:02","新北市中和區新生街220巷1弄4號","121.483293333333","24.9982066666667","6500300","中和區"
"235044","293-VK","2018/03/19 19:49:06","新北市中和區南山路325-1號","121.505273333333","24.99103","6500300","中和區"
"235043","352-BY","2018/03/19 19:49:23","新北市中和區興南路二段159巷26號","121.505478333333","24.9826","6500300","中和區"
"235068","377-QA","2018/03/19 19:49:14","新北市中和區莊敬路1-6號","121.49952","25.00435","6500300","中和區"
"235061","378-QA","2018/03/19 19:49:11","新北市中和區員山路174巷12號","121.482155","24.9999133333333","6500300","中和區"
"235071","269-TV","2018/03/19 19:49:18","新北市中和區立德街200巷23號","121.485333333333","25.0099666666667","6500300","中和區"
"235050","4979-A6","2018/03/19 19:49:14","新北市中和區景平路241巷84弄54號","121.506106666667","24.99236","6500300","中和區"
"235042","551-UM","2018/03/19 19:49:05","新北市中和區景安路79巷37弄18號","121.507996666667","24.996235","6500300","中和區"
"235034","558-UM","2018/03/19 19:49:16","新北市中和區連勝街59號","121.49754","24.99711","6500300","中和區"
"235054","640-BX","2018/03/19 19:49:11","新北市中和區莒光路63-1號","121.472235","25.004175","6500300","中和區"
"235060","647-TV","2018/03/19 19:49:04","新北市中和區員山路372號","121.480741666667","25.0040733333333","6500300","中和區"
"235047","732-UM","2018/03/19 19:49:10","新北市中和區和平街23號","121.508136666667","24.9908633333333","6500300","中和區"
"235046","733-UM","2018/03/19 19:49:09","新北市中和區仁愛街63號","121.511498333333","24.9877016666667","6500300","中和區"
"235057","801-TS","2018/03/19 19:49:09","新北市中和區員山路257號","121.481266666667","24.9989166666667","6500300","中和區"
"235041","802-TS","2018/03/19 19:49:07","新北市中和區永貞路239巷17號","121.512596666667","25.0031216666667","6500300","中和區"
"235052","805-TS","2018/03/19 19:49:13","新北市中和區興南路二段79巷5號","121.506721666667","24.9847483333333","6500300","中和區"
"235048","896-TW","2018/03/19 19:49:05","新北市中和區興南路一段147號","121.50859","24.9873866666667","6500300","中和區"
"235053","900-TW","2018/03/19 19:49:23","新北市中和區國光街189巷24號","121.467705","25.000835","6500300","中和區"
"235051","157-BY","2018/03/19 19:49:03","新北市中和區中興街132巷24號","121.49878","24.99178","6500300","中和區"
"235037","AAC-213","2018/03/19 19:49:05","新北市中和區自立路76號","121.524033333333","24.9913066666667","6500300","中和區"
"235059","AAC-215","2018/03/19 19:49:19","新北市中和區圓通路305巷17號","121.49451","24.9892216666667","6500300","中和區"
"220068","013-TV","2018/03/19 19:49:09","新北市板橋區中山路二段412巷15號","121.48336","25.02042","6500100","板橋區"
"220086","073-UY","2018/03/19 19:49:22","新北市板橋區西門街18-5號","121.454385","25.011205","6500100","板橋區"
"220069","AAD-861","2018/03/19 19:49:18","新北市板橋區貴興路101號","121.456328333333","25.00168","6500100","板橋區"
"247014","546-UM","2018/03/19 19:49:03","新北市蘆洲區中央路93號","121.472566666667","25.0841883333333","6501400","蘆洲區"
"247004","337-TH","2018/03/19 19:49:05","新北市蘆洲區中原路47號","121.459323333333","25.08233","6501400","蘆洲區"
"247006","336-TH","2018/03/19 19:49:17","新北市蘆洲區永安南路二段14號","121.467373333333","25.077015","6501400","蘆洲區"
"247008","056-VK","2018/03/19 19:49:17","新北市蘆洲區信義路123號","121.478705","25.0801083333333","6501400","蘆洲區"
"247002","002-UY","2018/03/19 19:49:14","新北市蘆洲區永平街20號","121.459111666667","25.0906883333333","6501400","蘆洲區"
"226004","312-R5","2018/03/19 19:49:11","新北市平溪區南山里南山坪94號","121.776848333333","25.0410616666667","6502400","平溪區"
"228003","097-TW","2018/03/19 19:49:14","新北市貢寮區真理里美艷山街3-1號","121.925696666667","25.0596133333333","6502600","貢寮區"
"228001","670-TC","2018/03/19 19:49:10","新北市貢寮區真理里新港街113-1號","121.926548333333","25.05665","6502600","貢寮區"
"224010","AGQ-8101","2018/03/19 19:49:03","新北市瑞芳區基山街3號","121.84519","25.109785","6501200","瑞芳區"
"224002","639-TC","2018/03/19 19:49:04","新北市瑞芳區員山子路員山巷23-1號","121.816911666667","25.104495","6501200","瑞芳區"
"227008","642-TC","2018/03/19 19:49:13","新北市雙溪區新基里中華路84號","121.865856666667","25.0384766666667","6502500","雙溪區"
"227001","400-TW","2018/03/19 19:49:06","新北市雙溪區雙溪里內挖路47號","121.863203333333","25.0367916666667","6502500","雙溪區"
"222001","KEA-2212","2018/03/19 19:49:17","新北市深坑區北深路三段68號","121.607881666667","25.0013816666667","6501800","深坑區"
"208002","KEA-2872","2018/03/19 19:49:13","新北市金山區中正路4號","121.635566666667","25.22246","6502700","金山區"
"208003","665-BX","2018/03/19 19:49:07","新北市金山區中正路136號","121.631796666667","25.2215483333333","6502700","金山區"
"208001","761-BX","2018/03/19 19:49:05","新北市金山區重和里六股林口37號","121.602603333333","25.2193083333333","6502700","金山區"
"251009","008-UM","2018/03/19 19:49:04","新北市淡水區中正路38-1號","121.443713333333","25.16927","6501000","淡水區"
"251004","009-UM","2018/03/19 19:49:19","新北市淡水區民權路177巷53號","121.460618333333","25.133855","6501000","淡水區"
"251005","010-UM","2018/03/19 19:49:01","新北市淡水區中山路124號","121.442023333333","25.1709566666667","6501000","淡水區"
"251001","011-UM","2018/03/19 19:49:17","新北市淡水區中正東路二段63號","121.459451666667","25.1550316666667","6501000","淡水區"
"251002","012-UM","2018/03/19 19:49:20","新北市淡水區沙崙路二段112號","121.432288333333","25.1955583333333","6501000","淡水區"
"251013","179-VK","2018/03/19 19:49:03","新北市淡水區頂田寮1-3號","121.457488333333","25.2149833333333","6501000","淡水區"
"251014","180-VK","2018/03/19 19:49:20","新北市淡水區番社前1-7號","121.468353333333","25.2364983333333","6501000","淡水區"
"251008","181-VK","2018/03/19 19:49:03","新北市淡水區中正路二段24巷2-1號","121.426771666667","25.1769733333333","6501000","淡水區"
"251015","182-VK","2018/03/19 19:49:13","新北市淡水區泉洲厝25-8號","121.48403","25.1898833333333","6501000","淡水區"
"251012","441-VK","2018/03/19 19:49:23","新北市淡水區埤島6-10號","121.446153333333","25.19425","6501000","淡水區"
"251016","442-VK","2018/03/19 19:49:12","新北市淡水區三塊厝3-3號","121.456623333333","25.2097533333333","6501000","淡水區"
"251006","561-UM","2018/03/19 19:48:54","新北市淡水區水碓街15號","121.443498333333","25.17694","6501000","淡水區"
"251007","577-R6","2018/03/19 19:49:09","新北市淡水區竿蓁一街53號","121.452928333333","25.16639","6501000","淡水區"
"251011","650-BX","2018/03/19 19:49:08","新北市淡水區淡金路二段147號","121.449746666667","25.1828716666667","6501000","淡水區"
"207003","550-UM","2018/03/19 19:49:18","新北市萬里區大鵬里萬里加投239號","121.642476666667","25.2166616666667","6502800","萬里區"
"207004","225-TW","2018/03/19 19:49:10","新北市萬里區萬里里瑪鋉路160號","121.690101666667","25.179645","6502800","萬里區"
"252002","178-VK","2018/03/19 19:49:14","新北市三芝區三民街29號","121.504531666667","25.2585766666667","6502100","三芝區"
"252001","292-VK","2018/03/19 19:49:04","新北市三芝區公正街66號","121.49977","25.2574733333333","6502100","三芝區"
"237004","KEA-2597","2018/03/19 19:49:15","新北市三峽區添福278號","121.375656666667","24.8927333333333","6500900","三峽區"
"237007","153-BY","2018/03/19 19:49:10","新北市三峽區二鬮路136巷20弄9號","121.356553333333","24.9101533333333","6500900","三峽區"
"237009","210-TH","2018/03/19 19:49:08","新北市三峽區中園街69號","121.368078333333","24.9255633333333","6500900","三峽區"
"237013","252-BX","2018/03/19 19:49:18","新北市三峽區橫溪路74號","121.39734","24.9352683333333","6500900","三峽區"
"237012","275-BY","2018/03/19 19:49:04","新北市三峽區中華路26號","121.373896666667","24.9323233333333","6500900","三峽區"
"237008","302-VK","2018/03/19 19:49:18","新北市三峽區大同路192號","121.371476666667","24.9270233333333","6500900","三峽區"
"237014","433-BY","2018/03/19 19:49:16","新北市三峽區添福141號","121.375325","24.9009733333333","6500900","三峽區"
"237006","5529-G3","2018/03/19 19:49:10","新北市三峽區中正路一段328-6號","121.370866666667","24.92481","6500900","三峽區"
"237005","AKY-6261","2018/03/19 19:49:16","新北市三峽區和平街51號","121.37032","24.9358616666667","6500900","三峽區"
"236069","105-UM","2018/03/19 19:49:08","新北市土城區中央路二段192巷3號","121.44132","24.9759216666667","6501300","土城區"
"236042","107-UM","2018/03/19 19:49:06","新北市土城區金城路二段210號","121.455518333333","24.9820766666667","6501300","土城區"
"236078","166-UM","2018/03/19 19:49:19","新北市土城區溪頭路58巷2號","121.411995","24.9550333333333","6501300","土城區"
"236030","253-BX","2018/03/19 19:49:10","新北市土城區中央路一段290號","121.443328333333","24.9824266666667","6501300","土城區"
"236026","269-VK","2018/03/19 19:49:15","新北市土城區中央路二段61巷26號","121.443381666667","24.978785","6501300","土城區"
"236036","271-VK","2018/03/19 19:49:14","新北市土城區國際路158巷32號","121.468261666667","24.9755933333333","6501300","土城區"
"236020","401-BY","2018/03/19 19:49:14","新北市土城區明峰街83號","121.468976666667","24.9873433333333","6501300","土城區"
"236058","912-UM","2018/03/19 19:49:07","新北市土城區中央路一段301號","121.443965","24.98363","6501300","土城區"
"236048","913-UM","2018/03/19 19:49:08","新北市土城區青雲路285號","121.459075","24.9800683333333","6501300","土城區"
"236062","915-UM","2018/03/19 19:49:01","新北市土城區延和路105巷7弄1號","121.467215","24.991405","6501300","土城區"
"236053","AAC-216","2018/03/19 19:49:10","新北市土城區延和路103號","121.4676","24.990145","6501300","土城區"
"242034","AAC-296","2018/03/19 19:49:17","新北市新莊區仁愛街54巷1號","121.444905","25.037155","6500500","新莊區"
"242058","986-R7","2018/03/19 19:49:15","新北市新莊區八德街17號","121.425235","25.0226233333333","6500500","新莊區"
"242029","705-TV","2018/03/19 19:49:06","新北市新莊區中平路254號","121.444893333333","25.049365","6500500","新莊區"
"242025","613-BX","2018/03/19 19:49:10","新北市新莊區五權一路12巷9弄6號","121.457621666667","25.0646483333333","6500500","新莊區"
"242046","497-BY","2018/03/19 19:49:07","新北市新莊區裕民街19巷4號","121.41963","25.025215","6500500","新莊區"
"242056","440-UM","2018/03/19 19:49:00","新北市新莊區新莊路457號","121.44958","25.0333733333333","6500500","新莊區"
"242036","415-TV","2018/03/19 19:49:18","新北市新莊區民安路207巷30弄1-1號","121.427733333333","25.0237966666667","6500500","新莊區"
"242044","400-BY","2018/03/19 19:49:04","新北市三重區新北大道六段52號","121.428813333333","25.039465","6500500","新莊區"
"242023","362-BY","2018/03/19 19:49:02","新北市新莊區化成路146號","121.465491666667","25.0448533333333","6500500","新莊區"
"242039","133-UY","2018/03/19 19:49:08","新北市新莊區民安路299巷14號","121.429396666667","25.0229183333333","6500500","新莊區"
"242031","135-UY","2018/03/19 19:49:15","新北市新莊區忠孝街47號","121.443915","25.0359616666667","6500500","新莊區"
"242048","172-VK","2018/03/19 19:49:06","新北市新莊區建安街76巷1弄12號","121.426001666667","25.0245583333333","6500500","新莊區"
"242004","176-VK","2018/03/19 19:49:08","新北市新莊區化成路63巷24弄15號","121.462711666667","25.0459733333333","6500500","新莊區"
"242021","348-TH","2018/03/19 19:49:04","新北市新莊區新泰路105號","121.448988333333","25.0350516666667","6500500","新莊區"
"242013","351-TH","2018/03/19 19:49:13","新北市新莊區中誠街74號","121.450556666667","25.0478966666667","6500500","新莊區"
"238015","755-BX","2018/03/19 19:49:13","新北市樹林區樹德街35號","121.421385","24.9917316666667","6500700","樹林區"
"238023","601-UM","2018/03/19 19:49:04","新北市樹林區三寶街3號","121.406501666667","25.0158066666667","6500700","樹林區"
"238018","571-TV","2018/03/19 19:48:54","新北市樹林區育德街78-1號","121.387345","24.96816","6500700","樹林區"
"238021","KEA-2539","2018/03/19 19:49:18","新北市樹林區佳園路三段219巷41號","121.388181666667","24.9458816666667","6500700","樹林區"
"238020","268-VK","2018/03/19 19:49:16","新北市樹林區八德街672號","121.395746666667","24.9688966666667","6500700","樹林區"
"239006","891-R6","2018/03/19 19:49:12","新北市鶯歌區尖山埔路133號","121.346645","24.95112","6500800","鶯歌區"
"239004","193-VK","2018/03/19 19:49:02","新北市鶯歌區二甲路83-4號","121.339601666667","24.9326966666667","6500800","鶯歌區"
"221008","489-VK","2018/03/19 19:49:02","新北市汐止區康寧街141巷5號","121.621385","25.06724","6501100","汐止區"
"221036","130-UY","2018/03/19 19:49:05","新北市汐止區汐萬路一段39號","121.655086666667","25.069135","6501100","汐止區"
"221010","269-BY","2018/03/19 19:49:16","新北市汐止區汐萬路一段351號","121.65014","25.0772183333333","6501100","汐止區"
"221012","278-VK","2018/03/19 19:49:02","新北市汐止區保長路271巷2號","121.68093","25.0743183333333","6501100","汐止區"
"221023","279-VK","2018/03/19 19:49:20","新北市汐止區民族三街42號","121.62961","25.0701183333333","6501100","汐止區"
"221032","280-BY","2018/03/19 19:49:13","新北市汐止區新台五路一段76號","121.643678333333","25.0597816666667","6501100","汐止區"
"221027","281-BY","2018/03/19 19:49:06","新北市汐止區南昌街25號","121.663233333333","25.0693166666667","6501100","汐止區"
"221029","298-VK","2018/03/19 19:49:11","新北市汐止區康寧街901號","121.651021666667","25.0751833333333","6501100","汐止區"
"221021","299-VK","2018/03/19 19:49:09","新北市汐止區莊敬街29巷5號","121.657218333333","25.0609233333333","6501100","汐止區"
"221031","353-TW","2018/03/19 19:49:04","新北市汐止區福德二路16巷14-1號","121.635726666667","25.0687283333333","6501100","汐止區"
"221035","622-UM","2018/03/19 19:49:23","新北市汐止區長江街13巷4號","121.654873333333","25.0713833333333","6501100","汐止區"
"221025","623-UM","2018/03/19 19:49:14","新北市汐止區秀峰路81巷15弄2號","121.660746666667","25.0644216666667","6501100","汐止區"
"221038","646-BX","2018/03/19 19:49:17","新北市汐止區忠孝東路413號","121.665791666667","25.07132","6501100","汐止區"
"221033","647-BX","2018/03/19 19:49:17","新北市汐止區東勢街76巷100-1號","121.636401666667","25.0390366666667","6501100","汐止區"
"220079","145-BY","2018/03/19 19:49:06","新北市板橋區中正路183巷48號","121.454946666667","25.01597","6500100","板橋區"
"220080","200-UY","2018/03/19 19:49:15","新北市板橋區大觀路二段37巷290號","121.449991666667","25.0016433333333","6500100","板橋區"
"220106","KEA-2550","2018/03/19 19:49:08","新北市板橋區民治街57巷24弄7號","121.48041","25.0337016666667","6500100","板橋區"
"220082","610-BX","2018/03/19 19:49:07","新北市板橋區溪北路58號","121.42769","24.9898083333333","6500100","板橋區"
"220101","245-BX","2018/03/19 19:49:11","新北市板橋區縣民大道三段93巷23號","121.474783333333","25.0223833333333","6500100","板橋區"
"220056","276-BY","2018/03/19 19:49:01","新北市板橋區四川路二段99巷4弄2號","121.45285","24.9942366666667","6500100","板橋區"
"220072","277-BY","2018/03/19 19:49:17","新北市板橋區金門街215巷85弄5號","121.433891666667","24.988935","6500100","板橋區"
"220094","280-UM","2018/03/19 19:49:19","新北市板橋區長江路一段371號","121.46167","25.0305883333333","6500100","板橋區"
"220064","282-UM","2018/03/19 19:49:14","新北市板橋區館前東路98號","121.462358333333","25.0074933333333","6500100","板橋區"
"220071","283-VK","2018/03/19 19:49:19","新北市板橋區信義路279巷23號","121.465131666667","24.9904233333333","6500100","板橋區"
"220053","285-VK","2018/03/19 19:49:09","新北市板橋區中山路二段60巷11號","121.474286666667","25.015275","6500100","板橋區"
"220083","286-VK","2018/03/19 19:49:11","新北市板橋區僑中二街126巷2號","121.445365","25.0052733333333","6500100","板橋區"
"220081","287-VK","2018/03/19 19:49:18","新北市板橋區大觀路一段29巷53號","121.450391666667","25.0071333333333","6500100","板橋區"
"220090","288-VK","2018/03/19 19:49:08","新北市板橋區龍泉街54巷7弄2號","121.456795","25.0266266666667","6500100","板橋區"
"220061","293-UM","2018/03/19 19:49:05","新北市板橋區漢生東路113巷11號","121.467721666667","25.0154933333333","6500100","板橋區"
"220084","296-UM","2018/03/19 19:49:05","新北市板橋區溪崑二街114號","121.426393333333","24.9884133333333","6500100","板橋區"
"242011","281-VK","2018/03/19 19:49:21","新北市新莊區中和街195號","121.448056666667","25.0521566666667","6500500","新莊區"
"220075","303-R5","2018/03/19 19:49:17","新北市板橋區金華街8巷1號","121.455706666667","25.0201816666667","6500100","板橋區"
"220062","305-R5","2018/03/19 19:49:17","新北市板橋區三民路二段81巷27弄31號","121.48135","25.0176383333333","6500100","板橋區"
"220092","307-R5","2018/03/19 19:49:11","新北市板橋區四維路134號","121.465121666667","25.02533","6500100","板橋區"
"220098","317-R6","2018/03/19 19:49:11","新北市板橋區四維路269巷92號","121.459581666667","25.0266233333333","6500100","板橋區"
"220089","487-VK","2018/03/19 19:49:10","新北市板橋區綠堤街39-4號","121.455303333333","25.0263683333333","6500100","板橋區"
"242019","280-VK","2018/03/19 19:49:08","新北市新莊區明智街21巷2號","121.453931666667","25.0413333333333","6500500","新莊區"
"220088","491-VK","2018/03/19 19:49:18","新北市板橋區大同街61號","121.47914","25.0278716666667","6500100","板橋區"
"220035","560-BX","2018/03/19 19:49:12","新北市板橋區金華街47號","121.456726666667","25.0204566666667","6500100","板橋區"
"220103","561-BX","2018/03/19 19:49:10","新北市板橋區陽明街29巷10號","121.464843333333","25.0219483333333","6500100","板橋區"
"220065","568-UM","2018/03/19 19:49:02","新北市板橋區民族路278號","121.470001666667","25.006905","6500100","板橋區"
"220063","609-BX","2018/03/19 19:49:16","新北市板橋區三民路一段89號","121.479618333333","25.0219583333333","6500100","板橋區"
"220091","637-BX","2018/03/19 19:49:16","新北市板橋區民治街99號","121.479245","25.0316133333333","6500100","板橋區"
"220057","686-BX","2018/03/19 19:49:09","新北市板橋區廣和街75巷2號","121.46266","24.9924733333333","6500100","板橋區"
"220077","687-BX","2018/03/19 19:49:04","新北市板橋區僑中一街102巷5弄16號","121.44601","25.0128266666667","6500100","板橋區"
"220093","689-BX","2018/03/19 19:49:14","新北市板橋區長江路二段211號","121.467841666667","25.0324416666667","6500100","板橋區"
"220054","741-BX","2018/03/19 19:49:02","新北市板橋區忠孝路忠義巷15弄106號","121.465318333333","25.0059733333333","6500100","板橋區"
"220102","KEA-2699","2018/03/19 19:49:15","新北市板橋區松柏街57-4號","121.475721666667","25.0303416666667","6500100","板橋區"
"220055","827-TW","2018/03/19 19:49:05","新北市板橋區國慶路49巷3號","121.459608333333","24.9958683333333","6500100","板橋區"
"220067","829-TW","2018/03/19 19:49:16","新北市板橋區長安街255巷40號","121.472491666667","25.0112533333333","6500100","板橋區"
"220096","831-TW","2018/03/19 19:49:13","新北市板橋區民生路二段240巷50號","121.469626666667","25.0228483333333","6500100","板橋區"
"220074","895-R6","2018/03/19 19:49:06","新北市板橋區大東街46號","121.456373333333","25.0084133333333","6500100","板橋區"
"220073","985-R7","2018/03/19 19:49:05","新北市板橋區大仁街27-2號","121.455476666667","25.0168183333333","6500100","板橋區"
"220097","AAC-210","2018/03/19 19:49:20","新北市板橋區漢生西路87號","121.462381666667","25.0194533333333","6500100","板橋區"
"220070","AAC-253","2018/03/19 19:49:14","新北市板橋區民族路83號","121.465691666667","25.0085783333333","6500100","板橋區"
