"lineid","car","time","location","longitude","latitude","cityid","cityname"
"234046","148-BY","2018/03/19 19:59:33","新北市永和區林森路62號","121.52399","25.004125","6500400","永和區"
"234007","207-UY","2018/03/19 19:59:36","新北市永和區保生路22巷17號","121.507061666667","25.0082283333333","6500400","永和區"
"234081","298-R6","2018/03/19 19:59:34","新北市永和區國中路53號","121.524573333333","25.00607","6500400","永和區"
"234038","336-UY","2018/03/19 19:59:38","新北市永和區成功路二段177-1號","121.526616666667","24.996745","6500400","永和區"
"234064","337-UY","2018/03/19 19:59:32","新北市永和區中正路368巷1弄47號","121.51921","25.00126","6500400","永和區"
"234086","338-UY","2018/03/19 19:59:35","新北市永和區福和路188號","121.520251666667","25.0077616666667","6500400","永和區"
"234070","552-UM","2018/03/19 19:59:25","新北市永和區國光路6號","121.519806666667","25.00846","6500400","永和區"
"234017","745-BX","2018/03/19 19:59:34","新北市永和區文化路39號","121.514578333333","25.0150416666667","6500400","永和區"
"234030","746-BX","2018/03/19 19:59:41","新北市永和區民生路22巷9號","121.521905","24.9971966666667","6500400","永和區"
"234054","KEA-2590","2018/03/19 19:59:38","新北市永和區環河東路一段122號","121.5206","25.0154466666667","6500400","永和區"
"234013","KEA-2591","2018/03/19 19:59:41","新北市永和區保生路55號","121.504723333333","25.01057","6500400","永和區"
"234061","AAD-866","2018/03/19 19:59:27","新北市永和區得和路68號","121.516305","24.9999066666667","6500400","永和區"
"234042","862-TW","2018/03/19 19:59:32","新北市永和區雙和街17巷18號","121.509015","25.0015333333333","6500400","永和區"
"234050","863-TW","2018/03/19 19:59:34","新北市永和區保安路151號","121.50688","25.0130883333333","6500400","永和區"
"234026","9371-KE","2018/03/19 19:59:41","新北市永和區水源街21巷14弄4號","121.511386666667","25.003805","6500400","永和區"
"234011","9373-KE","2018/03/19 19:59:23","新北市永和區仁愛路352巷112弄15號","121.501073333333","25.0086583333333","6500400","永和區"
"249005","172-UM","2018/03/19 19:59:25","新北市八里區楓林路4號","121.3819","25.1300366666667","6502300","八里區"
"249001","173-UM","2018/03/19 19:59:25","新北市八里區中華路二段310號","121.403831666667","25.1483566666667","6502300","八里區"
"249004","303-UY","2018/03/19 19:50:24","新北市八里區中山路一段268巷5弄8號","121.414621666667","25.1607883333333","6502300","八里區"
"249002","305-UY","2018/03/19 19:59:32","新北市八里區頂寮二街2號","121.451091666667","25.123925","6502300","八里區"
"249003","593-UM","2018/03/19 19:59:33","新北市八里區中華路二段538-3號","121.398898333333","25.145085","6502300","八里區"
"248016","026-BX","2018/03/19 19:59:36","新北市五股區成泰路三段577巷80弄40號","121.449753333333","25.1048866666667","6501500","五股區"
"248008","095-VK","2018/03/19 19:59:28","新北市五股區四維路32號","121.467636666667","25.0715","6501500","五股區"
"248018","225-UY","2018/03/19 19:59:38","新北市五股區登林路118-1號","121.417426666667","25.0746616666667","6501500","五股區"
"248012","247-BX","2018/03/19 19:59:28","新北市五股區民義路一段84號","121.436031666667","25.0849216666667","6501500","五股區"
"248014","261-SL","2018/03/19 19:59:33","新北市五股區五福路14巷7號","121.434761666667","25.088765","6501500","五股區"
"248004","677-BX","2018/03/19 19:59:23","新北市五股區成泰路一段32巷62號","121.434983333333","25.06696","6501500","五股區"
"248002","678-BX","2018/03/19 19:59:35","新北市五股區成泰路三段487號","121.450755","25.0993083333333","6501500","五股區"
"248010","682-TV","2018/03/19 19:59:38","新北市五股區登林路92號","121.428888333333","25.0693716666667","6501500","五股區"
"234023","9380-KE","2018/03/19 19:59:22","新北市永和區中正路696-1號","121.51643","25.0098066666667","6500400","永和區"
"234077","969-R7","2018/03/19 19:59:43","新北市永和區民有街28號","121.516926666667","24.99634","6500400","永和區"
"234074","AAC-211","2018/03/19 19:59:26","新北市永和區福和路12巷20號","121.524088333333","25.0094016666667","6500400","永和區"
"234067","AAC-212","2018/03/19 19:59:27","新北市永和區永貞路376號","121.509873333333","25.0069016666667","6500400","永和區"
"234003","AAC-295","2018/03/19 19:59:34","新北市永和區永和路二段35號","121.514485","25.0103466666667","6500400","永和區"
"243012","AAD-798","2018/03/19 19:59:39","新北市泰山區福興一街65號","121.43276","25.0581816666667","6501600","泰山區"
"243011","297-R6","2018/03/19 19:59:41","新北市泰山區明志路三段182巷30號","121.423358333333","25.0394083333333","6501600","泰山區"
"243015","380-SR","2018/03/19 19:59:27","新北市泰山區明志路二段214巷9號","121.426815","25.0488583333333","6501600","泰山區"
"243014","421-VK","2018/03/19 19:59:43","新北市泰山區泰林路二段146號","121.43419","25.059925","6501600","泰山區"
"243010","KEA-2215","2018/03/19 19:59:42","新北市泰山區中華街10巷2號","121.428163333333","25.0524216666667","6501600","泰山區"
"243009","KEA-2216","2018/03/19 19:59:24","新北市泰山區泰林路二段164巷25號","121.434446666667","25.0610883333333","6501600","泰山區"
"243013","646-TV","2018/03/19 19:55:57","新北市泰山區應化街13號","121.42384","25.0436916666667","6501600","泰山區"
"243016","680-BX","2018/03/19 19:59:30","新北市泰山區新北大道六段369號","121.42248","25.0328666666667","6501600","泰山區"
"222003","436-BY","2018/03/19 19:59:32","新北市深坑區埔新街14號","121.620738333333","25.0039133333333","6501800","深坑區"
"222002","659-BX","2018/03/19 19:59:33","新北市深坑區北深路二段81巷8弄3號","121.618258333333","25.0030766666667","6501800","深坑區"
"231041","002-UM","2018/03/19 19:59:27","新北市新店區中正路331-1號","121.536071666667","24.9752766666667","6500600","新店區"
"231059","046-UY","2018/03/19 19:59:36","新北市新店區安康路二段147號","121.511186666667","24.9599366666667","6500600","新店區"
"231061","047-UY","2018/03/19 19:59:33","新北市新店區安興路83-8號","121.51521","24.9757116666667","6500600","新店區"
"231060","106-UY","2018/03/19 19:59:32","新北市新店區安康路二段408號","121.496725","24.9552866666667","6500600","新店區"
"231051","107-UY","2018/03/19 19:59:24","新北市新店區中央路153號","121.529815","24.97298","6500600","新店區"
"231052","187-VK","2018/03/19 19:59:37","新北市新店區新烏路三段350號","121.546305","24.8952216666667","6500600","新店區"
"231050","KEA-2219","2018/03/19 19:59:33","新北市新店區北宜路一段107-2號","121.539568333333","24.9549816666667","6500600","新店區"
"221015","KEA-2785","2018/03/19 19:59:28","新北市汐止區橋東街1號","121.666796666667","25.0762783333333","6501100","汐止區"
"231057","256-BX","2018/03/19 19:59:25","新北市新店區花園二路一段11號","121.555511666667","24.9325016666667","6500600","新店區"
"231046","278-BY","2018/03/19 19:59:31","新北市新店區光華街29號","121.515521666667","24.96978","6500600","新店區"
"231054","AAD-862","2018/03/19 19:59:39","新北市新店區光明街151號","121.539593333333","24.96226","6500600","新店區"
"231056","3713-VJ","2018/03/19 19:59:26","新北市新店區民權路42巷22號","121.539715","24.9837033333333","6500600","新店區"
"231055","4716-K9","2018/03/19 19:59:34","新北市新店區中華路83巷67號","121.53832","24.967245","6500600","新店區"
"231067","4772-VM","2018/03/19 19:59:30","新北市新店區秀山路45巷23號","121.53092","24.959805","6500600","新店區"
"231065","512-UM","2018/03/19 19:59:22","新北市新店區安祥路109巷8號","121.475433333333","24.958815","6500600","新店區"
"231049","513-UM","2018/03/19 19:59:35","新北市新店區明德路38號","121.54147","24.9779183333333","6500600","新店區"
"231064","515-UM","2018/03/19 19:59:42","新北市新店區碧安街36號","121.517488333333","24.96898","6500600","新店區"
"231045","617-UM","2018/03/19 19:59:32","新北市新店區北宜路二段82-13號","121.554678333333","24.953495","6500600","新店區"
"231040","619-UM","2018/03/19 19:59:35","新北市新店區中正路62號","121.544243333333","24.9700916666667","6500600","新店區"
"231042","641-BX","2018/03/19 19:59:24","新北市新店區中興路一段294號","121.546035","24.96927","6500600","新店區"
"231063","645-TV","2018/03/19 19:59:27","新北市新店區黎明路65巷2號","121.502485","24.94589","6500600","新店區"
"231068","718-UY","2018/03/19 19:59:31","新北市新店區安華路28-1號","121.519438333333","24.9611316666667","6500600","新店區"
"231047","719-UY","2018/03/19 19:59:32","新北市新店區中興路二段238號","121.547975","24.9756033333333","6500600","新店區"
"231062","720-UM","2018/03/19 19:59:30","新北市新店區華城路10巷1-3號","121.52882","24.9578033333333","6500600","新店區"
"231044","897-TW","2018/03/19 19:59:34","新北市新店區寶慶街58巷6號","121.54211","24.9870283333333","6500600","新店區"
"231043","899-TW","2018/03/19 19:59:35","新北市新店區中正路263-2號","121.538496666667","24.9738083333333","6500600","新店區"
"231066","AKT-0513","2018/03/19 19:59:40","新北市新店區柴埕路38-8號","121.513173333333","24.9648483333333","6500600","新店區"
"241011","013-R5","2018/03/19 19:59:29","新北市三重區三和路二段131號","121.498528333333","25.0691983333333","6500200","三重區"
"241028","022-UY","2018/03/19 19:59:29","新北市三重區重新路三段82號","121.493123333333","25.060945","6500200","三重區"
"241008","059-VK","2018/03/19 19:59:31","新北市三重區永福街179巷13號","121.478381666667","25.0749516666667","6500200","三重區"
"241009","060-VK","2018/03/19 19:59:29","新北市三重區三和路四段388-2號","121.481996666667","25.0791033333333","6500200","三重區"
"241031","061-VK","2018/03/19 19:59:25","新北市三重區重新路四段184巷16號","121.487103333333","25.05497","6500200","三重區"
"241015","062-VK","2018/03/19 19:59:40","新北市三重區三和路二段19號","121.501195","25.0669616666667","6500200","三重區"
"241017","063-VK","2018/03/19 19:59:35","新北市三重區自強路一段316號","121.491068333333","25.0685116666667","6500200","三重區"
"241024","065-VK","2018/03/19 19:59:38","新北市三重區力行路一段277號","121.482213333333","25.071445","6500200","三重區"
"241026","066-VK","2018/03/19 19:59:30","新北市三重區仁慈街7號","121.501703333333","25.0630583333333","6500200","三重區"
"241002","090-VK","2018/03/19 19:59:36","新北市三重區仁愛街265號","121.492948333333","25.07868","6500200","三重區"
"241003","091-VK","2018/03/19 19:59:21","新北市三重區仁愛街445巷12號","121.49048","25.082745","6500200","三重區"
"241005","262-UM","2018/03/19 19:59:34","新北市三重區溪尾街325巷21號","121.488581666667","25.0834583333333","6500200","三重區"
"241016","265-UM","2018/03/19 19:59:28","新北市三重區正義北路36巷12號","121.496671666667","25.0633516666667","6500200","三重區"
"241022","267-UM","2018/03/19 19:59:30","新北市三重區過圳街31巷2號","121.489101666667","25.0605566666667","6500200","三重區"
"241018","268-UM","2018/03/19 19:59:30","新北市三重區正義北路244巷69號","121.494","25.0676816666667","6500200","三重區"
"241032","269-UM","2018/03/19 19:59:37","新北市三重區朝陽街26巷1弄3號","121.48316","25.0565883333333","6500200","三重區"
"241013","270-UM","2018/03/19 19:59:37","新北市三重區三和路三段125巷36號","121.493815","25.073745","6500200","三重區"
"241025","271-UM","2018/03/19 19:59:35","新北市三重區頂崁街210巷9號","121.476533333333","25.0677883333333","6500200","三重區"
"241007","398-BY","2018/03/19 19:59:27","新北市三重區慈愛街88號","121.48848","25.0799983333333","6500200","三重區"
"241020","413-TH","2018/03/19 19:59:31","新北市三重區忠孝路一段101號","121.489691666667","25.0721216666667","6500200","三重區"
"241035","462-BY","2018/03/19 19:59:28","新北市三重區大榮街9號","121.498183333333","25.0631883333333","6500200","三重區"
"241004","475-VK","2018/03/19 19:59:38","新北市三重區五華街108-2號","121.49251","25.08277","6500200","三重區"
"241001","478-VK","2018/03/19 19:59:41","新北市三重區五華街16號","121.494848333333","25.0802616666667","6500200","三重區"
"241030","480-VK","2018/03/19 19:59:23","新北市三重區成功路173號","121.485968333333","25.052745","6500200","三重區"
"241014","543-UM","2018/03/19 19:59:40","新北市三重區三和路二段164號","121.499158333333","25.0687016666667","6500200","三重區"
"241023","545-UM","2018/03/19 19:59:37","新北市三重區頂崁街172號","121.47761","25.06593","6500200","三重區"
"241019","KEA-2593","2018/03/19 19:59:29","新北市三重區自強路二段9號","121.490168333333","25.0690833333333","6500200","三重區"
"241006","AAD-863","2018/03/19 19:59:32","新北市三重區力行路二段49-1號","121.481931666667","25.074115","6500200","三重區"
"241012","941-UM","2018/03/19 19:59:34","新北市三重區仁厚街46號","121.500203333333","25.07653","6500200","三重區"
"241029","942-UM","2018/03/19 19:59:40","新北市三重區重安街6號","121.4902","25.0583166666667","6500200","三重區"
"241033","AAC-255","2018/03/19 19:59:40","新北市三重區中興北街77號","121.469503333333","25.0477583333333","6500200","三重區"
"235066","003-UY","2018/03/19 19:59:24","新北市中和區中山路二段67號","121.50402","25.0045516666667","6500300","中和區"
"235056","096-UM","2018/03/19 19:59:31","新北市中和區中山路三段170巷8弄9號","121.472825","25.0076366666667","6500300","中和區"
"235039","097-UM","2018/03/19 19:59:32","新北市中和區大勇街25巷38-1號","121.515548333333","24.9939183333333","6500300","中和區"
"235065","098-UM","2018/03/19 19:59:28","新北市中和區福祥路56號","121.499396666667","25.0046033333333","6500300","中和區"
"235040","150-BY","2018/03/19 19:59:22","新北市中和區保健路10巷13號","121.507575","24.9972866666667","6500300","中和區"
"235058","151-BY","2018/03/19 19:59:36","新北市中和區員山路148巷29號","121.482225","24.9971816666667","6500300","中和區"
"235049","186-VK","2018/03/19 19:59:37","新北市中和區景平路522號","121.503238333333","24.9940316666667","6500300","中和區"
"235067","255-BX","2018/03/19 19:59:12","新北市中和區員山路148巷23弄8號","121.482373333333","24.9975333333333","6500300","中和區"
"235044","293-VK","2018/03/19 19:59:41","新北市中和區中正路69號","121.50113","24.9934366666667","6500300","中和區"
"235043","352-BY","2018/03/19 19:59:23","新北市中和區興南路二段159巷12號","121.50517","24.98316","6500300","中和區"
"235068","377-QA","2018/03/19 19:59:35","新北市中和區中山路二段250巷13號","121.497261666667","25.003175","6500300","中和區"
"235050","4979-A6","2018/03/19 19:59:33","新北市中和區景平路227號","121.510241666667","24.9926616666667","6500300","中和區"
"235069","4980-A6","2018/03/19 19:59:30","新北市中和區圓通路76號","121.500086666667","24.99718","6500300","中和區"
"235034","558-UM","2018/03/19 19:59:36","新北市中和區圓通路160號","121.49778","24.9955666666667","6500300","中和區"
"235054","640-BX","2018/03/19 19:59:23","新北市中和區莒光路100號","121.472373333333","25.0023016666667","6500300","中和區"
"235046","733-UM","2018/03/19 19:59:29","新北市中和區興南路一段93巷58弄1號","121.51062","24.9859","6500300","中和區"
"235041","802-TS","2018/03/19 19:59:27","新北市中和區安和路43號","121.509638333333","24.99485","6500300","中和區"
"235052","805-TS","2018/03/19 19:59:29","新北市中和區華新街192巷24號","121.506413333333","24.983195","6500300","中和區"
"235048","896-TW","2018/03/19 19:59:25","新北市中和區興南路一段14號","121.511401666667","24.9912916666667","6500300","中和區"
"235053","900-TW","2018/03/19 19:59:43","新北市中和區華安街99號","121.468148333333","24.9963066666667","6500300","中和區"
"235051","157-BY","2018/03/19 19:59:23","新北市中和區中興街204號","121.499883333333","24.99032","6500300","中和區"
"235037","AAC-213","2018/03/19 19:59:25","新北市中和區自立路99巷24號","121.52336","24.9944666666667","6500300","中和區"
"235059","AAC-215","2018/03/19 19:59:39","新北市中和區圓通路367巷40號","121.492085","24.9883016666667","6500300","中和區"
"220068","013-TV","2018/03/19 19:59:29","新北市板橋區光復街172巷2弄1號","121.485271666667","25.0193416666667","6500100","板橋區"
"220086","073-UY","2018/03/19 19:59:22","新北市板橋區南雅西路二段7巷25號","121.451941666667","25.0094766666667","6500100","板橋區"
"220069","AAD-861","2018/03/19 19:59:39","新北市板橋區大明街43號","121.45789","25.0028116666667","6500100","板橋區"
"247024","893-R6","2018/03/19 19:59:25","新北市蘆洲區光榮路120巷23號","121.465686666667","25.0882566666667","6501400","蘆洲區"
"247014","546-UM","2018/03/19 19:59:23","新北市蘆洲區成功路120號","121.47222","25.08267","6501400","蘆洲區"
"247010","341-TH","2018/03/19 19:59:28","新北市三重區集賢路188號","121.483906666667","25.0880083333333","6501400","蘆洲區"
"247012","339-TH","2018/03/19 19:59:40","新北市蘆洲區民族路155號","121.479498333333","25.08805","6501400","蘆洲區"
"247004","337-TH","2018/03/19 19:59:25","新北市蘆洲區永康街35號","121.457341666667","25.0851483333333","6501400","蘆洲區"
"247006","336-TH","2018/03/19 19:59:37","新北市蘆洲區九芎街107號","121.465801666667","25.079785","6501400","蘆洲區"
"247018","057-VK","2018/03/19 19:59:29","新北市蘆洲區民族路292號","121.478038333333","25.0896733333333","6501400","蘆洲區"
"247008","056-VK","2018/03/19 19:59:37","新北市蘆洲區中山一路61巷41號","121.47744","25.0806533333333","6501400","蘆洲區"
"247020","053-VK","2018/03/19 19:59:38","新北市蘆洲區民義街70號","121.473071666667","25.08991","6501400","蘆洲區"
"247016","007-UY","2018/03/19 19:59:34","新北市蘆洲區中正路101號","121.469825","25.0839733333333","6501400","蘆洲區"
"247002","002-UY","2018/03/19 19:59:38","新北市蘆洲區永樂街31巷9號","121.458168333333","25.08713","6501400","蘆洲區"
"228003","097-TW","2018/03/19 19:59:33","新北市貢寮區仁理村仁和路166號","121.923301666667","25.0522033333333","6502600","貢寮區"
"224010","AGQ-8101","2018/03/19 19:59:43","新北市瑞芳區基山街271號","121.840846666667","25.10767","6501200","瑞芳區"
"227008","642-TC","2018/03/19 19:59:33","新北市雙溪區新基里新基南街25號","121.866256666667","25.03816","6502500","雙溪區"
"227001","400-TW","2018/03/19 19:59:26","新北市雙溪區雙溪里長安街16號","121.865083333333","25.03457","6502500","雙溪區"
"222001","KEA-2212","2018/03/19 19:59:42","新北市深坑區北深路三段157-1號","121.601961666667","25.0032433333333","6501800","深坑區"
"208002","KEA-2872","2018/03/19 19:59:33","新北市金山區中華路366-1號","121.633258333333","25.2244783333333","6502700","金山區"
"208003","665-BX","2018/03/19 19:59:26","新北市金山區海興路93號","121.633481666667","25.2414283333333","6502700","金山區"
"208001","761-BX","2018/03/19 19:59:25","新北市金山區南勢湖31號","121.610428333333","25.21793","6502700","金山區"
"251009","008-UM","2018/03/19 19:59:44","新北市淡水區英專路28巷20號","121.445921666667","25.1697666666667","6501000","淡水區"
"251004","009-UM","2018/03/19 19:59:39","新北市淡水區民族路110巷38弄7號","121.460991666667","25.1354933333333","6501000","淡水區"
"251005","010-UM","2018/03/19 19:59:21","新北市淡水區學府路136巷19號","121.451403333333","25.1728016666667","6501000","淡水區"
"251001","011-UM","2018/03/19 19:59:37","新北市淡水區淡金路二段30號","121.452226666667","25.1813383333333","6501000","淡水區"
"251002","012-UM","2018/03/19 19:59:40","新北市淡水區沙崙路97-1號","121.421885","25.1818266666667","6501000","淡水區"
"251013","179-VK","2018/03/19 19:59:44","新北市淡水區奎柔山路63號","121.451688333333","25.2062333333333","6501000","淡水區"
"251014","180-VK","2018/03/19 19:59:20","新北市淡水區淡金路五段118號","121.45714","25.2364316666667","6501000","淡水區"
"251008","181-VK","2018/03/19 19:59:23","新北市淡水區淡海路61號","121.42288","25.180845","6501000","淡水區"
"251015","182-VK","2018/03/19 19:59:33","新北市淡水區商工路192號","121.450663333333","25.18823","6501000","淡水區"
"251010","413-VK","2018/03/19 19:59:38","新北市淡水區崁頂128號","121.432228333333","25.204915","6501000","淡水區"
"251012","441-VK","2018/03/19 19:59:23","新北市淡水區下圭柔山61-5號","121.447766666667","25.2050266666667","6501000","淡水區"
"251016","442-VK","2018/03/19 19:59:32","新北市淡水區淡金路四段586號","121.451716666667","25.2281433333333","6501000","淡水區"
"251006","561-UM","2018/03/19 19:59:34","新北市淡水區北新路10號","121.44454","25.1773783333333","6501000","淡水區"
"251011","650-BX","2018/03/19 19:59:28","新北市淡水區崁頂51-2號","121.44221","25.1973816666667","6501000","淡水區"
"207003","550-UM","2018/03/19 19:59:38","新北市萬里區大鵬里萬里加投40-2號","121.637983333333","25.2071433333333","6502800","萬里區"
"207004","225-TW","2018/03/19 19:59:41","新北市萬里區北基里忠二街35號","121.68564","25.1757466666667","6502800","萬里區"
"252002","178-VK","2018/03/19 19:59:34","新北市三芝區忠孝街116-3號","121.505461666667","25.2576","6502100","三芝區"
"252001","292-VK","2018/03/19 19:59:24","新北市三芝區公正街66號","121.49977","25.25742","6502100","三芝區"
"237004","KEA-2597","2018/03/19 19:59:42","新北市三峽區添福29-1號","121.373121666667","24.9034066666667","6500900","三峽區"
"237007","153-BY","2018/03/19 19:59:30","新北市三峽區麻園10號","121.362066666667","24.9168466666667","6500900","三峽區"
"237009","210-TH","2018/03/19 19:59:28","新北市三峽區民族街76-5號","121.369385","24.9299116666667","6500900","三峽區"
"237012","275-BY","2018/03/19 19:59:44","新北市三峽區中華路3巷2號","121.374716666667","24.93234","6500900","三峽區"
"237008","302-VK","2018/03/19 19:59:26","新北市三峽區中華路41號","121.372635","24.9309566666667","6500900","三峽區"
"237014","433-BY","2018/03/19 19:59:36","新北市三峽區白雞24號","121.368325","24.9126816666667","6500900","三峽區"
"237006","5529-G3","2018/03/19 19:59:30","新北市三峽區中正路二段206-2號","121.365045","24.91449","6500900","三峽區"
"237005","AKY-6261","2018/03/19 19:59:36","新北市三峽區民生街1巷27-1號","121.379553333333","24.93386","6500900","三峽區"
"236069","105-UM","2018/03/19 19:59:28","新北市土城區忠義路77號","121.443006666667","24.9650633333333","6501300","土城區"
"236042","107-UM","2018/03/19 19:59:26","新北市土城區學府路一段143巷1號","121.453795","24.9860366666667","6501300","土城區"
"236078","166-UM","2018/03/19 19:59:38","新北市土城區福安街106號","121.417308333333","24.963925","6501300","土城區"
"236030","253-BX","2018/03/19 19:59:30","新北市土城區中央路一段248-3號","121.444301666667","24.9846916666667","6501300","土城區"
"236026","269-VK","2018/03/19 19:59:35","新北市土城區中央路二段98號","121.442193333333","24.9782983333333","6501300","土城區"
"236014","270-VK","2018/03/19 19:59:38","新北市土城區廣福街123號","121.456216666667","24.9929","6501300","土城區"
"236036","271-VK","2018/03/19 19:59:30","新北市土城區國際路119號","121.467706666667","24.9763483333333","6501300","土城區"
"236020","401-BY","2018/03/19 19:59:34","新北市土城區延吉街120號","121.469883333333","24.985955","6501300","土城區"
"236058","912-UM","2018/03/19 19:59:27","新北市土城區中央路一段245號","121.44543","24.9860833333333","6501300","土城區"
"236048","913-UM","2018/03/19 19:59:28","新北市土城區金城路三段137號","121.468278333333","24.9880866666667","6501300","土城區"
"236062","915-UM","2018/03/19 19:59:21","新北市土城區延和路185-1號","121.469041666667","24.9903633333333","6501300","土城區"
"236053","AAC-216","2018/03/19 19:59:30","新北市土城區立德路37號","121.462366666667","24.9879283333333","6501300","土城區"
"242034","AAC-296","2018/03/19 19:59:39","新北市新莊區華興街56號","121.446043333333","25.0364483333333","6500500","新莊區"
"242058","986-R7","2018/03/19 19:59:35","新北市新莊區八德街129號","121.423891666667","25.0204916666667","6500500","新莊區"
"242053","751-BX","2018/03/19 19:59:44","新北市新莊區西盛街426號","121.427063333333","25.012015","6500500","新莊區"
"242029","705-TV","2018/03/19 19:59:31","新北市新莊區中榮街168巷31號","121.445296666667","25.0536016666667","6500500","新莊區"
"242025","613-BX","2018/03/19 19:59:30","新北市新莊區五工二路86巷32號","121.46054","25.067215","6500500","新莊區"
"242046","497-BY","2018/03/19 19:59:27","新北市新莊區裕民街19巷4號","121.419641666667","25.0252083333333","6500500","新莊區"
"242050","441-UM","2018/03/19 19:59:36","新北市新莊區民本街27巷2號","121.42823","25.0191866666667","6500500","新莊區"
"242056","440-UM","2018/03/19 19:59:40","新北市新莊區中正路347巷17弄4號","121.44736","25.0343283333333","6500500","新莊區"
"242036","415-TV","2018/03/19 19:59:31","新北市新莊區建安街39號","121.428931666667","25.0255","6500500","新莊區"
"242007","413-TV","2018/03/19 19:59:28","新北市新莊區思源路593巷5弄20號","121.458078333333","25.05941","6500500","新莊區"
"242044","400-BY","2018/03/19 19:59:29","新北市新莊區中山路三段638巷14號","121.412201666667","25.02404","6500500","新莊區"
"242023","362-BY","2018/03/19 19:59:21","新北市新莊區化成路372號","121.465858333333","25.0497433333333","6500500","新莊區"
"242060","353-BY","2018/03/19 19:59:36","新北市新莊區瓊泰路19號","121.444315","25.0286216666667","6500500","新莊區"
"242039","133-UY","2018/03/19 19:59:28","新北市新莊區民安路287-3號","121.428808333333","25.0230066666667","6500500","新莊區"
"242031","135-UY","2018/03/19 19:59:35","新北市新莊區公園一路77號","121.443201666667","25.0371016666667","6500500","新莊區"
"242048","172-VK","2018/03/19 19:59:26","新北市新莊區富國路109巷2號","121.423756666667","25.025045","6500500","新莊區"
"242017","175-VK","2018/03/19 19:59:34","新北市新莊區中華路二段45巷2號","121.45289","25.0465133333333","6500500","新莊區"
"242004","176-VK","2018/03/19 19:59:28","新北市新莊區化成路424號","121.465976666667","25.051105","6500500","新莊區"
"242015","346-TH","2018/03/19 19:59:27","新北市新莊區復興路一段47巷4號","121.44697","25.0423766666667","6500500","新莊區"
"242021","348-TH","2018/03/19 19:59:24","新北市新莊區建中街16巷27號","121.449115","25.03867","6500500","新莊區"
"242002","349-TH","2018/03/19 19:59:38","新北市新莊區中正路170號","121.450938333333","25.0358733333333","6500500","新莊區"
"242013","351-TH","2018/03/19 19:59:33","新北市新莊區幸福路672號","121.450968333333","25.0494716666667","6500500","新莊區"
"238015","755-BX","2018/03/19 19:59:33","新北市樹林區大安路616號","121.411311666667","24.9830116666667","6500700","樹林區"
"238018","571-TV","2018/03/19 19:59:34","新北市樹林區中山路三段204號","121.38712","24.9683666666667","6500700","樹林區"
"238021","KEA-2539","2018/03/19 19:59:33","新北市樹林區佳園路三段181巷99號","121.391351666667","24.9483516666667","6500700","樹林區"
"239006","891-R6","2018/03/19 19:59:32","新北市鶯歌區文化路253號","121.353326666667","24.9530616666667","6500800","鶯歌區"
"221008","489-VK","2018/03/19 19:59:42","台北市內湖區康樂街150號","121.619395","25.0726066666667","6501100","汐止區"
"221036","130-UY","2018/03/19 19:59:25","新北市汐止區忠孝東路258巷11弄7號","121.663991666667","25.0675066666667","6501100","汐止區"
"221010","269-BY","2018/03/19 19:59:36","新北市汐止區連峰街225巷3號","121.644686666667","25.0809333333333","6501100","汐止區"
"221012","278-VK","2018/03/19 19:59:22","新北市汐止區大同路三段262-1號","121.676716666667","25.0718083333333","6501100","汐止區"
"221023","279-VK","2018/03/19 19:59:40","新北市汐止區明峰街206號","121.627618333333","25.0692433333333","6501100","汐止區"
"221032","280-BY","2018/03/19 19:59:34","新北市汐止區橫科路18巷8號","121.617771666667","25.0506083333333","6501100","汐止區"
"221027","281-BY","2018/03/19 19:59:26","新北市汐止區中正路81號","121.66137","25.0694433333333","6501100","汐止區"
"221029","298-VK","2018/03/19 19:59:31","新北市汐止區樟樹一路137巷23號","121.641071666667","25.0658933333333","6501100","汐止區"
"221021","299-VK","2018/03/19 19:59:29","新北市汐止區新興路108號","121.65726","25.06094","6501100","汐止區"
"221031","353-TW","2018/03/19 19:59:24","新北市汐止區福德一路176巷1弄1號","121.635643333333","25.06623","6501100","汐止區"
"221035","622-UM","2018/03/19 19:59:43","新北市汐止區長江街39巷9號","121.655503333333","25.0717633333333","6501100","汐止區"
"221025","623-UM","2018/03/19 19:59:34","新北市汐止區秀峰路107號","121.660251666667","25.0634383333333","6501100","汐止區"
"221038","646-BX","2018/03/19 19:59:30","新北市汐止區忠孝東路497號","121.666443333333","25.0747083333333","6501100","汐止區"
"221033","647-BX","2018/03/19 19:59:38","新北市汐止區東勢街201巷102號","121.633638333333","25.0429733333333","6501100","汐止區"
"220079","145-BY","2018/03/19 19:59:26","新北市板橋區南雅西路二段175巷2號","121.45161","25.0125016666667","6500100","板橋區"
"220080","200-UY","2018/03/19 19:59:25","新北市板橋區大觀路二段59巷30號","121.447701666667","25.0022666666667","6500100","板橋區"
"220106","KEA-2550","2018/03/19 19:59:28","新北市板橋區仁化街150巷5-1號","121.478053333333","25.0329466666667","6500100","板橋區"
"220082","610-BX","2018/03/19 19:59:39","新北市板橋區篤行路二段109號","121.431425","24.9910666666667","6500100","板橋區"
"220101","245-BX","2018/03/19 19:59:42","新北市板橋區莒光路180巷11號","121.473501666667","25.0227583333333","6500100","板橋區"
"220072","277-BY","2018/03/19 19:59:29","新北市板橋區金門街127巷14號","121.433653333333","24.991095","6500100","板橋區"
"220094","280-UM","2018/03/19 19:59:39","新北市板橋區文德路5號","121.462783333333","25.0242966666667","6500100","板橋區"
"220064","282-UM","2018/03/19 19:59:34","新北市板橋區區運路3號","121.465126666667","25.00946","6500100","板橋區"
"220071","283-VK","2018/03/19 19:59:31","新北市板橋區五權街30巷24弄25號","121.463701666667","24.9937016666667","6500100","板橋區"
"220053","285-VK","2018/03/19 19:59:29","新北市板橋區永豐街38-1號","121.474355","25.0175283333333","6500100","板橋區"
"220083","286-VK","2018/03/19 19:59:31","新北市板橋區僑中二街26號","121.445898333333","25.0107366666667","6500100","板橋區"
"220081","287-VK","2018/03/19 19:59:36","新北市板橋區僑中一街80巷6弄1號","121.447675","25.0121416666667","6500100","板橋區"
"220090","288-VK","2018/03/19 19:59:28","新北市板橋區新海路109巷1弄2號","121.460691666667","25.02244","6500100","板橋區"
"220061","293-UM","2018/03/19 19:59:25","新北市板橋區板新路128號","121.47086","25.0155283333333","6500100","板橋區"
"220084","296-UM","2018/03/19 19:59:25","新北市板橋區滿平街2巷10號","121.425173333333","24.989375","6500100","板橋區"
"242011","281-VK","2018/03/19 19:59:29","新北市新莊區中港路531巷21號","121.450631666667","25.0515133333333","6500500","新莊區"
"220075","303-R5","2018/03/19 19:59:14","新北市板橋區金華街10巷48弄70號","121.459785","25.020325","6500100","板橋區"
"220062","305-R5","2018/03/19 19:59:37","新北市板橋區光復街33巷17號","121.482025","25.018975","6500100","板橋區"
"220092","307-R5","2018/03/19 19:59:31","新北市板橋區四維路259巷80號","121.459926666667","25.0264133333333","6500100","板橋區"
"220098","317-R6","2018/03/19 19:59:44","新北市板橋區新海路72巷54號","121.461985","25.02323","6500100","板橋區"
"220089","487-VK","2018/03/19 19:59:30","新北市板橋區龍泉街55巷12號","121.457361666667","25.025505","6500100","板橋區"
"242019","280-VK","2018/03/19 19:59:27","新北市新莊區民生街28號","121.456365","25.0422333333333","6500500","新莊區"
"220088","491-VK","2018/03/19 19:59:36","新北市板橋區懷德街55號","121.477261666667","25.0327333333333","6500100","板橋區"
"220035","560-BX","2018/03/19 19:59:32","新北市板橋區新生街29巷4弄7號","121.457015","25.0217833333333","6500100","板橋區"
"220103","561-BX","2018/03/19 19:59:26","新北市板橋區自由路13號","121.465476666667","25.0226633333333","6500100","板橋區"
"220065","568-UM","2018/03/19 19:59:22","新北市板橋區民族路69巷5號","121.46553","25.0091216666667","6500100","板橋區"
"220063","609-BX","2018/03/19 19:59:37","新北市板橋區中山路二段84-2號","121.474756666667","25.016155","6500100","板橋區"
"220091","637-BX","2018/03/19 19:59:36","新北市板橋區民治街119巷7號","121.478548333333","25.0306166666667","6500100","板橋區"
"220057","686-BX","2018/03/19 19:59:28","新北市板橋區四川路二段52號","121.453391666667","24.9951833333333","6500100","板橋區"
"220093","689-BX","2018/03/19 19:59:21","新北市板橋區文化路二段566號","121.476513333333","25.0342833333333","6500100","板橋區"
"220054","741-BX","2018/03/19 19:59:42","新北市板橋區實踐路93巷60號","121.466236666667","25.004965","6500100","板橋區"
"220102","KEA-2699","2018/03/19 19:59:37","新北市板橋區仁化街76號","121.476051666667","25.03182","6500100","板橋區"
"220055","827-TW","2018/03/19 19:59:25","新北市板橋區仁愛路62巷17弄1號","121.460053333333","24.9981966666667","6500100","板橋區"
"220067","829-TW","2018/03/19 19:59:36","新北市板橋區漢生東路193巷77號","121.47256","25.01173","6500100","板橋區"
"220096","831-TW","2018/03/19 19:59:32","新北市板橋區莒光路15巷20號","121.470468333333","25.0255183333333","6500100","板橋區"
"220074","895-R6","2018/03/19 19:59:38","新北市板橋區文化路一段32巷21弄14號","121.460341666667","25.0114116666667","6500100","板橋區"
"220073","985-R7","2018/03/19 19:59:31","新北市板橋區南雅西路二段160號","121.45173","25.013505","6500100","板橋區"
"220097","AAC-210","2018/03/19 19:59:40","新北市板橋區文化路一段285巷11號","121.46402","25.0190533333333","6500100","板橋區"
"220070","AAC-253","2018/03/19 19:59:36","新北市板橋區成都街43號","121.461265","25.0048533333333","6500100","板橋區"
