"lineid","car","time","location","longitude","latitude","cityid","cityname"
"234046","148-BY","2018/03/19 20:09:33","新北市永和區成功路一段137號","121.52684","25.0016083333333","6500400","永和區"
"234007","207-UY","2018/03/19 20:09:36","新北市永和區保順路37巷16號","121.502845","25.010455","6500400","永和區"
"234081","298-R6","2018/03/19 20:09:43","新北市永和區永亨路105巷2號","121.523465","25.0049883333333","6500400","永和區"
"234038","336-UY","2018/03/19 20:09:49","新北市永和區成功路一段112號","121.526858333333","25.0025533333333","6500400","永和區"
"234064","337-UY","2018/03/19 20:09:32","新北市永和區秀朗路二段43號","121.521526666667","25.0023983333333","6500400","永和區"
"234086","338-UY","2018/03/19 20:09:48","新北市永和區福和路175號","121.51988","25.0076416666667","6500400","永和區"
"234070","552-UM","2018/03/19 20:09:45","新北市永和區大新街80巷4號","121.517508333333","25.00809","6500400","永和區"
"234017","745-BX","2018/03/19 20:09:45","新北市永和區文化路164號","121.512191666667","25.0153683333333","6500400","永和區"
"234030","746-BX","2018/03/19 20:09:41","新北市永和區民權路49巷35號","121.52189","24.9975566666667","6500400","永和區"
"234054","KEA-2590","2018/03/19 20:09:38","新北市永和區博愛街17號","121.517303333333","25.0158383333333","6500400","永和區"
"234013","KEA-2591","2018/03/19 20:09:41","新北市永和區仁愛路269號","121.506126666667","25.00996","6500400","永和區"
"234061","AAD-866","2018/03/19 20:09:47","新北市永和區中正路151巷4號","121.516085","24.998505","6500400","永和區"
"234042","862-TW","2018/03/19 20:09:46","新北市永和區雙和街13號","121.50955","25.0018483333333","6500400","永和區"
"234050","863-TW","2018/03/19 20:09:34","新北市永和區新生路251號","121.505801666667","25.0133583333333","6500400","永和區"
"234026","9371-KE","2018/03/19 20:09:41","新北市永和區仁愛路352巷140號","121.499843333333","25.0089","6500400","永和區"
"234011","9373-KE","2018/03/19 20:09:43","新北市永和區仁愛路352巷122弄11號","121.500636666667","25.0089033333333","6500400","永和區"
"249005","172-UM","2018/03/19 20:09:46","新北市八里區下罟子61-1號","121.386835","25.136645","6502300","八里區"
"249001","173-UM","2018/03/19 20:09:45","新北市八里區中華路二段326號","121.403291666667","25.1479083333333","6502300","八里區"
"249004","303-UY","2018/03/19 20:05:04","新北市八里區埤頭二街67巷7號","121.412168333333","25.1551483333333","6502300","八里區"
"249002","305-UY","2018/03/19 20:09:32","新北市八里區龍米路一段2-1號","121.458108333333","25.1148916666667","6502300","八里區"
"249003","593-UM","2018/03/19 20:09:33","新北市八里區中山路二段540巷9弄17號","121.396598333333","25.1467533333333","6502300","八里區"
"248016","026-BX","2018/03/19 20:09:36","新北市五股區天乙路67號","121.448133333333","25.1046883333333","6501500","五股區"
"248008","095-VK","2018/03/19 20:09:28","新北市五股區中興路一段1巷22號","121.46975","25.07084","6501500","五股區"
"248018","225-UY","2018/03/19 20:09:38","新北市五股區登林路51-22號","121.430251666667","25.0693166666667","6501500","五股區"
"248012","247-BX","2018/03/19 20:09:48","新北市五股區民義路一段212號","121.430503333333","25.0895066666667","6501500","五股區"
"248014","261-SL","2018/03/19 20:09:33","新北市五股區成泰路二段222-4號","121.439206666667","25.085565","6501500","五股區"
"248004","677-BX","2018/03/19 20:09:43","新北市五股區成泰路一段130-1號","121.435171666667","25.0749983333333","6501500","五股區"
"248002","678-BX","2018/03/19 20:09:35","新北市五股區成泰路三段311-2號","121.4478","25.094895","6501500","五股區"
"248010","682-TV","2018/03/19 20:09:38","新北市五股區成泰路一段7巷11號","121.433031666667","25.0668216666667","6501500","五股區"
"234023","9380-KE","2018/03/19 20:09:42","新北市永和區中正路654巷21號","121.517366666667","25.008665","6500400","永和區"
"234077","969-R7","2018/03/19 20:09:36","新北市永和區民光街14號","121.515685","24.9960083333333","6500400","永和區"
"234074","AAC-211","2018/03/19 20:09:42","新北市永和區豫溪街159-1號","121.521353333333","25.0103783333333","6500400","永和區"
"234067","AAC-212","2018/03/19 20:09:47","新北市永和區保平路236巷12弄7號","121.508698333333","25.00656","6500400","永和區"
"234003","AAC-295","2018/03/19 20:09:34","新北市永和區中正路611號","121.516273333333","25.0097133333333","6500400","永和區"
"243012","AAD-798","2018/03/19 20:09:39","新北市泰山區楓江路46巷11號","121.43562","25.0615916666667","6501600","泰山區"
"243011","297-R6","2018/03/19 20:09:41","新北市新莊區明志路19號","121.419873333333","25.0292916666667","6501600","泰山區"
"243015","380-SR","2018/03/19 20:09:47","新北市泰山區明志路二段70號","121.428803333333","25.0524383333333","6501600","泰山區"
"243014","421-VK","2018/03/19 20:09:43","新北市泰山區明志路一段13號","121.433661666667","25.065935","6501600","泰山區"
"243010","KEA-2215","2018/03/19 20:09:31","新北市泰山區明志路二段136巷16號","121.426698333333","25.0514583333333","6501600","泰山區"
"243009","KEA-2216","2018/03/19 20:09:43","新北市泰山區泰林路二段118號","121.43469","25.059315","6501600","泰山區"
"243013","646-TV","2018/03/19 20:09:41","新北市泰山區民國街21號","121.425655","25.0434383333333","6501600","泰山區"
"243016","680-BX","2018/03/19 20:09:30","新北市泰山區貴陽街3號","121.421066666667","25.0335133333333","6501600","泰山區"
"222003","436-BY","2018/03/19 20:09:32","新北市深坑區埔新街65號","121.620186666667","25.002385","6501800","深坑區"
"222002","659-BX","2018/03/19 20:09:36","新北市深坑區北深路三段154號","121.603063333333","25.0031733333333","6501800","深坑區"
"231041","002-UM","2018/03/19 20:09:48","新北市新店區中正路460號","121.533988333333","24.97938","6500600","新店區"
"231059","046-UY","2018/03/19 20:09:35","新北市新店區安德街62號","121.510638333333","24.9620616666667","6500600","新店區"
"231061","047-UY","2018/03/19 20:09:32","新北市新店區安興路32號","121.515721666667","24.9703883333333","6500600","新店區"
"231060","106-UY","2018/03/19 20:09:32","新北市新店區安康路三段179-1號","121.488333333333","24.95176","6500600","新店區"
"231051","107-UY","2018/03/19 20:09:45","新北市新店區中央六街7號","121.530268333333","24.9745083333333","6500600","新店區"
"231052","187-VK","2018/03/19 20:09:37","新北市新店區新烏路三段寶島巷4號","121.551518333333","24.8993666666667","6500600","新店區"
"231050","KEA-2219","2018/03/19 20:09:33","新北市新店區北新路一段96巷23號","121.542875","24.9687383333333","6500600","新店區"
"221015","KEA-2785","2018/03/19 20:09:48","新北市汐止區建成路24號","121.664578333333","25.0726066666667","6501100","汐止區"
"231057","256-BX","2018/03/19 20:09:45","新北市新店區花園一路一段2號","121.553186666667","24.9324066666667","6500600","新店區"
"231054","AAD-862","2018/03/19 20:09:32","新北市新店區檳榔路40號","121.541576666667","24.9637283333333","6500600","新店區"
"231058","3712-VJ","2018/03/19 20:09:48","新北市新店區安康路二段362號","121.5019","24.9574166666667","6500600","新店區"
"231056","3713-VJ","2018/03/19 20:09:46","新北市新店區北新路二段29巷2弄2號","121.54227","24.972915","6500600","新店區"
"231055","4716-K9","2018/03/19 20:09:34","新北市新店區中華路48巷23號","121.540623333333","24.9691433333333","6500600","新店區"
"231067","4772-VM","2018/03/19 20:09:30","新北市新店區溪洲路59-1號","121.53354","24.9607533333333","6500600","新店區"
"231065","512-UM","2018/03/19 20:09:42","新北市新店區安祥路106巷258號","121.473135","24.9589966666667","6500600","新店區"
"231049","513-UM","2018/03/19 20:09:35","新北市新店區北新路二段97巷7號","121.542228333333","24.974185","6500600","新店區"
"231064","515-UM","2018/03/19 20:09:42","新北市新店區安康路二段118-7號","121.512701666667","24.9634283333333","6500600","新店區"
"231045","617-UM","2018/03/19 20:09:32","新北市新店區北宜路一段144-2號","121.54017","24.9540616666667","6500600","新店區"
"231040","619-UM","2018/03/19 20:09:35","新北市新店區中正路104號","121.543223333333","24.970625","6500600","新店區"
"231042","641-BX","2018/03/19 20:09:44","新北市新店區中興路二段231-2號","121.547841666667","24.97505","6500600","新店區"
"231063","645-TV","2018/03/19 20:09:47","新北市新店區黎明路55巷1號","121.502408333333","24.9483066666667","6500600","新店區"
"231068","718-UY","2018/03/19 20:09:51","新北市新店區寶中路45號","121.545268333333","24.9789483333333","6500600","新店區"
"231047","719-UY","2018/03/19 20:09:46","新北市新店區寶橋路59-1號","121.5451","24.97507","6500600","新店區"
"231062","720-UM","2018/03/19 20:09:30","新北市新店區安康路二段318-1號","121.505098333333","24.958105","6500600","新店區"
"231044","897-TW","2018/03/19 20:09:34","新北市新店區寶慶街58巷8號","121.542048333333","24.987085","6500600","新店區"
"231043","899-TW","2018/03/19 20:09:35","新北市新店區民族路190號","121.536375","24.9755516666667","6500600","新店區"
"231066","AKT-0513","2018/03/19 20:09:40","新北市新店區安民街197號","121.517135","24.9717316666667","6500600","新店區"
"241011","013-R5","2018/03/19 20:09:49","新北市三重區三和路三段41號","121.495635","25.0712516666667","6500200","三重區"
"241028","022-UY","2018/03/19 20:09:49","新北市三重區仁化街125號","121.494615","25.0575466666667","6500200","三重區"
"241008","059-VK","2018/03/19 20:09:44","新北市三重區永福街197巷27號","121.478536666667","25.0744333333333","6500200","三重區"
"241009","060-VK","2018/03/19 20:09:50","新北市三重區永安北路一段91號","121.47837","25.0777616666667","6500200","三重區"
"241031","061-VK","2018/03/19 20:09:45","新北市三重區過圳街9-1號","121.48876","25.0601166666667","6500200","三重區"
"241015","062-VK","2018/03/19 20:09:43","新北市三重區福德北路24號","121.5023","25.0648333333333","6500200","三重區"
"241017","063-VK","2018/03/19 20:09:35","新北市三重區自強路一段232號","121.493346666667","25.0668083333333","6500200","三重區"
"241024","065-VK","2018/03/19 20:09:38","新北市三重區中正北路284號","121.480488333333","25.068635","6500200","三重區"
"241026","066-VK","2018/03/19 20:09:47","新北市三重區福德南路65巷2號","121.5023","25.0605066666667","6500200","三重區"
"241002","090-VK","2018/03/19 20:09:36","新北市三重區仁忠街77號","121.493378333333","25.08057","6500200","三重區"
"241003","091-VK","2018/03/19 20:09:41","新北市三重區富華街18號","121.4896","25.0824533333333","6500200","三重區"
"241005","262-UM","2018/03/19 20:09:34","新北市三重區溪尾街332號","121.488166666667","25.0849883333333","6500200","三重區"
"241016","265-UM","2018/03/19 20:09:28","新北市三重區大同北路91號","121.494786666667","25.0635183333333","6500200","三重區"
"241022","267-UM","2018/03/19 20:09:50","新北市三重區新北大道一段66號","121.487235","25.0614533333333","6500200","三重區"
"241018","268-UM","2018/03/19 20:09:45","新北市三重區自強路一段173號","121.492983333333","25.067365","6500200","三重區"
"241032","269-UM","2018/03/19 20:09:37","新北市三重區捷運路65號","121.48342","25.0554766666667","6500200","三重區"
"241013","270-UM","2018/03/19 20:09:48","新北市三重區三和路三段151巷41號","121.49383","25.0742866666667","6500200","三重區"
"241025","271-UM","2018/03/19 20:09:46","新北市三重區中正北路416號","121.475253333333","25.0707216666667","6500200","三重區"
"241007","398-BY","2018/03/19 20:09:47","新北市三重區三和路四段111-13號","121.486878333333","25.0776566666667","6500200","三重區"
"241020","413-TH","2018/03/19 20:09:51","新北市三重區後竹圍街2巷1弄31號","121.491251666667","25.0732","6500200","三重區"
"241035","462-BY","2018/03/19 20:09:48","新北市三重區平安街10號","121.498676666667","25.0642433333333","6500200","三重區"
"241004","475-VK","2018/03/19 20:09:46","新北市三重區自強路四段107號","121.491521666667","25.0798833333333","6500200","三重區"
"241001","478-VK","2018/03/19 20:09:41","新北市三重區溪尾街26號","121.490913333333","25.0763383333333","6500200","三重區"
"241030","480-VK","2018/03/19 20:09:43","新北市三重區成功路145巷28號","121.487468333333","25.0531033333333","6500200","三重區"
"241014","543-UM","2018/03/19 20:09:40","新北市三重區長樂街88號","121.501245","25.069415","6500200","三重區"
"241023","545-UM","2018/03/19 20:09:37","新北市三重區頂崁街222號","121.476928333333","25.06817","6500200","三重區"
"241019","KEA-2593","2018/03/19 20:09:29","新北市三重區自強路二段33巷1號","121.489851666667","25.0695133333333","6500200","三重區"
"241006","AAD-863","2018/03/19 20:09:32","新北市三重區力行路二段91巷21弄1號","121.483466666667","25.0759683333333","6500200","三重區"
"241012","941-UM","2018/03/19 20:09:34","新北市三重區仁愛街125巷30號","121.497771666667","25.07592","6500200","三重區"
"241029","942-UM","2018/03/19 20:09:40","新北市三重區光明路32巷28號","121.49199","25.0587316666667","6500200","三重區"
"241033","AAC-255","2018/03/19 20:09:40","新北市三重區光復路一段61巷15號","121.472903333333","25.0492383333333","6500200","三重區"
"235066","003-UY","2018/03/19 20:09:44","新北市中和區保平路231號","121.508025","25.0042316666667","6500300","中和區"
"235039","097-UM","2018/03/19 20:09:32","新北市中和區大勇街25巷39弄1號","121.514841666667","24.9942216666667","6500300","中和區"
"235065","098-UM","2018/03/19 20:09:49","新北市中和區永和路86號","121.497455","25.00529","6500300","中和區"
"235040","150-BY","2018/03/19 20:09:42","新北市中和區保健路63號","121.509595","24.9972916666667","6500300","中和區"
"235044","293-VK","2018/03/19 20:09:46","新北市中和區中正路63號","121.501346666667","24.9932433333333","6500300","中和區"
"235068","377-QA","2018/03/19 20:09:35","新北市中和區福祥路85巷2弄5號","121.498601666667","25.0060416666667","6500300","中和區"
"235050","4979-A6","2018/03/19 20:09:33","新北市中和區安樂路58號","121.512065","24.9932716666667","6500300","中和區"
"235069","4980-A6","2018/03/19 20:09:30","新北市中和區景新街132巷6-3號","121.504706666667","24.9982483333333","6500300","中和區"
"235034","558-UM","2018/03/19 20:09:36","新北市中和區中正路434號","121.491225","24.9941933333333","6500300","中和區"
"235046","733-UM","2018/03/19 20:09:49","新北市中和區忠孝街29號","121.51055","24.9831066666667","6500300","中和區"
"235048","896-TW","2018/03/19 20:09:45","新北市中和區景新街447-1號","121.513075","24.9887183333333","6500300","中和區"
"235051","157-BY","2018/03/19 20:09:43","新北市中和區景安路218號","121.503858333333","24.99056","6500300","中和區"
"235037","AAC-213","2018/03/19 20:09:45","新北市中和區秀朗路三段179號","121.52442","24.9906633333333","6500300","中和區"
"235059","AAC-215","2018/03/19 20:09:39","新北市中和區圓通路335巷37弄1號","121.493923333333","24.9891466666667","6500300","中和區"
"220068","013-TV","2018/03/19 20:09:40","新北市板橋區中山路二段302號","121.479833333333","25.01897","6500100","板橋區"
"220069","AAD-861","2018/03/19 20:09:48","新北市板橋區貴興路76號","121.456443333333","25.0028766666667","6500100","板橋區"
"247024","893-R6","2018/03/19 20:09:45","新北市蘆洲區光明路102號","121.46332","25.0880283333333","6501400","蘆洲區"
"247014","546-UM","2018/03/19 20:09:43","新北市蘆洲區中山二路269號","121.469801666667","25.0795616666667","6501400","蘆洲區"
"247022","500-BY","2018/03/19 20:09:34","新北市蘆洲區三民路193號","121.470566666667","25.0876533333333","6501400","蘆洲區"
"247010","341-TH","2018/03/19 20:09:49","新北市蘆洲區中山一路74巷55號","121.479901666667","25.0815833333333","6501400","蘆洲區"
"247012","339-TH","2018/03/19 20:09:20","新北市蘆洲區民族路248號","121.479138333333","25.088695","6501400","蘆洲區"
"247004","337-TH","2018/03/19 20:09:45","新北市蘆洲區永安南路二段328巷15弄15號","121.455833333333","25.0835333333333","6501400","蘆洲區"
"247006","336-TH","2018/03/19 20:09:37","新北市蘆洲區永安南路二段18號","121.467661666667","25.07701","6501400","蘆洲區"
"247018","057-VK","2018/03/19 20:09:29","新北市蘆洲區民族路314巷10號","121.477575","25.090185","6501400","蘆洲區"
"247008","056-VK","2018/03/19 20:09:37","新北市蘆洲區中山一路174號","121.474453333333","25.0812833333333","6501400","蘆洲區"
"247020","053-VK","2018/03/19 20:09:38","新北市蘆洲區民義街68巷1號","121.47346","25.0897033333333","6501400","蘆洲區"
"247016","007-UY","2018/03/19 20:09:34","新北市蘆洲區光華路134號","121.46633","25.082365","6501400","蘆洲區"
"247002","002-UY","2018/03/19 20:09:34","新北市蘆洲區永康街2巷6號","121.459318333333","25.0860916666667","6501400","蘆洲區"
"222001","KEA-2212","2018/03/19 20:09:41","新北市深坑區北深路三段187號","121.601328333333","25.0036933333333","6501800","深坑區"
"208002","KEA-2872","2018/03/19 20:09:33","新北市金山區龜子山路33號","121.639308333333","25.2172066666667","6502700","金山區"
"208003","665-BX","2018/03/19 20:09:46","新北市金山區永興里忠義路29-2號","121.631218333333","25.2619816666667","6502700","金山區"
"251009","008-UM","2018/03/19 20:09:44","新北市淡水區清水街1-1號","121.445233333333","25.1703416666667","6501000","淡水區"
"251004","009-UM","2018/03/19 20:02:59","新北市淡水區民族路31巷14號","121.462681666667","25.1361366666667","6501000","淡水區"
"251005","010-UM","2018/03/19 20:09:41","新北市淡水區學府路126號","121.450373333333","25.1724833333333","6501000","淡水區"
"251002","012-UM","2018/03/19 20:09:43","新北市淡水區中正路284號","121.437863333333","25.1718016666667","6501000","淡水區"
"251013","179-VK","2018/03/19 20:09:43","新北市淡水區奎柔山路600號","121.469991666667","25.2053466666667","6501000","淡水區"
"251014","180-VK","2018/03/19 20:09:40","新北市淡水區石頭厝3號","121.458695","25.2355533333333","6501000","淡水區"
"251008","181-VK","2018/03/19 20:09:43","新北市淡水區淡海路72巷30弄1號","121.424406666667","25.18266","6501000","淡水區"
"251015","182-VK","2018/03/19 20:09:33","新北市淡水區埤島77-4號","121.450193333333","25.1913966666667","6501000","淡水區"
"251010","413-VK","2018/03/19 20:09:38","新北市淡水區新市二路二段2號","121.42572","25.1961733333333","6501000","淡水區"
"251012","441-VK","2018/03/19 20:09:43","新北市淡水區下圭柔山56-20號","121.447635","25.204455","6501000","淡水區"
"251016","442-VK","2018/03/19 20:09:32","新北市淡水區番子田25-5號","121.456473333333","25.2296083333333","6501000","淡水區"
"251006","561-UM","2018/03/19 20:09:34","新北市淡水區北新路141巷60弄11號","121.448148333333","25.1796683333333","6501000","淡水區"
"251003","766-UM","2018/03/19 20:09:41","新北市淡水區新市一路二段255號","121.443771666667","25.1836633333333","6501000","淡水區"
"207003","550-UM","2018/03/19 20:09:38","新北市萬里區大鵬里萬里加投180號","121.643005","25.2158","6502800","萬里區"
"207004","225-TW","2018/03/19 20:09:41","新北市萬里區北基里仁一街30號","121.682428333333","25.1766933333333","6502800","萬里區"
"252002","178-VK","2018/03/19 20:09:34","新北市三芝區三民街2號","121.504058333333","25.2580133333333","6502100","三芝區"
"252001","292-VK","2018/03/19 20:09:44","新北市三芝區公正街66號","121.499793333333","25.2574416666667","6502100","三芝區"
"237004","KEA-2597","2018/03/19 20:09:35","新北市三峽區嘉添177號","121.369256666667","24.9114483333333","6500900","三峽區"
"237012","275-BY","2018/03/19 20:09:44","新北市三峽區中華路48巷16號","121.371108333333","24.930085","6500900","三峽區"
"237008","302-VK","2018/03/19 20:09:46","新北市三峽區中正路一段174巷9號","121.371883333333","24.9288916666667","6500900","三峽區"
"237006","5529-G3","2018/03/19 20:09:30","新北市三峽區嘉添227-46號","121.370633333333","24.9116016666667","6500900","三峽區"
"237005","AKY-6261","2018/03/19 20:09:36","新北市三峽區三樹路44巷9號","121.37831","24.9376116666667","6500900","三峽區"
"236069","105-UM","2018/03/19 20:09:48","新北市土城區中央路三段183號","121.431158333333","24.9650916666667","6501300","土城區"
"236042","107-UM","2018/03/19 20:09:46","新北市土城區學成路22巷4號","121.453573333333","24.9872966666667","6501300","土城區"
"236078","166-UM","2018/03/19 20:09:45","新北市土城區三民路61巷1號","121.419661666667","24.9643116666667","6501300","土城區"
"236030","253-BX","2018/03/19 20:09:50","新北市土城區中央路一段143巷2弄1號","121.446983333333","24.9878283333333","6501300","土城區"
"236026","269-VK","2018/03/19 20:09:35","新北市土城區裕生路102巷5號","121.446231666667","24.9848183333333","6501300","土城區"
"236014","270-VK","2018/03/19 20:09:38","新北市土城區廣興街19號","121.455945","24.9916716666667","6501300","土城區"
"236036","271-VK","2018/03/19 20:09:30","新北市土城區明德路一段20巷1弄2號","121.46469","24.9848166666667","6501300","土城區"
"236020","401-BY","2018/03/19 20:09:38","新北市土城區延吉街54號","121.471615","24.98691","6501300","土城區"
"236058","912-UM","2018/03/19 20:09:46","新北市土城區中央路二段137號","121.442023333333","24.977095","6501300","土城區"
"236048","913-UM","2018/03/19 20:09:48","新北市土城區金城路三段115號","121.46773","24.987905","6501300","土城區"
"236062","915-UM","2018/03/19 20:09:41","新北市土城區延和路18巷14號","121.464473333333","24.9879716666667","6501300","土城區"
"236053","AAC-216","2018/03/19 20:09:29","新北市土城區中華路一段14號","121.447858333333","24.9905316666667","6501300","土城區"
"242034","AAC-296","2018/03/19 20:09:37","新北市新莊區中正路318巷18號","121.446433333333","25.0360083333333","6500500","新莊區"
"242058","986-R7","2018/03/19 20:09:35","新北市新莊區龍安路266巷2號","121.421633333333","25.0191416666667","6500500","新莊區"
"242053","751-BX","2018/03/19 20:09:44","新北市新莊區西盛街387巷34弄5號","121.428485","25.0129066666667","6500500","新莊區"
"242029","705-TV","2018/03/19 20:09:46","新北市新莊區中平路392號","121.444691666667","25.0538383333333","6500500","新莊區"
"242025","613-BX","2018/03/19 20:09:47","新北市新莊區五工三路79號","121.458668333333","25.06482","6500500","新莊區"
"242042","566-BX","2018/03/19 20:09:47","新北市新莊區青山路一段200-2號","121.398106666667","25.03159","6500500","新莊區"
"242046","497-BY","2018/03/19 20:09:47","新北市新莊區裕民街85巷22弄1號","121.41946","25.02296","6500500","新莊區"
"242050","441-UM","2018/03/19 20:09:36","新北市新莊區民安西路172巷6弄1號","121.425153333333","25.01627","6500500","新莊區"
"242056","440-UM","2018/03/19 20:09:43","新北市新莊區新莊路649巷15弄18-1號","121.445318333333","25.0315016666667","6500500","新莊區"
"242036","415-TV","2018/03/19 20:09:31","新北市新莊區建安街9巷7號","121.429261666667","25.0267433333333","6500500","新莊區"
"242007","413-TV","2018/03/19 20:09:48","新北市新莊區思源路453巷1號","121.459271666667","25.0533916666667","6500500","新莊區"
"242044","400-BY","2018/03/19 20:09:44","新北市新莊區中正路895-29號","121.412041666667","25.0217483333333","6500500","新莊區"
"242023","362-BY","2018/03/19 20:09:42","新北市新莊區化成路540-2號","121.466265","25.053405","6500500","新莊區"
"242060","353-BY","2018/03/19 20:09:36","新北市新莊區瓊林路瓊英巷1弄1號","121.443863333333","25.027185","6500500","新莊區"
"242009","132-UY","2018/03/19 20:09:46","新北市新莊區昌盛街35巷3弄1號","121.45409","25.05052","6500500","新莊區"
"242039","133-UY","2018/03/19 20:09:29","新北市新莊區民安西路90-2號","121.42681","25.0189666666667","6500500","新莊區"
"242031","135-UY","2018/03/19 20:09:35","新北市新莊區中正路449號","121.443111666667","25.0341333333333","6500500","新莊區"
"242048","172-VK","2018/03/19 20:09:46","新北市新莊區四維路152巷34號","121.421961666667","25.0223966666667","6500500","新莊區"
"242017","175-VK","2018/03/19 20:09:34","新北市新莊區中港路397號","121.451801666667","25.046815","6500500","新莊區"
"242004","176-VK","2018/03/19 20:09:48","新北市新莊區頭興街9巷1號","121.462283333333","25.053525","6500500","新莊區"
"242015","346-TH","2018/03/19 20:09:47","新北市新莊區中平路26巷23號","121.446038333333","25.0432966666667","6500500","新莊區"
"242021","348-TH","2018/03/19 20:09:44","新北市新莊區建中街48巷10弄8號","121.448435","25.0384366666667","6500500","新莊區"
"242002","349-TH","2018/03/19 20:09:38","新北市新莊區中正路33號","121.463875","25.0408916666667","6500500","新莊區"
"242013","351-TH","2018/03/19 20:09:33","新北市新莊區幸福路678巷3弄1號","121.45027","25.0496533333333","6500500","新莊區"
"238021","KEA-2539","2018/03/19 20:09:33","新北市樹林區田尾街224號","121.398221666667","24.9479583333333","6500700","樹林區"
"239006","891-R6","2018/03/19 20:09:32","新北市鶯歌區文化路115巷23號","121.357811666667","24.955085","6500800","鶯歌區"
"221008","489-VK","2018/03/19 20:09:42","新北市汐止區忠三街9巷32號","121.624425","25.0802733333333","6501100","汐止區"
"221036","130-UY","2018/03/19 20:09:45","新北市汐止區新台五路二段15號","121.662435","25.0660916666667","6501100","汐止區"
"221010","269-BY","2018/03/19 20:09:36","新北市汐止區八連路一段198巷2號","121.642928333333","25.08235","6501100","汐止區"
"221012","278-VK","2018/03/19 20:09:42","新北市汐止區汐平路二段44-1號","121.695378333333","25.064875","6501100","汐止區"
"221023","279-VK","2018/03/19 20:09:40","新北市汐止區明峰街298巷7弄2號","121.624923333333","25.0689283333333","6501100","汐止區"
"221032","280-BY","2018/03/19 20:09:34","新北市汐止區弘道街9巷2弄2號","121.617036666667","25.048815","6501100","汐止區"
"221027","281-BY","2018/03/19 20:09:46","新北市汐止區中正路133號","121.659965","25.069255","6501100","汐止區"
"221029","298-VK","2018/03/19 20:09:31","新北市汐止區樟樹一路119巷10弄1號","121.641223333333","25.0645583333333","6501100","汐止區"
"221021","299-VK","2018/03/19 20:09:49","新北市汐止區新台五路一段222-1號","121.656121666667","25.0632333333333","6501100","汐止區"
"221031","353-TW","2018/03/19 20:09:44","新北市汐止區原興路77號","121.631826666667","25.066365","6501100","汐止區"
"221035","622-UM","2018/03/19 20:09:43","新北市汐止區長江街67巷2弄1號","121.656703333333","25.0722483333333","6501100","汐止區"
"221025","623-UM","2018/03/19 20:09:47","新北市汐止區秀峰路60號","121.65963","25.06491","6501100","汐止區"
"221038","646-BX","2018/03/19 20:09:50","新北市汐止區大同路三段66-3號","121.668176666667","25.077285","6501100","汐止區"
"221033","647-BX","2018/03/19 20:09:38","新北市汐止區東勢街201巷104號","121.633503333333","25.0429133333333","6501100","汐止區"
"220079","145-BY","2018/03/19 20:09:46","新北市五股區新五路三段19號","121.44574","25.0894483333333","6500100","板橋區"
"220080","200-UY","2018/03/19 20:09:45","新北市板橋區大觀路二段169巷3號","121.44563","25.0001966666667","6500100","板橋區"
"220101","245-BX","2018/03/19 20:09:30","新北市板橋區莒光路171巷1弄18號","121.474575","25.0246233333333","6500100","板橋區"
"220072","277-BY","2018/03/19 20:09:49","新北市板橋區金門街121巷27號","121.434153333333","24.9912","6500100","板橋區"
"220064","282-UM","2018/03/19 20:09:35","新北市板橋區長安街331巷50-3號","121.47352","25.0129666666667","6500100","板橋區"
"220071","283-VK","2018/03/19 20:09:45","新北市板橋區廣權路125號","121.465513333333","24.9932133333333","6500100","板橋區"
"220053","285-VK","2018/03/19 20:09:49","新北市板橋區懷仁街93號","121.477563333333","25.0181433333333","6500100","板橋區"
"220083","286-VK","2018/03/19 20:09:31","新北市板橋區僑中二街90巷19號","121.445331666667","25.009255","6500100","板橋區"
"220081","287-VK","2018/03/19 20:09:42","新北市板橋區僑中一街124巷18弄25號","121.447186666667","25.0136383333333","6500100","板橋區"
"220090","288-VK","2018/03/19 20:09:48","新北市板橋區新海路107號","121.461236666667","25.02267","6500100","板橋區"
"220061","293-UM","2018/03/19 20:09:45","新北市板橋區觀光街66號","121.469908333333","25.0166916666667","6500100","板橋區"
"242011","281-VK","2018/03/19 20:09:41","新北市新莊區中信街67巷7號","121.448645","25.05072","6500500","新莊區"
"220092","307-R5","2018/03/19 20:09:31","新北市板橋區文化路一段71-1號","121.460815","25.014095","6500100","板橋區"
"220098","317-R6","2018/03/19 20:09:44","新北市板橋區新海路72巷5弄9號","121.461868333333","25.0224516666667","6500100","板橋區"
"220089","487-VK","2018/03/19 20:09:50","新北市板橋區互助街90號","121.460328333333","25.0262616666667","6500100","板橋區"
"242019","280-VK","2018/03/19 20:09:47","新北市新莊區長青街33號","121.456996666667","25.0422","6500500","新莊區"
"220088","491-VK","2018/03/19 20:09:36","新北市板橋區八德路二段62號","121.481923333333","25.0273633333333","6500100","板橋區"
"220103","561-BX","2018/03/19 20:09:46","新北市板橋區自由路26巷19號","121.466413333333","25.0225683333333","6500100","板橋區"
"220065","568-UM","2018/03/19 20:09:41","新北市板橋區板新路236號","121.468163333333","25.0163266666667","6500100","板橋區"
"220093","689-BX","2018/03/19 20:09:41","新北市板橋區長江路二段192號","121.467276666667","25.0321433333333","6500100","板橋區"
"220054","741-BX","2018/03/19 20:09:42","新北市板橋區實踐路93巷24號","121.464958333333","25.0053083333333","6500100","板橋區"
"220102","KEA-2699","2018/03/19 20:09:34","新北市板橋區懷德街68號","121.477488333333","25.0322916666667","6500100","板橋區"
"220055","827-TW","2018/03/19 20:09:47","新北市板橋區仁愛路86巷11弄2號","121.461035","24.9991866666667","6500100","板橋區"
"220067","829-TW","2018/03/19 20:09:36","新北市板橋區板新路115號","121.472403333333","25.01444","6500100","板橋區"
"220096","831-TW","2018/03/19 20:09:32","新北市板橋區莒光路79巷13-3號","121.472083333333","25.0246883333333","6500100","板橋區"
"220074","895-R6","2018/03/19 20:09:38","新北市板橋區明德街12號","121.459986666667","25.01043","6500100","板橋區"
"220073","985-R7","2018/03/19 20:09:45","新北市板橋區大觀路一段28巷30號","121.449875","25.0094866666667","6500100","板橋區"
"220097","AAC-210","2018/03/19 20:09:40","新北市板橋區光正街18巷2號","121.462738333333","25.0172866666667","6500100","板橋區"
"220070","AAC-253","2018/03/19 20:09:34","新北市板橋區德興街26號","121.45344","24.9940016666667","6500100","板橋區"
