"lineid","car","time","location","longitude","latitude","cityid","cityname"
"234046","148-BY","2018/03/19 20:19:36","新北市永和區得和路322號","121.522871666667","24.9995533333333","6500400","永和區"
"234007","207-UY","2018/03/19 20:19:36","新北市永和區仁愛路306巷40號","121.502165","25.00895","6500400","永和區"
"234081","298-R6","2018/03/19 20:19:34","新北市永和區國中路138-1號","121.523426666667","25.0068133333333","6500400","永和區"
"234038","336-UY","2018/03/19 20:19:29","新北市永和區成功路一段93巷21弄2號","121.52834","25.002655","6500400","永和區"
"234064","337-UY","2018/03/19 20:19:32","新北市永和區得和路120號","121.51855","25.0001483333333","6500400","永和區"
"234086","338-UY","2018/03/19 20:19:28","新北市永和區永和路二段50號","121.514753333333","25.0108716666667","6500400","永和區"
"234070","552-UM","2018/03/19 20:19:38","新北市永和區永安街14號","121.519093333333","25.00616","6500400","永和區"
"234017","745-BX","2018/03/19 20:19:24","新北市永和區永和路二段185號","121.515016666667","25.0134933333333","6500400","永和區"
"234030","746-BX","2018/03/19 20:19:42","新北市中和區立人街14巷73號","121.518383333333","24.9956266666667","6500400","永和區"
"234054","KEA-2590","2018/03/19 20:19:40","新北市永和區光復街2巷24號","121.517576666667","25.0165516666667","6500400","永和區"
"234013","KEA-2591","2018/03/19 20:19:44","新北市永和區保生路5巷1號","121.506223333333","25.0071416666667","6500400","永和區"
"234061","AAD-866","2018/03/19 20:19:47","新北市永和區得和路29號","121.515885","25.000235","6500400","永和區"
"234042","862-TW","2018/03/19 20:19:32","新北市中和區中安街178巷2號","121.511016666667","24.9995833333333","6500400","永和區"
"234050","863-TW","2018/03/19 20:19:43","新北市永和區文化路212號","121.510048333333","25.0166966666667","6500400","永和區"
"249005","172-UM","2018/03/19 20:19:25","新北市八里區下罟子2-17號","121.388325","25.1410483333333","6502300","八里區"
"249001","173-UM","2018/03/19 20:19:45","新北市八里區中華路二段468號","121.400713333333","25.1460866666667","6502300","八里區"
"249004","303-UY","2018/03/19 20:05:04","新北市八里區埤頭二街67巷7號","121.412168333333","25.1551483333333","6502300","八里區"
"249002","305-UY","2018/03/19 20:19:32","新北市八里區龍米路一段172-1號","121.45244","25.1265116666667","6502300","八里區"
"249003","593-UM","2018/03/19 20:19:33","新北市八里區訊塘路25號","121.397688333333","25.14535","6502300","八里區"
"248016","026-BX","2018/03/19 20:19:36","新北市五股區凌雲路一段158巷44號","121.447133333333","25.1038183333333","6501500","五股區"
"248012","247-BX","2018/03/19 20:19:28","新北市五股區民義路一段212號","121.430581666667","25.0893633333333","6501500","五股區"
"248004","677-BX","2018/03/19 20:19:46","新北市五股區中興路四段23號","121.438911666667","25.0826866666667","6501500","五股區"
"248002","678-BX","2018/03/19 20:19:35","新北市五股區成泰路三段165號","121.44518","25.0917983333333","6501500","五股區"
"248010","682-TV","2018/03/19 20:19:38","新北市五股區成泰路一段2-8號","121.434151666667","25.0671183333333","6501500","五股區"
"234023","9380-KE","2018/03/19 20:19:42","新北市永和區永和路二段228號","121.516105","25.0142483333333","6500400","永和區"
"234077","969-R7","2018/03/19 20:19:36","新北市永和區民享街2巷1號","121.514808333333","24.9957716666667","6500400","永和區"
"234074","AAC-211","2018/03/19 20:19:42","新北市永和區豫溪街199號","121.523278333333","25.0097733333333","6500400","永和區"
"234067","AAC-212","2018/03/19 20:19:41","新北市永和區保平路268巷4號","121.508288333333","25.0056","6500400","永和區"
"234003","AAC-295","2018/03/19 20:19:34","新北市永和區自強街19巷2號","121.514845","25.0080416666667","6500400","永和區"
"243012","AAD-798","2018/03/19 20:19:39","新北市泰山區楓江路121號","121.43908","25.0645666666667","6501600","泰山區"
"243011","297-R6","2018/03/19 20:19:41","新北市泰山區貴陽街36巷3號","121.423018333333","25.0320716666667","6501600","泰山區"
"243015","380-SR","2018/03/19 20:19:27","新北市泰山區明志路一段310號","121.431706666667","25.0595266666667","6501600","泰山區"
"243014","421-VK","2018/03/19 20:19:43","新北市泰山區泰林路二段328號","121.430085","25.0631016666667","6501600","泰山區"
"243010","KEA-2215","2018/03/19 20:19:31","新北市泰山區明志路二段254巷2號","121.426708333333","25.0476733333333","6501600","泰山區"
"243009","KEA-2216","2018/03/19 20:19:43","新北市泰山區泰林路二段262號","121.43167","25.06238","6501600","泰山區"
"243013","646-TV","2018/03/19 20:19:41","新北市泰山區中央路5巷14號","121.42719","25.0433716666667","6501600","泰山區"
"243016","680-BX","2018/03/19 20:19:30","新北市泰山區新生路49號","121.427823333333","25.045195","6501600","泰山區"
"222003","436-BY","2018/03/19 20:19:32","新北市深坑區文化街43號","121.61765","25.0018516666667","6501800","深坑區"
"222002","659-BX","2018/03/19 20:19:33","新北市深坑區萬福路69-1號","121.601871666667","25.0088733333333","6501800","深坑區"
"231041","002-UM","2018/03/19 20:19:28","新北市新店區民權路42-1號","121.540316666667","24.9829566666667","6500600","新店區"
"231059","046-UY","2018/03/19 20:19:35","新北市新店區安德街151號","121.508393333333","24.9599","6500600","新店區"
"231061","047-UY","2018/03/19 20:19:32","新北市新店區安興路32號","121.51572","24.9704266666667","6500600","新店區"
"231060","106-UY","2018/03/19 20:19:32","新北市新店區錦秀路1-3號","121.479063333333","24.9454933333333","6500600","新店區"
"231051","107-UY","2018/03/19 20:19:44","新北市新店區中央六街55號","121.527956666667","24.9758533333333","6500600","新店區"
"231052","187-VK","2018/03/19 20:19:37","新北市新店區新烏路二段321號","121.549898333333","24.910945","6500600","新店區"
"231050","KEA-2219","2018/03/19 20:19:36","新北市新店區博愛街9巷2號","121.540766666667","24.9729433333333","6500600","新店區"
"221015","KEA-2785","2018/03/19 20:19:28","新北市汐止區建成路142巷19弄17號","121.661825","25.0739133333333","6501100","汐止區"
"231057","256-BX","2018/03/19 20:19:38","新北市新店區花園五路二段27號","121.554635","24.934585","6500600","新店區"
"231054","AAD-862","2018/03/19 20:19:32","新北市新店區檳榔路109號","121.54451","24.96166","6500600","新店區"
"231058","3712-VJ","2018/03/19 20:19:31","新北市新店區安和路三段4巷3號","121.519925","24.980795","6500600","新店區"
"231056","3713-VJ","2018/03/19 20:19:35","新北市新店區中正路326號","121.536945","24.9748583333333","6500600","新店區"
"231055","4716-K9","2018/03/19 20:19:34","新北市新店區北新路一段303號","121.541361666667","24.9675766666667","6500600","新店區"
"231067","4772-VM","2018/03/19 20:19:31","新北市新店區溪洲路8巷114號","121.533216666667","24.9628633333333","6500600","新店區"
"231065","512-UM","2018/03/19 20:19:42","新北市新店區安祥路104-10號","121.479158333333","24.9620533333333","6500600","新店區"
"231049","513-UM","2018/03/19 20:16:35","新北市新店區中正路114號","121.542595","24.97095","6500600","新店區"
"231064","515-UM","2018/03/19 20:19:42","新北市新店區安利街26號","121.519211666667","24.9746183333333","6500600","新店區"
"231045","617-UM","2018/03/19 20:19:32","新北市新店區新坡一街72號","121.54892","24.9645466666667","6500600","新店區"
"231040","619-UM","2018/03/19 20:19:35","新北市新店區三民路21巷2號","121.53877","24.9709583333333","6500600","新店區"
"231042","641-BX","2018/03/19 20:19:24","新北市新店區寶橋路230號","121.551478333333","24.97882","6500600","新店區"
"231063","645-TV","2018/03/19 20:19:27","新北市新店區車子路1-1號","121.504755","24.9578083333333","6500600","新店區"
"231068","718-UY","2018/03/19 20:19:31","新北市新店區民權路9號","121.54249","24.9828866666667","6500600","新店區"
"231047","719-UY","2018/03/19 20:19:26","新北市新店區寶橋路80號","121.546221666667","24.97552","6500600","新店區"
"231062","720-UM","2018/03/19 20:19:30","新北市新店區安泰路7巷16號","121.485685","24.9509816666667","6500600","新店區"
"231044","897-TW","2018/03/19 20:19:42","新北市新店區北新路三段148號","121.54158","24.9824083333333","6500600","新店區"
"231043","899-TW","2018/03/19 20:19:35","新北市新店區建國路133號","121.539245","24.9781683333333","6500600","新店區"
"231066","AKT-0513","2018/03/19 20:19:40","新北市新店區安興路112號","121.51462","24.9775866666667","6500600","新店區"
"241011","013-R5","2018/03/19 20:19:29","新北市三重區龍濱路257號","121.501505","25.0728816666667","6500200","三重區"
"241028","022-UY","2018/03/19 20:19:29","新北市三重區大同南路100號","121.496246666667","25.0587816666667","6500200","三重區"
"241008","059-VK","2018/03/19 20:19:31","新北市三重區永福街209號","121.47996","25.0744033333333","6500200","三重區"
"241009","060-VK","2018/03/19 20:19:29","新北市三重區三和路四段382巷2號","121.481816666667","25.0786466666667","6500200","三重區"
"241031","061-VK","2018/03/19 20:19:25","新北市三重區三寧街15號","121.48942","25.0597533333333","6500200","三重區"
"241015","062-VK","2018/03/19 20:19:40","新北市三重區重新路一段112號","121.50064","25.0631","6500200","三重區"
"241017","063-VK","2018/03/19 20:19:35","新北市三重區自強路一段157號","121.493288333333","25.0671333333333","6500200","三重區"
"241024","065-VK","2018/03/19 20:19:39","新北市三重區忠孝路三段13號","121.481618333333","25.0673533333333","6500200","三重區"
"241026","066-VK","2018/03/19 20:19:31","新北市三重區中央南路63-1號","121.501231666667","25.0611533333333","6500200","三重區"
"241002","090-VK","2018/03/19 20:19:36","新北市三重區仁忠街17號","121.497016666667","25.0826666666667","6500200","三重區"
"241003","091-VK","2018/03/19 20:19:41","新北市三重區富華街78號","121.490735","25.083305","6500200","三重區"
"241005","262-UM","2018/03/19 20:19:34","新北市三重區碧華街233號","121.489025","25.08284","6500200","三重區"
"241016","265-UM","2018/03/19 20:19:28","新北市三重區大同北路97-3號","121.494425","25.063625","6500200","三重區"
"241022","267-UM","2018/03/19 20:19:37","新北市三重區市前街14號","121.489106666667","25.0623883333333","6500200","三重區"
"241018","268-UM","2018/03/19 20:19:30","新北市三重區自強路一段91號","121.496023333333","25.0663316666667","6500200","三重區"
"241032","269-UM","2018/03/19 20:19:37","新北市三重區捷運路19巷6弄20號","121.48439","25.05677","6500200","三重區"
"241013","270-UM","2018/03/19 20:19:37","新北市三重區三和路三段167巷17號","121.492615","25.0742733333333","6500200","三重區"
"241025","271-UM","2018/03/19 20:19:35","新北市三重區三民街220號","121.480188333333","25.0671483333333","6500200","三重區"
"241007","398-BY","2018/03/19 20:19:27","新北市三重區溪尾街108巷56號","121.487213333333","25.0781216666667","6500200","三重區"
"241020","413-TH","2018/03/19 20:19:31","新北市三重區三和路四段20巷24-1號","121.489991666667","25.07367","6500200","三重區"
"241035","462-BY","2018/03/19 20:19:28","新北市三重區正義北路33巷52號","121.499088333333","25.06392","6500200","三重區"
"241004","475-VK","2018/03/19 20:19:26","新北市三重區仁政街201巷3號","121.490646666667","25.080365","6500200","三重區"
"241001","478-VK","2018/03/19 20:19:41","新北市三重區自強路四段3巷27號","121.48981","25.0763866666667","6500200","三重區"
"241030","480-VK","2018/03/19 20:19:43","新北市三重區集美街89巷23號","121.4883","25.0527","6500200","三重區"
"241014","543-UM","2018/03/19 20:19:40","新北市三重區長榮路97號","121.503025","25.06913","6500200","三重區"
"241023","545-UM","2018/03/19 20:19:37","新北市三重區忠孝路三段99巷15號","121.47953","25.06431","6500200","三重區"
"241019","KEA-2593","2018/03/19 20:19:29","新北市三重區自強路二段47巷47號","121.490446666667","25.0701316666667","6500200","三重區"
"241012","941-UM","2018/03/19 20:19:34","新北市三重區河邊北街379-1號","121.501718333333","25.07653","6500200","三重區"
"241029","942-UM","2018/03/19 20:19:40","新北市三重區光明路116號","121.492695","25.056065","6500200","三重區"
"241033","AAC-255","2018/03/19 20:19:40","新北市三重區五谷王北街77號","121.475738333333","25.0502716666667","6500200","三重區"
"235066","003-UY","2018/03/19 20:19:44","新北市中和區南工路94巷2號","121.507095","25.00285","6500300","中和區"
"235039","097-UM","2018/03/19 20:19:32","新北市中和區立人街24-5號","121.518795","24.994135","6500300","中和區"
"235065","098-UM","2018/03/19 20:19:28","新北市中和區永和路128巷47號","121.49769","25.0068633333333","6500300","中和區"
"235068","377-QA","2018/03/19 20:19:35","新北市中和區福美路267號","121.498316666667","25.005085","6500300","中和區"
"235050","4979-A6","2018/03/19 20:19:33","新北市中和區景平路396號","121.509718333333","24.9930033333333","6500300","中和區"
"235069","4980-A6","2018/03/19 20:19:30","新北市中和區圓通路229號","121.496315","24.9942266666667","6500300","中和區"
"235059","AAC-215","2018/03/19 20:19:39","新北市中和區圓通路447號","121.485115","24.9866516666667","6500300","中和區"
"220068","013-TV","2018/03/19 20:19:29","新北市三重區五谷王北街161-1號","121.478131666667","25.0535783333333","6500100","板橋區"
"247024","893-R6","2018/03/19 20:19:45","新北市蘆洲區光榮路120巷8弄39號","121.46454","25.0879866666667","6501400","蘆洲區"
"247014","546-UM","2018/03/19 20:19:43","新北市蘆洲區中山二路137巷10號","121.47205","25.08124","6501400","蘆洲區"
"247022","500-BY","2018/03/19 20:19:33","新北市蘆洲區中正路192巷2弄2號","121.467651666667","25.0883633333333","6501400","蘆洲區"
"247010","341-TH","2018/03/19 20:19:29","新北市蘆洲區信義路188巷25弄1號","121.480386666667","25.0846183333333","6501400","蘆洲區"
"247012","339-TH","2018/03/19 20:19:40","新北市蘆洲區中興街38-1號","121.48129","25.0869983333333","6501400","蘆洲區"
"247004","337-TH","2018/03/19 20:19:45","新北市蘆洲區長榮路269巷32號","121.45951","25.085875","6501400","蘆洲區"
"247006","336-TH","2018/03/19 20:19:37","新北市蘆洲區九芎街136號","121.465073333333","25.0790766666667","6501400","蘆洲區"
"247018","057-VK","2018/03/19 20:19:29","新北市蘆洲區民族路408巷18-1號","121.475053333333","25.0922433333333","6501400","蘆洲區"
"247008","056-VK","2018/03/19 20:19:37","新北市蘆洲區集賢路229-1號","121.482098333333","25.085865","6501400","蘆洲區"
"247016","007-UY","2018/03/19 20:19:34","新北市蘆洲區光華路150巷19號","121.465168333333","25.08315","6501400","蘆洲區"
"247002","002-UY","2018/03/19 20:19:34","新北市蘆洲區環堤大道98號","121.455383333333","25.08637","6501400","蘆洲區"
"222001","KEA-2212","2018/03/19 20:19:42","新北市深坑區北深路三段256號","121.599761666667","25.0043883333333","6501800","深坑區"
"251002","012-UM","2018/03/19 20:19:40","新北市淡水區中正路63號","121.441491666667","25.1695083333333","6501000","淡水區"
"251013","179-VK","2018/03/19 20:19:43","新北市淡水區水汴頭4-3號","121.475298333333","25.2044283333333","6501000","淡水區"
"251014","180-VK","2018/03/19 20:19:40","新北市淡水區石頭厝3號","121.458686666667","25.2355616666667","6501000","淡水區"
"251008","181-VK","2018/03/19 20:19:43","新北市淡水區淡海路180巷27號","121.421751666667","25.1845566666667","6501000","淡水區"
"251015","182-VK","2018/03/19 20:19:33","新北市淡水區埤島28號","121.447463333333","25.1982966666667","6501000","淡水區"
"251010","413-VK","2018/03/19 20:19:38","新北市淡水區新民街一段132號","121.427646666667","25.188825","6501000","淡水區"
"251012","441-VK","2018/03/19 20:19:43","新北市淡水區淡金路三段358號","121.449313333333","25.2093066666667","6501000","淡水區"
"251016","442-VK","2018/03/19 20:19:32","新北市淡水區淡金路五段20號","121.453166666667","25.232485","6501000","淡水區"
"251006","561-UM","2018/03/19 20:19:34","新北市淡水區淡金路一段571號","121.452653333333","25.1805383333333","6501000","淡水區"
"251003","766-UM","2018/03/19 20:19:41","新北市淡水區中山北路一段229號","121.444511666667","25.1795216666667","6501000","淡水區"
"207004","225-TW","2018/03/19 20:19:41","新北市萬里區北基里仁四街2號","121.682103333333","25.1753883333333","6502800","萬里區"
"252002","178-VK","2018/03/19 20:19:34","新北市三芝區中正路一段23號","121.50296","25.25859","6502100","三芝區"
"252001","292-VK","2018/03/19 20:19:44","新北市三芝區中山路一段14號","121.500703333333","25.258025","6502100","三芝區"
"237006","5529-G3","2018/03/19 20:19:30","新北市三峽區中園街86巷8號","121.367288333333","24.925125","6500900","三峽區"
"237005","AKY-6261","2018/03/19 20:19:36","新北市三峽區三樹路98巷175號","121.38459","24.93992","6500900","三峽區"
"236069","105-UM","2018/03/19 20:19:28","新北市土城區中山路38-1號","121.425628333333","24.9644","6501300","土城區"
"236042","107-UM","2018/03/19 20:19:46","新北市土城區裕民路95號","121.450405","24.98711","6501300","土城區"
"236078","166-UM","2018/03/19 20:19:43","新北市土城區德安街12號","121.421798333333","24.9645766666667","6501300","土城區"
"236030","253-BX","2018/03/19 20:19:30","新北市土城區學成路128巷11號","121.44949","24.9900783333333","6501300","土城區"
"236026","269-VK","2018/03/19 20:19:41","新北市土城區裕生路86巷3號","121.44677","24.98522","6501300","土城區"
"236014","270-VK","2018/03/19 20:19:38","新北市土城區廣明街90巷18號","121.455421666667","24.9945016666667","6501300","土城區"
"236036","271-VK","2018/03/19 20:19:30","新北市土城區延吉街280號","121.465265","24.98429","6501300","土城區"
"236020","401-BY","2018/03/19 20:19:34","新北市土城區延吉街65號","121.472138333333","24.9874033333333","6501300","土城區"
"236058","912-UM","2018/03/19 20:19:27","新北市土城區中央路三段38號","121.438343333333","24.9687633333333","6501300","土城區"
"242034","AAC-296","2018/03/19 20:19:47","新北市新莊區建中街116巷3弄2號","121.445453333333","25.0370933333333","6500500","新莊區"
"242058","986-R7","2018/03/19 20:19:35","新北市新莊區四維路201-1號","121.421965","25.0205533333333","6500500","新莊區"
"242053","751-BX","2018/03/19 20:19:24","新北市新莊區民安西路282號","121.426116666667","25.0125633333333","6500500","新莊區"
"242029","705-TV","2018/03/19 20:19:46","新北市新莊區中原路297號","121.447785","25.0543966666667","6500500","新莊區"
"242025","613-BX","2018/03/19 20:19:41","新北市新莊區五工二路70巷16號","121.460901666667","25.0664466666667","6500500","新莊區"
"242042","566-BX","2018/03/19 20:19:35","新北市新莊區壽山路45號","121.414818333333","25.0310266666667","6500500","新莊區"
"242046","497-BY","2018/03/19 20:19:44","新北市新莊區中正路新生巷23號","121.416923333333","25.0236483333333","6500500","新莊區"
"242050","441-UM","2018/03/19 20:19:40","新北市新莊區民安西路212巷12-1號","121.424965","25.0151933333333","6500500","新莊區"
"242056","440-UM","2018/03/19 20:19:40","新北市新莊區豐年街28巷27號","121.445276666667","25.0323116666667","6500500","新莊區"
"242036","415-TV","2018/03/19 20:19:31","新北市新莊區後港一路56巷24弄8號","121.42636","25.025265","6500500","新莊區"
"242007","413-TV","2018/03/19 20:19:28","新北市新莊區福壽街136巷38號","121.459235","25.0516233333333","6500500","新莊區"
"242044","400-BY","2018/03/19 20:19:44","新北市新莊區中正路新建巷28弄83號","121.413531666667","25.0213833333333","6500500","新莊區"
"242023","362-BY","2018/03/19 20:19:42","新北市新莊區化成路379號","121.465336666667","25.0581783333333","6500500","新莊區"
"242060","353-BY","2018/03/19 20:19:36","新北市新莊區新樹路172-13號","121.434643333333","25.021725","6500500","新莊區"
"242009","132-UY","2018/03/19 20:19:30","新北市新莊區昌平街10號","121.454981666667","25.0526766666667","6500500","新莊區"
"242039","133-UY","2018/03/19 20:19:28","新北市新莊區龍安路457號","121.424651666667","25.0185066666667","6500500","新莊區"
"242031","135-UY","2018/03/19 20:19:40","新北市新莊區三和路13-6號","121.439075","25.0360966666667","6500500","新莊區"
"242048","172-VK","2018/03/19 20:19:40","新北市新莊區龍安路230號","121.420476666667","25.0198083333333","6500500","新莊區"
"242017","175-VK","2018/03/19 20:19:34","新北市新莊區中港一街95號","121.449251666667","25.0452616666667","6500500","新莊區"
"242004","176-VK","2018/03/19 20:19:28","新北市新莊區頭前路16號","121.468078333333","25.0524566666667","6500500","新莊區"
"242015","346-TH","2018/03/19 20:19:27","新北市新莊區中和街31巷22號","121.44718","25.0439016666667","6500500","新莊區"
"242021","348-TH","2018/03/19 20:19:44","新北市新莊區復興路一段3號","121.44557","25.0414966666667","6500500","新莊區"
"242002","349-TH","2018/03/19 20:19:38","新北市新莊區化成路7-1號","121.464911666667","25.04297","6500500","新莊區"
"242013","351-TH","2018/03/19 20:19:33","新北市新莊區中和街186巷13號","121.448098333333","25.0498116666667","6500500","新莊區"
"221008","489-VK","2018/03/19 20:19:42","新北市汐止區康寧街227號","121.623426666667","25.06679","6501100","汐止區"
"221036","130-UY","2018/03/19 20:19:25","新北市汐止區福安街61巷18號","121.665066666667","25.063545","6501100","汐止區"
"221010","269-BY","2018/03/19 20:19:36","新北市汐止區八連路二段280號","121.631515","25.097295","6501100","汐止區"
"221012","278-VK","2018/03/19 20:19:42","新北市汐止區保新街275號","121.692395","25.0685683333333","6501100","汐止區"
"221023","279-VK","2018/03/19 20:19:40","新北市汐止區明峰街125號","121.630653333333","25.07106","6501100","汐止區"
"221032","280-BY","2018/03/19 20:19:34","新北市汐止區弘道街53巷2號","121.618686666667","25.0483716666667","6501100","汐止區"
"221027","281-BY","2018/03/19 20:19:46","新北市汐止區大同路二段353號","121.656958333333","25.06721","6501100","汐止區"
"221029","298-VK","2018/03/19 20:19:31","新北市汐止區工建路98號","121.63964","25.06353","6501100","汐止區"
"221021","299-VK","2018/03/19 20:19:29","新北市汐止區連興街140號","121.653945","25.061545","6501100","汐止區"
"221031","353-TW","2018/03/19 20:19:44","新北市汐止區中興路150巷6號","121.632985","25.0648233333333","6501100","汐止區"
"221035","622-UM","2018/03/19 20:19:43","新北市汐止區長江街101-5號","121.658716666667","25.073155","6501100","汐止區"
"221025","623-UM","2018/03/19 20:19:34","新北市汐止區水源路二段72巷9弄3號","121.655716666667","25.0556683333333","6501100","汐止區"
"221038","646-BX","2018/03/19 20:19:30","新北市汐止區忠孝東路466號","121.6663","25.0731816666667","6501100","汐止區"
"221033","647-BX","2018/03/19 20:19:38","新北市汐止區東勢街215巷3弄3號","121.634161666667","25.0428533333333","6501100","汐止區"
"221002","707-TV","2018/03/19 20:19:34","新北市汐止區福德三路99號","121.63584","25.0688233333333","6501100","汐止區"
"220079","145-BY","2018/03/19 20:19:46","新北市八里區下罟子17號","121.382416666667","25.14424","6500100","板橋區"
"220080","200-UY","2018/03/19 20:19:45","新北市板橋區大觀路二段179巷24號","121.445838333333","24.9996416666667","6500100","板橋區"
"220101","245-BX","2018/03/19 20:19:30","新北市板橋區雙十路一段44巷36號","121.477395","25.02485","6500100","板橋區"
"220072","277-BY","2018/03/19 20:19:28","新北市板橋區金門街273號","121.43151","24.988355","6500100","板橋區"
"220083","286-VK","2018/03/19 20:19:31","新北市板橋區僑中二街102巷22-4號","121.445235","25.00842","6500100","板橋區"
"220081","287-VK","2018/03/19 20:19:36","新北市板橋區僑中一街80巷5弄3號","121.447628333333","25.0125033333333","6500100","板橋區"
"220061","293-UM","2018/03/19 20:19:45","新北市板橋區中山路一段120號","121.462996666667","25.01072","6500100","板橋區"
"242011","281-VK","2018/03/19 20:19:44","新北市新莊區中信街31號","121.450568333333","25.0507966666667","6500500","新莊區"
"220089","487-VK","2018/03/19 20:19:30","新北市板橋區四維路174號","121.46466","25.0262716666667","6500100","板橋區"
"242019","280-VK","2018/03/19 20:19:27","新北市新莊區復興路二段187號","121.459088333333","25.0445016666667","6500500","新莊區"
"220103","561-BX","2018/03/19 20:19:26","新北市板橋區陽明街279巷4-4號","121.461815","25.0260666666667","6500100","板橋區"
"220065","568-UM","2018/03/19 20:19:21","新北市三重區五谷王北街161-1號","121.478043333333","25.05377","6500100","板橋區"
"220102","KEA-2699","2018/03/19 20:19:34","新北市板橋區文聖街101號","121.4777","25.0295483333333","6500100","板橋區"
"220055","827-TW","2018/03/19 20:19:45","新北市板橋區仁愛路23號","121.458951666667","24.99947","6500100","板橋區"
"220074","895-R6","2018/03/19 20:19:38","新北市板橋區館前西路61號","121.45768","25.0069716666667","6500100","板橋區"
"220097","AAC-210","2018/03/19 20:19:40","新北市板橋區光正街9巷2弄1號","121.462706666667","25.0167733333333","6500100","板橋區"
"220070","AAC-253","2018/03/19 20:19:36","新北市板橋區四川路二段245巷12-1號","121.450858333333","24.9930383333333","6500100","板橋區"
