"lineid","car","time","location","longitude","latitude","cityid","cityname"
"234081","298-R6","2018/03/19 20:27:34","新北市永和區永貞路54號","121.520803333333","25.005815","6500400","永和區"
"234038","336-UY","2018/03/19 20:27:45","新北市永和區民樂街31巷19弄1號","121.528595","25.0022616666667","6500400","永和區"
"234064","337-UY","2018/03/19 20:27:39","新北市永和區中正路417號","121.517183333333","25.004765","6500400","永和區"
"234086","338-UY","2018/03/19 20:27:47","新北市永和區永和路二段284號","121.516028333333","25.015525","6500400","永和區"
"234070","552-UM","2018/03/19 20:27:45","新北市永和區永寧街95號","121.518695","25.0066333333333","6500400","永和區"
"234017","745-BX","2018/03/19 20:27:44","新北市永和區仁愛路87號","121.513106666667","25.0132033333333","6500400","永和區"
"234030","746-BX","2018/03/19 20:27:41","新北市永和區民族街81巷28號","121.519036666667","24.99655","6500400","永和區"
"234054","KEA-2590","2018/03/19 20:27:38","新北市永和區光復街60巷25號","121.517758333333","25.0175083333333","6500400","永和區"
"234013","KEA-2591","2018/03/19 20:27:41","新北市永和區仁愛路284號","121.503263333333","25.0085733333333","6500400","永和區"
"234061","AAD-866","2018/03/19 20:27:47","新北市永和區安樂路194巷19號","121.515848333333","25.001015","6500400","永和區"
"234042","862-TW","2018/03/19 20:27:32","新北市永和區安樂路248號","121.514706666667","25.0032716666667","6500400","永和區"
"234050","863-TW","2018/03/19 20:27:34","新北市永和區新生路147巷2弄6號","121.507348333333","25.01476","6500400","永和區"
"249001","173-UM","2018/03/19 20:27:45","新北市八里區商港路32號","121.396626666667","25.1448566666667","6502300","八里區"
"249004","303-UY","2018/03/19 20:27:44","新北市八里區中山路一段129巷27號","121.413995","25.15856","6502300","八里區"
"249002","305-UY","2018/03/19 20:27:32","新北市八里區龍米路二段109-1號","121.447421666667","25.1428216666667","6502300","八里區"
"249003","593-UM","2018/03/19 20:27:33","新北市八里區華峰一街27號","121.399088333333","25.146455","6502300","八里區"
"248002","678-BX","2018/03/19 20:27:35","新北市五股區成泰路三段6號","121.441196666667","25.0876816666667","6501500","五股區"
"234023","9380-KE","2018/03/19 20:27:42","新北市永和區光復街2巷16弄27號","121.51808","25.0163266666667","6500400","永和區"
"234077","969-R7","2018/03/19 20:27:36","新北市中和區中山路二段441號","121.484521666667","25.00458","6500400","永和區"
"234074","AAC-211","2018/03/19 20:27:42","新北市永和區竹林路201巷26弄7號","121.522586666667","25.0102333333333","6500400","永和區"
"234067","AAC-212","2018/03/19 20:27:47","新北市永和區保平路292巷42號","121.507486666667","25.0052883333333","6500400","永和區"
"234003","AAC-295","2018/03/19 20:27:47","新北市永和區大新街40號","121.515621666667","25.008305","6500400","永和區"
"243012","AAD-798","2018/03/19 20:27:39","新北市泰山區楓江路1號","121.433311666667","25.0626916666667","6501600","泰山區"
"243011","297-R6","2018/03/19 20:27:41","新北市泰山區明志路三段203號","121.424175","25.0384516666667","6501600","泰山區"
"243015","380-SR","2018/03/19 20:27:47","新北市泰山區仁德路69號","121.434271666667","25.0565166666667","6501600","泰山區"
"243014","421-VK","2018/03/19 20:27:43","新北市泰山區泰林路二段457號","121.42569","25.06388","6501600","泰山區"
"243010","KEA-2215","2018/03/19 20:27:30","新北市泰山區新生路33-9號","121.42773","25.0457716666667","6501600","泰山區"
"243009","KEA-2216","2018/03/19 20:27:43","新北市泰山區忠孝街40巷3號","121.428488333333","25.06532","6501600","泰山區"
"243016","680-BX","2018/03/19 20:27:45","新北市泰山區民權街82號","121.42815","25.04961","6501600","泰山區"
"222003","436-BY","2018/03/19 20:27:32","新北市深坑區北深路二段125號","121.615915","25.002385","6501800","深坑區"
"222002","659-BX","2018/03/19 20:27:33","新北市深坑區萬福路16巷26號","121.608246666667","25.008575","6501800","深坑區"
"231041","002-UM","2018/03/19 20:27:28","新北市新店區中正路520號","121.533738333333","24.9837133333333","6500600","新店區"
"231059","046-UY","2018/03/19 20:27:47","新北市新店區安豐路46號","121.500108333333","24.954955","6500600","新店區"
"231061","047-UY","2018/03/19 20:27:33","新北市新店區安和路三段46號","121.51797","24.9819983333333","6500600","新店區"
"231060","106-UY","2018/03/19 20:27:32","新北市新店區錦秀路5號","121.479475","24.94484","6500600","新店區"
"231051","107-UY","2018/03/19 20:27:44","新北市新店區中央七街109號","121.525791666667","24.9776183333333","6500600","新店區"
"231052","187-VK","2018/03/19 20:27:37","新北市新店區松林路16巷31號","121.546038333333","24.9102183333333","6500600","新店區"
"231050","KEA-2219","2018/03/19 20:27:33","新北市新店區明德路41號","121.541308333333","24.9756666666667","6500600","新店區"
"221015","KEA-2785","2018/03/19 20:27:48","新北市汐止區建成路142巷19弄17號","121.661825","25.073875","6501100","汐止區"
"231057","256-BX","2018/03/19 20:27:45","新北市新店區花園五路二段3號","121.553633333333","24.9342283333333","6500600","新店區"
"231054","AAD-862","2018/03/19 20:27:32","新北市新店區檳榔路105號","121.544653333333","24.9616283333333","6500600","新店區"
"231058","3712-VJ","2018/03/19 20:27:51","新北市新店區自由街26號","121.534983333333","24.9744916666667","6500600","新店區"
"231056","3713-VJ","2018/03/19 20:27:46","新北市新店區建安街33巷28號","121.538306666667","24.9753633333333","6500600","新店區"
"231067","4772-VM","2018/03/19 20:27:31","新北市新店區安華路28-1號","121.51959","24.9608883333333","6500600","新店區"
"231065","512-UM","2018/03/19 20:27:42","新北市新店區安祥路102巷42弄35號","121.48528","24.9633933333333","6500600","新店區"
"231049","513-UM","2018/03/19 20:27:35","新北市新店區永業路81巷60號","121.52919","24.94814","6500600","新店區"
"231064","515-UM","2018/03/19 20:27:42","新北市新店區新和街59巷2號","121.519948333333","24.9855616666667","6500600","新店區"
"231045","617-UM","2018/03/19 20:27:32","新北市新店區新坡一街24號","121.549031666667","24.9620583333333","6500600","新店區"
"231040","619-UM","2018/03/19 20:27:45","新北市新店區中正路342號","121.536505","24.975095","6500600","新店區"
"231042","641-BX","2018/03/19 20:27:44","新北市新店區寶高路118號","121.554505","24.9759983333333","6500600","新店區"
"231063","645-TV","2018/03/19 20:27:47","新北市新店區安康路二段341巷1號","121.49695","24.955365","6500600","新店區"
"231068","718-UY","2018/03/19 20:27:51","新北市新店區寶安街35號","121.54199","24.98255","6500600","新店區"
"231047","719-UY","2018/03/19 20:27:46","新北市新店區寶慶街58巷21-1號","121.542021666667","24.9872666666667","6500600","新店區"
"231062","720-UM","2018/03/19 20:27:30","新北市新店區安泰路60巷92號","121.483995","24.9454083333333","6500600","新店區"
"231044","897-TW","2018/03/19 20:27:34","新北市新店區建國路147號","121.53894","24.97878","6500600","新店區"
"231043","899-TW","2018/03/19 20:27:35","新北市新店區民族路28號","121.54065","24.9787783333333","6500600","新店區"
"231066","AKT-0513","2018/03/19 20:27:40","新北市新店區安興路112號","121.51464","24.9775733333333","6500600","新店區"
"241011","013-R5","2018/03/19 20:27:49","新北市三重區龍門路109號","121.497706666667","25.07274","6500200","三重區"
"241028","022-UY","2018/03/19 20:27:29","新北市三重區光興街91號","121.49737","25.0599616666667","6500200","三重區"
"241008","059-VK","2018/03/19 20:27:31","新北市三重區永福街256號","121.484355","25.0747966666667","6500200","三重區"
"241009","060-VK","2018/03/19 20:27:50","新北市三重區永福街50號","121.481723333333","25.078065","6500200","三重區"
"241031","061-VK","2018/03/19 20:27:45","新北市三重區三寧街15號","121.489471666667","25.0597866666667","6500200","三重區"
"241015","062-VK","2018/03/19 20:27:40","新北市三重區信義西街4號","121.499005","25.064775","6500200","三重區"
"241017","063-VK","2018/03/19 20:27:35","新北市三重區自強路一段288號","121.491593333333","25.0682316666667","6500200","三重區"
"241024","065-VK","2018/03/19 20:27:38","新北市三重區三民街237號","121.480268333333","25.0674233333333","6500200","三重區"
"241026","066-VK","2018/03/19 20:27:47","新北市三重區福德南路43號","121.502983333333","25.062035","6500200","三重區"
"241002","090-VK","2018/03/19 20:27:36","新北市三重區仁義街101巷42號","121.499118333333","25.0807866666667","6500200","三重區"
"241003","091-VK","2018/03/19 20:27:41","新北市三重區富華街156號","121.492376666667","25.08451","6500200","三重區"
"241005","262-UM","2018/03/19 20:27:34","新北市三重區碧華街209號","121.488403333333","25.0828783333333","6500200","三重區"
"241016","265-UM","2018/03/19 20:27:48","新北市三重區正義北路147號","121.496573333333","25.06686","6500200","三重區"
"241022","267-UM","2018/03/19 20:27:50","新北市三重區重陽路二段19巷1弄9號","121.487255","25.0620483333333","6500200","三重區"
"241018","268-UM","2018/03/19 20:27:30","新北市三重區雙園街57巷2號","121.494646666667","25.0674766666667","6500200","三重區"
"241032","269-UM","2018/03/19 20:27:37","新北市三重區三陽路14巷3號","121.48592","25.058385","6500200","三重區"
"241013","270-UM","2018/03/19 20:27:37","新北市三重區溪尾街5巷19號","121.492506666667","25.0745583333333","6500200","三重區"
"241025","271-UM","2018/03/19 20:27:35","新北市三重區頂崁街210巷23弄1號","121.47591","25.0681766666667","6500200","三重區"
"241007","398-BY","2018/03/19 20:27:47","新北市三重區自強路四段41號","121.489543333333","25.07757","6500200","三重區"
"241020","413-TH","2018/03/19 20:27:31","新北市三重區明德街59號","121.492026666667","25.0722","6500200","三重區"
"241035","462-BY","2018/03/19 20:27:28","新北市三重區正義北路15-4號","121.497675","25.0631483333333","6500200","三重區"
"241004","475-VK","2018/03/19 20:27:46","新北市三重區溪尾街165巷31號","121.490093333333","25.080295","6500200","三重區"
"241001","478-VK","2018/03/19 20:27:41","新北市三重區自強路四段28號","121.488856666667","25.07667","6500200","三重區"
"241030","480-VK","2018/03/19 20:27:43","新北市三重區成功路72號","121.488371666667","25.0510316666667","6500200","三重區"
"241014","543-UM","2018/03/19 20:27:40","新北市三重區龍濱路64號","121.502448333333","25.0692566666667","6500200","三重區"
"241023","545-UM","2018/03/19 20:27:37","新北市三重區自由街16號","121.47983","25.066535","6500200","三重區"
"241019","KEA-2593","2018/03/19 20:27:49","新北市三重區大智街141號","121.490661666667","25.0710716666667","6500200","三重區"
"241012","941-UM","2018/03/19 20:27:34","新北市三重區龍濱路287號","121.500833333333","25.07354","6500200","三重區"
"241029","942-UM","2018/03/19 20:27:40","新北市三重區集美街225號","121.491995","25.0551166666667","6500200","三重區"
"241033","AAC-255","2018/03/19 20:27:48","新北市三重區五谷王北街133號","121.476116666667","25.0519466666667","6500200","三重區"
"235066","003-UY","2018/03/19 20:27:44","新北市中和區光華街31巷22弄10號","121.505623333333","25.0046216666667","6500300","中和區"
"235039","097-UM","2018/03/19 20:27:32","新北市中和區大勇街27巷16號","121.516746666667","24.9939083333333","6500300","中和區"
"235065","098-UM","2018/03/19 20:27:48","新北市中和區永和路55號","121.497106666667","25.00543","6500300","中和區"
"235050","4979-A6","2018/03/19 20:27:38","新北市中和區景新街160巷20號","121.504848333333","24.9966166666667","6500300","中和區"
"235069","4980-A6","2018/03/19 20:27:30","新北市中和區中正路446號","121.490993333333","24.9942383333333","6500300","中和區"
"235059","AAC-215","2018/03/19 20:27:39","新北市中和區員山路28-11號","121.48111","24.98638","6500300","中和區"
"220068","013-TV","2018/03/19 20:27:09","新北市五股區中直路17-4號","121.422695","25.111345","6500100","板橋區"
"247024","893-R6","2018/03/19 20:27:45","新北市蘆洲區長興路50巷31號","121.464556666667","25.0843866666667","6501400","蘆洲區"
"247014","546-UM","2018/03/19 20:27:43","新北市蘆洲區中山二路275號","121.469655","25.079105","6501400","蘆洲區"
"247022","500-BY","2018/03/19 20:27:49","新北市蘆洲區三民路247號","121.468843333333","25.089135","6501400","蘆洲區"
"247010","341-TH","2018/03/19 20:27:49","新北市蘆洲區信義路222巷38號","121.480925","25.0853916666667","6501400","蘆洲區"
"247012","339-TH","2018/03/19 20:27:40","新北市蘆洲區復興路252號","121.479946666667","25.0896533333333","6501400","蘆洲區"
"247004","337-TH","2018/03/19 20:27:45","新北市蘆洲區永康街49號","121.456911666667","25.0852233333333","6501400","蘆洲區"
"247006","336-TH","2018/03/19 20:27:37","新北市蘆洲區長安街2號","121.464806666667","25.0787716666667","6501400","蘆洲區"
"247018","057-VK","2018/03/19 20:27:29","新北市蘆洲區民族路327巷73號","121.475241666667","25.0897716666667","6501400","蘆洲區"
"247008","056-VK","2018/03/19 20:27:37","新北市蘆洲區永安北路二段76巷12-1號","121.48323","25.085035","6501400","蘆洲區"
"247016","007-UY","2018/03/19 20:27:34","新北市蘆洲區光華路132巷3號","121.466158333333","25.0826116666667","6501400","蘆洲區"
"247002","002-UY","2018/03/19 20:27:34","新北市蘆洲區長安街347巷12號","121.456458333333","25.0870433333333","6501400","蘆洲區"
"222001","KEA-2212","2018/03/19 20:27:41","新北市深坑區北深路三段345號","121.59713","25.0049666666667","6501800","深坑區"
"251001","011-UM","2018/03/19 20:27:37","新北市淡水區中山北路二段174號","121.444363333333","25.18471","6501000","淡水區"
"251002","012-UM","2018/03/19 20:27:40","新北市淡水區中正路27號","121.44251","25.1696183333333","6501000","淡水區"
"251013","179-VK","2018/03/19 20:27:45","新北市淡水區奎柔山路417號","121.463728333333","25.2050616666667","6501000","淡水區"
"251014","180-VK","2018/03/19 20:27:40","新北市淡水區石頭厝8-9號","121.460461666667","25.2377516666667","6501000","淡水區"
"251008","181-VK","2018/03/19 20:27:43","新北市淡水區淡海路206巷10號","121.420933333333","25.1856316666667","6501000","淡水區"
"251015","182-VK","2018/03/19 20:27:33","新北市淡水區淡金路四段496號","121.452046666667","25.22535","6501000","淡水區"
"251010","413-VK","2018/03/19 20:27:38","新北市淡水區沙崙路181巷15號","121.423993333333","25.1843066666667","6501000","淡水區"
"251012","441-VK","2018/03/19 20:27:43","新北市淡水區頂田寮路22號","121.454198333333","25.2165883333333","6501000","淡水區"
"251016","442-VK","2018/03/19 20:27:32","新北市淡水區新埔子15-1號","121.448778333333","25.2282916666667","6501000","淡水區"
"251006","561-UM","2018/03/19 20:27:44","新北市淡水區商工路353號","121.46898","25.18563","6501000","淡水區"
"251011","650-BX","2018/03/19 20:27:27","新北市淡水區沙崙路二段112號","121.433368333333","25.1986333333333","6501000","淡水區"
"251003","766-UM","2018/03/19 20:27:41","新北市淡水區新生街108巷1-2號","121.440258333333","25.174735","6501000","淡水區"
"207004","225-TW","2018/03/19 20:27:41","新北市萬里區北基里孝一街1-1號","121.684841666667","25.1767466666667","6502800","萬里區"
"252002","178-VK","2018/03/19 20:27:34","新北市三芝區淡金路二段18-1號","121.50269","25.2595166666667","6502100","三芝區"
"252001","292-VK","2018/03/19 20:27:44","新北市三芝區中山路一段14號","121.500705","25.25803","6502100","三芝區"
"236069","105-UM","2018/03/19 20:27:48","新北市土城區福安街100-9號","121.417413333333","24.9644916666667","6501300","土城區"
"236042","107-UM","2018/03/19 20:27:46","新北市土城區亞洲路12巷6號","121.435816666667","24.9760866666667","6501300","土城區"
"236078","166-UM","2018/03/19 20:27:33","新北市土城區民權街17號","121.414021666667","24.9639166666667","6501300","土城區"
"236014","270-VK","2018/03/19 20:27:38","新北市土城區廣明街104巷1-1號","121.454583333333","24.994665","6501300","土城區"
"236020","401-BY","2018/03/19 20:27:34","新北市土城區延吉街135號","121.470706666667","24.98632","6501300","土城區"
"242034","AAC-296","2018/03/19 20:27:37","新北市新莊區新泰路200號","121.44706","25.038375","6500500","新莊區"
"242058","986-R7","2018/03/19 20:27:35","新北市新莊區四維路129-1號","121.42291","25.0226666666667","6500500","新莊區"
"242053","751-BX","2018/03/19 20:27:44","新北市新莊區西盛街364號","121.427915","25.0136683333333","6500500","新莊區"
"242029","705-TV","2018/03/19 20:27:46","新北市新莊區中原路112號","121.45051","25.0544033333333","6500500","新莊區"
"242027","615-BX","2018/03/19 20:27:37","新北市新莊區幸福路44號","121.457763333333","25.0494983333333","6500500","新莊區"
"242025","613-BX","2018/03/19 20:27:30","新北市新莊區五工三路62巷40號","121.460436666667","25.065555","6500500","新莊區"
"242042","566-BX","2018/03/19 20:27:35","新北市新莊區壽山路47號","121.414536666667","25.0311283333333","6500500","新莊區"
"242046","497-BY","2018/03/19 20:27:47","新北市新莊區中正路881-16號","121.4176","25.024675","6500500","新莊區"
"242050","441-UM","2018/03/19 20:27:36","新北市新莊區民安西路252巷14號","121.4253","25.01363","6500500","新莊區"
"242056","440-UM","2018/03/19 20:27:40","新北市新莊區新莊路713巷5弄1號","121.443713333333","25.0320783333333","6500500","新莊區"
"242036","415-TV","2018/03/19 20:27:51","新北市新莊區後港一路76巷10弄1號","121.42714","25.02598","6500500","新莊區"
"242007","413-TV","2018/03/19 20:27:38","新北市新莊區福壽街94巷9號","121.45873","25.0501","6500500","新莊區"
"242044","400-BY","2018/03/19 20:27:44","新北市新莊區中正路新建巷20號","121.414088333333","25.022175","6500500","新莊區"
"242023","362-BY","2018/03/19 20:27:42","新北市新莊區化成路934號","121.464746666667","25.062335","6500500","新莊區"
"242060","353-BY","2018/03/19 20:27:36","新北市新莊區民安路343號","121.430771666667","25.022895","6500500","新莊區"
"242009","132-UY","2018/03/19 20:27:30","新北市新莊區昌盛街65巷2弄1號","121.454895","25.0501466666667","6500500","新莊區"
"242039","133-UY","2018/03/19 20:27:48","新北市新莊區成功街59號","121.424993333333","25.0204466666667","6500500","新莊區"
"242031","135-UY","2018/03/19 20:27:35","新北市新莊區三和路68號","121.436893333333","25.0386966666667","6500500","新莊區"
"242048","172-VK","2018/03/19 20:27:46","新北市新莊區龍安路249巷1號","121.41901","25.020615","6500500","新莊區"
"242017","175-VK","2018/03/19 20:27:34","新北市新莊區中港二街64號","121.45004","25.0459383333333","6500500","新莊區"
"242004","176-VK","2018/03/19 20:27:48","新北市新莊區化成路746巷39號","121.466905","25.058195","6500500","新莊區"
"242015","346-TH","2018/03/19 20:27:39","新北市新莊區中平路36巷29號","121.445946666667","25.0435166666667","6500500","新莊區"
"242021","348-TH","2018/03/19 20:27:44","新北市新莊區公園路10巷2號","121.447818333333","25.0387483333333","6500500","新莊區"
"242002","349-TH","2018/03/19 20:27:38","新北市新莊區中正路80號","121.457903333333","25.0374783333333","6500500","新莊區"
"242013","351-TH","2018/03/19 20:27:33","新北市新莊區中平路270巷7弄2號","121.445485","25.05038","6500500","新莊區"
"221008","489-VK","2018/03/19 20:27:42","新北市汐止區康寧街523-1號","121.633571666667","25.0687216666667","6501100","汐止區"
"221036","130-UY","2018/03/19 20:27:05","新北市汐止區仁愛路151巷48號","121.663598333333","25.0658416666667","6501100","汐止區"
"221010","269-BY","2018/03/19 20:27:36","新北市汐止區八連路二段376-1號","121.62894","25.1023033333333","6501100","汐止區"
"221012","278-VK","2018/03/19 20:27:42","新北市汐止區保新街8號","121.684035","25.0732266666667","6501100","汐止區"
"221023","279-VK","2018/03/19 20:27:40","新北市汐止區湖東街5巷45-1號","121.635263333333","25.0740916666667","6501100","汐止區"
"221032","280-BY","2018/03/19 20:27:34","新北市汐止區民權街二段44號","121.619408333333","25.0492566666667","6501100","汐止區"
"221027","281-BY","2018/03/19 20:27:46","新北市汐止區中正路248號","121.657541666667","25.0686283333333","6501100","汐止區"
"221029","298-VK","2018/03/19 20:27:31","新北市汐止區樟樹一路129巷32號","121.640575","25.0651966666667","6501100","汐止區"
"221021","299-VK","2018/03/19 20:27:29","新北市汐止區水源路一段261號","121.654093333333","25.0595316666667","6501100","汐止區"
"221031","353-TW","2018/03/19 20:27:44","新北市汐止區中興路110巷10號","121.633731666667","25.0641283333333","6501100","汐止區"
"221035","622-UM","2018/03/19 20:27:43","新北市汐止區長江街101-5號","121.658703333333","25.0731866666667","6501100","汐止區"
"221025","623-UM","2018/03/19 20:27:29","新北市汐止區水源路二段88巷1弄4號","121.656373333333","25.055695","6501100","汐止區"
"221038","646-BX","2018/03/19 20:27:30","新北市汐止區忠孝東路9號","121.65806","25.065825","6501100","汐止區"
"221033","647-BX","2018/03/19 20:27:38","新北市汐止區林森街132巷6弄6號","121.624528333333","25.0406183333333","6501100","汐止區"
"221002","707-TV","2018/03/19 20:27:34","新北市汐止區福德一路82號","121.637926666667","25.0686833333333","6501100","汐止區"
"220080","200-UY","2018/03/19 20:27:45","新北市板橋區大觀路二段145號","121.44561","25.0010383333333","6500100","板橋區"
"220083","286-VK","2018/03/19 20:27:51","新北市板橋區僑中二街106巷25號","121.444751666667","25.0077516666667","6500100","板橋區"
"220061","293-UM","2018/03/19 20:27:45","新北市板橋區四川路一段286巷26-1號","121.457808333333","25.0012566666667","6500100","板橋區"
"242011","281-VK","2018/03/19 20:27:41","新北市新莊區中義街1號","121.45158","25.0511533333333","6500500","新莊區"
"220089","487-VK","2018/03/19 20:27:30","新北市板橋區陽明街267號","121.462388333333","25.0258283333333","6500100","板橋區"
"242019","280-VK","2018/03/19 20:27:47","新北市新莊區民樂街79號","121.458008333333","25.0429333333333","6500500","新莊區"
"220103","561-BX","2018/03/19 20:27:46","新北市板橋區漢生東路23巷1-2號","121.465193333333","25.0173066666667","6500100","板橋區"
"220102","KEA-2699","2018/03/19 20:27:34","新北市板橋區漢生東路73巷2號","121.466251666667","25.0160283333333","6500100","板橋區"
"220055","827-TW","2018/03/19 20:27:45","新北市板橋區大觀路一段28巷1弄57-9號","121.451698333333","25.0070866666667","6500100","板橋區"
"220097","AAC-210","2018/03/19 20:27:40","新北市板橋區光正街42號","121.461776666667","25.0175","6500100","板橋區"
"220070","AAC-253","2018/03/19 20:27:34","新北市板橋區大觀路一段28巷106-3號","121.450956666667","25.0112316666667","6500100","板橋區"
