"lineid","car","time","location","longitude","latitude","cityid","cityname"
"234086","338-UY","2018/03/19 20:49:27","新北市五股區五工二路136號","121.454626666667","25.0728016666667","6500400","永和區"
"234061","AAD-866","2018/03/19 20:49:27","新北市中和區中正路58號","121.501638333333","24.9936116666667","6500400","永和區"
"234050","863-TW","2018/03/19 20:49:34","新北市五股區中興路三段3-6號","121.450048333333","25.0784883333333","6500400","永和區"
"249003","593-UM","2018/03/19 20:49:13","新北市八里區中山路三段409號","121.368531666667","25.13495","6502300","八里區"
"234023","9380-KE","2018/03/19 20:49:22","新北市永和區保生路55-1號","121.504515","25.010885","6500400","永和區"
"234077","969-R7","2018/03/19 20:49:36","新北市八里區中山路三段390號","121.36833","25.1360616666667","6500400","永和區"
"234074","AAC-211","2018/03/19 20:49:22","新北市永和區環河東路二段20號","121.5223","25.01312","6500400","永和區"
"222003","436-BY","2018/03/19 20:49:32","新北市深坑區文山路三段48-1號","121.609925","24.9985166666667","6501800","深坑區"
"222002","659-BX","2018/03/19 20:49:13","新北市深坑區北深路三段93巷50號","121.603813333333","25.0009433333333","6501800","深坑區"
"231041","002-UM","2018/03/19 20:49:28","台北市文山區景文街146巷26號","121.533425","24.9917633333333","6500600","新店區"
"231059","046-UY","2018/03/19 20:49:35","新北市新店區僑信路102巷42號","121.498786666667","24.946845","6500600","新店區"
"231061","047-UY","2018/03/19 20:49:32","新北市新店區新和街93巷10號","121.520753333333","24.9866633333333","6500600","新店區"
"231060","106-UY","2018/03/19 20:49:32","新北市新店區安康路三段738號","121.473825","24.9420833333333","6500600","新店區"
"231051","107-UY","2018/03/19 20:49:24","新北市新店區民生路181號","121.528973333333","24.9784016666667","6500600","新店區"
"231052","187-VK","2018/03/19 20:49:16","新北市新店區新烏路一段245-3號","121.548225","24.9304616666667","6500600","新店區"
"231050","KEA-2219","2018/03/19 20:49:33","新北市新店區三民路20巷8號","121.5377","24.97085","6500600","新店區"
"221015","KEA-2785","2018/03/19 20:49:28","新北市汐止區大同路二段599號","121.663895","25.0705866666667","6501100","汐止區"
"231057","256-BX","2018/03/19 20:49:25","新北市新店區花園六路二段4號","121.554338333333","24.93348","6500600","新店區"
"231054","AAD-862","2018/03/19 20:49:31","新北市新店區北新路一段96巷27號","121.543033333333","24.9694866666667","6500600","新店區"
"231058","3712-VJ","2018/03/19 20:49:31","新北市新店區中央路131號","121.530446666667","24.9739483333333","6500600","新店區"
"231056","3713-VJ","2018/03/19 20:49:26","新北市新店區中央七街61巷2號","121.528258333333","24.9765033333333","6500600","新店區"
"231065","512-UM","2018/03/19 20:49:22","新北市新店區安祥路104巷11弄6號","121.48137","24.96361","6500600","新店區"
"231049","513-UM","2018/03/19 20:49:15","新北市新店區安康路一段130號","121.526758333333","24.962795","6500600","新店區"
"231064","515-UM","2018/03/19 20:49:22","新北市新店區安民街382號","121.516305","24.9771083333333","6500600","新店區"
"231045","617-UM","2018/03/19 20:49:32","新北市新店區光明街314號","121.5409","24.9650166666667","6500600","新店區"
"231040","619-UM","2018/03/19 20:49:35","新北市新店區中正路274號","121.538918333333","24.97368","6500600","新店區"
"231042","641-BX","2018/03/19 20:49:24","新北市新店區寶興路60巷6號","121.549756666667","24.9718266666667","6500600","新店區"
"231063","645-TV","2018/03/19 20:49:27","新北市新店區如意街8號","121.494793333333","24.948245","6500600","新店區"
"231068","718-UY","2018/03/19 20:49:31","新北市新店區中興路三段220巷19號","121.544936666667","24.98328","6500600","新店區"
"231047","719-UY","2018/03/19 20:49:26","新北市新店區寶元路二段1巷1號","121.550748333333","24.9840333333333","6500600","新店區"
"231062","720-UM","2018/03/19 20:49:30","新北市新店區裕合街143號","121.489166666667","24.94906","6500600","新店區"
"231043","899-TW","2018/03/19 20:49:15","新北市新店區建國路85號","121.540428333333","24.97647","6500600","新店區"
"231066","AKT-0513","2018/03/19 20:49:20","新北市新店區安民街133巷26號","121.515451666667","24.9694933333333","6500600","新店區"
"241011","013-R5","2018/03/19 20:49:29","新北市三重區河邊北街146號","121.503273333333","25.0725566666667","6500200","三重區"
"241028","022-UY","2018/03/19 20:49:29","新北市三重區中正南路42號","121.493821666667","25.0600783333333","6500200","三重區"
"241008","059-VK","2018/03/19 20:49:31","新北市三重區永福街72巷11號","121.479386666667","25.076795","6500200","三重區"
"241009","060-VK","2018/03/19 20:49:29","新北市三重區三和路四段388-2號","121.482086666667","25.07915","6500200","三重區"
"241031","061-VK","2018/03/19 20:49:25","新北市三重區重陽路一段113巷2弄2號","121.487526666667","25.05992","6500200","三重區"
"241015","062-VK","2018/03/19 20:49:20","新北市三重區自強路一段12號","121.498883333333","25.06815","6500200","三重區"
"241017","063-VK","2018/03/19 20:49:15","新北市三重區民生街3號","121.491831666667","25.0674","6500200","三重區"
"241024","065-VK","2018/03/19 20:49:18","新北市三重區大勇街49號","121.481295","25.0719583333333","6500200","三重區"
"241026","066-VK","2018/03/19 20:49:27","新北市三重區和平街1號","121.50008","25.0623316666667","6500200","三重區"
"241002","090-VK","2018/03/19 20:49:16","新北市三重區仁義街167巷12號","121.497448333333","25.081875","6500200","三重區"
"241003","091-VK","2018/03/19 20:49:21","新北市三重區五華街141巷58號","121.493583333333","25.0867933333333","6500200","三重區"
"241005","262-UM","2018/03/19 20:49:34","新北市三重區集賢路87-1號","121.493643333333","25.0868316666667","6500200","三重區"
"241016","265-UM","2018/03/19 20:49:28","新北市三重區自強路一段147-1號","121.493988333333","25.0667333333333","6500200","三重區"
"241022","267-UM","2018/03/19 20:49:30","新北市三重區重陽路二段19巷12號","121.488075","25.0624833333333","6500200","三重區"
"241018","268-UM","2018/03/19 20:49:30","新北市三重區正義北路346號","121.494266666667","25.0709433333333","6500200","三重區"
"241032","269-UM","2018/03/19 20:49:16","新北市三重區重陽路一段120巷46號","121.485086666667","25.06014","6500200","三重區"
"241013","270-UM","2018/03/19 20:49:37","新北市三重區仁賢街12-1號","121.49566","25.074855","6500200","三重區"
"241025","271-UM","2018/03/19 20:49:35","新北市三重區貴陽街14號","121.484191666667","25.0617966666667","6500200","三重區"
"241007","398-BY","2018/03/19 20:49:27","新北市三重區慈愛街10號","121.48453","25.0784216666667","6500200","三重區"
"241020","413-TH","2018/03/19 20:49:31","新北市三重區忠孝路一段101號","121.489608333333","25.0721083333333","6500200","三重區"
"241004","475-VK","2018/03/19 20:49:26","新北市三重區溪尾街165巷8號","121.489581666667","25.0804383333333","6500200","三重區"
"241001","478-VK","2018/03/19 20:49:21","新北市三重區自強路三段76巷27弄1號","121.485573333333","25.0739866666667","6500200","三重區"
"241030","480-VK","2018/03/19 20:49:23","新北市三重區環河南路221巷10號","121.491976666667","25.052195","6500200","三重區"
"241014","543-UM","2018/03/19 20:49:20","新北市三重區長壽街120巷60號","121.501745","25.070365","6500200","三重區"
"241023","545-UM","2018/03/19 20:49:17","新北市三重區三民街146巷3弄2號","121.48165","25.064635","6500200","三重區"
"241019","KEA-2593","2018/03/19 20:49:29","新北市三重區大智街141號","121.490621666667","25.07103","6500200","三重區"
"241006","AAD-863","2018/03/19 20:49:32","新北市三重區車路頭街135-1號","121.484256666667","25.0761333333333","6500200","三重區"
"241012","941-UM","2018/03/19 20:49:34","新北市三重區仁信街27號","121.501298333333","25.0755733333333","6500200","三重區"
"241029","942-UM","2018/03/19 20:49:20","新北市三重區重安街18號","121.49037","25.0581333333333","6500200","三重區"
"241033","AAC-255","2018/03/19 20:49:20","新北市三重區光復路二段1號","121.472351666667","25.05334","6500200","三重區"
"235069","4980-A6","2018/03/19 20:49:30","新北市中和區新生街268號","121.4838","24.9970766666667","6500300","中和區"
"235026","800-TS","2018/03/19 20:37:41","新北市中和區員山路36巷16-3號","121.484778333333","24.9916233333333","6500300","中和區"
"247024","893-R6","2018/03/19 20:49:25","新北市蘆洲區長樂路136號","121.462163333333","25.090045","6501400","蘆洲區"
"247014","546-UM","2018/03/19 20:49:23","新北市蘆洲區三民路97號","121.473536666667","25.0852366666667","6501400","蘆洲區"
"247022","500-BY","2018/03/19 20:49:32","新北市蘆洲區三民路155號","121.471473333333","25.0868333333333","6501400","蘆洲區"
"247010","341-TH","2018/03/19 20:49:28","新北市蘆洲區鷺江街76號","121.477","25.083795","6501400","蘆洲區"
"247012","339-TH","2018/03/19 20:49:20","新北市三重區集賢路186號","121.48417","25.08833","6501400","蘆洲區"
"247004","337-TH","2018/03/19 20:49:25","新北市蘆洲區長安街101號","121.46159","25.080835","6501400","蘆洲區"
"247006","336-TH","2018/03/19 20:49:17","新北市蘆洲區九芎街107號","121.465811666667","25.0797716666667","6501400","蘆洲區"
"247008","056-VK","2018/03/19 20:49:17","新北市蘆洲區集賢路269巷17號","121.482083333333","25.08337","6501400","蘆洲區"
"247020","053-VK","2018/03/19 20:49:18","新北市蘆洲區仁愛街64號","121.471481666667","25.0938633333333","6501400","蘆洲區"
"247016","007-UY","2018/03/19 20:49:34","新北市蘆洲區中山二路144號","121.471363333333","25.0813433333333","6501400","蘆洲區"
"247002","002-UY","2018/03/19 20:49:33","新北市蘆洲區長榮路309號","121.459943333333","25.086605","6501400","蘆洲區"
"222001","KEA-2212","2018/03/19 20:49:21","新北市深坑區北深路三段164號","121.602271666667","25.0033366666667","6501800","深坑區"
"251001","011-UM","2018/03/19 20:49:17","新北市淡水區淡金路218號","121.460495","25.1671333333333","6501000","淡水區"
"251002","012-UM","2018/03/19 20:49:32","新北市淡水區英專路38號","121.445646666667","25.1701866666667","6501000","淡水區"
"251013","179-VK","2018/03/19 20:49:23","新北市淡水區埤島41號","121.451965","25.1976916666667","6501000","淡水區"
"251014","180-VK","2018/03/19 20:49:20","新北市淡水區公埔子32-8號","121.461636666667","25.23235","6501000","淡水區"
"251015","182-VK","2018/03/19 20:49:33","新北市淡水區淡金路四段542巷17號","121.452706666667","25.2270733333333","6501000","淡水區"
"251010","413-VK","2018/03/19 20:49:18","新北市淡水區沙崙路126號","121.4234","25.1829366666667","6501000","淡水區"
"251012","441-VK","2018/03/19 20:49:23","新北市淡水區興仁路162號","121.451593333333","25.220665","6501000","淡水區"
"251016","442-VK","2018/03/19 20:49:32","新北市淡水區淡金路四段469號","121.451696666667","25.22384","6501000","淡水區"
"251007","577-R6","2018/03/19 20:49:30","新北市淡水區鄧公路35巷19弄7號","121.452485","25.171795","6501000","淡水區"
"251011","650-BX","2018/03/19 20:49:27","新北市淡水區新民街一段13-1號","121.43306","25.1845483333333","6501000","淡水區"
"251003","766-UM","2018/03/19 20:49:23","新北市淡水區新興街121巷47號","121.440918333333","25.179595","6501000","淡水區"
"252002","178-VK","2018/03/19 20:49:14","新北市三芝區淡金路二段91號","121.504068333333","25.26087","6502100","三芝區"
"236020","401-BY","2018/03/19 20:49:14","新北市樹林區環河路600號","121.404683333333","24.9691716666667","6501300","土城區"
"242034","AAC-296","2018/03/19 20:49:29","新北市新莊區中正路246號","121.44804","25.0352583333333","6500500","新莊區"
"242053","751-BX","2018/03/19 20:49:24","新北市新莊區民安西路189巷10弄24號","121.426455","25.01504","6500500","新莊區"
"242029","705-TV","2018/03/19 20:49:26","新北市新莊區中華路二段93號","121.452655","25.049455","6500500","新莊區"
"242042","566-BX","2018/03/19 20:49:35","新北市新莊區天祥街47巷10號","121.416253333333","25.028165","6500500","新莊區"
"242050","441-UM","2018/03/19 20:49:36","新北市新莊區民安西路90-2號","121.42689","25.0190883333333","6500500","新莊區"
"242036","415-TV","2018/03/19 20:49:33","新北市新莊區中正路449號","121.443066666667","25.03405","6500500","新莊區"
"242007","413-TV","2018/03/19 20:49:28","新北市新莊區思源路63號","121.459901666667","25.0403483333333","6500500","新莊區"
"242023","362-BY","2018/03/19 20:49:21","新北市三重區光復路二段2號","121.472161666667","25.0532383333333","6500500","新莊區"
"242009","132-UY","2018/03/19 20:49:30","新北市新莊區昌盛街57號","121.454656666667","25.050025","6500500","新莊區"
"242039","133-UY","2018/03/19 20:49:28","新北市新莊區瓊林路172-6號","121.441036666667","25.0234266666667","6500500","新莊區"
"242048","172-VK","2018/03/19 20:49:26","新北市新莊區新北大道四段261號","121.44246","25.05603","6500500","新莊區"
"242004","176-VK","2018/03/19 20:49:28","新北市五股區新城八路1號","121.44789","25.08864","6500500","新莊區"
"242002","349-TH","2018/03/19 20:49:18","新北市新莊區中港路五守新村23巷2號","121.454905","25.038385","6500500","新莊區"
"221036","130-UY","2018/03/19 20:49:25","新北市汐止區仁愛路321-1號","121.664405","25.0676933333333","6501100","汐止區"
"221032","280-BY","2018/03/19 20:49:34","新北市汐止區新台五路一段1號","121.646608333333","25.0608166666667","6501100","汐止區"
"221027","281-BY","2018/03/19 20:49:26","新北市汐止區大同路二段382號","121.658096666667","25.0671816666667","6501100","汐止區"
"221029","298-VK","2018/03/19 20:49:31","新北市汐止區汐萬路一段312號","121.650255","25.0755116666667","6501100","汐止區"
"221021","299-VK","2018/03/19 20:49:35","新北市汐止區青山路31號","121.656386666667","25.06172","6501100","汐止區"
"221035","622-UM","2018/03/19 20:49:23","新北市汐止區汐萬路一段300號","121.65053","25.0745366666667","6501100","汐止區"
"221038","646-BX","2018/03/19 20:49:30","新北市汐止區汐萬路一段256巷3號","121.652118333333","25.0747716666667","6501100","汐止區"
"221033","647-BX","2018/03/19 20:49:17","新北市汐止區合順街18巷8弄5號","121.620311666667","25.0418633333333","6501100","汐止區"
"221002","707-TV","2018/03/19 20:49:15","新北市汐止區福德二路134號","121.630926666667","25.065255","6501100","汐止區"
"221018","753-BX","2018/03/19 20:49:33","新北市汐止區大同路二段362號","121.657378333333","25.067205","6501100","汐止區"
"220080","200-UY","2018/03/19 20:49:25","新北市八里區商港路12號","121.396841666667","25.1446233333333","6500100","板橋區"
"220070","AAC-253","2018/03/19 20:49:34","新北市八里區中山路三段386號","121.368501666667","25.1359383333333","6500100","板橋區"
