"lineid","car","time","location","longitude","latitude","cityid","cityname"
"234050","863-TW","2018/03/19 21:29:14","新北市林口區太平里180號","121.366701666667","25.1346016666667","6500400","永和區"
"234077","969-R7","2018/03/19 21:29:16","新北市五股區新城三路45號","121.448825","25.093125","6500400","永和區"
"231050","KEA-2219","2018/03/19 21:29:33","新北市新店區中正路448-1號","121.53402","24.97869","6500600","新店區"
"231063","645-TV","2018/03/19 21:29:27","新北市新店區如意街70號","121.49463","24.9469433333333","6500600","新店區"
"231047","719-UY","2018/03/19 21:29:26","新北市新店區薏仁坑路10-1號","121.499228333333","24.95899","6500600","新店區"
"241017","063-VK","2018/03/19 21:29:15","新北市三重區中正北路25巷2號","121.493256666667","25.0626783333333","6500200","三重區"
"241024","065-VK","2018/03/19 21:29:18","新北市三重區中正北路115巷6號","121.484076666667","25.0677516666667","6500200","三重區"
"241003","091-VK","2018/03/19 21:29:21","新北市三重區進安街87號","121.49563","25.0853466666667","6500200","三重區"
"241005","262-UM","2018/03/19 21:29:14","新北市三重區仁華街58號","121.483813333333","25.0826066666667","6500200","三重區"
"241016","265-UM","2018/03/19 21:29:28","新北市三重區信義西街138號","121.495471666667","25.0642283333333","6500200","三重區"
"241032","269-UM","2018/03/19 21:29:16","新北市八里區荖阡坑路34-1號","121.401065","25.1306366666667","6500200","三重區"
"241007","398-BY","2018/03/19 21:29:27","新北市三重區正義北路128號","121.496845","25.0656166666667","6500200","三重區"
"241019","KEA-2593","2018/03/19 21:29:29","新北市五股區芳洲九路32號","121.447788333333","25.08727","6500200","三重區"
"247010","341-TH","2018/03/19 21:29:28","新北市蘆洲區鷺江街28號","121.478061666667","25.082465","6501400","蘆洲區"
"247004","337-TH","2018/03/19 21:29:25","新北市五股區中直路21號","121.421215","25.1119533333333","6501400","蘆洲區"
"247008","056-VK","2018/03/19 21:29:17","新北市五股區中興路二段182巷15弄13號","121.457121666667","25.0813","6501400","蘆洲區"
"251009","008-UM","2018/03/19 21:29:24","新北市淡水區民族路65巷60號","121.463496666667","25.1359466666667","6501000","淡水區"
"251004","009-UM","2018/03/19 21:17:45","新北市淡水區民族路31-22號","121.46173","25.1361533333333","6501000","淡水區"
"251005","010-UM","2018/03/19 21:29:21","新北市淡水區水源街一段56-1號","121.444691666667","25.1722633333333","6501000","淡水區"
"251001","011-UM","2018/03/19 21:29:17","新北市淡水區濱海路一段221號","121.437856666667","25.1899466666667","6501000","淡水區"
"251002","012-UM","2018/03/19 21:10:59","新北市淡水區學府路172巷21號","121.448251666667","25.1748683333333","6501000","淡水區"
"251013","179-VK","2018/03/19 21:29:23","新北市淡水區埤島58-10號","121.458325","25.1944983333333","6501000","淡水區"
"251014","180-VK","2018/03/19 21:29:20","新北市淡水區六塊厝2-1號","121.450126666667","25.2404616666667","6501000","淡水區"
"251008","181-VK","2018/03/19 21:29:31","新北市淡水區水源街二段126號","121.453231666667","25.1746933333333","6501000","淡水區"
"251010","413-VK","2018/03/19 21:29:18","新北市淡水區沙崙路25巷21號","121.420531666667","25.18238","6501000","淡水區"
"251012","441-VK","2018/03/19 21:29:23","新北市淡水區淡金路五段35巷46號","121.452443333333","25.2347583333333","6501000","淡水區"
"251016","442-VK","2018/03/19 21:29:32","新北市淡水區前洲子6-1號","121.442825","25.2189933333333","6501000","淡水區"
"251006","561-UM","2018/03/19 21:29:34","新北市淡水區公明街35號","121.44315","25.1688633333333","6501000","淡水區"
"251011","650-BX","2018/03/19 21:29:32","新北市淡水區新民街174號","121.436861666667","25.178685","6501000","淡水區"
"251003","766-UM","2018/03/19 21:29:21","新北市淡水區崁頂15-5號","121.438988333333","25.1859116666667","6501000","淡水區"
"220070","AAC-253","2018/03/19 21:29:13","新北市五股區新城六路235號","121.447773333333","25.092165","6500100","板橋區"
