"lineid","car","time","location","longitude","latitude","cityid","cityname"
"234050","863-TW","2018/03/19 21:49:34","新北市中和區環河西路三段123號","121.489455","25.0102566666667","6500400","永和區"
"241005","262-UM","2018/03/19 21:49:34","新北市三重區集賢路87-1號","121.493741666667","25.0869566666667","6500200","三重區"
"241019","KEA-2593","2018/03/19 21:49:29","新北市林口區太平里180號","121.367156666667","25.1335933333333","6500200","三重區"
"235010","733-UM","2018/03/19 21:49:01","新北市中和區員山路36巷13號","121.484178333333","24.99081","6500300","中和區"
"247010","341-TH","2018/03/19 21:49:28","新北市八里區商港路6號","121.397121666667","25.1444216666667","6501400","蘆洲區"
"251009","008-UM","2018/03/19 21:49:24","新北市淡水區民族路35巷22號","121.464806666667","25.1369066666667","6501000","淡水區"
"251004","009-UM","2018/03/19 21:49:25","新北市淡水區自強路201巷39號","121.462201666667","25.1268533333333","6501000","淡水區"
"251005","010-UM","2018/03/19 21:49:30","新北市淡水區鄧公路30巷22號","121.453336666667","25.1697333333333","6501000","淡水區"
"251001","011-UM","2018/03/19 21:49:17","新北市淡水區後洲路一段50號","121.428735","25.200105","6501000","淡水區"
"251002","012-UM","2018/03/19 21:49:26","新北市淡水區學府路198巷3號","121.44745","25.1760683333333","6501000","淡水區"
"251008","181-VK","2018/03/19 21:49:22","新北市淡水區學府路104號","121.44987","25.1717983333333","6501000","淡水區"
"251010","413-VK","2018/03/19 21:49:18","新北市淡水區中正路二段211號","121.42617","25.1891133333333","6501000","淡水區"
"251012","441-VK","2018/03/19 21:49:23","新北市淡水區淡金路三段356號","121.449251666667","25.2091866666667","6501000","淡水區"
"251006","561-UM","2018/03/19 21:49:14","新北市淡水區中正路11巷3號","121.437805","25.1708","6501000","淡水區"
"251007","577-R6","2018/03/19 21:49:30","新北市淡水區水源街二段177巷41弄7號","121.453373333333","25.176665","6501000","淡水區"
"251011","650-BX","2018/03/19 21:49:27","新北市淡水區新民街322巷5弄1-1號","121.436358333333","25.182985","6501000","淡水區"
"251003","766-UM","2018/03/19 21:49:21","新北市淡水區新春街86號","121.438735","25.182305","6501000","淡水區"
"220070","AAC-253","2018/03/19 21:49:34","新北市板橋區華東街1-9號","121.448271666667","24.99487","6500100","板橋區"
