"lineid","car","time","location","longitude","latitude","cityid","cityname"
"241019","KEA-2593","2018/03/19 22:29:49","新北市五股區成泰路三段544-1號","121.454073333333","25.102135","6500200","三重區"
"247010","341-TH","2018/03/19 22:29:28","新北市林口區太平里180號","121.368101666667","25.1347516666667","6501400","蘆洲區"
"251004","009-UM","2018/03/19 22:15:45","新北市淡水區民族路33號","121.462233333333","25.1358933333333","6501000","淡水區"
"251008","181-VK","2018/03/19 22:29:42","新北市淡水區學府路104號","121.449871666667","25.1718466666667","6501000","淡水區"
"251010","413-VK","2018/03/19 22:29:38","新北市淡水區沙崙路200號","121.424656666667","25.1839133333333","6501000","淡水區"
"251007","577-R6","2018/03/19 22:29:49","新北市淡水區北新路137號","121.449448333333","25.1788333333333","6501000","淡水區"
