"lineid","car","time","location","longitude","latitude","cityid","cityname"
"248005","653-BX","2018/06/30 08:09:37","新北市五股區明德路12巷3號","121.433313333333","25.0718016666667","6501500","五股區"
"244005","248-BX","2018/06/30 08:09:26","新北市林口區下福里18鄰26號","121.310758333333","25.11184","6501700","林口區"
"244002","656-BX","2018/06/30 08:09:24","新北市林口區粉寮路二段160巷40號","121.405633333333","25.0911716666667","6501700","林口區"
"222004","289-BY","2018/06/30 08:09:29","新北市深坑區昇高坑路33號","121.62831","24.998965","6501800","深坑區"
"231008","110-UY","2018/06/30 08:09:30","新北市新店區環河路1-1號","121.538011666667","24.96156","6500600","新店區"
"231007","189-VK","2018/06/30 08:09:38","新北市新店區華城路18-1號","121.529","24.9572166666667","6500600","新店區"
"235001","611-BX","2018/06/30 08:09:38","新北市中和區圓通路367巷33弄103號","121.495525","24.9840716666667","6500300","中和區"
"226005","5620-A6","2018/06/30 08:09:31","新北市平溪區靜安路三段10號","121.74973","25.0262066666667","6502400","平溪區"
"226007","7418-A5","2018/06/30 08:09:34","新北市平溪區十分里姜仔坑3號","121.767083333333","25.0355266666667","6502400","平溪區"
"226003","AGD-0702","2018/06/30 08:09:33","新北市平溪區十分里十分街286號","121.776261666667","25.0468866666667","6502400","平溪區"
"223006","022-BY","2018/06/30 08:09:34","新北市石碇區八分寮47-1號","121.642925","25.0137983333333","6501900","石碇區"
"223003","205-TH","2018/06/30 08:09:34","新北市石碇區北宜路六段塗潭巷9號","121.646103333333","24.9328883333333","6501900","石碇區"
"223008","406-TH","2018/06/30 08:09:26","新北市石碇區番子坑58號","121.676361666667","25.0107883333333","6501900","石碇區"
"223001","592-UM","2018/06/30 08:09:31","新北市石碇區北宜路六段塗潭巷9號","121.64608","24.932925","6501900","石碇區"
"223004","660-BX","2018/06/30 08:09:32","新北市石碇區外按11-5號","121.651418333333","24.9995433333333","6501900","石碇區"
"223007","661-BX","2018/06/30 08:09:24","新北市石碇區蚯蚓坑61-1號","121.682295","25.01006","6501900","石碇區"
"223005","677-TV","2018/06/30 08:09:41","新北市石碇區外按11-5號","121.6516","24.9998183333333","6501900","石碇區"
"227006","030-BX","2018/06/30 08:09:35","新北市雙溪區牡丹里聖南29號","121.85539","25.0492116666667","6502500","雙溪區"
"252004","249-BX","2018/06/30 08:09:23","新北市三芝區興華里車埕14號","121.501831666667","25.1983116666667","6502100","三芝區"
"252007","AAC-283","2018/06/30 08:09:25","新北市三芝區後厝里土地公坑999號","121.46458","25.2488383333333","6502100","三芝區"
"237001","159-UY","2018/06/30 08:09:27","新北市三峽區學勤路38號","121.374256666667","24.945835","6500900","三峽區"
"236011","165-UM","2018/06/30 08:09:38","新北市土城區清水路172號","121.459838333333","24.9816033333333","6501300","土城區"
"236002","339-SR","2018/06/30 08:09:33","新北市土城區龍泉路66-2號","121.41557","24.9410883333333","6501300","土城區"
"236006","498-BY","2018/06/30 08:09:27","新北市土城區永寧路36-1號","121.42804","24.9590166666667","6501300","土城區"
