"lineid","car","time","location","longitude","latitude","cityid","cityname"
"248005","653-BX","2018/06/30 08:39:36","新北市五股區明德路12巷5號","121.433105","25.071965","6501500","五股區"
"244005","248-BX","2018/06/30 08:39:26","新北市林口區嘉溪雅坑29號","121.316898333333","25.1196116666667","6501700","林口區"
"244002","656-BX","2018/06/30 08:39:24","新北市林口區文化一路一段137號","121.373643333333","25.0723833333333","6501700","林口區"
"222004","289-BY","2018/06/30 08:39:09","新北市深坑區大崙尾8-2號","121.613788333333","24.978215","6501800","深坑區"
"231008","110-UY","2018/06/30 08:39:30","新北市新店區新烏路三段268巷21號","121.550113333333","24.899675","6500600","新店區"
"231007","189-VK","2018/06/30 08:39:38","新北市新店區新潭路一段230號","121.528793333333","24.9282133333333","6500600","新店區"
"235001","611-BX","2018/06/30 08:39:38","新北市中和區民利街50號","121.479305","24.9988433333333","6500300","中和區"
"226005","5620-A6","2018/06/30 08:39:31","新北市平溪區南山里乾坑2-5號","121.78694","25.0452033333333","6502400","平溪區"
"226007","7418-A5","2018/06/30 08:39:34","新北市平溪區東勢里芊蓁坑31號","121.728375","24.9787816666667","6502400","平溪區"
"226003","AGD-0702","2018/06/30 08:39:33","新北市平溪區新寮里月桃寮路3-7號","121.785206666667","25.05215","6502400","平溪區"
"223006","022-BY","2018/06/30 08:39:34","新北市深坑區北深路一段300號","121.624838333333","25.0061316666667","6501900","石碇區"
"223003","205-TH","2018/06/30 08:39:34","新北市石碇區北宜路六段水底寮巷1-1號","121.660293333333","24.9490966666667","6501900","石碇區"
"223008","406-TH","2018/06/30 08:39:26","新北市石碇區碇南路二段松柏崎巷47號","121.678013333333","25.0255","6501900","石碇區"
"223001","592-UM","2018/06/30 08:39:31","新北市石碇區北宜路六段水底寮巷1-1號","121.660395","24.9490683333333","6501900","石碇區"
"223004","660-BX","2018/06/30 08:39:32","新北市石碇區崩山47-5號","121.678563333333","24.9700983333333","6501900","石碇區"
"223007","661-BX","2018/06/30 08:39:23","新北市石碇區碇南路二段松柏崎巷1號","121.671831666667","25.01876","6501900","石碇區"
"223005","677-TV","2018/06/30 08:39:41","新北市石碇區崩山24-2號","121.679691666667","24.9673216666667","6501900","石碇區"
"227006","030-BX","2018/06/30 08:39:35","新北市雙溪區上林里大瀨1號","121.830001666667","25.0252083333333","6502500","雙溪區"
"252004","249-BX","2018/06/30 08:39:23","新北市三芝區興華里楓子林38號","121.490581666667","25.2079016666667","6502100","三芝區"
"252007","AAC-283","2018/06/30 08:39:25","新北市三芝區錫板里棟板頭38-2號","121.492256666667","25.2324233333333","6502100","三芝區"
"237001","159-UY","2018/06/30 08:39:27","新北市三峽區學勤路38號","121.374385","24.9458033333333","6500900","三峽區"
"236011","165-UM","2018/06/30 08:39:38","新北市土城區金城路二段46巷11號","121.454246666667","24.97355","6501300","土城區"
"236002","339-SR","2018/06/30 08:39:33","新北市土城區中央路三段281巷11弄3號","121.426605","24.96287","6501300","土城區"
"236006","498-BY","2018/06/30 08:39:27","新北市土城區永和街62巷2-2號","121.43552","24.9596216666667","6501300","土城區"
