"lineid","car","time","location","longitude","latitude","cityid","cityname"
"248005","653-BX","2018/06/30 08:59:36","新北市五股區明德路12巷5號","121.433188333333","25.07195","6501500","五股區"
"244002","656-BX","2018/06/30 08:59:24","新北市林口區文化一路一段135巷12號","121.373548333333","25.072465","6501700","林口區"
"222004","289-BY","2018/06/30 08:59:29","新北市深坑區大崙尾1-1號","121.615696666667","24.97535","6501800","深坑區"
"231008","110-UY","2018/06/30 08:59:30","新北市新店區廣興路60巷6-2號","121.539475","24.9141783333333","6500600","新店區"
"231007","189-VK","2018/06/30 08:58:58","新北市新店區新潭路三段275-1號","121.502193333333","24.9026416666667","6500600","新店區"
"235001","611-BX","2018/06/30 08:59:38","新北市中和區民享街136-2號","121.473463333333","24.9970266666667","6500300","中和區"
"226007","7418-A5","2018/06/30 08:59:34","新北市平溪區東勢里芊蓁坑30號","121.727533333333","24.9790883333333","6502400","平溪區"
"226003","AGD-0702","2018/06/30 08:59:33","新北市平溪區十分里十分街236號","121.778195","25.0440866666667","6502400","平溪區"
"223003","205-TH","2018/06/30 08:59:33","新北市石碇區北宜路四段26號","121.623173333333","24.9579183333333","6501900","石碇區"
"223008","406-TH","2018/06/30 08:59:26","新北市石碇區光明路耳空龜巷18-3號","121.692013333333","25.0348483333333","6501900","石碇區"
"223001","592-UM","2018/06/30 08:59:39","新北市石碇區北宜路四段22號","121.619965","24.9591683333333","6501900","石碇區"
"223004","660-BX","2018/06/30 08:59:32","新北市石碇區磨石坑13號","121.689115","24.973025","6501900","石碇區"
"223007","661-BX","2018/06/30 08:58:44","新北市石碇區光明路18-2號","121.691676666667","25.0372466666667","6501900","石碇區"
"223005","677-TV","2018/06/30 08:59:21","新北市石碇區磨石坑33號","121.692301666667","24.9683716666667","6501900","石碇區"
"227006","030-BX","2018/06/30 08:59:35","新北市雙溪區上林里內平林100-1號","121.826338333333","25.0255083333333","6502500","雙溪區"
"252004","249-BX","2018/06/30 08:59:43","新北市三芝區興華里田心子31號","121.488831666667","25.2004333333333","6502100","三芝區"
"252007","AAC-283","2018/06/30 08:59:25","新北市三芝區後厝里北勢子4號","121.479376666667","25.253085","6502100","三芝區"
"237001","159-UY","2018/06/30 08:59:38","新北市三峽區大觀路343號","121.373216666667","24.9473783333333","6500900","三峽區"
"236011","165-UM","2018/06/30 08:59:38","新北市土城區金城路一段1號","121.439091666667","24.9688516666667","6501300","土城區"
"236002","339-SR","2018/06/30 08:59:33","新北市土城區水源街17號","121.44115","24.97523","6501300","土城區"
"236006","498-BY","2018/06/30 08:59:27","新北市土城區中央路三段76巷51號","121.435235","24.9697816666667","6501300","土城區"
