"lineid","car","time","location","longitude","latitude","cityid","cityname"
"248005","653-BX","2018/06/30 10:19:34","新北市五股區新五路二段279號","121.442345","25.0864916666667","6501500","五股區"
"244002","656-BX","2018/06/30 10:19:24","新北市林口區文化一路一段135巷12號","121.373536666667","25.0724616666667","6501700","林口區"
"231008","110-UY","2018/06/30 10:18:50","新北市新店區成功路65號","121.539305","24.896905","6500600","新店區"
"227006","030-BX","2018/06/30 10:19:35","新北市雙溪區外柑里外柑腳37號","121.809908333333","25.0183816666667","6502500","雙溪區"
"252007","AAC-283","2018/06/30 10:19:25","新北市三芝區古庄里古庄99-7號","121.493755","25.270955","6502100","三芝區"
"237001","159-UY","2018/06/30 10:19:27","新北市三峽區國際一街39號","121.373061666667","24.9420716666667","6500900","三峽區"
