"lineid","car","time","location","longitude","latitude","cityid","cityname"
"234044","148-BY","2018/06/30 13:09:47","新北市永和區永元路18巷16號","121.523125","25.0001916666667","6500400","永和區"
"234005","207-UY","2018/06/30 13:09:44","新北市永和區中山路一段175-1號","121.509583333333","25.0091116666667","6500400","永和區"
"234078","298-R6","2018/06/30 13:09:42","新北市永和區永亨路83號","121.521993333333","25.005745","6500400","永和區"
"234036","336-UY","2018/06/30 13:09:47","新北市永和區民樂街71巷1號","121.527375","24.9975","6500400","永和區"
"234062","337-UY","2018/06/30 13:09:38","新北市永和區秀朗路二段17號","121.521026666667","25.00268","6500400","永和區"
"234084","338-UY","2018/06/30 13:09:31","新北市永和區永貞路87號","121.518456666667","25.0043016666667","6500400","永和區"
"234068","552-UM","2018/06/30 13:09:44","新北市永和區豫溪街137巷1弄9號","121.519238333333","25.01041","6500400","永和區"
"234015","745-BX","2018/06/30 13:09:36","新北市永和區文化路90巷15號","121.513728333333","25.0161183333333","6500400","永和區"
"234028","746-BX","2018/06/30 13:09:29","新北市永和區民生路23號","121.522886666667","24.9988133333333","6500400","永和區"
"234052","KEA-2590","2018/06/30 13:09:46","新北市永和區竹林路78號","121.519335","25.0127466666667","6500400","永和區"
"234012","KEA-2591","2018/06/30 13:09:34","新北市永和區保福路二段62-1號","121.510801666667","25.0124466666667","6500400","永和區"
"234060","AAD-866","2018/06/30 13:09:46","新北市永和區安樂路328號","121.514485","25.0057733333333","6500400","永和區"
"234040","862-TW","2018/06/30 13:09:30","新北市永和區永貞路334號","121.511223333333","25.0055066666667","6500400","永和區"
"234048","863-TW","2018/06/30 13:09:29","新北市永和區文化路135巷26弄1號","121.510618333333","25.014455","6500400","永和區"
"234025","9371-KE","2018/06/30 13:09:34","新北市永和區秀朗路一段10巷19號","121.51347","25.0061166666667","6500400","永和區"
"234010","9373-KE","2018/06/30 13:09:29","新北市永和區仁愛路31巷2弄1號","121.514208333333","25.0129466666667","6500400","永和區"
"248017","225-UY","2018/06/30 13:09:38","新北市五股區成泰路三段101-1號","121.444255","25.0901116666667","6501500","五股區"
"234022","9380-KE","2018/06/30 13:09:35","新北市永和區竹林路72巷2號","121.518913333333","25.0131333333333","6500400","永和區"
"234076","969-R7","2018/06/30 13:09:36","新北市永和區民光街3號","121.515288333333","24.9963866666667","6500400","永和區"
"234072","AAC-211","2018/06/30 13:09:32","新北市永和區竹林路217號","121.520716666667","25.00858","6500400","永和區"
"234066","AAC-212","2018/06/30 13:09:42","新北市永和區永和路一段90號","121.513126666667","25.00689","6500400","永和區"
"234001","AAC-295","2018/06/30 13:09:35","新北市永和區永和路二段5號","121.514435","25.0100133333333","6500400","永和區"
"244005","248-BX","2018/06/30 13:09:36","新北市林口區中山路520-1號","121.378761666667","25.083265","6501700","林口區"
"231005","001-UM","2018/06/30 13:09:30","新北市新店區安一路一段1-1號","121.51952","24.9610766666667","6500600","新店區"
"231041","002-UM","2018/06/30 13:09:40","新北市新店區安華路28-1號","121.519668333333","24.96079","6500600","新店區"
"231027","0293-UT","2018/06/30 13:09:28","新北市新店區安華路1-1號","121.519721666667","24.9604416666667","6500600","新店區"
"231001","047-UY","2018/06/30 13:09:45","新北市新店區安一路一段1-1號","121.519223333333","24.9610183333333","6500600","新店區"
"231020","108-UY","2018/06/30 13:09:34","新北市新店區安一路一段1-1號","121.519506666667","24.9612983333333","6500600","新店區"
"231010","188-VK","2018/06/30 13:09:42","新北市新店區安一路一段1-1號","121.519305","24.96141","6500600","新店區"
"231023","KEA-2219","2018/06/30 13:09:28","新北市新店區安一路一段1-1號","121.519926666667","24.9611483333333","6500600","新店區"
"231003","268-BY","2018/06/30 13:09:32","新北市新店區安華路28-1號","121.519415","24.9606633333333","6500600","新店區"
"231018","278-BY","2018/06/30 13:09:34","新北市新店區安一路一段1-1號","121.51963","24.9611933333333","6500600","新店區"
"231017","AAD-862","2018/06/30 13:09:30","新北市新店區安一路一段1-1號","121.519966666667","24.9611233333333","6500600","新店區"
"231037","4716-K9","2018/06/30 13:09:31","新北市新店區安華路28-1號","121.519708333333","24.9609366666667","6500600","新店區"
"231025","4715-K9","2018/06/30 13:09:45","新北市新店區安華路28-1號","121.519626666667","24.9607","6500600","新店區"
"231036","512-UM","2018/06/30 13:09:41","新北市新店區安一路一段1-1號","121.519375","24.961175","6500600","新店區"
"231013","513-UM","2018/06/30 13:09:31","新北市新店區安一路一段1-1號","121.519608333333","24.9611","6500600","新店區"
"231006","617-UM","2018/06/30 13:09:45","新北市新店區安一路一段1-1號","121.519461666667","24.9611833333333","6500600","新店區"
"231030","619-UM","2018/06/30 13:09:30","新北市新店區安華路28-1號","121.519628333333","24.960885","6500600","新店區"
"231034","641-BX","2018/06/30 13:09:34","新北市新店區安華路1-1號","121.519525","24.9604566666667","6500600","新店區"
"231035","719-UM","2018/06/30 13:09:36","新北市新店區安一路一段1-1號","121.519578333333","24.96152","6500600","新店區"
"231033","720-UM","2018/06/30 13:09:46","新北市新店區安一路一段1-1號","121.519241666667","24.96119","6500600","新店區"
"231029","897-TW","2018/06/30 13:09:43","新北市新店區安華路28-1號","121.519621666667","24.960635","6500600","新店區"
"231004","899-TW","2018/06/30 13:09:39","新北市新店區安華路28-1號","121.519508333333","24.96089","6500600","新店區"
"231024","AKT-0513","2018/06/30 13:09:44","新北市新店區安華路28-1號","121.519523333333","24.960625","6500600","新店區"
"235030","003-UY","2018/06/30 13:09:32","新北市中和區圓通路207號","121.497036666667","24.9944133333333","6500300","中和區"
"235028","005-UY","2018/06/30 13:09:36","新北市中和區中正路275號","121.495396666667","24.9937333333333","6500300","中和區"
"235027","006-UY","2018/06/30 13:09:36","新北市中和區員山路36巷16-3號","121.48493","24.991415","6500300","中和區"
"235003","097-UM","2018/06/30 13:09:37","新北市中和區中正路637巷60弄61號","121.485516666667","24.9931716666667","6500300","中和區"
"235029","098-UM","2018/06/30 13:09:48","新北市中和區中山路二段64巷16弄2號","121.503276666667","25.0057266666667","6500300","中和區"
"235004","150-BY","2018/06/30 13:09:33","新北市中和區錦和路350-1號","121.490383333333","24.9935433333333","6500300","中和區"
"235022","151-BY","2018/06/30 13:09:45","新北市中和區圓通路367巷62-5號","121.492246666667","24.982955","6500300","中和區"
"235002","185-VK","2018/06/30 13:09:38","新北市中和區景平路154號","121.517756666667","24.9921433333333","6500300","中和區"
"235031","255-BX","2018/06/30 13:09:49","新北市中和區新生街187號","121.483766666667","25.0003733333333","6500300","中和區"
"235007","352-BY","2018/06/30 13:09:45","新北市中和區中正路637巷52弄1號","121.485436666667","24.9935583333333","6500300","中和區"
"235033","4980-A6","2018/06/30 13:09:30","新北市中和區員山路36巷16-2號","121.485271666667","24.99183","6500300","中和區"
"235034","558-UM","2018/06/30 13:09:31","新北市中和區中正路273號","121.495686666667","24.99378","6500300","中和區"
"235018","640-BX","2018/06/30 13:09:28","新北市中和區莒光路260-1號","121.467531666667","24.9937933333333","6500300","中和區"
"235035","783-BX","2018/06/30 13:09:29","新北市中和區板南路518號","121.483676666667","25.00848","6500300","中和區"
"235021","801-TS","2018/06/30 13:09:38","新北市中和區員山路36巷16-3號","121.484865","24.9918383333333","6500300","中和區"
"235016","805-TS","2018/06/30 13:09:44","新北市中和區中正路271號","121.4959","24.9937316666667","6500300","中和區"
"235017","900-TW","2018/06/30 13:09:44","新北市中和區員山路36巷13號","121.48436","24.990685","6500300","中和區"
"235015","157-BY","2018/06/30 13:09:31","新北市中和區南山路279號","121.504106666667","24.992295","6500300","中和區"
"235001","AAC-213","2018/06/30 13:09:44","新北市中和區景平路149號","121.513966666667","24.9921166666667","6500300","中和區"
"247001","002-UY","2018/06/30 13:09:27","新北市五股區中興路三段2巷10號","121.449446666667","25.08077","6501400","蘆洲區"
"235011","251-BX","2018/06/30 13:09:33","新北市中和區錦和路95號","121.490008333333","24.99557","6500300","中和區"
"228005","097-TW","2018/06/30 13:09:42","新北市貢寮區仁理村仁和路2-2號","121.923441666667","25.0483266666667","6502600","貢寮區"
"228004","212-TW","2018/06/30 13:09:31","新北市貢寮區吉林里內寮街75號","121.891108333333","24.9719116666667","6502600","貢寮區"
"253003","6232-TK","2018/06/30 13:09:41","新北市石門區石崩山27-3號","121.564218333333","25.28","6502200","石門區"
"253001","6251-TK","2018/06/30 13:09:36","新北市石門區老梅路43-2號","121.545431666667","25.2895366666667","6502200","石門區"
"253002","637-UY","2018/06/30 13:09:44","新北市石門區老崩山35號","121.556708333333","25.276455","6502200","石門區"
"253004","8270-PC","2018/06/30 13:09:35","新北市石門區阿里荖4號","121.614725","25.2787416666667","6502200","石門區"
"207002","749-BX","2018/06/30 13:09:41","新北市萬里區崁腳里內崁路4號","121.642651666667","25.1595366666667","6502800","萬里區"
"252005","073-UM","2018/06/30 13:09:38","新北市三芝區埔坪里埔頭坑164號","121.508105","25.2478233333333","6502100","三芝區"
"207001","662-BX","2018/06/30 13:09:43","新北市萬里區萬里里瑪鋉路145-1號","121.689623333333","25.177895","6502800","萬里區"
"236006","498-BY","2018/06/30 13:09:46","新北市土城區亞洲路64號","121.435213333333","24.97328","6501300","土城區"
"221032","280-BY","2018/06/30 13:09:33","新北市汐止區建成路57巷1號","121.662291666667","25.07257","6501100","汐止區"
"235032","KEA-2873","2018/06/30 13:09:25","新北市中和區員山路36巷16-3號","121.48512","24.9913216666667","6500300","中和區"
"235025","KEA-2875","2018/06/30 13:09:41","新北市土城區金城路三段257號","121.47183","24.9899983333333","6500300","中和區"
