"lineid","car","time","location","longitude","latitude","cityid","cityname"
"234044","148-BY","2018/06/30 13:19:47","新北市永和區得和路373巷6弄1號","121.524798333333","24.99989","6500400","永和區"
"234005","207-UY","2018/06/30 13:19:44","新北市永和區中山路一段331號","121.50602","25.0061783333333","6500400","永和區"
"234078","298-R6","2018/06/30 13:19:42","新北市永和區福和路5-5號","121.524945","25.0083783333333","6500400","永和區"
"234036","336-UY","2018/06/30 13:19:44","新北市永和區民樂街55巷2號","121.52746","24.9984066666667","6500400","永和區"
"234062","337-UY","2018/06/30 13:19:38","新北市永和區永元路17巷6弄2號","121.52135","25.00065","6500400","永和區"
"234084","338-UY","2018/06/30 13:19:31","新北市永和區永利路69號","121.519686666667","25.0048566666667","6500400","永和區"
"234068","552-UM","2018/06/30 13:19:44","新北市永和區中正路605號","121.51636","25.00975","6500400","永和區"
"234015","745-BX","2018/06/30 13:19:36","新北市永和區文化路192巷14弄21號","121.511768333333","25.016925","6500400","永和區"
"234028","746-BX","2018/06/30 13:19:29","新北市永和區厚德街87號","121.524073333333","24.99883","6500400","永和區"
"234052","KEA-2590","2018/06/30 13:19:46","新北市永和區中興街20號","121.51607","25.0118333333333","6500400","永和區"
"234012","KEA-2591","2018/06/30 13:19:44","新北市永和區信義路19號","121.514176666667","25.0121233333333","6500400","永和區"
"234060","AAD-866","2018/06/30 13:19:46","新北市永和區秀朗路一段175號","121.51708","25.0036416666667","6500400","永和區"
"234040","862-TW","2018/06/30 13:19:32","新北市永和區保平路151巷2弄6號","121.509793333333","25.00545","6500400","永和區"
"234048","863-TW","2018/06/30 13:19:29","新北市永和區保福路二段78號","121.510573333333","25.0133516666667","6500400","永和區"
"234025","9371-KE","2018/06/30 13:19:34","新北市永和區大新街19巷4號","121.515053333333","25.0088383333333","6500400","永和區"
"234010","9373-KE","2018/06/30 13:19:49","新北市永和區文化路90巷27弄1號","121.513351666667","25.0164033333333","6500400","永和區"
"248017","225-UY","2018/06/30 13:19:38","新北市五股區御史路160號","121.430485","25.10311","6501500","五股區"
"234022","9380-KE","2018/06/30 13:19:35","新北市永和區竹林路124巷31號","121.518301666667","25.0111416666667","6500400","永和區"
"234076","969-R7","2018/06/30 13:19:43","新北市永和區民有街59號","121.517566666667","24.9958983333333","6500400","永和區"
"234072","AAC-211","2018/06/30 13:19:32","新北市永和區復興街91號","121.517738333333","25.0141966666667","6500400","永和區"
"234066","AAC-212","2018/06/30 13:19:42","新北市永和區保平路44號","121.511418333333","25.0070516666667","6500400","永和區"
"234001","AAC-295","2018/06/30 13:19:35","新北市永和區保福路一段84號","121.512236666667","25.0101966666667","6500400","永和區"
"244005","248-BX","2018/06/30 13:19:36","新北市林口區南勢里77-7號","121.34762","25.0769566666667","6501700","林口區"
"231005","001-UM","2018/06/30 13:19:30","新北市新店區中正路104號","121.543131666667","24.970375","6500600","新店區"
"231002","002-UM","2018/06/30 13:19:43","新北市新店區安華路28-1號","121.519623333333","24.9608866666667","6500600","新店區"
"231027","0293-UT","2018/06/30 13:19:48","新北市新店區安康路一段257號","121.524496666667","24.9633316666667","6500600","新店區"
"231028","046-UY","2018/06/30 13:19:34","新北市新店區安華路28-1號","121.519565","24.9608616666667","6500600","新店區"
"231001","047-UY","2018/06/30 13:19:45","新北市新店區安華路28-1號","121.51938","24.96081","6500600","新店區"
"231020","108-UY","2018/06/30 13:19:34","新北市新店區安一路一段1-1號","121.519816666667","24.9612366666667","6500600","新店區"
"231012","187-VK","2018/06/30 13:19:34","新北市新店區安一路一段1-1號","121.5198","24.9621133333333","6500600","新店區"
"231010","188-VK","2018/06/30 13:19:41","新北市新店區安康路一段226號","121.523505","24.9635733333333","6500600","新店區"
"231023","KEA-2219","2018/06/30 13:19:28","新北市新店區安康路一段235號","121.525221666667","24.9631816666667","6500600","新店區"
"231026","256-BX","2018/06/30 13:19:38","新北市新店區安一路一段1-1號","121.519701666667","24.9611183333333","6500600","新店區"
"231003","268-BY","2018/06/30 13:19:32","新北市新店區安一路一段1-1號","121.51967","24.9611833333333","6500600","新店區"
"231018","278-BY","2018/06/30 13:19:34","新北市新店區環河路118號","121.536695","24.96798","6500600","新店區"
"231017","AAD-862","2018/06/30 13:19:50","新北市新店區安康路一段3-1號","121.534491666667","24.9607266666667","6500600","新店區"
"231038","3712-VJ","2018/06/30 13:19:48","新北市新店區安華路28-1號","121.519076666667","24.9606466666667","6500600","新店區"
"231037","4716-K9","2018/06/30 13:19:31","新北市新店區安華路28-1號","121.51965","24.9609583333333","6500600","新店區"
"231025","4715-K9","2018/06/30 13:19:45","新北市新店區中央五街42-1號","121.528303333333","24.97509","6500600","新店區"
"231036","512-UM","2018/06/30 13:19:41","新北市新店區安忠路102-1號","121.510293333333","24.9556183333333","6500600","新店區"
"231013","513-UM","2018/06/30 13:19:31","新北市新店區安一路一段1-1號","121.519623333333","24.9610866666667","6500600","新店區"
"231006","617-UM","2018/06/30 13:19:45","新北市新店區安一路一段1-1號","121.51948","24.96107","6500600","新店區"
"231030","619-UM","2018/06/30 13:19:50","新北市新店區安華路28-1號","121.519555","24.96098","6500600","新店區"
"231034","641-BX","2018/06/30 13:19:34","新北市新店區安華路1-1號","121.519578333333","24.960495","6500600","新店區"
"231035","719-UM","2018/06/30 13:19:36","新北市新店區安一路一段1-1號","121.519751666667","24.96144","6500600","新店區"
"231033","720-UM","2018/06/30 13:19:46","新北市新店區安一路一段1-1號","121.519316666667","24.9611983333333","6500600","新店區"
"231029","897-TW","2018/06/30 13:19:43","新北市新店區安華路28-1號","121.519786666667","24.9606283333333","6500600","新店區"
"231004","899-TW","2018/06/30 13:19:39","新北市新店區安華路28-1號","121.519465","24.9609366666667","6500600","新店區"
"231024","AKT-0513","2018/06/30 13:19:44","新北市新店區安康路一段100號","121.527456666667","24.9623316666667","6500600","新店區"
"235030","003-UY","2018/06/30 13:19:32","新北市中和區中山路二段64巷14弄2號","121.503446666667","25.0054183333333","6500300","中和區"
"235028","005-UY","2018/06/30 13:19:36","新北市中和區中正路154號","121.498736666667","24.993775","6500300","中和區"
"235027","006-UY","2018/06/30 13:19:36","新北市中和區中正路637巷52弄1號","121.485475","24.99332","6500300","中和區"
"235020","096-UM","2018/06/30 13:19:46","新北市中和區員山路36巷16號","121.484385","24.9915833333333","6500300","中和區"
"235003","097-UM","2018/06/30 13:19:37","新北市中和區安平路59號","121.509576666667","24.9951166666667","6500300","中和區"
"235029","098-UM","2018/06/30 13:19:28","新北市中和區莊敬路49巷20弄20號","121.502645","25.00581","6500300","中和區"
"235004","150-BY","2018/06/30 13:19:32","新北市中和區保健路50巷66號","121.50933","24.99518","6500300","中和區"
"235022","151-BY","2018/06/30 13:19:45","新北市中和區圓通路367巷55弄4號","121.49207","24.9838816666667","6500300","中和區"
"235019","183-VK","2018/06/30 13:19:31","新北市中和區中正路637巷52弄1號","121.485465","24.9933366666667","6500300","中和區"
"235002","185-VK","2018/06/30 13:19:38","新北市中和區自立路48號","121.523088333333","24.9922233333333","6500300","中和區"
"235013","186-VK","2018/06/30 13:19:33","新北市中和區中正路637巷52弄1號","121.485448333333","24.9934716666667","6500300","中和區"
"235031","255-BX","2018/06/30 13:19:29","新北市中和區中正路788號","121.485071666667","25.001105","6500300","中和區"
"235036","301-VK","2018/06/30 13:19:50","新北市中和區連城路299號","121.48997","24.9964383333333","6500300","中和區"
"235007","352-BY","2018/06/30 13:19:45","新北市中和區景平路379號","121.504076666667","24.9934183333333","6500300","中和區"
"235006","KEA-2878","2018/06/30 13:19:48","新北市中和區景平路161-1號","121.512635","24.9923516666667","6500300","中和區"
"235014","4979-A6","2018/06/30 13:19:38","新北市中和區捷運路191號","121.505365","24.9912433333333","6500300","中和區"
"235033","4980-A6","2018/06/30 13:19:30","新北市中和區中正路271號","121.495898333333","24.9937333333333","6500300","中和區"
"235034","558-UM","2018/06/30 13:19:31","新北市中和區圓通路109號","121.499448333333","24.9965416666667","6500300","中和區"
"235009","565-BX","2018/06/30 13:19:39","新北市中和區復興路81號","121.503411666667","24.989955","6500300","中和區"
"235018","640-BX","2018/06/30 13:19:28","新北市中和區國光街112巷1弄5號","121.469395","25.0010683333333","6500300","中和區"
"235035","783-BX","2018/06/30 13:19:29","新北市中和區中板路18巷1弄36號","121.483223333333","25.012775","6500300","中和區"
"235026","800-TS","2018/06/30 13:19:27","新北市中和區景平路792號","121.495741666667","25.00614","6500300","中和區"
"235021","801-TS","2018/06/30 13:19:38","新北市中和區民利街28-3號","121.479938333333","24.99904","6500300","中和區"
"235005","802-TS","2018/06/30 13:19:39","新北市中和區中興街118巷8號","121.499976666667","24.9935566666667","6500300","中和區"
"235016","805-TS","2018/06/30 13:19:44","新北市中和區興南路二段96號","121.505041666667","24.9840583333333","6500300","中和區"
"235012","896-TW","2018/06/30 13:19:50","新北市中和區錦和路350-1號","121.490315","24.99358","6500300","中和區"
"235017","900-TW","2018/06/30 13:19:44","新北市中和區員山路36巷16-2號","121.485003333333","24.991825","6500300","中和區"
"235015","157-BY","2018/06/30 13:19:31","新北市中和區忠孝街37巷4號","121.51128","24.9835416666667","6500300","中和區"
"235001","AAC-213","2018/06/30 13:19:44","新北市中和區景德街81號","121.51647","24.99131","6500300","中和區"
"247007","056-VK","2018/06/30 13:19:37","新北市五股區中興路三段2巷10號","121.449211666667","25.0809733333333","6501400","蘆洲區"
"247001","002-UY","2018/06/30 13:19:47","新北市五股區中興路三段2巷10號","121.449333333333","25.0808383333333","6501400","蘆洲區"
"235011","251-BX","2018/06/30 13:19:29","新北市中和區板南路254號","121.496006666667","24.995655","6500300","中和區"
"228005","097-TW","2018/06/30 13:19:42","新北市貢寮區美豐里丹裡街18-2號","121.912025","25.0577183333333","6502600","貢寮區"
"228004","212-TW","2018/06/30 13:19:31","新北市貢寮區吉林里內寮街23號","121.902373333333","24.9854033333333","6502600","貢寮區"
"253003","6232-TK","2018/06/30 13:19:41","新北市石門區老崩山39-3號","121.565335","25.266255","6502200","石門區"
"253001","6251-TK","2018/06/30 13:19:36","新北市石門區楓林11號","121.537121666667","25.294735","6502200","石門區"
"253002","637-UY","2018/06/30 13:19:44","新北市石門區大溪墘9-1號","121.552676666667","25.2739316666667","6502200","石門區"
"253004","8270-PC","2018/06/30 13:19:35","新北市石門區竹子湖1號","121.612986666667","25.2666533333333","6502200","石門區"
"207002","749-BX","2018/06/30 13:19:42","新北市萬里區崁腳里崁腳路166號","121.645116666667","25.1558216666667","6502800","萬里區"
"252005","073-UM","2018/06/30 13:19:38","新北市三芝區八賢里八連溪64號","121.517236666667","25.231615","6502100","三芝區"
"207001","662-BX","2018/06/30 13:19:43","新北市萬里區龜吼里玉田路29號","121.68113","25.195385","6502800","萬里區"
"236006","498-BY","2018/06/30 13:19:36","新北市土城區亞洲路57號","121.433365","24.971185","6501300","土城區"
"221032","280-BY","2018/06/30 13:19:33","新北市汐止區大同路二段211號","121.652746666667","25.0647666666667","6501100","汐止區"
"220030","610-BX","2018/06/30 13:19:30","新北市板橋區華東街1-10號","121.44826","24.9949516666667","6500100","板橋區"
"220025","806-UM","2018/06/30 13:19:30","新北市板橋區華東街1-10號","121.448406666667","24.99502","6500100","板橋區"
"220014","829-TW","2018/06/30 13:19:42","新北市板橋區民生路二段120號","121.470318333333","25.0197966666667","6500100","板橋區"
"220022","895-R6","2018/06/30 13:19:39","新北市板橋區華東街1-10號","121.448226666667","24.9950233333333","6500100","板橋區"
"235032","KEA-2873","2018/06/30 13:19:25","新北市中和區員山路36巷16-3號","121.485115","24.9914166666667","6500300","中和區"
"235025","KEA-2875","2018/06/30 13:19:41","新北市中和區國光街107巷4弄18號","121.470005","24.99929","6500300","中和區"
