"lineid","car","time","location","longitude","latitude","cityid","cityname"
"234026","9371-KE","2018/06/30 17:29:35","新北市永和區福和路1號","121.526821666667","25.0100616666667","6500400","永和區"
"249005","172-UM","2018/06/30 17:29:51","新北市八里區荖阡坑路28-1號","121.4039","25.1296433333333","6502300","八里區"
"249001","173-UM","2018/06/30 17:29:41","新北市八里區大崁腳41-2號","121.425963333333","25.1593533333333","6502300","八里區"
"249004","303-UY","2018/06/30 17:29:41","新北市八里區賢三街162號","121.414771666667","25.1568966666667","6502300","八里區"
"249002","305-UY","2018/06/30 17:29:43","新北市八里區龍米路一段470號","121.449983333333","25.136115","6502300","八里區"
"249003","593-UM","2018/06/30 17:29:37","新北市八里區中山路二段315號","121.400605","25.1477366666667","6502300","八里區"
"244007","080-UY","2018/06/30 17:29:46","新北市林口區湖子27號","121.385968333333","25.0934516666667","6501700","林口區"
"244019","403-UM","2018/06/30 17:29:35","新北市林口區公園路166號","121.372156666667","25.0722016666667","6501700","林口區"
"244013","742-UY","2018/06/30 17:29:45","新北市林口區粉寮69號","121.404795","25.0908266666667","6501700","林口區"
"244009","410-SL","2018/06/30 17:29:42","新北市林口區中北三街136號","121.383716666667","25.0838216666667","6501700","林口區"
"244023","483-VK","2018/06/30 17:29:36","新北市林口區東明三街402號","121.392708333333","25.0710333333333","6501700","林口區"
"244017","485-VK","2018/06/30 17:29:49","新北市林口區文化一路二段200號","121.383005","25.0808066666667","6501700","林口區"
"244011","657-BX","2018/06/30 17:29:35","新北市林口區仁愛路一段386巷6號","121.387966666667","25.0771966666667","6501700","林口區"
"244025","837-TS","2018/06/30 17:29:46","新北市林口區南勢街120號","121.362908333333","25.074005","6501700","林口區"
"243010","267-VK","2018/06/30 17:26:00","新北市泰山區犁頭窠3-1號","121.421981666667","25.0605816666667","6501600","泰山區"
"231046","188-VK","2018/06/30 17:29:48","新北市新店區直潭路92號","121.530903333333","24.9375666666667","6500600","新店區"
"241011","013-R5","2018/06/30 17:29:50","新北市三重區河邊北街122-1號","121.503678333333","25.07142","6500200","三重區"
"241015","062-VK","2018/06/30 17:29:35","新北市三重區長元街65巷22弄20號","121.503633333333","25.0659083333333","6500200","三重區"
"241017","063-VK","2018/06/30 17:29:39","新北市三重區中正北路25巷25弄6號","121.49341","25.0627216666667","6500200","三重區"
"241024","065-VK","2018/06/30 17:29:37","新北市三重區大勇街49號","121.481333333333","25.0720066666667","6500200","三重區"
"241003","091-VK","2018/06/30 17:29:31","新北市三重區集賢路87-1號","121.493696666667","25.0868583333333","6500200","三重區"
"241005","262-UM","2018/06/30 17:29:36","新北市三重區永安北路二段39號","121.482511666667","25.0824466666667","6500200","三重區"
"241016","266-UM","2018/06/30 17:29:40","新北市三重區大同北路69號","121.495101666667","25.0636633333333","6500200","三重區"
"241009","267-UM","2018/06/30 17:29:46","新北市三重區車路頭街135-1號","121.484276666667","25.0761583333333","6500200","三重區"
"241018","268-UM","2018/06/30 17:29:32","新北市三重區大智街45號","121.493538333333","25.0663483333333","6500200","三重區"
"241032","269-UM","2018/06/30 17:29:35","新北市三重區名源街61巷3號","121.481881666667","25.0592683333333","6500200","三重區"
"241007","398-BY","2018/06/30 17:29:33","新北市三重區三和路四段145巷155號","121.487581666667","25.07916","6500200","三重區"
"241020","478-VK","2018/06/30 17:29:43","新北市三重區忠孝路一段133號","121.488576666667","25.0719566666667","6500200","三重區"
"241030","480-VK","2018/06/30 17:29:41","新北市三重區新興路46號","121.491445","25.0536433333333","6500200","三重區"
"241014","543-UM","2018/06/30 17:29:35","新北市三重區安和路17號","121.50132","25.068415","6500200","三重區"
"241023","545-UM","2018/06/30 17:29:39","新北市三重區三民街146巷3弄2號","121.481556666667","25.06455","6500200","三重區"
"241019","KEA-2593","2018/06/30 17:29:41","新北市三重區六張街156號","121.489451666667","25.0687566666667","6500200","三重區"
"241025","743-BX","2018/06/30 17:29:37","新北市三重區三民街316號","121.47693","25.069","6500200","三重區"
"241012","941-UM","2018/06/30 17:29:36","新北市三重區仁福街64巷1號","121.497883333333","25.0747483333333","6500200","三重區"
"241033","AAC-255","2018/06/30 17:29:34","新北市三重區興德路133號","121.47026","25.052845","6500200","三重區"
"247024","893-R6","2018/06/30 17:29:40","新北市蘆洲區長興路296-8號","121.460606666667","25.090285","6501400","蘆洲區"
"247014","546-UM","2018/06/30 17:29:44","新北市蘆洲區復興路56-1號","121.473353333333","25.08542","6501400","蘆洲區"
"247022","500-BY","2018/06/30 17:29:39","新北市蘆洲區三民路285-1號","121.4671","25.0903333333333","6501400","蘆洲區"
"247010","341-TH","2018/06/30 17:29:39","新北市蘆洲區信義路159號","121.479848333333","25.0817633333333","6501400","蘆洲區"
"247012","339-TH","2018/06/30 17:29:20","新北市蘆洲區民族路38號","121.476595","25.084345","6501400","蘆洲區"
"247004","337-TH","2018/06/30 17:29:49","新北市蘆洲區長安街229號","121.459506666667","25.0827666666667","6501400","蘆洲區"
"247006","336-TH","2018/06/30 17:29:45","新北市蘆洲區長安街68巷33號","121.463916666667","25.0810283333333","6501400","蘆洲區"
"247018","057-VK","2018/06/30 17:29:50","新北市蘆洲區民義街22巷11號","121.47179","25.08828","6501400","蘆洲區"
"247008","056-VK","2018/06/30 17:29:39","新北市蘆洲區信義路34巷35號","121.475081666667","25.0783866666667","6501400","蘆洲區"
"247016","007-UY","2018/06/30 17:29:44","新北市蘆洲區中正路185巷9號","121.467806666667","25.0850483333333","6501400","蘆洲區"
"247002","002-UY","2018/06/30 17:29:51","新北市蘆洲區永樂街38巷67弄15號","121.457973333333","25.0906333333333","6501400","蘆洲區"
"247020","001-UY","2018/06/30 17:29:45","新北市蘆洲區水湳街102號","121.469581666667","25.09296","6501400","蘆洲區"
"228003","097-TW","2018/06/30 17:29:44","新北市貢寮區仁理村研海街45號","121.926241666667","25.041195","6502600","貢寮區"
"228001","212-TW","2018/06/30 17:29:46","新北市貢寮區仁理村仁愛路46號","121.925243333333","25.0532916666667","6502600","貢寮區"
"228002","663-BX","2018/06/30 17:29:51","新北市貢寮區福隆里興隆街22號","121.94474","25.016695","6502600","貢寮區"
"224008","285-BY","2018/06/30 17:29:45","新北市瑞芳區侯硐路204號","121.83047","25.08815","6501200","瑞芳區"
"224009","273-VK","2018/06/30 17:29:50","新北市瑞芳區山尖路174號","121.847956666667","25.11184","6501200","瑞芳區"
"224005","271-BY","2018/06/30 17:29:33","新北市瑞芳區南雅路91號","121.884746666667","25.1229883333333","6501200","瑞芳區"
"227002","642-TC","2018/06/30 17:29:46","新北市雙溪區平林里外平林15號","121.858713333333","25.0378816666667","6502500","雙溪區"
"227010","400-TW","2018/06/30 17:29:35","新北市雙溪區三貂里政光路3-1號","121.851038333333","25.06326","6502500","雙溪區"
"251004","009-UM","2018/06/30 17:29:41","新北市淡水區中正東路二段88巷15號","121.45907","25.150465","6501000","淡水區"
"251002","012-UM","2018/06/30 17:29:38","新北市淡水區中正路437號","121.43207","25.1747266666667","6501000","淡水區"
"251013","KEA-2871","2018/06/30 17:29:50","新北市淡水區水尾子2-1號","121.464245","25.1943","6501000","淡水區"
"251016","179-VK","2018/06/30 17:29:43","新北市淡水區大竹圍63號","121.462621666667","25.191035","6501000","淡水區"
"251014","180-VK","2018/06/30 17:29:29","新北市淡水區公埔子10號","121.475668333333","25.22693","6501000","淡水區"
"251008","181-VK","2018/06/30 17:29:47","新北市淡水區大同路122巷2號","121.463121666667","25.1403566666667","6501000","淡水區"
"251015","182-VK","2018/06/30 17:28:59","新北市淡水區樹林口14-3號","121.47705","25.1670883333333","6501000","淡水區"
"251010","413-VK","2018/06/30 17:29:52","新北市淡水區中正路二段206號","121.426226666667","25.1889766666667","6501000","淡水區"
"251012","441-VK","2018/06/30 17:29:46","新北市淡水區北新路111號","121.448025","25.1783816666667","6501000","淡水區"
"251007","442-VK","2018/06/30 17:29:35","新北市淡水區民生路60號","121.462183333333","25.1379233333333","6501000","淡水區"
"251005","443-VK","2018/06/30 17:29:45","新北市淡水區鄧公路31巷16號","121.451963333333","25.1706216666667","6501000","淡水區"
"251006","561-UM","2018/06/30 17:29:49","新北市淡水區大仁街27號","121.442521666667","25.1753483333333","6501000","淡水區"
"251009","575-R6","2018/06/30 17:29:34","新北市淡水區文化路57號","121.43879","25.1726583333333","6501000","淡水區"
"251011","650-BX","2018/06/30 17:29:32","新北市淡水區坪頂路718號","121.482525","25.1584683333333","6501000","淡水區"
"251003","673-BX","2018/06/30 17:29:51","新北市淡水區中正路235號","121.43513","25.1735533333333","6501000","淡水區"
"207003","550-UM","2018/06/30 17:29:53","新北市萬里區龜吼里亭路3號","121.683256666667","25.1895766666667","6502800","萬里區"
"207004","225-TW","2018/06/30 17:29:49","新北市萬里區萬里里景美路18號","121.686188333333","25.1730483333333","6502800","萬里區"
"252002","178-VK","2018/06/30 17:29:42","新北市三芝區忠孝街1-14號","121.50532","25.2539466666667","6502100","三芝區"
"252001","292-VK","2018/06/30 17:29:40","新北市三芝區淡金路一段3號","121.498085","25.2596316666667","6502100","三芝區"
"237012","275-BY","2018/06/30 17:29:51","新北市三峽區中山路459巷163-3號","121.348916666667","24.9332466666667","6500900","三峽區"
"237011","KEA-2596","2018/06/30 17:29:45","新北市三峽區中山路459巷163-3號","121.348695","24.93297","6500900","三峽區"
"237016","649-BX","2018/06/30 17:29:40","新北市三峽區中山路259號","121.362393333333","24.9373583333333","6500900","三峽區"
"242034","AAC-296","2018/06/30 17:29:37","新北市新莊區新莊路461號","121.449426666667","25.0333716666667","6500500","新莊區"
"242058","986-R7","2018/06/30 17:29:50","新北市新莊區中正路498號","121.436028333333","25.0328916666667","6500500","新莊區"
"242053","751-BX","2018/06/30 17:29:40","新北市新莊區瓊林南路305巷2號","121.43421","25.0059333333333","6500500","新莊區"
"242027","705-TV","2018/06/30 17:29:47","新北市新莊區幸福路1號","121.459846666667","25.0493883333333","6500500","新莊區"
"242025","613-BX","2018/06/30 17:29:12","新北市新莊區復興路二段31號","121.45444","25.0440383333333","6500500","新莊區"
"242029","612-BX","2018/06/30 17:29:52","新北市新莊區復興路二段174號","121.458675","25.0443683333333","6500500","新莊區"
"242042","566-BX","2018/06/30 17:29:40","新北市新莊區新樹路113巷32號","121.438646666667","25.0267066666667","6500500","新莊區"
"242046","497-BY","2018/06/30 17:29:46","新北市新莊區新樹路23號","121.440433333333","25.0324733333333","6500500","新莊區"
"242051","441-UM","2018/06/30 17:29:34","新北市新莊區西盛街245巷27弄1號","121.429321666667","25.0161616666667","6500500","新莊區"
"242036","415-TV","2018/06/30 17:29:41","新北市新莊區建國一路175-1號","121.435068333333","25.024015","6500500","新莊區"
"242007","413-TV","2018/06/30 17:29:33","新北市新莊區自強街52號","121.454775","25.0467316666667","6500500","新莊區"
"242044","400-BY","2018/06/30 17:29:32","新北市新莊區富國路73號","121.419983333333","25.02596","6500500","新莊區"
"242023","362-BY","2018/06/30 17:29:42","新北市新莊區公園路150號","121.453155","25.040085","6500500","新莊區"
"242061","353-BY","2018/06/30 17:29:55","新北市新莊區瓊林南路42巷2-2號","121.436055","25.0181766666667","6500500","新莊區"
"242009","132-UY","2018/06/30 17:29:51","新北市新莊區中原路185號","121.45312","25.0543883333333","6500500","新莊區"
"242039","133-UY","2018/06/30 17:29:54","新北市新莊區民安東路7號","121.427753333333","25.0209833333333","6500500","新莊區"
"242031","135-UY","2018/06/30 17:29:37","新北市新莊區新泰路401巷28-1號","121.442526666667","25.044005","6500500","新莊區"
"242048","172-VK","2018/06/30 17:29:50","新北市新莊區龍安路256號","121.421281666667","25.0195283333333","6500500","新莊區"
"242011","173-VK","2018/06/30 17:28:00","新北市新莊區中港路380號","121.452436666667","25.047865","6500500","新莊區"
"242015","346-TH","2018/06/30 17:29:33","新北市新莊區新泰路193號","121.447156666667","25.0378033333333","6500500","新莊區"
"242017","347-TH","2018/06/30 17:29:53","新北市新莊區建豐街26號","121.451581666667","25.0439816666667","6500500","新莊區"
"242021","348-TH","2018/06/30 17:29:34","新北市新莊區中華路一段18號","121.452076666667","25.0372216666667","6500500","新莊區"
"242002","349-TH","2018/06/30 17:29:35","新北市新莊區新莊路154號","121.4552","25.035405","6500500","新莊區"
"242019","350-TH","2018/06/30 17:29:44","新北市新莊區新中街2-2號","121.455525","25.03975","6500500","新莊區"
"238015","755-BX","2018/06/30 17:29:49","新北市樹林區大安路269號","121.418996666667","24.993655","6500700","樹林區"
"238019","599-UM","2018/06/30 17:29:43","新北市樹林區太平路121號","121.41918","24.9807483333333","6500700","樹林區"
"238018","571-TV","2018/06/30 17:29:42","新北市樹林區博愛街196號","121.42478","24.989565","6500700","樹林區"
"238024","5061-A6","2018/06/30 17:29:33","新北市樹林區鎮前街156號","121.42451","24.990205","6500700","樹林區"
"238022","KEA-2213","2018/06/30 17:29:43","新北市樹林區仁愛街12巷2號","121.421796666667","24.981765","6500700","樹林區"
"238021","KEA-2539","2018/06/30 17:29:46","新北市樹林區佳園路二段39號","121.39183","24.9627033333333","6500700","樹林區"
"238025","303-VK","2018/06/30 17:29:50","新北市樹林區保安街一段195號","121.420905","24.9960483333333","6500700","樹林區"
"238014","282-BY","2018/06/30 17:29:41","新北市樹林區保安街一段294巷3號","121.419271666667","24.997585","6500700","樹林區"
"238020","268-VK","2018/06/30 17:29:50","新北市樹林區俊英街116巷41弄1號","121.428933333333","25.0062366666667","6500700","樹林區"
"238026","172-UY","2018/06/30 17:29:40","新北市樹林區新興街2-1號","121.400276666667","24.974405","6500700","樹林區"
"238016","169-UY","2018/06/30 17:29:48","新北市樹林區長壽街2巷2號","121.424266666667","24.9935983333333","6500700","樹林區"
"239006","891-R6","2018/06/30 17:29:50","新北市鶯歌區鶯桃路472巷65號","121.333318333333","24.966115","6500800","鶯歌區"
"239008","527-UM","2018/06/30 17:29:43","新北市鶯歌區大湖路363號","121.331136666667","24.9780133333333","6500800","鶯歌區"
"239005","526-UM","2018/06/30 17:29:49","新北市鶯歌區福隆二街69巷1弄9號","121.323736666667","24.9717333333333","6500800","鶯歌區"
"239001","417-VK","2018/06/30 17:29:48","新北市鶯歌區高職西街66號","121.336623333333","24.94208","6500800","鶯歌區"
"239003","360-BY","2018/06/30 17:29:47","新北市鶯歌區鶯桃路213-1號","121.336858333333","24.9590333333333","6500800","鶯歌區"
"239002","359-BY","2018/06/30 17:29:35","新北市鶯歌區育才街29號","121.348895","24.95501","6500800","鶯歌區"
"239004","193-VK","2018/06/30 17:29:36","新北市鶯歌區三鶯路12號","121.35653","24.94122","6500800","鶯歌區"
"221015","131-UY","2018/06/30 17:29:34","新北市汐止區汐萬路一段312號","121.650476666667","25.0753416666667","6501100","汐止區"
"221010","269-BY","2018/06/30 17:29:49","新北市汐止區汐萬路一段256巷3號","121.652068333333","25.0747183333333","6501100","汐止區"
"221027","281-BY","2018/06/30 17:29:44","新北市汐止區汐萬路一段256巷1號","121.651761666667","25.0748216666667","6501100","汐止區"
"242004","281-VK","2018/06/30 17:29:43","新北市新莊區中港路288巷24號","121.453741666667","25.0446633333333","6500500","新莊區"
"242013","280-VK","2018/06/30 17:29:41","新北市新莊區中誠街16巷7號","121.451928333333","25.0485416666667","6500500","新莊區"
"235061","KEA-2875","2018/06/30 17:16:24","新北市中和區員山路36巷16-2號","121.485171666667","24.99179","6500300","中和區"
