"lineid","car","time","location","longitude","latitude","cityid","cityname"
"234026","9371-KE","2018/06/30 17:39:35","新北市永和區中正路657號","121.514825","25.010185","6500400","永和區"
"249005","172-UM","2018/06/30 17:39:31","新北市八里區荖阡坑路34-1號","121.402756666667","25.1297","6502300","八里區"
"249001","173-UM","2018/06/30 17:39:50","新北市八里區龍米路二段157-1號","121.43994","25.1536283333333","6502300","八里區"
"249004","303-UY","2018/06/30 17:39:41","新北市八里區賢二街41號","121.418976666667","25.15776","6502300","八里區"
"249002","305-UY","2018/06/30 17:39:43","新北市八里區石壁腳9號","121.44314","25.135085","6502300","八里區"
"249003","593-UM","2018/06/30 17:39:37","新北市八里區中山路二段261號","121.402406666667","25.1489816666667","6502300","八里區"
"232011","375-UM","2018/06/30 17:39:45","新北市坪林區北宜路八段248號","121.709298333333","24.9350333333333","6502000","坪林區"
"244007","080-UY","2018/06/30 17:39:46","新北市林口區林口路272巷2號","121.386476666667","25.0846816666667","6501700","林口區"
"244019","403-UM","2018/06/30 17:39:35","新北市林口區文化一路一段103號","121.372841666667","25.0709183333333","6501700","林口區"
"244013","742-UY","2018/06/30 17:39:45","新北市林口區中山路319號","121.383475","25.080595","6501700","林口區"
"244009","410-SL","2018/06/30 17:39:42","新北市林口區中北三街71號","121.384571666667","25.0853166666667","6501700","林口區"
"244023","483-VK","2018/06/30 17:39:31","新北市林口區興林路152巷16號","121.38812","25.0715366666667","6501700","林口區"
"244017","485-VK","2018/06/30 17:39:49","新北市林口區忠孝路371-1號","121.369123333333","25.0717333333333","6501700","林口區"
"244011","657-BX","2018/06/30 17:39:35","新北市林口區佳林路211號","121.38425","25.07704","6501700","林口區"
"244025","837-TS","2018/06/30 17:39:46","新北市林口區文化三路一段385號","121.365551666667","25.0730616666667","6501700","林口區"
"243010","267-VK","2018/06/30 17:26:00","新北市泰山區犁頭窠3-1號","121.421981666667","25.0605816666667","6501600","泰山區"
"222003","436-BY","2018/06/30 17:39:40","新北市深坑區深南路51-1號","121.621443333333","25.0095816666667","6501800","深坑區"
"231046","188-VK","2018/06/30 17:39:48","新北市新店區直潭路107號","121.531493333333","24.9368183333333","6500600","新店區"
"241017","063-VK","2018/06/30 17:39:39","新北市三重區大同北路34巷18號","121.494805","25.0624216666667","6500200","三重區"
"241024","065-VK","2018/06/30 17:39:37","新北市三重區大勇街20號","121.48282","25.0715433333333","6500200","三重區"
"241005","262-UM","2018/06/30 17:39:36","新北市三重區仁愛街602號","121.48376","25.0809733333333","6500200","三重區"
"241016","266-UM","2018/06/30 17:39:53","新北市三重區正義北路43號","121.49756","25.06386","6500200","三重區"
"241007","398-BY","2018/06/30 17:39:53","新北市三重區車路頭街107號","121.484463333333","25.0747116666667","6500200","三重區"
"241014","543-UM","2018/06/30 17:39:35","新北市三重區長壽街186號","121.503686666667","25.068945","6500200","三重區"
"241023","545-UM","2018/06/30 17:39:39","新北市三重區中華路103號","121.483615","25.0633033333333","6500200","三重區"
"241012","941-UM","2018/06/30 17:39:36","新北市三重區仁興街39巷77號","121.500645","25.0763533333333","6500200","三重區"
"241033","AAC-255","2018/06/30 17:39:54","新北市三重區光復路一段53號","121.472203333333","25.049","6500200","三重區"
"235003","097-UM","2018/06/30 17:39:43","新北市中和區員山路36巷16-2號","121.485391666667","24.99157","6500300","中和區"
"247024","893-R6","2018/06/30 17:39:40","新北市蘆洲區長樂路125-1號","121.462095","25.0880366666667","6501400","蘆洲區"
"247014","546-UM","2018/06/30 17:39:44","新北市蘆洲區中正路16號","121.47157","25.082055","6501400","蘆洲區"
"247022","500-BY","2018/06/30 17:39:36","新北市蘆洲區三民路285-1號","121.466968333333","25.0899816666667","6501400","蘆洲區"
"247010","341-TH","2018/06/30 17:39:49","新北市蘆洲區中山一路136號","121.476333333333","25.0817016666667","6501400","蘆洲區"
"247012","339-TH","2018/06/30 17:39:40","新北市蘆洲區民權路3巷14弄3號","121.47559","25.0854766666667","6501400","蘆洲區"
"247004","337-TH","2018/06/30 17:39:44","新北市蘆洲區長安街249巷28號","121.458193333333","25.0828716666667","6501400","蘆洲區"
"247006","336-TH","2018/06/30 17:39:45","新北市蘆洲區長安街66號","121.462745","25.0800466666667","6501400","蘆洲區"
"247018","057-VK","2018/06/30 17:39:50","新北市蘆洲區三民路98巷21號","121.473046666667","25.0875483333333","6501400","蘆洲區"
"247008","056-VK","2018/06/30 17:39:39","新北市蘆洲區民生街127號","121.472715","25.078965","6501400","蘆洲區"
"247016","007-UY","2018/06/30 17:39:44","新北市蘆洲區光華路98號","121.467486666667","25.082815","6501400","蘆洲區"
"247002","002-UY","2018/06/30 17:39:51","新北市蘆洲區永平街32巷11弄34號","121.45775","25.0919416666667","6501400","蘆洲區"
"247020","001-UY","2018/06/30 17:39:45","新北市蘆洲區民族路464-1號","121.471818333333","25.0917133333333","6501400","蘆洲區"
"228003","097-TW","2018/06/30 17:39:44","新北市貢寮區仁理村仁和路148號","121.923208333333","25.0517883333333","6502600","貢寮區"
"228002","663-BX","2018/06/30 17:39:31","新北市貢寮區福隆里龜壽谷街12號","121.956058333333","25.00626","6502600","貢寮區"
"224008","285-BY","2018/06/30 17:39:45","新北市瑞芳區瑞柑新村30號","121.828991666667","25.1068066666667","6501200","瑞芳區"
"224009","273-VK","2018/06/30 17:39:49","新北市瑞芳區山尖路209號","121.848968333333","25.111825","6501200","瑞芳區"
"224005","271-BY","2018/06/30 17:39:53","新北市瑞芳區海濱路8-6號","121.831741666667","25.126185","6501200","瑞芳區"
"227002","642-TC","2018/06/30 17:39:46","新北市雙溪區共和里東榮街52號","121.866356666667","25.0337333333333","6502500","雙溪區"
"251004","009-UM","2018/06/30 17:39:41","新北市淡水區中正東路二段88巷37-21號","121.459336666667","25.143865","6501000","淡水區"
"251002","012-UM","2018/06/30 17:39:38","新北市淡水區中山路143-2號","121.440528333333","25.171945","6501000","淡水區"
"251013","KEA-2871","2018/06/30 17:39:50","新北市淡水區大竹圍6-1號","121.47009","25.195115","6501000","淡水區"
"251016","179-VK","2018/06/30 17:39:23","新北市淡水區埤島39-15號","121.452771666667","25.1959233333333","6501000","淡水區"
"251014","180-VK","2018/06/30 17:39:49","新北市淡水區公埔子16-6號","121.481035","25.2245666666667","6501000","淡水區"
"251008","181-VK","2018/06/30 17:39:45","新北市淡水區八勢路一段123巷10號","121.466566666667","25.15708","6501000","淡水區"
"251015","182-VK","2018/06/30 17:39:39","新北市淡水區興福寮1-7號","121.48719","25.165525","6501000","淡水區"
"251010","413-VK","2018/06/30 17:39:43","新北市淡水區淡海路292號","121.419075","25.1888916666667","6501000","淡水區"
"251012","441-VK","2018/06/30 17:39:46","新北市淡水區北新路200巷8號","121.451773333333","25.17967","6501000","淡水區"
"251007","442-VK","2018/06/30 17:39:55","新北市淡水區民生路124巷21號","121.46421","25.1376733333333","6501000","淡水區"
"251005","443-VK","2018/06/30 17:39:45","新北市淡水區鄧公路33巷1號","121.451433333333","25.1710983333333","6501000","淡水區"
"251001","559-UM","2018/06/30 17:39:40","新北市淡水區自強路201巷35號","121.462245","25.12673","6501000","淡水區"
"251006","561-UM","2018/06/30 17:39:49","新北市淡水區大信街17號","121.441916666667","25.176775","6501000","淡水區"
"251009","575-R6","2018/06/30 17:39:34","新北市淡水區中正路30號","121.444163333333","25.1691316666667","6501000","淡水區"
"251011","650-BX","2018/06/30 17:39:32","新北市淡水區小坪頂23-6號","121.484943333333","25.156035","6501000","淡水區"
"251003","673-BX","2018/06/30 17:39:51","新北市淡水區中山北路一段76號","121.442141666667","25.1759916666667","6501000","淡水區"
"207003","550-UM","2018/06/30 17:39:52","新北市萬里區野柳里東澳路62-1號","121.693476666667","25.2012133333333","6502800","萬里區"
"207004","225-TW","2018/06/30 17:39:40","新北市萬里區中幅里中福路8-1號","121.685925","25.1648083333333","6502800","萬里區"
"252002","178-VK","2018/06/30 17:39:41","新北市三芝區中正路二段11號","121.504468333333","25.255405","6502100","三芝區"
"252001","292-VK","2018/06/30 17:39:40","新北市三芝區淡金路一段83號","121.502086666667","25.25895","6502100","三芝區"
"237013","252-BX","2018/06/30 17:39:41","新北市三峽區愛國路33-8號","121.374665","24.9332416666667","6500900","三峽區"
"237012","275-BY","2018/06/30 17:39:51","新北市三峽區中山路459巷163-3號","121.348876666667","24.9331733333333","6500900","三峽區"
"237014","433-BY","2018/06/30 17:39:50","新北市三峽區中山路459巷163-3號","121.34891","24.932755","6500900","三峽區"
"237011","KEA-2596","2018/06/30 17:39:45","新北市三峽區中山路459巷163-3號","121.348738333333","24.9329866666667","6500900","三峽區"
"237016","649-BX","2018/06/30 17:39:40","新北市三峽區白雞33-17號","121.370751666667","24.9120916666667","6500900","三峽區"
"237010","706-TV","2018/06/30 17:39:48","新北市三峽區中山路123號","121.365446666667","24.9359516666667","6500900","三峽區"
"236070","105-UM","2018/06/30 17:39:42","新北市土城區中華路二段2號","121.439316666667","24.97964","6501300","土城區"
"236042","107-UM","2018/06/30 17:39:42","新北市土城區城林路6巷80號","121.43856","24.9797083333333","6501300","土城區"
"236079","166-UM","2018/06/30 17:39:40","新北市土城區城林路6巷80號","121.438415","24.9796266666667","6501300","土城區"
"236030","253-BX","2018/06/30 17:39:35","新北市土城區城林路6巷80號","121.438703333333","24.9796366666667","6501300","土城區"
"236014","270-VK","2018/06/30 17:39:44","新北市土城區城林路6巷80號","121.43857","24.9796733333333","6501300","土城區"
"236038","271-VK","2018/06/30 17:39:41","新北市土城區城林路6巷80號","121.438516666667","24.9795983333333","6501300","土城區"
"236059","912-UM","2018/06/30 17:39:52","新北市土城區城林路6巷80號","121.43856","24.9796466666667","6501300","土城區"
"236063","915-UM","2018/06/30 17:39:45","新北市土城區城林路6巷80號","121.438486666667","24.9797616666667","6501300","土城區"
"236055","AAC-216","2018/06/30 17:39:32","新北市土城區城林路6巷80號","121.438405","24.9795983333333","6501300","土城區"
"242034","AAC-296","2018/06/30 17:39:37","新北市新莊區新莊路524號","121.445798333333","25.0330666666667","6500500","新莊區"
"242058","986-R7","2018/06/30 17:39:50","新北市新莊區中正路618號","121.423881666667","25.0294033333333","6500500","新莊區"
"242053","751-BX","2018/06/30 17:39:39","新北市新莊區新樹路699巷12號","121.432491666667","25.00194","6500500","新莊區"
"242027","705-TV","2018/06/30 17:39:47","新北市新莊區福壽街140號","121.45775","25.0518033333333","6500500","新莊區"
"242025","613-BX","2018/06/30 17:39:52","新北市新莊區思源路120號","121.460103333333","25.0473533333333","6500500","新莊區"
"242029","612-BX","2018/06/30 17:39:52","新北市新莊區復興路一段143號","121.450225","25.0432666666667","6500500","新莊區"
"242042","566-BX","2018/06/30 17:39:53","新北市新莊區建國一路23號","121.433976666667","25.0314866666667","6500500","新莊區"
"242046","497-BY","2018/06/30 17:39:46","新北市新莊區福營路103號","121.43388","25.0322916666667","6500500","新莊區"
"242051","441-UM","2018/06/30 17:39:41","新北市新莊區西盛街247號","121.428096666667","25.0160966666667","6500500","新莊區"
"242036","415-TV","2018/06/30 17:39:41","新北市新莊區建福路69巷43號","121.42871","25.0275733333333","6500500","新莊區"
"242007","413-TV","2018/06/30 17:39:33","新北市新莊區福樂街118巷3號","121.45722","25.0480683333333","6500500","新莊區"
"242044","400-BY","2018/06/30 17:39:33","新北市新莊區富國路65巷7號","121.419876666667","25.0265466666667","6500500","新莊區"
"242023","362-BY","2018/06/30 17:39:42","新北市新莊區公園路234號","121.45741","25.0407333333333","6500500","新莊區"
"242061","353-BY","2018/06/30 17:39:46","新北市新莊區瓊林南路171-3號","121.433868333333","25.011185","6500500","新莊區"
"242009","132-UY","2018/06/30 17:39:48","新北市新莊區昌明街14巷10號","121.457435","25.0532483333333","6500500","新莊區"
"242039","133-UY","2018/06/30 17:39:34","新北市新莊區民安路332號","121.429076666667","25.022005","6500500","新莊區"
"242031","135-UY","2018/06/30 17:39:37","新北市新莊區新泰路370號","121.444291666667","25.0429366666667","6500500","新莊區"
"242048","172-VK","2018/06/30 17:39:50","新北市新莊區萬安街128號","121.42027","25.0216933333333","6500500","新莊區"
"242011","173-VK","2018/06/30 17:38:20","新北市新莊區中港路522號","121.451686666667","25.0520916666667","6500500","新莊區"
"242015","346-TH","2018/06/30 17:39:33","新北市新莊區新泰路325號","121.445046666667","25.0415783333333","6500500","新莊區"
"242017","347-TH","2018/06/30 17:39:53","新北市新莊區復興路一段149巷21弄13號","121.44962","25.04402","6500500","新莊區"
"242021","348-TH","2018/06/30 17:39:34","新北市新莊區中華路一段118號","121.452531666667","25.0405416666667","6500500","新莊區"
"242002","349-TH","2018/06/30 17:39:55","新北市新莊區新莊路357號","121.451968333333","25.03392","6500500","新莊區"
"242019","350-TH","2018/06/30 17:39:44","新北市新莊區中港路151號","121.455086666667","25.040945","6500500","新莊區"
"238015","755-BX","2018/06/30 17:39:49","新北市樹林區樹德街90號","121.420253333333","24.9923383333333","6500700","樹林區"
"238023","601-UM","2018/06/30 17:39:50","新北市樹林區三福街140號","121.405545","25.0162166666667","6500700","樹林區"
"238019","599-UM","2018/06/30 17:39:37","新北市樹林區太順街5巷1號","121.420173333333","24.9800033333333","6500700","樹林區"
"238018","571-TV","2018/06/30 17:39:45","新北市樹林區保安街一段3號","121.427113333333","24.99321","6500700","樹林區"
"238024","5061-A6","2018/06/30 17:39:33","新北市樹林區環河路2-2號","121.425781666667","24.977085","6500700","樹林區"
"238022","KEA-2213","2018/06/30 17:39:43","新北市樹林區中華路68號","121.420128333333","24.9817366666667","6500700","樹林區"
"238021","KEA-2539","2018/06/30 17:39:46","新北市樹林區柑園街一段253巷14號","121.396035","24.95554","6500700","樹林區"
"238025","303-VK","2018/06/30 17:39:50","新北市樹林區保安街二段154號","121.413238333333","25.0044783333333","6500700","樹林區"
"238014","282-BY","2018/06/30 17:39:37","新北市樹林區保安街一段313巷27號","121.41703","24.997365","6500700","樹林區"
"238020","268-VK","2018/06/30 17:39:50","新北市樹林區俊英街210號","121.425236666667","25.0094016666667","6500700","樹林區"
"238026","172-UY","2018/06/30 17:39:40","新北市樹林區新興街19巷36弄2號","121.40228","24.9734883333333","6500700","樹林區"
"238016","169-UY","2018/06/30 17:39:48","新北市樹林區育英街161號","121.419161666667","24.9893983333333","6500700","樹林區"
"239006","891-R6","2018/06/30 17:39:50","新北市鶯歌區永和街56巷4號","121.333648333333","24.9678133333333","6500800","鶯歌區"
"239008","527-UM","2018/06/30 17:39:43","新北市鶯歌區大湖路732巷45號","121.333443333333","24.978135","6500800","鶯歌區"
"239005","526-UM","2018/06/30 17:39:49","新北市鶯歌區鳳吉四街41號","121.32733","24.9731566666667","6500800","鶯歌區"
"239001","417-VK","2018/06/30 17:39:48","新北市鶯歌區中正三路228號","121.331391666667","24.9374533333333","6500800","鶯歌區"
"239003","360-BY","2018/06/30 17:39:47","新北市鶯歌區鶯桃路213-1號","121.336961666667","24.95912","6500800","鶯歌區"
"239002","359-BY","2018/06/30 17:39:35","新北市鶯歌區育智路22號","121.344798333333","24.9552133333333","6500800","鶯歌區"
"239004","193-VK","2018/06/30 17:39:36","新北市鶯歌區三鶯路94號","121.358813333333","24.943635","6500800","鶯歌區"
"221015","131-UY","2018/06/30 17:39:46","新北市汐止區長江街101-5號","121.658695","25.0729766666667","6501100","汐止區"
"221010","269-BY","2018/06/30 17:39:49","新北市汐止區汐萬路一段418巷1弄13號","121.650226666667","25.0781016666667","6501100","汐止區"
"221023","279-VK","2018/06/30 17:39:47","新北市汐止區康寧街901號","121.651496666667","25.074965","6501100","汐止區"
"221032","280-BY","2018/06/30 17:39:48","新北市汐止區汐萬路一段333巷23號","121.648646666667","25.0761116666667","6501100","汐止區"
"221027","281-BY","2018/06/30 17:39:44","新北市汐止區汐萬路一段256巷1號","121.651818333333","25.0749","6501100","汐止區"
"221021","299-VK","2018/06/30 17:39:33","新北市汐止區汐萬路一段256巷1號","121.65204","25.0748366666667","6501100","汐止區"
"221031","353-TW","2018/06/30 17:39:40","新北市汐止區汐萬路一段256巷1號","121.651751666667","25.0748466666667","6501100","汐止區"
"221008","129-UY","2018/06/30 17:39:44","新北市汐止區汐萬路一段256巷3號","121.652426666667","25.0746566666667","6501100","汐止區"
"221033","647-BX","2018/06/30 17:39:42","新北市汐止區工建路202號","121.636853333333","25.0626233333333","6501100","汐止區"
"221018","753-BX","2018/06/30 17:39:44","新北市汐止區汐萬路一段256巷1號","121.651986666667","25.07473","6501100","汐止區"
"242004","281-VK","2018/06/30 17:39:43","新北市新莊區自立街200號","121.456743333333","25.045495","6500500","新莊區"
"242013","280-VK","2018/06/30 17:39:41","新北市新莊區中誠街124號","121.449241666667","25.0475966666667","6500500","新莊區"
"235061","KEA-2875","2018/06/30 17:16:24","新北市中和區員山路36巷16-2號","121.485171666667","24.99179","6500300","中和區"
