"lineid","car","time","location","longitude","latitude","cityid","cityname"
"234038","336-UY","2018/06/30 18:19:35","新北市永和區福和路1號","121.526623333333","25.009985","6500400","永和區"
"234042","862-TW","2018/06/30 18:19:49","新北市永和區福和路1號","121.526468333333","25.0098183333333","6500400","永和區"
"234026","9371-KE","2018/06/30 18:19:35","新北市永和區豫溪街28巷22號","121.515","25.0089633333333","6500400","永和區"
"249005","172-UM","2018/06/30 18:19:51","新北市八里區荖阡坑路15-22號","121.400093333333","25.140735","6502300","八里區"
"249001","173-UM","2018/06/30 18:19:41","新北市八里區龍米路一段129號","121.452238333333","25.1266916666667","6502300","八里區"
"249004","303-UY","2018/06/30 18:19:41","新北市八里區龍米路二段232巷1弄2號","121.43146","25.1589766666667","6502300","八里區"
"249002","305-UY","2018/06/30 18:19:43","新北市八里區龍形三街9巷2號","121.45064","25.131905","6502300","八里區"
"248016","026-BX","2018/06/30 18:19:51","新北市五股區西雲路290號","121.449646666667","25.0991866666667","6501500","五股區"
"248006","077-UY","2018/06/30 18:19:39","新北市五股區中興路一段158號","121.464358333333","25.0739483333333","6501500","五股區"
"248008","095-VK","2018/06/30 18:19:42","新北市五股區更洲路32巷8弄14號","121.459263333333","25.079635","6501500","五股區"
"248020","225-UY","2018/06/30 18:19:20","新北市五股區孝義路47巷23號","121.450358333333","25.1093066666667","6501500","五股區"
"248012","247-BX","2018/06/30 18:19:36","新北市五股區御成路10號","121.441831666667","25.09113","6501500","五股區"
"248014","261-SL","2018/06/30 18:19:42","新北市五股區自強路19巷11號","121.434571666667","25.073695","6501500","五股區"
"248004","677-BX","2018/06/30 18:19:50","新北市五股區成泰路二段151號","121.439323333333","25.085795","6501500","五股區"
"248002","678-BX","2018/06/30 18:19:41","新北市五股區西雲路68號","121.443638333333","25.091655","6501500","五股區"
"248010","682-TV","2018/06/30 18:19:49","新北市五股區成泰路一段126號","121.435305","25.0742966666667","6501500","五股區"
"232011","375-UM","2018/06/30 18:19:45","新北市坪林區坪雙路一段41號","121.7117","24.9424333333333","6502000","坪林區"
"244007","080-UY","2018/06/30 18:19:45","新北市林口區竹林路462號","121.387743333333","25.0848433333333","6501700","林口區"
"244019","403-UM","2018/06/30 18:19:35","新北市林口區忠孝路569巷6號","121.373978333333","25.0684633333333","6501700","林口區"
"244013","742-UY","2018/06/30 18:19:45","新北市林口區中山路206號","121.38702","25.079265","6501700","林口區"
"244009","410-SL","2018/06/30 18:19:42","新北市林口區文化三路二段291-11號","121.378003333333","25.0866083333333","6501700","林口區"
"244023","483-VK","2018/06/30 18:19:51","新北市林口區東湖路161號","121.382586666667","25.0742666666667","6501700","林口區"
"244017","485-VK","2018/06/30 18:19:49","新北市林口區八德路48巷3號","121.366801666667","25.0664383333333","6501700","林口區"
"244011","657-BX","2018/06/30 18:19:35","新北市林口區仁愛路一段266-1號","121.394016666667","25.0763233333333","6501700","林口區"
"244025","837-TS","2018/06/30 18:19:46","新北市林口區南勢二街85巷1號","121.355918333333","25.0696233333333","6501700","林口區"
"244021","838-TS","2018/06/30 18:19:49","新北市林口區自強一街72號","121.399956666667","25.0770233333333","6501700","林口區"
"243013","AAD-798","2018/06/30 18:19:45","新北市泰山區工專路63號","121.422225","25.0404216666667","6501600","泰山區"
"222003","436-BY","2018/06/30 18:19:40","新北市深坑區旺耽路67號","121.626268333333","25.0030033333333","6501800","深坑區"
"222002","659-BX","2018/06/30 18:19:51","新北市深坑區文化街10號","121.62034","25.0013166666667","6501800","深坑區"
"231044","001-UM","2018/06/30 18:19:38","新北市新店區安華路28-1號","121.519536666667","24.960825","6500600","新店區"
"231041","002-UM","2018/06/30 18:19:41","新北市新店區安華路28-1號","121.519636666667","24.9606366666667","6500600","新店區"
"231059","046-UY","2018/06/30 18:19:50","新北市新店區安華路28-1號","121.519566666667","24.96082","6500600","新店區"
"231040","047-UY","2018/06/30 18:19:49","新北市新店區安華路28-1號","121.519266666667","24.9608816666667","6500600","新店區"
"231052","108-UY","2018/06/30 18:19:46","新北市新店區北新路一段89號","121.538691666667","24.961675","6500600","新店區"
"231048","187-VK","2018/06/30 18:19:33","新北市新店區安一路一段1-1號","121.519595","24.9611433333333","6500600","新店區"
"231046","188-VK","2018/06/30 18:19:48","新北市新店區直潭七街60號","121.53228","24.939815","6500600","新店區"
"231054","KEA-2219","2018/06/30 18:19:42","新北市新店區安一路一段1-1號","121.519998333333","24.9613266666667","6500600","新店區"
"231057","256-BX","2018/06/30 18:19:48","新北市新店區安一路一段1-1號","121.519648333333","24.9611333333333","6500600","新店區"
"231042","268-BY","2018/06/30 18:19:49","新北市新店區安華路1-1號","121.519276666667","24.96052","6500600","新店區"
"231051","278-BY","2018/06/30 18:19:44","新北市新店區安華路28-1號","121.519728333333","24.9610266666667","6500600","新店區"
"231050","AAD-862","2018/06/30 18:19:51","新北市新店區安一路一段1-1號","121.519798333333","24.96109","6500600","新店區"
"231058","3713-VJ","2018/06/30 18:19:44","新北市新店區環河路29巷1-1號","121.536055","24.9610883333333","6500600","新店區"
"231066","4716-K9","2018/06/30 18:19:55","新北市新店區安一路一段1-1號","121.519101666667","24.9611833333333","6500600","新店區"
"231056","4715-K9","2018/06/30 18:19:50","新北市新店區中央路216-1號","121.529853333333","24.973195","6500600","新店區"
"231065","512-UM","2018/06/30 18:19:54","新北市新店區安一路一段1-1號","121.51916","24.960975","6500600","新店區"
"231049","513-UM","2018/06/30 18:19:46","新北市新店區安一路一段1-1號","121.519636666667","24.9611416666667","6500600","新店區"
"231045","617-UM","2018/06/30 18:19:44","新北市新店區安一路一段1-1號","121.519383333333","24.9610466666667","6500600","新店區"
"231061","619-UM","2018/06/30 18:19:47","新北市新店區安華路28-1號","121.519545","24.9607466666667","6500600","新店區"
"231063","641-BX","2018/06/30 18:19:39","新北市新店區安華路1-1號","121.519535","24.9604966666667","6500600","新店區"
"231064","719-UM","2018/06/30 18:19:47","新北市新店區安一路一段1-1號","121.519403333333","24.9613983333333","6500600","新店區"
"231062","720-UM","2018/06/30 18:19:42","新北市新店區安一路一段1-1號","121.519021666667","24.9612066666667","6500600","新店區"
"231060","897-TW","2018/06/30 18:19:41","新北市新店區安華路28-1號","121.51948","24.960755","6500600","新店區"
"231043","899-TW","2018/06/30 18:19:47","新北市新店區安康路一段359-27號","121.518681666667","24.9611216666667","6500600","新店區"
"231055","AKT-0513","2018/06/30 18:19:40","新北市新店區環河路29巷1-1號","121.536031666667","24.9610933333333","6500600","新店區"
"241033","AAC-255","2018/06/30 18:19:54","新北市三重區光復路一段61巷27號","121.473498333333","25.04932","6500200","三重區"
"235066","003-UY","2018/06/30 18:19:51","新北市中和區中山路二段120號","121.502705","25.0037033333333","6500300","中和區"
"235064","005-UY","2018/06/30 18:19:53","新北市中和區圓通路167巷16號","121.497931666667","24.99486","6500300","中和區"
"235063","006-UY","2018/06/30 18:19:50","新北市中和區中正路585號","121.486035","24.994525","6500300","中和區"
"235056","096-UM","2018/06/30 18:19:54","新北市中和區中山路二段568巷32號","121.482338333333","25.006545","6500300","中和區"
"235039","097-UM","2018/06/30 18:19:43","新北市中和區中正路161巷2號","121.498373333333","24.9937033333333","6500300","中和區"
"235065","098-UM","2018/06/30 18:19:43","新北市中和區莊敬路49巷18號","121.501596666667","25.0061216666667","6500300","中和區"
"235040","150-BY","2018/06/30 18:19:36","新北市中和區景新街205-15號","121.507276666667","24.99507","6500300","中和區"
"235058","151-BY","2018/06/30 18:19:51","新北市中和區圓通路403號","121.489241666667","24.9892183333333","6500300","中和區"
"235055","183-VK","2018/06/30 18:19:36","新北市中和區中正路637巷60弄61號","121.485433333333","24.9927466666667","6500300","中和區"
"235038","185-VK","2018/06/30 18:19:43","新北市中和區自立路46號","121.522928333333","24.9922166666667","6500300","中和區"
"235049","186-VK","2018/06/30 18:19:43","新北市中和區中正路637巷52弄1號","121.485526666667","24.9936383333333","6500300","中和區"
"235067","255-BX","2018/06/30 18:19:38","新北市中和區和城路一段271巷1號","121.485711666667","24.99176","6500300","中和區"
"235072","301-VK","2018/06/30 18:19:50","新北市中和區連城路190號","121.492406666667","24.996785","6500300","中和區"
"235043","352-BY","2018/06/30 18:19:38","新北市中和區景平路379號","121.504026666667","24.99344","6500300","中和區"
"235042","KEA-2878","2018/06/30 18:19:37","新北市中和區大仁街20巷25弄31號","121.519148333333","24.99367","6500300","中和區"
"235050","4979-A6","2018/06/30 18:19:44","新北市中和區捷運路125號","121.50729","24.9906966666667","6500300","中和區"
"235069","4980-A6","2018/06/30 18:19:41","新北市中和區圓通路196號","121.496375","24.9943466666667","6500300","中和區"
"235070","558-UM","2018/06/30 18:19:44","新北市中和區圓通路107號","121.499485","24.9966483333333","6500300","中和區"
"235045","565-BX","2018/06/30 18:19:51","新北市中和區景安路200巷5號","121.50348","24.9915533333333","6500300","中和區"
"235054","640-BX","2018/06/30 18:19:50","新北市中和區民享街86巷24號","121.473525","25.0006916666667","6500300","中和區"
"235060","647-TV","2018/06/30 18:19:43","新北市中和區員山路168號","121.481301666667","24.9997883333333","6500300","中和區"
"235046","733-UM","2018/06/30 18:19:52","新北市中和區員山路36巷16號","121.484493333333","24.99126","6500300","中和區"
"235071","783-BX","2018/06/30 18:19:37","新北市中和區員山路36巷16-2號","121.485453333333","24.9911933333333","6500300","中和區"
"235062","800-TS","2018/06/30 18:19:43","新北市中和區景平路999巷1號","121.49564","25.0061183333333","6500300","中和區"
"235057","801-TS","2018/06/30 18:19:47","新北市中和區連城路328號","121.483245","24.995935","6500300","中和區"
"235052","805-TS","2018/06/30 18:19:54","新北市中和區南山路272號","121.507951666667","24.9880283333333","6500300","中和區"
"235048","896-TW","2018/06/30 18:19:32","新北市中和區中正路637巷52弄1號","121.485483333333","24.99359","6500300","中和區"
"235053","900-TW","2018/06/30 18:19:37","新北市中和區員山路36巷16-2號","121.485241666667","24.9916716666667","6500300","中和區"
"235051","157-BY","2018/06/30 18:19:48","新北市中和區興南路二段130號","121.50431","24.9834633333333","6500300","中和區"
"235037","AAC-213","2018/06/30 18:19:45","新北市中和區景德街95-9號","121.515153333333","24.9912616666667","6500300","中和區"
"220065","072-UY","2018/06/30 18:19:42","新北市板橋區華東街1-9號","121.448158333333","24.995015","6500100","板橋區"
"247006","336-TH","2018/06/30 18:19:45","新北市八里區下罟子8-10號","121.38402","25.1447166666667","6501400","蘆洲區"
"226004","312-R5","2018/06/30 18:19:47","新北市平溪區薯榔里雙菁路93號","121.71403","25.0212533333333","6502400","平溪區"
"235047","251-BX","2018/06/30 18:19:42","新北市中和區南山路519號","121.50799","24.987385","6500300","中和區"
"228003","097-TW","2018/06/30 18:19:44","新北市貢寮區真理里美艷山街64號","121.919145","25.072855","6502600","貢寮區"
"228001","212-TW","2018/06/30 18:19:51","新北市貢寮區仁理村仁愛路66巷28號","121.926976666667","25.0525483333333","6502600","貢寮區"
"228002","663-BX","2018/06/30 18:19:51","新北市貢寮區福連里福興街24-1號","121.990955","25.012045","6502600","貢寮區"
"224010","AGQ-8101","2018/06/30 18:01:54","新北市瑞芳區烏勢巷145號","121.847563333333","25.10879","6501200","瑞芳區"
"224002","639-TC","2018/06/30 18:19:49","新北市瑞芳區三爪子坑路32巷138號","121.809593333333","25.105875","6501200","瑞芳區"
"224008","285-BY","2018/06/30 18:19:45","新北市瑞芳區逢甲路15號","121.809798333333","25.1086733333333","6501200","瑞芳區"
"224007","275-VK","2018/06/30 18:19:40","新北市瑞芳區大埔路國宅新村1號","121.764903333333","25.10085","6501200","瑞芳區"
"224009","273-VK","2018/06/30 18:19:50","新北市瑞芳區五號路4號","121.854716666667","25.110295","6501200","瑞芳區"
"224005","271-BY","2018/06/30 18:19:53","新北市瑞芳區建基新村5-1號","121.812116666667","25.1312716666667","6501200","瑞芳區"
"227002","642-TC","2018/06/30 18:19:46","新北市雙溪區共和里中山路2號","121.863795","25.0337966666667","6502500","雙溪區"
"227010","400-TW","2018/06/30 18:19:35","新北市雙溪區牡丹里牡丹73號","121.851705","25.0593616666667","6502500","雙溪區"
"253005","032-BX","2018/06/30 18:19:50","新北市石門區中央路4-1號","121.565426666667","25.2913","6502200","石門區"
"253006","295-VK","2018/06/30 18:19:50","新北市石門區老梅路55號","121.545601666667","25.2892466666667","6502200","石門區"
"222001","KEA-2212","2018/06/30 18:19:39","新北市深坑區北深路二段66號","121.618911666667","25.0041066666667","6501800","深坑區"
"208002","KEA-2872","2018/06/30 18:19:44","新北市金山區清泉里清水路60巷1號","121.629418333333","25.2361866666667","6502700","金山區"
"208003","665-BX","2018/06/30 18:19:38","新北市金山區民生路148號","121.64726","25.2234616666667","6502700","金山區"
"208001","761-BX","2018/06/30 18:19:47","新北市金山區自強路21號","121.640421666667","25.2162316666667","6502700","金山區"
"251004","009-UM","2018/06/30 18:19:41","新北市淡水區民族路136號","121.462791666667","25.1345233333333","6501000","淡水區"
"251002","012-UM","2018/06/30 18:19:38","新北市淡水區中正東路一段59號","121.45261","25.1624533333333","6501000","淡水區"
"251013","KEA-2871","2018/06/30 18:19:50","新北市淡水區破瓦厝子1-10號","121.475216666667","25.1996283333333","6501000","淡水區"
"251016","179-VK","2018/06/30 18:19:44","新北市淡水區淡金路三段228巷9號","121.44947","25.205","6501000","淡水區"
"251014","180-VK","2018/06/30 18:19:48","新北市淡水區崙頂14號","121.491205","25.221725","6501000","淡水區"
"251008","181-VK","2018/06/30 18:19:45","新北市淡水區水源街二段346巷1弄1號","121.464173333333","25.1755116666667","6501000","淡水區"
"251015","182-VK","2018/06/30 18:19:45","新北市淡水區興福寮1-7號","121.487841666667","25.164715","6501000","淡水區"
"251010","413-VK","2018/06/30 18:19:52","新北市淡水區淡海路180巷12-3號","121.420423333333","25.184485","6501000","淡水區"
"251012","441-VK","2018/06/30 18:19:46","新北市淡水區北新路二段77-5號","121.480411666667","25.1854783333333","6501000","淡水區"
"251005","443-VK","2018/06/30 18:19:45","新北市淡水區水源街一段122巷37號","121.44709","25.170515","6501000","淡水區"
"251001","559-UM","2018/06/30 18:19:40","新北市淡水區自強路299號","121.461575","25.131425","6501000","淡水區"
"251006","561-UM","2018/06/30 18:19:48","新北市淡水區新民街35號","121.438841666667","25.1759133333333","6501000","淡水區"
"251011","650-BX","2018/06/30 18:19:52","新北市淡水區坪頂路26號","121.456713333333","25.16183","6501000","淡水區"
"251003","673-BX","2018/06/30 18:19:51","新北市淡水區北新路135號","121.449356666667","25.1788383333333","6501000","淡水區"
"207003","550-UM","2018/06/30 18:19:52","新北市萬里區野柳里港東路61號","121.68762","25.2037233333333","6502800","萬里區"
"207004","225-TW","2018/06/30 18:19:40","新北市萬里區中幅里中福路39-2號","121.677221666667","25.1658533333333","6502800","萬里區"
"252002","178-VK","2018/06/30 18:19:41","新北市三芝區中山路二段41號","121.502986666667","25.25509","6502100","三芝區"
"252003","249-BX","2018/06/30 18:19:48","新北市三芝區錫板里海尾14-33號","121.477948333333","25.2600016666667","6502100","三芝區"
"252001","292-VK","2018/06/30 18:19:40","新北市三芝區中興街二段2號","121.498413333333","25.2566266666667","6502100","三芝區"
"237004","KEA-2597","2018/06/30 18:19:47","新北市三峽區圳頭92號","121.380071666667","24.8783883333333","6500900","三峽區"
"237007","153-BY","2018/06/30 18:19:53","新北市三峽區中正路二段586號","121.359245","24.9060083333333","6500900","三峽區"
"237009","210-TH","2018/06/30 18:19:36","新北市三峽區中山路152巷28號","121.365231666667","24.9370333333333","6500900","三峽區"
"237013","252-BX","2018/06/30 18:19:40","新北市三峽區永安街9巷54號","121.376155","24.9296","6500900","三峽區"
"237012","275-BY","2018/06/30 18:19:51","新北市三峽區三樹路46號","121.377761666667","24.9377283333333","6500900","三峽區"
"237008","302-VK","2018/06/30 18:19:40","新北市三峽區白雞68-319號","121.391755","24.9093166666667","6500900","三峽區"
"237014","433-BY","2018/06/30 18:19:50","新北市三峽區復興路47號","121.373386666667","24.936885","6500900","三峽區"
"237006","5529-G3","2018/06/30 18:19:34","新北市三峽區溪東路235號","121.406596666667","24.9326316666667","6500900","三峽區"
"237011","KEA-2596","2018/06/30 18:19:45","新北市三峽區溪東路104號","121.403181666667","24.9339966666667","6500900","三峽區"
"237016","649-BX","2018/06/30 18:19:40","新北市三峽區竹崙路10號","121.426683333333","24.9227233333333","6500900","三峽區"
"237010","706-TV","2018/06/30 18:19:48","新北市三峽區中山路129號","121.365296666667","24.9360383333333","6500900","三峽區"
"237005","AKY-6261","2018/06/30 18:19:41","新北市三峽區忠孝街35號","121.370958333333","24.9339383333333","6500900","三峽區"
"236070","105-UM","2018/06/30 18:19:52","新北市土城區永豐路252號","121.469041666667","24.979755","6501300","土城區"
"236042","107-UM","2018/06/30 18:19:42","新北市土城區裕生路32號","121.447988333333","24.987155","6501300","土城區"
"236079","166-UM","2018/06/30 18:19:40","新北市土城區中央路三段281巷21號","121.42578","24.9621816666667","6501300","土城區"
"236030","253-BX","2018/06/30 18:19:35","新北市土城區順風路41號","121.440703333333","24.9767516666667","6501300","土城區"
"236026","269-VK","2018/06/30 18:19:41","新北市土城區承天路18號","121.439476666667","24.9635066666667","6501300","土城區"
"236014","270-VK","2018/06/30 18:19:44","新北市土城區青雲路33號","121.460433333333","24.98815","6501300","土城區"
"236038","271-VK","2018/06/30 18:19:41","新北市土城區青雲路451巷8弄19號","121.459533333333","24.97406","6501300","土城區"
"236021","401-BY","2018/06/30 18:19:52","新北市土城區明德路一段361-3號","121.456285","24.9777383333333","6501300","土城區"
"236059","912-UM","2018/06/30 18:19:52","新北市土城區中央路四段307號","121.411001666667","24.951835","6501300","土城區"
"236049","913-UM","2018/06/30 18:19:36","新北市土城區明德路一段361-2號","121.456473333333","24.9776766666667","6501300","土城區"
"236063","915-UM","2018/06/30 18:19:45","新北市土城區金城路三段197號","121.470198333333","24.989065","6501300","土城區"
"236055","AAC-216","2018/06/30 18:19:52","新北市土城區中華路二段126號","121.437741666667","24.9735266666667","6501300","土城區"
"242058","986-R7","2018/06/30 18:19:51","新北市新莊區新北大道七段716號","121.41244","25.0262666666667","6500500","新莊區"
"242053","751-BX","2018/06/30 18:19:39","新北市新莊區民安西路410巷12弄2號","121.42793","25.0090983333333","6500500","新莊區"
"242025","613-BX","2018/06/30 18:19:32","新北市新莊區五權一路12巷9弄15號","121.457686666667","25.06525","6500500","新莊區"
"242042","566-BX","2018/06/30 18:19:53","新北市新莊區天祥街90號","121.415293333333","25.0294866666667","6500500","新莊區"
"242046","497-BY","2018/06/30 18:19:52","新北市新莊區民安路31號","121.423121666667","25.0275566666667","6500500","新莊區"
"242051","441-UM","2018/06/30 18:19:54","新北市新莊區新樹路295號","121.433748333333","25.0200433333333","6500500","新莊區"
"242036","415-TV","2018/06/30 18:19:41","新北市新莊區後港一路49巷3弄10號","121.425161666667","25.0268333333333","6500500","新莊區"
"242044","400-BY","2018/06/30 18:19:52","新北市新莊區中正路732號","121.413971666667","25.02333","6500500","新莊區"
"242061","353-BY","2018/06/30 18:19:49","新北市新莊區富國路119號","121.424041666667","25.0246066666667","6500500","新莊區"
"242009","132-UY","2018/06/30 18:19:51","新北市新莊區昌隆街10號","121.453296666667","25.0507616666667","6500500","新莊區"
"242039","133-UY","2018/06/30 18:19:34","新北市新莊區新樹路206巷4號","121.433596666667","25.0204483333333","6500500","新莊區"
"242031","135-UY","2018/06/30 18:19:48","新北市新莊區新泰路277巷57弄14號","121.442875","25.0398083333333","6500500","新莊區"
"242011","173-VK","2018/06/30 18:19:55","新北市新莊區中港路585號","121.450973333333","25.0522866666667","6500500","新莊區"
"242015","346-TH","2018/06/30 18:19:35","新北市新莊區中和街112號","121.44762","25.0473116666667","6500500","新莊區"
"242021","348-TH","2018/06/30 18:19:38","新北市新莊區新興街38巷2號","121.450708333333","25.0371483333333","6500500","新莊區"
"242002","349-TH","2018/06/30 18:19:52","新北市新莊區碧江街13號","121.455661666667","25.0347916666667","6500500","新莊區"
"242019","350-TH","2018/06/30 18:19:44","新北市新莊區中華路一段68號","121.452008333333","25.03875","6500500","新莊區"
"238015","755-BX","2018/06/30 18:19:49","新北市樹林區大安路323巷10弄11號","121.417248333333","24.9909883333333","6500700","樹林區"
"238023","601-UM","2018/06/30 18:19:54","新北市樹林區忠信街15號","121.40774","25.0151283333333","6500700","樹林區"
"238018","571-TV","2018/06/30 18:19:42","新北市樹林區保安街一段20巷38號","121.428355","24.9946866666667","6500700","樹林區"
"238024","5061-A6","2018/06/30 18:19:54","新北市樹林區中山路一段137巷7號","121.422775","24.9894983333333","6500700","樹林區"
"238025","303-VK","2018/06/30 18:16:30","新北市樹林區保安街一段195號","121.420756666667","24.9960866666667","6500700","樹林區"
"238014","282-BY","2018/06/30 18:19:37","新北市樹林區大安路111巷11號","121.423046666667","24.997585","6500700","樹林區"
"238020","268-VK","2018/06/30 18:19:50","新北市樹林區三俊街47號","121.412706666667","25.0156616666667","6500700","樹林區"
"238026","172-UY","2018/06/30 18:19:40","新北市樹林區佳園路一段82-1號","121.393323333333","24.9695683333333","6500700","樹林區"
"238016","169-UY","2018/06/30 18:19:08","新北市樹林區文化街26號","121.419428333333","24.9876866666667","6500700","樹林區"
"239008","527-UM","2018/06/30 18:19:43","新北市鶯歌區國際一路179號","121.336235","24.976485","6500800","鶯歌區"
"239005","526-UM","2018/06/30 18:19:49","新北市鶯歌區鳳吉三街15號","121.326821666667","24.9734266666667","6500800","鶯歌區"
"239001","417-VK","2018/06/30 18:19:48","新北市鶯歌區國中街142號","121.339226666667","24.93979","6500800","鶯歌區"
"239003","360-BY","2018/06/30 18:19:47","新北市鶯歌區福安街13巷1號","121.335505","24.9652583333333","6500800","鶯歌區"
"239002","359-BY","2018/06/30 18:19:55","新北市鶯歌區中正一路81號","121.352258333333","24.9546883333333","6500800","鶯歌區"
"239004","193-VK","2018/06/30 18:19:36","新北市鶯歌區尖山路174巷35弄16號","121.34393","24.9484233333333","6500800","鶯歌區"
"221036","130-UY","2018/06/30 18:19:35","新北市汐止區長興街一段50號","121.670541666667","25.0792133333333","6501100","汐止區"
"221015","131-UY","2018/06/30 18:19:45","新北市汐止區鄉友街44號","121.669045","25.0815666666667","6501100","汐止區"
"221010","269-BY","2018/06/30 18:19:55","新北市汐止區汐萬路二段339號","121.644856666667","25.0904733333333","6501100","汐止區"
"221012","278-VK","2018/06/30 18:19:53","新北市汐止區保長路33號","121.672706666667","25.0796716666667","6501100","汐止區"
"221023","279-VK","2018/06/30 18:19:55","新北市汐止區康寧街473號","121.632003333333","25.068415","6501100","汐止區"
"221032","280-BY","2018/06/30 18:19:48","新北市汐止區橫科路20號","121.618116666667","25.0511333333333","6501100","汐止區"
"221027","281-BY","2018/06/30 18:19:44","新北市汐止區和平街19號","121.662888333333","25.0707566666667","6501100","汐止區"
"221029","298-VK","2018/06/30 18:19:37","新北市汐止區樟樹二路330巷68號","121.642865","25.069925","6501100","汐止區"
"221021","299-VK","2018/06/30 18:19:53","新北市汐止區新台五路一段125號","121.651645","25.0616116666667","6501100","汐止區"
"221031","353-TW","2018/06/30 18:19:39","新北市汐止區光復街8巷8號","121.638565","25.057835","6501100","汐止區"
"221008","129-UY","2018/06/30 18:19:44","新北市汐止區康寧街901號","121.651505","25.074985","6501100","汐止區"
"221035","622-UM","2018/06/30 18:19:43","新北市汐止區大同路二段169巷40號","121.650601666667","25.065115","6501100","汐止區"
"221025","623-UM","2018/06/30 18:19:42","新北市汐止區勤進路12巷42號","121.659083333333","25.0628083333333","6501100","汐止區"
"221038","646-BX","2018/06/30 18:19:48","新北市汐止區忠孝東路276號","121.6636","25.0681283333333","6501100","汐止區"
"221033","647-BX","2018/06/30 18:19:42","新北市汐止區宜興街40巷6號","121.62217","25.0417666666667","6501100","汐止區"
"221002","707-TV","2018/06/30 18:19:32","新北市汐止區福德一路213巷35號","121.635705","25.0647816666667","6501100","汐止區"
"221002","753-BX","2018/06/30 18:19:44","新北市汐止區茄苳路72巷9號","121.666641666667","25.0701383333333","6501100","汐止區"
"220082","610-BX","2018/06/30 18:19:40","新北市板橋區華東街1-9號","121.448176666667","24.9950333333333","6500100","板橋區"
"235068","KEA-2873","2018/06/30 18:19:46","新北市中和區中正路637巷52弄1號","121.48546","24.9936066666667","6500300","中和區"
"235061","KEA-2875","2018/06/30 18:19:51","新北市中和區國光街215巷10弄13-2號","121.466788333333","25.000385","6500300","中和區"
