"lineid","car","time","location","longitude","latitude","cityid","cityname"
"234046","148-BY","2018/06/30 19:19:38","新北市永和區得和路372號","121.524486666667","24.9993466666667","6500400","永和區"
"234007","207-UY","2018/06/30 19:19:46","新北市永和區中山路一段230號","121.508061666667","25.0080416666667","6500400","永和區"
"234081","298-R6","2018/06/30 19:19:53","新北市永和區福和路38號","121.523761666667","25.0083016666667","6500400","永和區"
"234038","336-UY","2018/06/30 19:19:55","新北市永和區民樂街59巷1-1號","121.527663333333","24.998395","6500400","永和區"
"234064","337-UY","2018/06/30 19:19:39","新北市永和區永元路17巷3號","121.521346666667","25.0004233333333","6500400","永和區"
"234086","338-UY","2018/06/30 19:19:36","新北市永和區永貞路45號","121.519906666667","25.004625","6500400","永和區"
"234070","552-UM","2018/06/30 19:19:47","新北市永和區中正路696-1號","121.516598333333","25.0098716666667","6500400","永和區"
"234017","745-BX","2018/06/30 19:19:47","新北市永和區文化路144巷19弄20號","121.512183333333","25.0168166666667","6500400","永和區"
"234030","746-BX","2018/06/30 19:19:45","新北市永和區厚德街68號","121.523963333333","24.9989116666667","6500400","永和區"
"234054","KEA-2590","2018/06/30 19:19:43","新北市永和區中興街31號","121.516166666667","25.0119283333333","6500400","永和區"
"234012","KEA-2591","2018/06/30 19:19:43","新北市永和區信義路54巷1號","121.513158333333","25.0126033333333","6500400","永和區"
"234061","AAD-866","2018/06/30 19:19:44","新北市永和區永貞路131號","121.516751666667","25.0041633333333","6500400","永和區"
"234042","862-TW","2018/06/30 19:19:49","新北市永和區保平路203巷13號","121.509666666667","25.00509","6500400","永和區"
"234050","863-TW","2018/06/30 19:19:50","新北市永和區保福路二段88巷13號","121.511111666667","25.0136566666667","6500400","永和區"
"234026","9371-KE","2018/06/30 19:19:35","新北市永和區安樂路144巷15號","121.51464","25.0001733333333","6500400","永和區"
"249005","172-UM","2018/06/30 19:19:51","新北市八里區中華路二段586號","121.397976666667","25.1442433333333","6502300","八里區"
"249001","173-UM","2018/06/30 19:19:41","新北市八里區文昌路99號","121.408875","25.1586833333333","6502300","八里區"
"249003","593-UM","2018/06/30 19:19:37","新北市八里區中山路二段466巷36弄20號","121.398813333333","25.14852","6502300","八里區"
"248008","095-VK","2018/06/30 19:19:37","新北市蘆洲區中山一路312號","121.469316666667","25.0773566666667","6501500","五股區"
"248020","225-UY","2018/06/30 19:19:40","新北市五股區凌雲路三段57號","121.42522","25.1250016666667","6501500","五股區"
"248012","247-BX","2018/06/30 19:19:36","新北市五股區中興路四段48巷16號","121.43867","25.0834133333333","6501500","五股區"
"248004","677-BX","2018/06/30 19:19:50","新北市五股區五福路47號","121.432981666667","25.0894416666667","6501500","五股區"
"248002","678-BX","2018/06/30 19:19:41","新北市五股區凌雲路一段158巷13號","121.447766666667","25.1034733333333","6501500","五股區"
"248010","682-TV","2018/06/30 19:19:49","新北市五股區水碓二路1號","121.430605","25.0712616666667","6501500","五股區"
"234023","9380-KE","2018/06/30 19:19:50","新北市永和區中興街10巷33號","121.516705","25.0109583333333","6500400","永和區"
"234077","969-R7","2018/06/30 19:19:47","新北市永和區民治街72巷12號","121.518205","24.9985983333333","6500400","永和區"
"234074","AAC-211","2018/06/30 19:19:41","新北市永和區竹林路46號","121.517635","25.01424","6500400","永和區"
"234067","AAC-212","2018/06/30 19:19:41","新北市永和區保平路50巷3號","121.511153333333","25.0073033333333","6500400","永和區"
"234003","AAC-295","2018/06/30 19:19:53","新北市永和區永平路157巷2弄2號","121.510855","25.0087466666667","6500400","永和區"
"244019","403-UM","2018/06/30 19:19:55","新北市林口區文化二路一段490-4號","121.375976666667","25.07833","6501700","林口區"
"244013","742-UY","2018/06/30 19:19:45","新北市林口區麗園一街4巷2號","121.376355","25.0706233333333","6501700","林口區"
"244009","410-SL","2018/06/30 19:19:42","新北市八里區下罟子30-35號","121.36778","25.1351516666667","6501700","林口區"
"244023","483-VK","2018/06/30 19:19:51","新北市林口區文化三路一段617巷187號","121.371345","25.0777833333333","6501700","林口區"
"244017","485-VK","2018/06/30 19:19:49","新北市林口區頭湖83-28號","121.37132","25.0835033333333","6501700","林口區"
"244011","657-BX","2018/06/30 19:19:35","新北市林口區中正路264巷12號","121.388633333333","25.0783416666667","6501700","林口區"
"244025","837-TS","2018/06/30 19:19:46","新北市林口區文化三路一段555巷50號","121.369765","25.076955","6501700","林口區"
"243010","267-VK","2018/06/30 19:19:43","新北市泰山區明志路一段468號","121.430591666667","25.0552183333333","6501600","泰山區"
"243013","AAD-798","2018/06/30 19:19:54","新北市泰山區明志路三段145巷2弄1號","121.425403333333","25.03993","6501600","泰山區"
"243009","297-R6","2018/06/30 19:19:40","新北市泰山區和平街13巷13號","121.434306666667","25.0651883333333","6501600","泰山區"
"243016","380-SR","2018/06/30 19:19:54","新北市泰山區明志路三段123巷1弄7號","121.425136666667","25.0410483333333","6501600","泰山區"
"243015","421-VK","2018/06/30 19:19:43","新北市泰山區公園路14號","121.429658333333","25.05411","6501600","泰山區"
"243011","KEA-2215","2018/06/30 19:19:37","新北市泰山區中央路7巷2號","121.426428333333","25.0432216666667","6501600","泰山區"
"243012","646-TV","2018/06/30 19:19:46","新北市泰山區仁愛路100巷12號","121.43306","25.0549633333333","6501600","泰山區"
"243014","680-BX","2018/06/30 19:19:51","新北市泰山區泰林路二段204號","121.433378333333","25.0614116666667","6501600","泰山區"
"222003","436-BY","2018/06/30 19:19:40","新北市深坑區深南路91號","121.626621666667","25.015955","6501800","深坑區"
"222002","659-BX","2018/06/30 19:19:51","新北市深坑區北深路一段177號","121.632496666667","25.0108333333333","6501800","深坑區"
"231044","001-UM","2018/06/30 19:19:38","新北市新店區中興路三段311號","121.541893333333","24.9860366666667","6500600","新店區"
"231041","002-UM","2018/06/30 19:19:41","新北市新店區環河路550號","121.527071666667","24.98463","6500600","新店區"
"231059","046-UY","2018/06/30 19:19:50","新北市新店區安和路二段155號","121.518981666667","24.974275","6500600","新店區"
"231040","047-UY","2018/06/30 19:19:49","新北市新店區中華路147號","121.538108333333","24.9704716666667","6500600","新店區"
"231052","108-UY","2018/06/30 19:19:53","新北市新店區自強路251號","121.548136666667","24.9190266666667","6500600","新店區"
"231048","187-VK","2018/06/30 19:19:53","新北市新店區中興路二段57巷17號","121.545735","24.9708016666667","6500600","新店區"
"231046","188-VK","2018/06/30 19:19:48","新北市新店區華城路5-3號","121.529265","24.9579","6500600","新店區"
"231054","KEA-2219","2018/06/30 19:19:42","新北市新店區新店後街88號","121.537915","24.9548583333333","6500600","新店區"
"231042","268-BY","2018/06/30 19:19:49","新北市新店區中興路一段57號","121.53974","24.9603333333333","6500600","新店區"
"231051","278-BY","2018/06/30 19:19:47","新北市新店區中央路133巷23號","121.531478333333","24.9732983333333","6500600","新店區"
"231050","AAD-862","2018/06/30 19:19:51","新北市新店區竹林路25巷10號","121.552376666667","24.9513783333333","6500600","新店區"
"231058","3713-VJ","2018/06/30 19:19:44","新北市新店區北新路二段42號","121.542846666667","24.9717216666667","6500600","新店區"
"231066","4716-K9","2018/06/30 19:19:35","新北市新店區安康路三段359巷12弄25號","121.484035","24.9492816666667","6500600","新店區"
"231056","4715-K9","2018/06/30 19:19:50","新北市新店區溪園路389-12號","121.523345","24.9783433333333","6500600","新店區"
"231067","4772-VM","2018/06/30 19:19:49","新北市新店區安康路一段263巷33號","121.524048333333","24.96132","6500600","新店區"
"231065","512-UM","2018/06/30 19:19:34","新北市新店區安祥路110巷19號","121.473665","24.9560683333333","6500600","新店區"
"231049","513-UM","2018/06/30 19:19:46","新北市新店區明德路119號","121.541296666667","24.979785","6500600","新店區"
"231045","617-UM","2018/06/30 19:19:44","新北市新店區北宜路一段294號","121.54712","24.952325","6500600","新店區"
"231061","619-UM","2018/06/30 19:19:46","新北市新店區安康路一段102號","121.527481666667","24.9624433333333","6500600","新店區"
"231063","641-BX","2018/06/30 19:19:39","新北市新店區達觀路14巷1號","121.504306666667","24.9417633333333","6500600","新店區"
"231064","719-UM","2018/06/30 19:19:47","新北市新店區安忠路57巷26弄2號","121.512985","24.9587416666667","6500600","新店區"
"231062","720-UM","2018/06/30 19:19:42","新北市新店區莒光路20號","121.523916666667","24.95942","6500600","新店區"
"231060","897-TW","2018/06/30 19:19:41","新北市新店區安康路二段166號","121.512108333333","24.9606716666667","6500600","新店區"
"231043","899-TW","2018/06/30 19:19:47","新北市新店區北新路二段156號","121.542945","24.9755","6500600","新店區"
"241022","060-VK","2018/06/30 19:19:39","新北市三重區中正北路70號","121.486333333333","25.0647366666667","6500200","三重區"
"241031","061-VK","2018/06/30 19:19:39","新北市三重區重新路四段101號","121.485841666667","25.0545483333333","6500200","三重區"
"241017","063-VK","2018/06/30 19:19:39","新北市三重區大同北路182號","121.491558333333","25.06589","6500200","三重區"
"241026","066-VK","2018/06/30 19:19:39","新北市三重區泉州街84巷20號","121.495796666667","25.05465","6500200","三重區"
"241009","267-UM","2018/06/30 19:19:46","新北市三重區溪尾街230巷65號","121.486206666667","25.0812116666667","6500200","三重區"
"241032","269-UM","2018/06/30 19:19:37","新北市三重區新生街93-2號","121.483723333333","25.0593716666667","6500200","三重區"
"241007","398-BY","2018/06/30 19:19:53","新北市三重區慈愛街53號","121.486365","25.079135","6500200","三重區"
"241035","KEA-2210","2018/06/30 19:19:46","新北市三重區信義西街138號","121.49549","25.06431","6500200","三重區"
"241020","478-VK","2018/06/30 19:19:42","新北市三重區大智街183號","121.48951","25.0730016666667","6500200","三重區"
"241030","480-VK","2018/06/30 19:19:41","新北市三重區成功路41巷70號","121.491271666667","25.0531916666667","6500200","三重區"
"241006","AAD-863","2018/06/30 19:19:47","新北市三重區力行路二段143號","121.483573333333","25.0771866666667","6500200","三重區"
"241025","743-BX","2018/06/30 19:19:39","新北市三重區中正北路404號","121.475476666667","25.0704366666667","6500200","三重區"
"241029","942-UM","2018/06/30 19:19:43","新北市三重區重安街62號","121.491233333333","25.057415","6500200","三重區"
"235066","003-UY","2018/06/30 19:19:51","新北市中和區廣福路112號","121.502213333333","25.0012116666667","6500300","中和區"
"235064","005-UY","2018/06/30 19:19:53","新北市中和區連城路2號","121.49926","25.002425","6500300","中和區"
"235063","006-UY","2018/06/30 19:19:50","新北市中和區連勝街121巷18弄3號","121.495115","24.9943766666667","6500300","中和區"
"235056","096-UM","2018/06/30 19:19:54","新北市中和區員山路543號","121.479545","25.00727","6500300","中和區"
"235039","097-UM","2018/06/30 19:19:43","新北市中和區秀峰街81巷2號","121.521533333333","24.99021","6500300","中和區"
"235065","098-UM","2018/06/30 19:19:43","新北市中和區中山路二段64巷8號","121.503653333333","25.0051683333333","6500300","中和區"
"235040","150-BY","2018/06/30 19:19:42","新北市中和區保健路61巷5弄2號","121.509718333333","24.9975333333333","6500300","中和區"
"235058","151-BY","2018/06/30 19:19:51","新北市中和區連城路523巷11弄24號","121.482258333333","24.9941733333333","6500300","中和區"
"235055","183-VK","2018/06/30 19:19:36","新北市中和區德光路23號","121.470751666667","25.00422","6500300","中和區"
"235038","185-VK","2018/06/30 19:19:43","新北市中和區自強路27巷1號","121.520636666667","24.9928883333333","6500300","中和區"
"235049","186-VK","2018/06/30 19:19:43","新北市中和區景新街265號","121.50884","24.9939883333333","6500300","中和區"
"235067","255-BX","2018/06/30 19:19:38","新北市中和區民樂路36號","121.483001666667","25.001075","6500300","中和區"
"235044","293-VK","2018/06/30 19:19:54","新北市中和區復興路329號","121.500778333333","24.99025","6500300","中和區"
"235072","301-VK","2018/06/30 19:19:51","新北市中和區連城路265巷3號","121.491455","24.99606","6500300","中和區"
"235043","352-BY","2018/06/30 19:19:38","新北市中和區景平路406號","121.508858333333","24.99309","6500300","中和區"
"235042","KEA-2878","2018/06/30 19:19:56","新北市永和區中正路129巷2號","121.515996666667","24.99797","6500300","中和區"
"235050","4979-A6","2018/06/30 19:19:44","新北市中和區景安路218號","121.50387","24.9905433333333","6500300","中和區"
"235069","4980-A6","2018/06/30 19:19:41","新北市中和區中山路二段136巷3弄4號","121.501431666667","25.003665","6500300","中和區"
"235070","558-UM","2018/06/30 19:19:44","新北市中和區中山路二段225號","121.498451666667","25.00258","6500300","中和區"
"235045","565-BX","2018/06/30 19:19:51","新北市中和區景新街423巷35弄19號","121.513833333333","24.9904566666667","6500300","中和區"
"235054","640-BX","2018/06/30 19:19:43","新北市中和區國光街107巷2弄3號","121.470026666667","24.999885","6500300","中和區"
"235060","647-TV","2018/06/30 19:19:43","新北市中和區員山路469巷1號","121.480376666667","25.0045783333333","6500300","中和區"
"235046","733-UM","2018/06/30 19:19:52","新北市中和區忠孝街3號","121.509468333333","24.98293","6500300","中和區"
"235071","783-BX","2018/06/30 19:19:37","新北市中和區連城路469巷79弄2號","121.483491666667","24.993675","6500300","中和區"
"235057","801-TS","2018/06/30 19:19:47","新北市中和區員山路220號","121.481215","25.0011483333333","6500300","中和區"
"235041","802-TS","2018/06/30 19:19:53","新北市永和區中和路381號","121.508501666667","24.9999433333333","6500300","中和區"
"235052","805-TS","2018/06/30 19:19:54","新北市中和區華新街143巷21號","121.506556666667","24.98091","6500300","中和區"
"235048","896-TW","2018/06/30 19:19:52","新北市中和區忠孝街68號","121.511956666667","24.9840333333333","6500300","中和區"
"235053","900-TW","2018/06/30 19:19:36","新北市中和區華安街21巷2號","121.46745","24.9974883333333","6500300","中和區"
"235051","157-BY","2018/06/30 19:19:48","新北市中和區和平街24巷2號","121.50995","24.9904666666667","6500300","中和區"
"235037","AAC-213","2018/06/30 19:19:44","新北市中和區秀朗路三段10巷37弄14號","121.523536666667","24.99589","6500300","中和區"
"235059","AAC-215","2018/06/30 19:19:53","新北市中和區圓通路286巷2號","121.49145","24.9909783333333","6500300","中和區"
"220055","015-TV","2018/06/30 19:19:55","新北市板橋區實踐路65巷33號","121.464843333333","25.0065866666667","6500100","板橋區"
"220065","072-UY","2018/06/30 19:19:42","新北市板橋區國泰街76巷26號","121.467333333333","25.0070866666667","6500100","板橋區"
"220106","075-UY","2018/06/30 19:19:42","新北市板橋區雙十路三段43號","121.470508333333","25.03187","6500100","板橋區"
"220069","AAD-861","2018/06/30 19:19:48","新北市板橋區貴興路39號","121.457543333333","25.003755","6500100","板橋區"
"226004","312-R5","2018/06/30 19:19:47","新北市平溪區十分里十分街162號","121.77829","25.0435366666667","6502400","平溪區"
"235047","251-BX","2018/06/30 19:19:42","新北市中和區和平街17-2號","121.508591666667","24.9905233333333","6500300","中和區"
"228003","097-TW","2018/06/30 19:19:43","新北市貢寮區和美里和美街19-2號","121.91283","25.0825866666667","6502600","貢寮區"
"228001","212-TW","2018/06/30 19:19:51","新北市貢寮區真理里新港街10號","121.925573333333","25.0544266666667","6502600","貢寮區"
"228002","663-BX","2018/06/30 19:19:51","新北市貢寮區龍門里復興街46-2號","121.928598333333","25.0300566666667","6502600","貢寮區"
"224010","AGQ-8101","2018/06/30 19:11:27","新北市瑞芳區汽車路30號","121.845605","25.1101583333333","6501200","瑞芳區"
"224002","639-TC","2018/06/30 19:19:49","新北市瑞芳區靜安路四段6號","121.79569","25.0831266666667","6501200","瑞芳區"
"224008","285-BY","2018/06/30 19:19:45","新北市瑞芳區一坑路189-1號","121.801755","25.10914","6501200","瑞芳區"
"227002","642-TC","2018/06/30 19:19:46","新北市雙溪區平林里梅竹蹊66-1號","121.860133333333","25.03582","6502500","雙溪區"
"227010","400-TW","2018/06/30 19:19:35","新北市雙溪區新基里新基北街40號","121.868525","25.038015","6502500","雙溪區"
"253005","032-BX","2018/06/30 19:19:49","新北市石門區阿里荖33-1號","121.606888333333","25.2810616666667","6502200","石門區"
"253006","295-VK","2018/06/30 19:19:50","新北市石門區崁子腳18-7號","121.53409","25.2898466666667","6502200","石門區"
"222001","KEA-2212","2018/06/30 19:19:38","新北市深坑區北深路二段103號","121.617468333333","25.0034366666667","6501800","深坑區"
"208002","KEA-2872","2018/06/30 19:19:44","新北市金山區中正路67號","121.633941666667","25.2216416666667","6502700","金山區"
"208003","665-BX","2018/06/30 19:19:37","新北市金山區中山路132號","121.639101666667","25.220215","6502700","金山區"
"208001","761-BX","2018/06/30 19:19:51","新北市金山區慈護街4號","121.639845","25.2204333333333","6502700","金山區"
"251015","010-UM","2018/06/30 19:19:57","新北市淡水區南勢埔21號","121.48174","25.17909","6501000","淡水區"
"251013","KEA-2871","2018/06/30 19:19:50","新北市淡水區安子內12-1號","121.481556666667","25.21908","6501000","淡水區"
"251016","179-VK","2018/06/30 19:19:43","新北市淡水區下圭柔山119-51號","121.450735","25.2084616666667","6501000","淡水區"
"251014","180-VK","2018/06/30 19:19:48","新北市淡水區小中寮19-7號","121.484738333333","25.2296833333333","6501000","淡水區"
"251010","413-VK","2018/06/30 19:19:52","新北市淡水區沙崙路27號","121.42147","25.1815316666667","6501000","淡水區"
"251007","442-VK","2018/06/30 19:19:55","新北市淡水區民生路145巷14號","121.466093333333","25.1385866666667","6501000","淡水區"
"251005","443-VK","2018/06/30 19:19:45","新北市淡水區水源街一段29號","121.443178333333","25.172275","6501000","淡水區"
"251001","559-UM","2018/06/30 19:19:40","新北市淡水區自強路201巷39號","121.46218","25.12684","6501000","淡水區"
"251006","561-UM","2018/06/30 19:19:48","新北市淡水區大信街40-8號","121.442098333333","25.1774266666667","6501000","淡水區"
"251009","575-R6","2018/06/30 19:19:34","新北市淡水區中正路28號","121.444423333333","25.16909","6501000","淡水區"
"251003","673-BX","2018/06/30 19:19:50","新北市淡水區中山北路一段204號","121.444595","25.1795533333333","6501000","淡水區"
"207003","550-UM","2018/06/30 19:19:52","新北市萬里區大鵬里萬里加投79-3號","121.647338333333","25.2123583333333","6502800","萬里區"
"207004","225-TW","2018/06/30 19:19:40","新北市萬里區萬里里成功新村44號","121.687678333333","25.1746083333333","6502800","萬里區"
"252002","178-VK","2018/06/30 19:19:41","新北市三芝區淡金路二段18-1號","121.502646666667","25.2594516666667","6502100","三芝區"
"252001","292-VK","2018/06/30 19:19:40","新北市三芝區長勤街9巷11弄1號","121.501791666667","25.2546833333333","6502100","三芝區"
"237004","KEA-2597","2018/06/30 19:19:39","新北市三峽區有木205-1號","121.439021666667","24.8514983333333","6500900","三峽區"
"237007","153-BY","2018/06/30 19:19:53","新北市三峽區二鬮路178號","121.359206666667","24.906805","6500900","三峽區"
"237009","210-TH","2018/06/30 19:19:36","新北市三峽區民生街193號","121.371875","24.9348416666667","6500900","三峽區"
"237013","252-BX","2018/06/30 19:19:44","新北市三峽區光明路75巷19號","121.377346666667","24.92807","6500900","三峽區"
"237012","275-BY","2018/06/30 19:19:50","新北市三峽區三樹路222巷131號","121.38561","24.942865","6500900","三峽區"
"237008","302-VK","2018/06/30 19:19:40","新北市三峽區永安街183號","121.373228333333","24.92673","6500900","三峽區"
"237014","433-BY","2018/06/30 19:19:50","新北市三峽區大智路17號","121.361125","24.9373033333333","6500900","三峽區"
"237006","5529-G3","2018/06/30 19:19:54","新北市三峽區介壽路一段383-1號","121.387506666667","24.933795","6500900","三峽區"
"237011","KEA-2596","2018/06/30 19:19:45","新北市三峽區中正路一段185號","121.372631666667","24.9281016666667","6500900","三峽區"
"237016","649-BX","2018/06/30 19:19:40","新北市三峽區成福路202號","121.426853333333","24.9258683333333","6500900","三峽區"
"237010","706-TV","2018/06/30 19:19:48","新北市三峽區復興路36-8號","121.37386","24.9367766666667","6500900","三峽區"
"237005","AKY-6261","2018/06/30 19:19:41","新北市三峽區中山路459巷50-2號","121.356143333333","24.93754","6500900","三峽區"
"236070","105-UM","2018/06/30 19:19:42","新北市土城區學成路132號","121.449091666667","24.9895583333333","6501300","土城區"
"236042","107-UM","2018/06/30 19:19:42","新北市土城區學府路一段276號","121.450201666667","24.9830783333333","6501300","土城區"
"236079","166-UM","2018/06/30 19:19:40","新北市土城區中央路四段321巷46號","121.412635","24.9510066666667","6501300","土城區"
"236026","269-VK","2018/06/30 19:19:41","新北市土城區中正路67巷26號","121.444391666667","24.9765316666667","6501300","土城區"
"236014","270-VK","2018/06/30 19:19:52","新北市土城區廣福街9號","121.457128333333","24.9888616666667","6501300","土城區"
"236021","401-BY","2018/06/30 19:19:51","新北市土城區峰廷街18號","121.469035","24.9872566666667","6501300","土城區"
"236059","912-UM","2018/06/30 19:19:52","新北市土城區中央路二段237號","121.440288333333","24.9722116666667","6501300","土城區"
"236049","913-UM","2018/06/30 19:19:36","新北市土城區明德路一段365-1號","121.453655","24.979095","6501300","土城區"
"242002","349-TH","2018/06/30 19:19:35","新北市新莊區三和路12-21號","121.442008333333","25.03798","6500500","新莊區"
"238015","755-BX","2018/06/30 19:19:49","新北市樹林區大安路537巷1號","121.412893333333","24.98482","6500700","樹林區"
"238023","601-UM","2018/06/30 19:19:43","桃園市龜山區萬壽路一段281號","121.403311666667","25.0174133333333","6500700","樹林區"
"238019","599-UM","2018/06/30 19:19:52","新北市樹林區東榮街90號","121.415895","24.982645","6500700","樹林區"
"238018","571-TV","2018/06/30 19:19:42","新北市樹林區中華路126號","121.417595","24.9805333333333","6500700","樹林區"
"238024","5061-A6","2018/06/30 19:19:53","新北市樹林區福德街48-11號","121.398761666667","24.9748283333333","6500700","樹林區"
"238022","KEA-2213","2018/06/30 19:19:42","新北市樹林區太平路91號","121.419318333333","24.98128","6500700","樹林區"
"238021","KEA-2539","2018/06/30 19:19:44","新北市樹林區柑園街二段203巷16號","121.376788333333","24.9511033333333","6500700","樹林區"
"238025","303-VK","2018/06/30 19:19:50","新北市樹林區中山路一段404號","121.418198333333","24.985345","6500700","樹林區"
"238014","282-BY","2018/06/30 19:19:37","新北市樹林區千歲街6巷26號","121.425738333333","24.99504","6500700","樹林區"
"238020","268-VK","2018/06/30 19:19:50","新北市樹林區俊英街121巷29號","121.42335","25.0100316666667","6500700","樹林區"
"238026","172-UY","2018/06/30 19:19:40","新北市樹林區佳園路二段74-1號","121.390543333333","24.9593766666667","6500700","樹林區"
"238016","169-UY","2018/06/30 19:19:47","新北市樹林區復興路466號","121.413283333333","24.983565","6500700","樹林區"
"239006","891-R6","2018/06/30 19:19:50","新北市鶯歌區鶯桃路91巷42弄2號","121.336953333333","24.95205","6500800","鶯歌區"
"239008","527-UM","2018/06/30 19:19:43","新北市鶯歌區大湖路466號","121.3396","24.9720233333333","6500800","鶯歌區"
"239001","417-VK","2018/06/30 19:19:48","新北市鶯歌區建國路588號","121.339868333333","24.9521783333333","6500800","鶯歌區"
"239003","360-BY","2018/06/30 19:19:47","新北市鶯歌區國華路56號","121.34229","24.9549333333333","6500800","鶯歌區"
"239002","359-BY","2018/06/30 19:19:35","新北市鶯歌區大湖路283號","121.344858333333","24.9735033333333","6500800","鶯歌區"
"239004","193-VK","2018/06/30 19:19:36","新北市鶯歌區中正三路220號","121.331681666667","24.9376083333333","6500800","鶯歌區"
"221036","130-UY","2018/06/30 19:19:55","新北市汐止區康寧街901號","121.65089","25.075275","6501100","汐止區"
"221010","269-BY","2018/06/30 19:19:49","新北市汐止區康寧街901號","121.651435","25.0748166666667","6501100","汐止區"
"221012","278-VK","2018/06/30 19:19:40","新北市汐止區汐萬路一段312號","121.650646666667","25.0754116666667","6501100","汐止區"
"221023","279-VK","2018/06/30 19:19:47","新北市汐止區康寧街901號","121.650993333333","25.07519","6501100","汐止區"
"221027","281-BY","2018/06/30 19:19:44","新北市汐止區康寧街901號","121.650915","25.0752783333333","6501100","汐止區"
"221029","298-VK","2018/06/30 19:19:37","新北市汐止區康寧街901號","121.65165","25.074925","6501100","汐止區"
"221021","299-VK","2018/06/30 19:19:53","新北市汐止區康寧街901號","121.651461666667","25.0750266666667","6501100","汐止區"
"221031","353-TW","2018/06/30 19:19:39","新北市汐止區汐萬路一段256巷3號","121.652661666667","25.0745033333333","6501100","汐止區"
"221008","129-UY","2018/06/30 19:19:38","新北市汐止區康寧街285號","121.626205","25.0672316666667","6501100","汐止區"
"221025","623-UM","2018/06/30 19:19:42","新北市汐止區康寧街901號","121.65143","25.074935","6501100","汐止區"
"221038","646-BX","2018/06/30 19:19:48","新北市汐止區康寧街901號","121.65073","25.0752866666667","6501100","汐止區"
"221033","647-BX","2018/06/30 19:19:41","新北市汐止區南勢街1巷1號","121.62721","25.03767","6501100","汐止區"
"221002","707-TV","2018/06/30 19:19:52","新北市汐止區大同路一段313號","121.637735","25.05913","6501100","汐止區"
"220079","145-BY","2018/06/30 19:19:53","新北市板橋區民權路202巷38號","121.460845","25.0175033333333","6500100","板橋區"
"220080","200-UY","2018/06/30 19:19:46","新北市板橋區大觀路二段19巷51號","121.44834","25.003135","6500100","板橋區"
"220082","610-BX","2018/06/30 19:19:40","新北市板橋區篤行路三段99號","121.426103333333","24.984605","6500100","板橋區"
"220101","245-BX","2018/06/30 19:19:49","新北市板橋區雙十路二段10-3號","121.476481666667","25.0266466666667","6500100","板橋區"
"220103","257-TC","2018/06/30 19:19:50","新北市板橋區介壽街37號","121.46858","25.01982","6500100","板橋區"
"220091","267-BY","2018/06/30 19:19:43","新北市板橋區萬板路478號","121.479971666667","25.02603","6500100","板橋區"
"220056","276-BY","2018/06/30 19:19:49","新北市板橋區信義路173號","121.458911666667","24.99202","6500100","板橋區"
"220072","277-BY","2018/06/30 19:19:46","新北市板橋區篤行路二段161巷14號","121.429543333333","24.9872516666667","6500100","板橋區"
"220071","283-VK","2018/06/30 19:19:52","新北市板橋區忠孝路48巷7弄11號","121.461461666667","25.0005816666667","6500100","板橋區"
"220094","285-UM","2018/06/30 19:19:49","新北市板橋區吳鳳路82號","121.467003333333","25.0313183333333","6500100","板橋區"
"220053","285-VK","2018/06/30 19:19:53","新北市板橋區富山街16號","121.47835","25.0218366666667","6500100","板橋區"
"220083","286-VK","2018/06/30 19:19:54","新北市板橋區龍興街99巷17號","121.443351666667","25.00307","6500100","板橋區"
"220081","287-VK","2018/06/30 19:19:38","新北市板橋區南雅西路一段10巷7弄17號","121.454001666667","25.0042883333333","6500100","板橋區"
"220090","288-VK","2018/06/30 19:19:53","新北市板橋區裕民街36巷23號","121.46152","25.0296466666667","6500100","板橋區"
"220061","293-UM","2018/06/30 19:19:49","新北市板橋區中山路二段318巷20弄37號","121.481121666667","25.0188433333333","6500100","板橋區"
"220062","295-UM","2018/06/30 19:19:48","新北市板橋區三民路二段153巷36弄2號","121.481161666667","25.0141566666667","6500100","板橋區"
"220084","296-UM","2018/06/30 19:19:53","新北市板橋區滿平街136巷10弄6號","121.427483333333","24.987195","6500100","板橋區"
"220075","303-R5","2018/06/30 19:19:51","新北市板橋區南雅西路一段116號","121.45256","25.0063833333333","6500100","板橋區"
"220092","307-R5","2018/06/30 19:19:40","新北市板橋區光武街36巷9號","121.467758333333","25.0261483333333","6500100","板橋區"
"220098","317-R6","2018/06/30 19:19:47","新北市板橋區民有街89巷9號","121.464333333333","25.0274","6500100","板橋區"
"220064","486-VK","2018/06/30 19:19:52","新北市板橋區板新路238號","121.468246666667","25.0160266666667","6500100","板橋區"
"220088","491-VK","2018/06/30 19:19:54","新北市板橋區雙十路一段9號","121.478006666667","25.024105","6500100","板橋區"
"220035","560-BX","2018/06/30 19:19:43","新北市板橋區瑞安街31巷1號","121.455706666667","25.0228316666667","6500100","板橋區"
"220063","609-BX","2018/06/30 19:19:43","新北市板橋區三民路二段40-4號","121.479056666667","25.0174883333333","6500100","板橋區"
"220086","630-UY","2018/06/30 19:19:37","新北市板橋區中正路218號","121.456068333333","25.0184366666667","6500100","板橋區"
"220057","686-BX","2018/06/30 19:19:25","新北市板橋區五權街1號","121.46392","24.9949166666667","6500100","板橋區"
"220093","689-BX","2018/06/30 19:19:41","新北市板橋區文化路一段241號","121.464168333333","25.0178066666667","6500100","板橋區"
"220054","741-BX","2018/06/30 19:19:40","新北市板橋區實踐路153號","121.464251666667","25.00417","6500100","板橋區"
"220102","KEA-2699","2018/06/30 19:19:43","新北市板橋區文聖街157號","121.478693333333","25.02774","6500100","板橋區"
"220077","806-UM","2018/06/30 19:19:46","新北市板橋區僑中二街50號","121.446803333333","25.0105133333333","6500100","板橋區"
"220067","829-TW","2018/06/30 19:19:37","新北市板橋區長安街138巷1弄56號","121.474025","25.0101516666667","6500100","板橋區"
"220068","830-TW","2018/06/30 19:19:38","新北市板橋區三民路一段1巷58號","121.480845","25.02471","6500100","板橋區"
"220096","831-TW","2018/06/30 19:19:43","新北市板橋區大同街26巷14號","121.478118333333","25.026855","6500100","板橋區"
"220089","833-TW","2018/06/30 19:19:46","新北市板橋區文化路一段357號","121.466796666667","25.0210533333333","6500100","板橋區"
"220074","895-R6","2018/06/30 19:19:53","新北市板橋區中正路1巷18-1號","121.455181666667","25.0116066666667","6500100","板橋區"
"220073","985-R7","2018/06/30 19:19:55","新北市板橋區瑞安街26號","121.45528","25.0228716666667","6500100","板橋區"
"220097","AAC-210","2018/06/30 19:19:56","新北市板橋區幸福路60巷41號","121.460465","25.0211616666667","6500100","板橋區"
"220070","AAC-253","2018/06/30 19:19:38","新北市板橋區四川路一段281號","121.45953","25.002005","6500100","板橋區"
"235068","KEA-2873","2018/06/30 19:19:46","新北市中和區連勝街26巷2號","121.49827","24.9981","6500300","中和區"
"235061","KEA-2875","2018/06/30 19:19:51","新北市中和區員山路350號","121.481176666667","25.0035966666667","6500300","中和區"
