"lineid","car","time","location","longitude","latitude","cityid","cityname"
"234077","969-R7","2018/06/30 20:59:07","新北市林口區汕頭32號","121.366331666667","25.1347383333333","6500400","永和區"
"244018","403-UM","2018/06/30 20:56:04","新北市林口區粉寮69號","121.405003333333","25.0908266666667","6501700","林口區"
"243012","646-TV","2018/06/30 20:59:26","新北市泰山區泰林路二段607巷1-7號","121.421195","25.0637033333333","6501600","泰山區"
"231059","046-UY","2018/06/30 20:59:10","新北市新店區僑信路124號","121.500591666667","24.94617","6500600","新店區"
"231040","047-UY","2018/06/30 20:59:09","新北市新店區北新路一段351號","121.541838333333","24.9693566666667","6500600","新店區"
"231052","108-UY","2018/06/30 20:59:25","新北市新店區光明街22號","121.538043333333","24.958775","6500600","新店區"
"231048","187-VK","2018/06/30 20:59:13","新北市新店區寶元路二段1巷2號","121.550726666667","24.9840766666667","6500600","新店區"
"231054","KEA-2219","2018/06/30 20:59:22","新北市新店區大新街1號","121.543721666667","24.9688283333333","6500600","新店區"
"231042","268-BY","2018/06/30 20:59:08","新北市新店區寶橋路98號","121.547006666667","24.9757833333333","6500600","新店區"
"231051","278-BY","2018/06/30 20:59:24","新北市新店區中正路663巷7弄15號","121.532953333333","24.9901016666667","6500600","新店區"
"231050","AAD-862","2018/06/30 20:59:12","新北市新店區三民路75巷1弄2號","121.535841666667","24.9711983333333","6500600","新店區"
"231066","4716-K9","2018/06/30 20:59:15","新北市新店區吉安街10號","121.516815","24.9656966666667","6500600","新店區"
"231067","4772-VM","2018/06/30 20:59:17","新北市新店區安華路28-1號","121.519971666667","24.9608866666667","6500600","新店區"
"231065","512-UM","2018/06/30 20:59:14","新北市新店區安祥路69巷17號","121.481906666667","24.9613533333333","6500600","新店區"
"231049","513-UM","2018/06/30 20:59:26","新北市新店區安光路11號","121.51371","24.9638883333333","6500600","新店區"
"231061","619-UM","2018/06/30 20:59:06","新北市新店區新和街97號","121.521183333333","24.9866033333333","6500600","新店區"
"231063","641-BX","2018/06/30 20:59:19","新北市新店區富貴街6巷1號","121.494385","24.9500716666667","6500600","新店區"
"231068","718-UY","2018/06/30 20:59:25","新北市新店區寶元路二段35巷1號","121.546821666667","24.9815583333333","6500600","新店區"
"231064","719-UM","2018/06/30 20:58:07","新北市新店區安民街303巷9弄2號","121.516858333333","24.9734066666667","6500600","新店區"
"231062","720-UM","2018/06/30 20:59:22","新北市新店區裕合街92號","121.490345","24.94875","6500600","新店區"
"231060","897-TW","2018/06/30 20:59:20","新北市新店區安康路三段391號","121.483391666667","24.9500333333333","6500600","新店區"
"231043","899-TW","2018/06/30 20:59:27","新北市新店區民族路203號","121.537041666667","24.9761033333333","6500600","新店區"
"241011","013-R5","2018/06/30 20:59:22","新北市三重區秀江街119號","121.499711666667","25.0721633333333","6500200","三重區"
"241028","022-UY","2018/06/30 20:59:08","新北市三重區重新路三段94號","121.492645","25.0609266666667","6500200","三重區"
"241008","059-VK","2018/06/30 20:59:10","新北市三重區下竹圍街1號","121.48107","25.0763366666667","6500200","三重區"
"241022","060-VK","2018/06/30 20:59:19","新北市三重區過圳街27-5號","121.48795","25.0624233333333","6500200","三重區"
"241031","061-VK","2018/06/30 20:59:19","新北市三重區重陽路一段113巷2弄4號","121.487381666667","25.0600266666667","6500200","三重區"
"241015","062-VK","2018/06/30 20:59:24","新北市三重區福德北路46號","121.502056666667","25.06548","6500200","三重區"
"241017","063-VK","2018/06/30 20:59:18","新北市三重區大智街49號","121.492716666667","25.0675366666667","6500200","三重區"
"241024","065-VK","2018/06/30 20:59:13","新北市三重區國道路一段58巷20號","121.481288333333","25.0720433333333","6500200","三重區"
"241026","066-VK","2018/06/30 20:59:19","新北市三重區文化南路43號","121.500225","25.0614816666667","6500200","三重區"
"241002","090-VK","2018/06/30 20:59:21","新北市三重區五華街1巷8號","121.495871666667","25.0798133333333","6500200","三重區"
"241003","091-VK","2018/06/30 20:59:25","新北市三重區進安街198號","121.493926666667","25.08592","6500200","三重區"
"241001","742-BX","2018/06/30 20:59:13","新北市三重區三和路四段118巷12號","121.488268333333","25.0747866666667","6500200","三重區"
"241005","262-UM","2018/06/30 20:59:16","新北市三重區五華街166號","121.489165","25.0859483333333","6500200","三重區"
"241016","266-UM","2018/06/30 20:59:12","新北市三重區自強路一段164號","121.49537","25.0663433333333","6500200","三重區"
"241009","267-UM","2018/06/30 20:59:06","新北市三重區三和路四段360-3號","121.48316","25.0785516666667","6500200","三重區"
"241018","268-UM","2018/06/30 20:59:26","新北市三重區自強路一段155-1號","121.493721666667","25.0672716666667","6500200","三重區"
"241032","269-UM","2018/06/30 20:59:16","新北市三重區三陽路118號","121.482976666667","25.0587983333333","6500200","三重區"
"241013","270-UM","2018/06/30 20:51:16","新北市三重區仁賢街16-1號","121.495783333333","25.07492","6500200","三重區"
"241007","398-BY","2018/06/30 20:59:13","新北市三重區慈愛街6號","121.484395","25.0784033333333","6500200","三重區"
"241004","475-VK","2018/06/30 20:59:21","新北市三重區仁愛街420號","121.490393333333","25.08143","6500200","三重區"
"241020","478-VK","2018/06/30 20:59:22","新北市三重區忠孝路二段31號","121.486138333333","25.0714733333333","6500200","三重區"
"241030","480-VK","2018/06/30 20:59:21","新北市三重區環河南路220-8號","121.493386666667","25.0526733333333","6500200","三重區"
"241014","543-UM","2018/06/30 20:59:14","新北市三重區長壽街120巷11號","121.502505","25.0690933333333","6500200","三重區"
"241023","545-UM","2018/06/30 20:59:18","新北市三重區忠孝路三段84巷63號","121.482308333333","25.0637466666667","6500200","三重區"
"241019","KEA-2593","2018/06/30 20:59:19","新北市三重區三張街104號","121.487883333333","25.0698633333333","6500200","三重區"
"241006","AAD-863","2018/06/30 20:59:27","新北市三重區永福街50號","121.48175","25.078105","6500200","三重區"
"241012","941-UM","2018/06/30 20:59:11","新北市三重區仁信街27號","121.50126","25.0755533333333","6500200","三重區"
"241029","942-UM","2018/06/30 20:59:23","新北市三重區正義南路111號","121.498228333333","25.05856","6500200","三重區"
"241033","AAC-255","2018/06/30 20:59:10","新北市三重區光復路二段19號","121.472116666667","25.0544166666667","6500200","三重區"
"247024","893-R6","2018/06/30 20:59:23","新北市蘆洲區長興路213號","121.461155","25.0863466666667","6501400","蘆洲區"
"247014","546-UM","2018/06/30 20:59:10","新北市蘆洲區中山二路36巷28號","121.474261666667","25.083125","6501400","蘆洲區"
"247022","500-BY","2018/06/30 20:59:16","新北市蘆洲區三民路230號","121.468611666667","25.0895833333333","6501400","蘆洲區"
"247010","341-TH","2018/06/30 20:59:10","新北市蘆洲區鷺江街76號","121.476993333333","25.083785","6501400","蘆洲區"
"247012","339-TH","2018/06/30 20:59:20","新北市蘆洲區民權路6-1號","121.47675","25.0855916666667","6501400","蘆洲區"
"247004","337-TH","2018/06/30 20:59:19","新北市蘆洲區永安南路二段256號","121.459628333333","25.0804083333333","6501400","蘆洲區"
"247006","336-TH","2018/06/30 20:59:10","新北市蘆洲區永安南路二段18號","121.46775","25.0771433333333","6501400","蘆洲區"
"247018","057-VK","2018/06/30 20:59:10","新北市蘆洲區民權路85號","121.473228333333","25.08869","6501400","蘆洲區"
"247008","056-VK","2018/06/30 20:59:24","新北市蘆洲區民生街125號","121.472818333333","25.0790283333333","6501400","蘆洲區"
"247016","007-UY","2018/06/30 20:59:16","新北市蘆洲區正和街84號","121.468351666667","25.0809133333333","6501400","蘆洲區"
"247002","002-UY","2018/06/30 20:59:27","新北市蘆洲區永樂街46號","121.457753333333","25.0885216666667","6501400","蘆洲區"
"247020","001-UY","2018/06/30 20:59:09","新北市蘆洲區民族路371號","121.4712","25.091345","6501400","蘆洲區"
"251015","010-UM","2018/06/30 20:59:16","新北市淡水區淡金路四段542巷17號","121.45273","25.22711","6501000","淡水區"
"251002","012-UM","2018/06/30 20:59:18","新北市淡水區英專路68號","121.445735","25.1711083333333","6501000","淡水區"
"251013","KEA-2871","2018/06/30 20:59:10","新北市淡水區行忠路330號","121.46096","25.2005983333333","6501000","淡水區"
"251016","179-VK","2018/06/30 20:59:23","新北市淡水區牛埔子11-1號","121.450275","25.2184516666667","6501000","淡水區"
"251014","180-VK","2018/06/30 20:59:08","新北市淡水區溪口7-3號","121.455591666667","25.236615","6501000","淡水區"
"251010","413-VK","2018/06/30 20:59:12","新北市淡水區中正路一段118-3號","121.423901666667","25.1788166666667","6501000","淡水區"
"251012","441-VK","2018/06/30 20:59:26","新北市淡水區淡金路五段98號","121.456266666667","25.2361016666667","6501000","淡水區"
"251007","442-VK","2018/06/30 20:59:08","新北市淡水區水源街一段157號","121.447696666667","25.17172","6501000","淡水區"
"251005","443-VK","2018/06/30 20:59:25","新北市淡水區學府路51巷2弄6號","121.447741666667","25.1696783333333","6501000","淡水區"
"251001","559-UM","2018/06/30 20:59:20","新北市淡水區北投子14-5號","121.449055","25.18328","6501000","淡水區"
"251011","650-BX","2018/06/30 20:59:09","新北市淡水區新民街324號","121.435215","25.1839133333333","6501000","淡水區"
"251003","673-BX","2018/06/30 20:59:10","新北市淡水區新春街125巷5號","121.441485","25.182345","6501000","淡水區"
"242051","441-UM","2018/06/30 20:59:13","新北市新莊區新樹路399號","121.432735","25.0155483333333","6500500","新莊區"
"242036","415-TV","2018/06/30 20:59:20","新北市新莊區建國一路3號","121.433711666667","25.03193","6500500","新莊區"
"242009","132-UY","2018/06/30 20:59:11","新北市新莊區碧江街27-15號","121.452466666667","25.03295","6500500","新莊區"
"242048","172-VK","2018/06/30 20:59:09","新北市新莊區中正路473-1號","121.442041666667","25.03302","6500500","新莊區"
"221029","298-VK","2018/06/30 20:59:17","新北市汐止區汐萬路一段256巷1號","121.651608333333","25.07479","6501100","汐止區"
