"lineid","car","time","location","longitude","latitude","cityid","cityname"
"248005","653-BX","2018/09/27 07:28:35","新北市五股區明德路10號","121.433426666667","25.0717516666667","6501500","五股區"
"232001","290-BY","2018/09/27 07:28:35","新北市坪林區上坑子口2號","121.698686666667","24.9575416666667","6502000","坪林區"
"232014","291-BY","2018/09/27 07:28:39","新北市坪林區金瓜寮22-1號","121.67982","24.9123966666667","6502000","坪林區"
"232010","375-UM","2018/09/27 07:28:47","新北市坪林區水聳淒坑20-2號","121.711411666667","24.9339966666667","6502000","坪林區"
"232018","705-BZ","2018/09/27 07:28:49","新北市坪林區坪雙路二段13號","121.731193333333","24.9671616666667","6502000","坪林區"
"232007","758-BX","2018/09/27 07:28:47","新北市坪林區魚堀36-2號","121.700291666667","24.9305766666667","6502000","坪林區"
"244003","248-BX","2018/09/27 07:25:44","新北市林口區文化北路一段532號","121.367666666667","25.07963","6501700","林口區"
"222006","289-BY","2018/09/27 07:28:27","新北市深坑區文化街102號","121.61675","25.001905","6501800","深坑區"
"235001","611-BX","2018/09/27 07:28:43","新北市中和區圓通路367巷6號","121.491443333333","24.9892266666667","6500300","中和區"
"226005","5620-A6","2018/09/27 07:28:50","新北市平溪區靜安路二段123號","121.721606666667","25.0232433333333","6502400","平溪區"
"226007","7418-A5","2018/09/27 07:19:05","新北市平溪區望古里灰4-2號","121.763571666667","25.0286483333333","6502400","平溪區"
"226003","AGD-0702","2018/09/27 07:27:59","新北市平溪區望古里望古坑1-2號","121.744868333333","25.03953","6502400","平溪區"
"223006","022-BY","2018/09/27 07:28:38","新北市石碇區番子坑56號","121.676356666667","25.0105566666667","6501900","石碇區"
"223002","KEA-2673","2018/09/27 07:28:39","新北市石碇區北宜路五段土巷8號","121.629541666667","24.9464483333333","6501900","石碇區"
"223001","592-UM","2018/09/27 07:28:39","新北市石碇區中楒子腳5號","121.637758333333","24.9724583333333","6501900","石碇區"
"223004","660-BX","2018/09/27 07:28:44","新北市石碇區八分寮55-5號","121.645133333333","25.0169583333333","6501900","石碇區"
"223007","661-BX","2018/09/27 07:28:40","新北市石碇區大溪墘7-1號","121.696975","25.0076116666667","6501900","石碇區"
"223005","677-TV","2018/09/27 07:28:40","新北市石碇區新興坑29號","121.645773333333","25.0157766666667","6501900","石碇區"
"227007","282-VK","2018/09/27 07:28:46","新北市雙溪區新基里自強路7號","121.866253333333","25.039","6502500","雙溪區"
"252004","249-BX","2018/09/27 07:28:42","新北市三芝區興華里楓子林50-2號","121.502066666667","25.2105983333333","6502100","三芝區"
"252007","AAC-283","2018/09/27 07:28:36","新北市三芝區錫板里海尾14-8號","121.477423333333","25.2586633333333","6502100","三芝區"
"242055","751-BX","2018/09/27 07:28:54","新北市新莊區瓊林路59-90號","121.441103333333","25.0221366666667","6500500","新莊區"
"242028","705-TV","2018/09/27 07:28:38","新北市新莊區新莊路767號","121.442383333333","25.032535","6500500","新莊區"
"242026","615-BX","2018/09/27 07:28:49","新北市新莊區瓊林路59-20號","121.440993333333","25.0215666666667","6500500","新莊區"
"242024","613-BX","2018/09/27 07:28:41","新北市新莊區環河路462號","121.440066666667","25.019635","6500500","新莊區"
"242047","497-BY","2018/09/27 07:28:39","新北市新莊區中正路517-2號","121.43972","25.03349","6500500","新莊區"
"242052","442-UM","2018/09/27 07:28:36","新北市新莊區瓊林南路77-39號","121.437873333333","25.0138866666667","6500500","新莊區"
"242022","362-BY","2018/09/27 07:28:48","新北市新莊區瓊林路59-66號","121.441256666667","25.0224266666667","6500500","新莊區"
"242033","135-UY","2018/09/27 07:28:40","新北市新莊區瓊林路59-20號","121.441051666667","25.02165","6500500","新莊區"
"242049","172-VK","2018/09/27 07:28:40","新北市新莊區瓊林路188-1號","121.440545","25.0223816666667","6500500","新莊區"
"242001","233-RS","2018/09/27 07:28:43","新北市新莊區中港路301號","121.452946666667","25.0444866666667","6500500","新莊區"
"242016","346-TH","2018/09/27 07:28:37","新北市新莊區瓊林路59-89號","121.442263333333","25.0244766666667","6500500","新莊區"
"242030","347-TH","2018/09/27 07:28:47","新北市新莊區三和路12-21號","121.44221","25.0382883333333","6500500","新莊區"
"242014","351-TH","2018/09/27 07:28:40","新北市新莊區新泰路357巷3弄57號","121.44211","25.0394816666667","6500500","新莊區"
"242001","281-VK","2018/09/27 07:28:41","新北市新莊區新泰路381巷38號","121.44234","25.043655","6500500","新莊區"
