"lineid","car","time","location","longitude","latitude","cityid","cityname"
"248005","653-BX","2018/08/07 09:29:32","新北市五股區登林路貿商巷3弄15號","121.429716666667","25.0699583333333","6501500","五股區"
"222005","289-BY","2018/08/07 09:29:41","新北市深坑區文山路三段16-1號","121.612636666667","24.9981083333333","6501800","深坑區"
"231007","189-VK","2018/08/07 09:29:44","新北市新店區新潭路三段220號","121.503255","24.9041083333333","6500600","新店區"
"231009","192-VK","2018/08/07 09:29:44","新北市新店區平廣路一段151號","121.522175","24.8912116666667","6500600","新店區"
"223003","205-TH","2018/08/07 09:29:41","新北市石碇區二格路11號","121.628061666667","24.9640616666667","6501900","石碇區"
"223008","406-TH","2018/08/07 09:29:30","新北市石碇區小粗坑(潭邊里)9-2號","121.679001666667","24.9861216666667","6501900","石碇區"
"223001","592-UM","2018/08/07 09:29:43","新北市石碇區二格路11號","121.62975","24.9639883333333","6501900","石碇區"
"227006","282-VK","2018/08/07 09:26:14","新北市雙溪區長源里柑腳58-1號","121.794165","25.005645","6502500","雙溪區"
"227012","030-BX","2018/08/07 09:29:41","新北市坪林區坪雙路三段6號","121.77197","24.96641","6502500","雙溪區"
"252004","249-BX","2018/08/07 09:29:28","新北市三芝區福德里大水堀32-4號","121.513135","25.21704","6502100","三芝區"
"252006","AAC-283","2018/08/07 09:29:37","新北市三芝區新庄里新庄子86號","121.511168333333","25.27161","6502100","三芝區"
"237001","159-UY","2018/08/07 09:29:30","新北市三峽區大德路493號","121.373851666667","24.94851","6500900","三峽區"
"236006","498-BY","2018/08/07 09:29:45","新北市土城區承天路62巷5-1號","121.439906666667","24.9608683333333","6501300","土城區"
