"lineid","car","time","location","longitude","latitude","cityid","cityname"
"234044","148-BY","2018/08/07 12:59:52","新北市永和區永元路52巷52號","121.52447","25.0007466666667","6500400","永和區"
"234070","149-BY","2018/08/07 12:59:39","新北市永和區四維街103巷16號","121.523668333333","24.9971483333333","6500400","永和區"
"234005","207-UY","2018/08/07 12:59:36","新北市永和區永和路二段28號","121.514783333333","25.01043","6500400","永和區"
"234078","298-R6","2018/08/07 12:59:43","新北市永和區國中路208號","121.52214","25.0057616666667","6500400","永和區"
"234062","337-UY","2018/08/07 12:59:28","新北市永和區秀朗路一段172號","121.518843333333","25.0033116666667","6500400","永和區"
"234084","338-UY","2018/08/07 12:59:41","新北市永和區永利路10巷9號","121.517923333333","25.0055783333333","6500400","永和區"
"234068","552-UM","2018/08/07 12:59:41","新北市永和區竹林路96巷21號","121.518605","25.011735","6500400","永和區"
"234036","553-UM","2018/08/07 12:59:48","新北市永和區成功路二段207號","121.526525","24.9959466666667","6500400","永和區"
"234015","745-BX","2018/08/07 12:59:42","新北市永和區永和路二段297號","121.516006666667","25.0160383333333","6500400","永和區"
"234028","746-BX","2018/08/07 12:59:33","新北市永和區四維街91號","121.524521666667","24.9981333333333","6500400","永和區"
"234052","KEA-2590","2018/08/07 12:59:49","新北市永和區竹林路64號","121.518395","25.0135","6500400","永和區"
"234012","KEA-2591","2018/08/07 12:59:36","新北市永和區信義路17巷5號","121.514065","25.0117","6500400","永和區"
"234060","AAD-866","2018/08/07 12:59:47","新北市永和區福和路311-1號","121.516218333333","25.00702","6500400","永和區"
"234040","862-TW","2018/08/07 12:59:33","新北市永和區永貞路275號","121.5114","25.0050466666667","6500400","永和區"
"234048","863-TW","2018/08/07 12:59:38","新北市永和區保安路23號","121.510381666667","25.0166883333333","6500400","永和區"
"234025","9371-KE","2018/08/07 12:59:40","新北市永和區水源街2巷15號","121.512055","25.005615","6500400","永和區"
"234010","9373-KE","2018/08/07 12:59:46","新北市永和區文化路113巷21弄23號","121.513731666667","25.0142866666667","6500400","永和區"
"248017","225-UY","2018/08/07 12:59:39","新北市五股區中興路二段83巷26-3號","121.460016666667","25.0753716666667","6501500","五股區"
"234022","9380-KE","2018/08/07 12:59:41","新北市永和區竹林路73號","121.518965","25.01329","6500400","永和區"
"234076","969-R7","2018/08/07 12:59:46","新北市永和區民享街9號","121.515263333333","24.9953816666667","6500400","永和區"
"234072","AAC-211","2018/08/07 12:59:37","新北市永和區環河東路二段98號","121.524093333333","25.0103683333333","6500400","永和區"
"234066","AAC-212","2018/08/07 12:59:38","新北市永和區自由街51號","121.513915","25.0056483333333","6500400","永和區"
"234001","AAC-295","2018/08/07 12:59:38","新北市永和區永平路7號","121.513798333333","25.008625","6500400","永和區"
"244002","248-BX","2018/08/07 12:59:44","新北市林口區文化一路二段202號","121.383331666667","25.0807816666667","6501700","林口區"
"231028","046-UY","2018/08/07 12:59:49","新北市新店區安華路28-1號","121.519505","24.9607983333333","6500600","新店區"
"231001","047-UY","2018/08/07 12:59:49","新北市新店區安華路28-1號","121.519251666667","24.9608733333333","6500600","新店區"
"231005","106-UY","2018/08/07 12:59:37","新北市新店區安華路28-1號","121.51956","24.9608416666667","6500600","新店區"
"231010","107-UY","2018/08/07 12:59:34","新北市新店區安一路一段1-1號","121.519466666667","24.9612366666667","6500600","新店區"
"231012","187-VK","2018/08/07 12:59:43","新北市新店區安一路一段1-1號","121.519535","24.9610666666667","6500600","新店區"
"231023","KEA-2219","2018/08/07 12:59:29","新北市新店區安一路一段1-1號","121.519591666667","24.9612916666667","6500600","新店區"
"231003","268-BY","2018/08/07 12:59:46","新北市新店區安華路1-1號","121.519468333333","24.9604416666667","6500600","新店區"
"231018","278-BY","2018/08/07 12:59:40","新北市新店區安一路一段1-1號","121.519348333333","24.96109","6500600","新店區"
"231015","AAD-862","2018/08/07 12:59:31","新北市新店區安一路一段1-1號","121.519721666667","24.9611633333333","6500600","新店區"
"231037","4716-K9","2018/08/07 12:59:34","新北市新店區安一路一段1-1號","121.51931","24.9612116666667","6500600","新店區"
"231013","513-UM","2018/08/07 12:59:43","新北市新店區安一路一段1-1號","121.519556666667","24.9610933333333","6500600","新店區"
"231034","616-UM","2018/08/07 12:59:48","新北市新店區安華路1-1號","121.519456666667","24.9604733333333","6500600","新店區"
"231030","619-UM","2018/08/07 12:59:36","新北市新店區安華路28-1號","121.519613333333","24.9609716666667","6500600","新店區"
"231035","719-UM","2018/08/07 12:59:35","新北市新店區安一路一段1-1號","121.519473333333","24.961215","6500600","新店區"
"231032","720-UM","2018/08/07 12:59:45","新北市新店區安一路一段1-1號","121.519346666667","24.96124","6500600","新店區"
"231029","897-TW","2018/08/07 12:59:42","新北市新店區安華路28-1號","121.519571666667","24.9608533333333","6500600","新店區"
"235027","006-UY","2018/08/07 12:59:30","新北市中和區員山路36巷16-3號","121.485126666667","24.9912966666667","6500300","中和區"
"235029","098-UM","2018/08/07 12:59:41","新北市中和區景平路752號","121.496395","25.0044633333333","6500300","中和區"
"235004","150-BY","2018/08/07 12:59:29","新北市中和區和城路一段271巷1號","121.485543333333","24.991815","6500300","中和區"
"235022","151-BY","2018/08/07 12:59:32","新北市中和區圓通路367巷33弄22號","121.494098333333","24.984795","6500300","中和區"
"235002","185-VK","2018/08/07 12:59:38","新北市中和區成功路9號","121.526303333333","24.9939833333333","6500300","中和區"
"235031","255-BX","2018/08/07 12:59:49","新北市中和區中山路二段449號","121.483818333333","25.0049616666667","6500300","中和區"
"235006","KEA-2878","2018/08/07 12:59:31","新北市中和區和城路一段271巷1號","121.485401666667","24.9919483333333","6500300","中和區"
"235018","640-BX","2018/08/07 12:59:43","新北市土城區延壽路111巷1號","121.469088333333","24.9935683333333","6500300","中和區"
"235035","783-BX","2018/08/07 12:59:39","新北市中和區板南路448-1號","121.489576666667","25.0053116666667","6500300","中和區"
"235026","800-TS","2018/08/07 12:59:49","新北市中和區連城路261-2號","121.492413333333","24.99666","6500300","中和區"
"235005","802-TS","2018/08/07 12:59:37","新北市中和區和城路一段271巷1號","121.485408333333","24.991695","6500300","中和區"
"235016","805-TS","2018/08/07 12:59:36","新北市中和區員山路36巷16號","121.484433333333","24.9914983333333","6500300","中和區"
"235017","900-TW","2018/08/07 12:59:44","新北市中和區員山路36巷16-3號","121.485041666667","24.9915633333333","6500300","中和區"
"235015","157-BY","2018/08/07 12:59:36","新北市中和區和城路一段271巷1號","121.485451666667","24.9919366666667","6500300","中和區"
"235001","AAC-213","2018/08/07 12:59:53","新北市中和區員山路36巷13號","121.484216666667","24.99138","6500300","中和區"
"235023","251-BX","2018/08/07 12:59:47","新北市中和區員山路36巷16-3號","121.484953333333","24.991205","6500300","中和區"
"228004","212-TW","2018/08/07 12:59:37","新北市貢寮區吉林里內寮街10-1號","121.887278333333","24.9892466666667","6502600","貢寮區"
"228005","828-UM","2018/08/07 12:59:39","新北市貢寮區福隆里桂安街18號","121.955626666667","25.0203283333333","6502600","貢寮區"
"207002","749-BX","2018/08/07 12:59:44","新北市萬里區雙興里大坪路1號","121.638715","25.16653","6502800","萬里區"
"207001","662-BX","2018/08/07 12:59:30","新北市萬里區萬里里獅頭路22-1號","121.692938333333","25.1781516666667","6502800","萬里區"
"236006","498-BY","2018/08/07 12:59:45","新北市土城區亞洲路34號","121.435945","24.9743","6501300","土城區"
"221032","280-BY","2018/08/07 12:59:47","新北市汐止區建成路30號","121.6643","25.072705","6501100","汐止區"
"220005","686-BX","2018/08/07 12:48:40","新北市板橋區華東街1-9號","121.448173333333","24.9949183333333","6500100","板橋區"
"235025","KEA-2875","2018/08/07 12:59:28","新北市中和區員山路36巷16-2號","121.485126666667","24.9917016666667","6500300","中和區"
