"lineid","car","time","location","longitude","latitude","cityid","cityname"
"234070","149-BY","2018/08/07 15:39:39","新北市永和區福和路1號","121.526515","25.0098166666667","6500400","永和區"
"231002","002-UM","2018/08/07 15:39:45","新北市新店區安一路一段1-1號","121.519391666667","24.9613816666667","6500600","新店區"
"231028","046-UY","2018/08/07 15:39:49","新北市新店區僑信路2巷2號","121.499823333333","24.95363","6500600","新店區"
"231005","106-UY","2018/08/07 15:39:37","新北市新店區中正路397號","121.534495","24.9773916666667","6500600","新店區"
"231020","108-UY","2018/08/07 15:39:38","新北市新店區金興路28-2號","121.551256666667","24.9304033333333","6500600","新店區"
"231036","110-UY","2018/08/07 15:39:20","新北市新店區安祥路67巷37號","121.485693333333","24.960135","6500600","新店區"
"231012","187-VK","2018/08/07 15:39:43","新北市新店區寶元路一段109號","121.54572","24.9831116666667","6500600","新店區"
"231023","KEA-2219","2018/08/07 15:39:49","新北市新店區中興路一段268-2號","121.545225","24.9677866666667","6500600","新店區"
"231026","256-BX","2018/08/07 15:39:43","新北市新店區三民路75巷4弄2號","121.53549","24.9709666666667","6500600","新店區"
"231003","268-BY","2018/08/07 15:39:51","新北市新店區中興路二段197號","121.54821","24.973825","6500600","新店區"
"231018","278-BY","2018/08/07 15:39:40","新北市新店區中正路663巷7弄15號","121.532985","24.990165","6500600","新店區"
"231015","AAD-862","2018/08/07 15:39:51","新北市新店區北宜路一段260號","121.545705","24.9528783333333","6500600","新店區"
"231038","3712-VJ","2018/08/07 15:39:47","新北市新店區安康路一段266巷4號","121.51987","24.96409","6500600","新店區"
"231037","4716-K9","2018/08/07 15:39:54","新北市新店區安興路56號","121.516301666667","24.974935","6500600","新店區"
"231013","513-UM","2018/08/07 15:39:43","新北市新店區永業路81巷1弄2號","121.529771666667","24.94951","6500600","新店區"
"231034","616-UM","2018/08/07 15:39:48","新北市新店區玫瑰路61巷1號","121.495965","24.94534","6500600","新店區"
"231030","619-UM","2018/08/07 15:39:36","新北市新店區永安街109巷22號","121.521515","24.98587","6500600","新店區"
"231039","718-UY","2018/08/07 15:39:52","新北市新店區寶元路二段42號","121.546726666667","24.9816233333333","6500600","新店區"
"231035","719-UM","2018/08/07 15:39:35","新北市新店區安民街365巷14號","121.515606666667","24.9754983333333","6500600","新店區"
"231032","720-UM","2018/08/07 15:39:45","新北市新店區雙城路133號","121.497951666667","24.9388216666667","6500600","新店區"
"231029","897-TW","2018/08/07 15:39:41","新北市新店區安康路二段391號","121.494518333333","24.954235","6500600","新店區"
"241011","013-R5","2018/08/07 15:39:34","新北市三重區文化北路248號","121.49737","25.0699466666667","6500200","三重區"
"241028","022-UY","2018/08/07 15:39:42","新北市三重區成功路97號","121.488013333333","25.0514216666667","6500200","三重區"
"241015","062-VK","2018/08/07 15:39:46","新北市三重區重新路四段121號","121.485136666667","25.05251","6500200","三重區"
"241017","063-VK","2018/08/07 15:39:50","新北市三重區大仁街1號","121.49162","25.06355","6500200","三重區"
"241024","065-VK","2018/08/07 15:39:54","新北市三重區重新路四段121號","121.484718333333","25.0522433333333","6500200","三重區"
"241003","091-VK","2018/08/07 15:39:40","新北市三重區重新路四段121號","121.484693333333","25.0518933333333","6500200","三重區"
"241016","266-UM","2018/08/07 15:39:46","新北市三重區重新路四段121號","121.485048333333","25.05238","6500200","三重區"
"241018","268-UM","2018/08/07 15:39:36","新北市三重區重新路四段121號","121.484966666667","25.0521","6500200","三重區"
"241013","270-UM","2018/08/07 15:39:43","新北市三重區正義北路291號","121.494886666667","25.0705366666667","6500200","三重區"
"241025","271-UM","2018/08/07 15:39:37","新北市三重區重新路四段121號","121.484841666667","25.0525933333333","6500200","三重區"
"241007","398-BY","2018/08/07 15:39:43","新北市三重區重新路四段121號","121.485105","25.05236","6500200","三重區"
"241004","475-VK","2018/08/07 15:39:34","新北市三重區重新路四段121號","121.485048333333","25.0522266666667","6500200","三重區"
"241020","478-VK","2018/08/07 15:39:40","新北市三重區忠孝路二段68號","121.484708333333","25.0702616666667","6500200","三重區"
"241030","480-VK","2018/08/07 15:39:45","新北市三重區重新路四段121號","121.48481","25.0524516666667","6500200","三重區"
"241014","543-UM","2018/08/07 15:39:45","新北市三重區重新路四段121號","121.485093333333","25.0522666666667","6500200","三重區"
"241023","545-UM","2018/08/07 15:39:54","新北市三重區重新路四段121號","121.484836666667","25.0525233333333","6500200","三重區"
"241006","AAD-863","2018/08/07 15:39:41","新北市三重區重新路四段121號","121.484583333333","25.0521216666667","6500200","三重區"
"241012","941-UM","2018/08/07 15:39:48","新北市三重區自強路一段66號","121.497083333333","25.0666783333333","6500200","三重區"
"241029","942-UM","2018/08/07 15:39:49","新北市三重區環河南路220-8號","121.493388333333","25.0527516666667","6500200","三重區"
"241033","AAC-255","2018/08/07 15:39:50","新北市三重區重新路五段447號","121.474446666667","25.04742","6500200","三重區"
"235033","4980-A6","2018/08/07 15:39:41","新北市中和區員山路381巷1弄2號","121.48087","25.0023933333333","6500300","中和區"
"235046","733-UM","2018/08/07 15:29:53","新北市中和區員山路36巷13號","121.484146666667","24.9908266666667","6500300","中和區"
"247006","336-TH","2018/08/07 15:14:15","新北市五股區中興路三段163號","121.449258333333","25.080655","6501400","蘆洲區"
"235023","251-BX","2018/08/07 15:39:52","新北市中和區員山路31-4號","121.480426666667","24.987835","6500300","中和區"
"227003","642-TC","2018/08/07 15:39:50","新北市雙溪區牡丹里中正路58巷18號","121.86617","25.0414866666667","6502500","雙溪區"
"236065","105-UM","2018/08/07 15:39:39","新北市土城區中央路二段263號","121.439783333333","24.9709733333333","6501300","土城區"
"236074","166-UM","2018/08/07 15:39:42","新北市土城區中州路26-4號","121.414261666667","24.9577283333333","6501300","土城區"
"236029","253-BX","2018/08/07 15:39:46","新北市土城區中央路一段45巷13號","121.44915","24.99","6501300","土城區"
"236024","269-VK","2018/08/07 15:39:55","新北市土城區裕生路67巷2弄2號","121.447395","24.9846333333333","6501300","土城區"
"236013","270-VK","2018/08/07 15:39:34","新北市土城區廣明街90巷23號","121.455466666667","24.99463","6501300","土城區"
"236017","401-BY","2018/08/07 15:39:51","新北市土城區延吉街111巷15號","121.471858333333","24.9860633333333","6501300","土城區"
"236057","912-UM","2018/08/07 15:39:51","新北市土城區中央路一段205號","121.445798333333","24.986675","6501300","土城區"
"236045","913-UM","2018/08/07 15:39:34","新北市土城區金城路三段257號","121.47187","24.98999","6501300","土城區"
"236054","AAC-216","2018/08/07 15:39:51","新北市土城區中華路一段20號","121.447555","24.99032","6501300","土城區"
"220032","296-UM","2018/08/07 15:39:44","新北市八里區荖阡坑路20-9號","121.398428333333","25.1372733333333","6500100","板橋區"
