"lineid","car","time","location","longitude","latitude","cityid","cityname"
"249005","172-UM","2018/08/07 16:39:35","新北市八里區仁愛路10號","121.413186666667","25.1623","6502300","八里區"
"249001","173-UM","2018/08/07 16:39:54","新北市八里區博物館路10-1號","121.415161666667","25.1642883333333","6502300","八里區"
"231046","107-UY","2018/08/07 16:39:47","新北市新店區灣潭路55號","121.540668333333","24.9426083333333","6500600","新店區"
"241011","013-R5","2018/08/07 16:39:39","新北市三重區仁愛街41號","121.496711666667","25.0716483333333","6500200","三重區"
"241028","022-UY","2018/08/07 16:39:48","新北市三重區重新路三段27號","121.494393333333","25.0616016666667","6500200","三重區"
"241031","061-VK","2018/08/07 16:39:49","新北市三重區重新路四段41巷5弄2號","121.487363333333","25.05853","6500200","三重區"
"241015","062-VK","2018/08/07 16:39:46","新北市三重區文化北路37號","121.49902","25.0650316666667","6500200","三重區"
"241017","063-VK","2018/08/07 16:39:50","新北市三重區中正北路25巷25弄3號","121.493258333333","25.0626516666667","6500200","三重區"
"241024","065-VK","2018/08/07 16:39:54","新北市三重區中正北路315巷16弄6號","121.475198333333","25.0717433333333","6500200","三重區"
"241026","066-VK","2018/08/07 16:39:47","新北市三重區和平街57號","121.502023333333","25.0626033333333","6500200","三重區"
"241002","090-VK","2018/08/07 16:39:55","新北市三重區仁義街214號","121.496206666667","25.0824216666667","6500200","三重區"
"241003","091-VK","2018/08/07 16:39:40","新北市三重區五華街87巷27號","121.492991666667","25.0839233333333","6500200","三重區"
"241005","262-UM","2018/08/07 16:39:49","新北市三重區仁華街111號","121.486565","25.08301","6500200","三重區"
"241022","265-UM","2018/08/07 16:39:38","新北市三重區三民街86號","121.485415","25.062685","6500200","三重區"
"241016","266-UM","2018/08/07 16:39:46","新北市三重區大同北路89號","121.494761666667","25.06401","6500200","三重區"
"241009","267-UM","2018/08/07 16:39:41","新北市三重區三和路四段203巷50號","121.483173333333","25.07977","6500200","三重區"
"241018","268-UM","2018/08/07 16:39:36","新北市三重區六張街53號","121.493961666667","25.0702283333333","6500200","三重區"
"241032","269-UM","2018/08/07 16:39:39","新北市三重區中山路40巷1-1號","121.485963333333","25.0613133333333","6500200","三重區"
"241013","270-UM","2018/08/07 16:39:43","新北市三重區仁愛街79號","121.496005","25.07299","6500200","三重區"
"241025","271-UM","2018/08/07 16:39:37","新北市三重區中正北路430-3號","121.474555","25.0706416666667","6500200","三重區"
"241007","398-BY","2018/08/07 16:39:44","新北市三重區三和路四段167巷102號","121.48582","25.0796566666667","6500200","三重區"
"241008","413-TH","2018/08/07 16:39:54","新北市三重區永安北路一段27巷40號","121.477718333333","25.0756366666667","6500200","三重區"
"241004","475-VK","2018/08/07 16:39:55","新北市三重區五福街23號","121.492471666667","25.0813266666667","6500200","三重區"
"241020","478-VK","2018/08/07 16:39:40","新北市三重區車路頭街66號","121.484306666667","25.072725","6500200","三重區"
"241030","480-VK","2018/08/07 16:39:45","新北市三重區環河南路286號","121.489326666667","25.0488866666667","6500200","三重區"
"241014","543-UM","2018/08/07 16:39:45","新北市三重區龍濱路32號","121.502906666667","25.0681016666667","6500200","三重區"
"241023","545-UM","2018/08/07 16:39:54","新北市三重區忠孝路三段50巷43號","121.48288","25.06441","6500200","三重區"
"241001","547-UM","2018/08/07 16:39:39","新北市三重區仁政街89號","121.492556666667","25.0778233333333","6500200","三重區"
"241019","KEA-2593","2018/08/07 16:39:49","新北市三重區重陽路三段7-3號","121.489086666667","25.0666333333333","6500200","三重區"
"241006","AAD-863","2018/08/07 16:39:43","新北市三重區車路頭街138-1號","121.483595","25.075565","6500200","三重區"
"241012","941-UM","2018/08/07 16:39:48","新北市三重區仁興街4巷17號","121.499485","25.0736933333333","6500200","三重區"
"241029","942-UM","2018/08/07 16:39:49","新北市三重區集美街150號","121.489616666667","25.05311","6500200","三重區"
"241033","AAC-255","2018/08/07 16:39:50","新北市三重區光復路一段132號","121.472051666667","25.0522283333333","6500200","三重區"
"235064","005-UY","2018/08/07 16:39:43","新北市中和區員山路36巷16-3號","121.485075","24.99137","6500300","中和區"
"235026","800-TS","2018/08/07 16:39:48","新北市中和區連城路263巷26號","121.4927","24.994185","6500300","中和區"
"247006","336-TH","2018/08/07 16:39:54","新北市五股區工商路8號","121.440733333333","25.0828266666667","6501400","蘆洲區"
"247008","056-VK","2018/08/07 16:39:42","新北市五股區中興路三段3-6號","121.450123333333","25.0791283333333","6501400","蘆洲區"
"247020","001-UY","2018/08/07 16:39:50","新北市五股區凌雲路一段25號","121.452195","25.0997033333333","6501400","蘆洲區"
"228002","663-BX","2018/08/07 16:39:36","新北市貢寮區貢寮里朝陽街44號","121.910838333333","25.021695","6502600","貢寮區"
"224007","275-VK","2018/08/07 16:39:37","新北市瑞芳區月眉路7號","121.760245","25.1055483333333","6501200","瑞芳區"
"224009","273-VK","2018/08/07 16:39:34","新北市瑞芳區大寮路356-1號","121.784671666667","25.103385","6501200","瑞芳區"
"224005","271-BY","2018/08/07 16:39:48","新北市瑞芳區海濱路2巷1號","121.837035","25.12738","6501200","瑞芳區"
"227003","642-TC","2018/08/07 16:39:50","新北市雙溪區外柑里土地公後5-1號","121.815568333333","25.0204766666667","6502500","雙溪區"
"227009","400-TW","2018/08/07 16:39:39","新北市雙溪區牡丹里中正路97號","121.861966666667","25.0471183333333","6502500","雙溪區"
"251013","KEA-2871","2018/08/07 16:39:05","新北市淡水區大溪6-1號","121.49447","25.1908066666667","6501000","淡水區"
"251016","179-VK","2018/08/07 16:39:51","新北市淡水區新市一路三段174號","121.447953333333","25.1829966666667","6501000","淡水區"
"251014","180-VK","2018/08/07 16:39:44","新北市淡水區埤島28號","121.447441666667","25.1983016666667","6501000","淡水區"
"251008","442-VK","2018/08/07 16:39:40","台北市北投區中央北路四段30巷150-3號","121.47356","25.1398983333333","6501000","淡水區"
"252002","178-VK","2018/08/07 16:39:45","新北市三芝區晴光街4號","121.510696666667","25.257615","6502100","三芝區"
