"lineid","car","time","location","longitude","latitude","cityid","cityname"
"234013","KEA-2591","2018/08/07 18:19:21","新北市永和區福和路1號","121.526205","25.0093733333333","6500400","永和區"
"234038","847-RS","2018/08/07 18:19:06","新北市永和區福和路1號","121.526803333333","25.0099916666667","6500400","永和區"
"234026","9371-KE","2018/08/07 18:19:22","新北市永和區豫溪街42巷4號","121.515506666667","25.0096183333333","6500400","永和區"
"234011","9373-KE","2018/08/07 18:19:29","新北市永和區福和路1號","121.525521666667","25.00943","6500400","永和區"
"249005","172-UM","2018/08/07 18:19:16","新北市八里區荖阡坑路15-40號","121.401693333333","25.1398533333333","6502300","八里區"
"249001","173-UM","2018/08/07 18:19:14","新北市八里區龍米路一段221號","121.451401666667","25.1318166666667","6502300","八里區"
"249004","303-UY","2018/08/07 18:19:10","新北市八里區龍米路二段232巷1弄2號","121.431518333333","25.1589983333333","6502300","八里區"
"249002","305-UY","2018/08/07 18:19:20","新北市八里區龍形二街52號","121.45028","25.13297","6502300","八里區"
"249003","593-UM","2018/08/07 18:19:16","新北市八里區中華路二段341-1號","121.40002","25.1453533333333","6502300","八里區"
"248016","026-BX","2018/08/07 18:19:16","新北市五股區西雲路290號","121.449626666667","25.0992033333333","6501500","五股區"
"248006","077-UY","2018/08/07 18:19:26","新北市五股區中興路一段181號","121.464285","25.0737683333333","6501500","五股區"
"248008","095-VK","2018/08/07 18:19:06","新北市五股區更洲路32巷8弄14號","121.459243333333","25.07964","6501500","五股區"
"248020","225-UY","2018/08/07 18:19:19","新北市五股區孝義路47巷7-4號","121.453821666667","25.1102783333333","6501500","五股區"
"248012","247-BX","2018/08/07 18:19:18","新北市五股區御史路1巷101弄2號","121.440981666667","25.091255","6501500","五股區"
"248014","261-SL","2018/08/07 18:19:19","新北市五股區自強路18號","121.434523333333","25.0740933333333","6501500","五股區"
"248010","272-BY","2018/08/07 18:19:20","新北市五股區成泰路一段126號","121.43533","25.0742966666667","6501500","五股區"
"248004","677-BX","2018/08/07 18:19:23","新北市五股區成泰路二段149號","121.439141666667","25.0855316666667","6501500","五股區"
"248002","678-BX","2018/08/07 18:19:18","新北市五股區西雲路46號","121.443496666667","25.0910633333333","6501500","五股區"
"244007","080-UY","2018/08/07 18:19:20","新北市林口區林口路113巷6弄1號","121.388696666667","25.0806533333333","6501700","林口區"
"244019","403-UM","2018/08/07 18:19:16","新北市林口區忠孝路586巷8號","121.37517","25.0675983333333","6501700","林口區"
"244013","KEA-2802","2018/08/07 18:19:24","新北市林口區中山路202-1號","121.38783","25.0791916666667","6501700","林口區"
"244009","410-SL","2018/08/07 18:19:18","新北市林口區民生路132號","121.378645","25.0880866666667","6501700","林口區"
"244023","483-VK","2018/08/07 18:19:18","新北市林口區東湖路161號","121.382576666667","25.07431","6501700","林口區"
"244017","485-VK","2018/08/07 18:19:28","新北市林口區八德路20巷3號","121.367818333333","25.0675","6501700","林口區"
"244011","657-BX","2018/08/07 18:19:26","新北市林口區仁愛路一段270號","121.393816666667","25.0760516666667","6501700","林口區"
"244025","837-TS","2018/08/07 18:19:12","新北市林口區南勢七街51號","121.355696666667","25.0693916666667","6501700","林口區"
"244021","838-TS","2018/08/07 18:19:07","新北市林口區自強三街23號","121.397955","25.0775483333333","6501700","林口區"
"243013","AAD-798","2018/08/07 18:19:18","新北市泰山區錢厝坑13號","121.414368333333","25.040765","6501600","泰山區"
"222003","436-BY","2018/08/07 18:19:18","新北市深坑區旺耽路67號","121.626276666667","25.002985","6501800","深坑區"
"222002","659-BX","2018/08/07 18:19:17","新北市深坑區文化街17巷7弄18號","121.62087","25.000255","6501800","深坑區"
"231041","002-UM","2018/08/07 18:19:25","新北市新店區安華路28-1號","121.519625","24.9609033333333","6500600","新店區"
"231059","046-UY","2018/08/07 18:19:13","新北市新店區安華路28-1號","121.51955","24.9610233333333","6500600","新店區"
"231040","047-UY","2018/08/07 18:19:16","新北市新店區安華路28-1號","121.519183333333","24.9608866666667","6500600","新店區"
"231044","106-UY","2018/08/07 18:19:20","新北市新店區安華路28-1號","121.519806666667","24.9607683333333","6500600","新店區"
"231046","107-UY","2018/08/07 18:19:27","新北市新店區直潭七街60號","121.532206666667","24.9399133333333","6500600","新店區"
"231053","108-UY","2018/08/07 18:19:21","新北市新店區安康路一段17號","121.533115","24.96035","6500600","新店區"
"231065","110-UY","2018/08/07 18:19:10","新北市新店區安一路一段1-1號","121.519066666667","24.96122","6500600","新店區"
"231048","187-VK","2018/08/07 18:19:28","新北市新店區安一路一段1-1號","121.519596666667","24.9611033333333","6500600","新店區"
"231054","KEA-2219","2018/08/07 18:19:09","新北市新店區安一路一段1-1號","121.51986","24.9612283333333","6500600","新店區"
"231057","256-BX","2018/08/07 18:19:17","新北市新店區安一路一段1-1號","121.519668333333","24.9611","6500600","新店區"
"231042","268-BY","2018/08/07 18:19:26","新北市新店區安華路1-1號","121.519341666667","24.9605266666667","6500600","新店區"
"231051","278-BY","2018/08/07 18:19:22","新北市新店區安一路一段1-1號","121.519645","24.961205","6500600","新店區"
"231050","AAD-862","2018/08/07 18:19:06","新北市新店區安華路28-1號","121.520123333333","24.9610866666667","6500600","新店區"
"231058","3713-VJ","2018/08/07 18:19:25","新北市新店區環河路1-3號","121.538091666667","24.96132","6500600","新店區"
"231066","4716-K9","2018/08/07 18:19:07","新北市新店區安一路一段1-1號","121.519315","24.96139","6500600","新店區"
"231056","4715-K9","2018/08/07 18:19:10","新北市新店區中正路441號","121.533856666667","24.97873","6500600","新店區"
"231067","4772-VM","2018/08/07 18:19:20","新北市新店區安華路28-1號","121.519025","24.96082","6500600","新店區"
"231063","616-UM","2018/08/07 18:19:10","新北市新店區安華路28-1號","121.519336666667","24.9606466666667","6500600","新店區"
"231045","617-UM","2018/08/07 18:19:21","新北市新店區安華路28-1號","121.519458333333","24.96073","6500600","新店區"
"231061","619-UM","2018/08/07 18:19:16","新北市新店區安華路28-1號","121.519538333333","24.96079","6500600","新店區"
"231062","720-UM","2018/08/07 18:19:07","新北市新店區安一路一段1-1號","121.519108333333","24.9619683333333","6500600","新店區"
"231060","897-TW","2018/08/07 18:19:19","新北市新店區安華路28-1號","121.519633333333","24.960695","6500600","新店區"
"231055","AKT-0513","2018/08/07 18:19:17","新北市新店區北新路一段91號","121.53882","24.9618283333333","6500600","新店區"
"241030","480-VK","2018/08/07 18:19:25","新北市五股區凌雲路二段18巷62-2號","121.44266","25.10647","6500200","三重區"
"241033","AAC-255","2018/08/07 18:19:10","新北市三重區光復路一段61巷23號","121.473466666667","25.0492166666667","6500200","三重區"
"235066","003-UY","2018/08/07 18:19:23","新北市中和區中山路二段120號","121.50268","25.003655","6500300","中和區"
"235064","005-UY","2018/08/07 18:19:10","新北市中和區中正路140號","121.499225","24.993905","6500300","中和區"
"235063","006-UY","2018/08/07 18:19:19","新北市中和區中正路573號","121.486555","24.99439","6500300","中和區"
"235056","096-UM","2018/08/07 18:19:11","新北市中和區中山路二段475號","121.48311","25.0050266666667","6500300","中和區"
"235039","097-UM","2018/08/07 18:19:22","新北市中和區景安路152號","121.50464","24.993165","6500300","中和區"
"235065","098-UM","2018/08/07 18:19:16","新北市中和區莊敬路49巷18號","121.50158","25.0060333333333","6500300","中和區"
"235040","150-BY","2018/08/07 18:19:15","新北市中和區景平路361號","121.504526666667","24.993605","6500300","中和區"
"235058","151-BY","2018/08/07 18:19:19","新北市中和區圓通路369巷35號","121.489225","24.9865783333333","6500300","中和區"
"235055","183-VK","2018/08/07 18:19:15","新北市中和區員山路82巷10弄8號","121.481405","24.9935733333333","6500300","中和區"
"235038","185-VK","2018/08/07 18:19:14","新北市中和區大智街42巷2號","121.521948333333","24.9921216666667","6500300","中和區"
"235013","186-VK","2018/08/07 18:19:18","新北市中和區中正路395號","121.48973","24.9935533333333","6500300","中和區"
"235067","255-BX","2018/08/07 18:19:20","新北市中和區和城路一段271巷1號","121.485791666667","24.9917583333333","6500300","中和區"
"235072","301-VK","2018/08/07 18:19:16","新北市中和區連城路263-2號","121.491601666667","24.996415","6500300","中和區"
"235043","352-BY","2018/08/07 18:19:12","新北市中和區中正路169號","121.497978333333","24.9936616666667","6500300","中和區"
"235042","KEA-2878","2018/08/07 18:19:07","新北市中和區大仁街20巷25弄39號","121.519465","24.9936666666667","6500300","中和區"
"235050","4979-A6","2018/08/07 18:19:09","新北市中和區捷運路129號","121.507031666667","24.9907983333333","6500300","中和區"
"235069","4980-A6","2018/08/07 18:18:37","新北市中和區景平路634-2號","121.500808333333","24.99834","6500300","中和區"
"235070","558-UM","2018/08/07 18:19:25","新北市中和區圓通路178號","121.49677","24.9943816666667","6500300","中和區"
"235045","565-BX","2018/08/07 18:19:25","新北市中和區景安路200巷3弄1號","121.50354","24.9915433333333","6500300","中和區"
"235054","640-BX","2018/08/07 18:19:22","新北市中和區民享街117巷2號","121.47456","24.99895","6500300","中和區"
"235060","647-TV","2018/08/07 18:19:22","新北市中和區員山路187號","121.481188333333","24.9970933333333","6500300","中和區"
"235047","732-UM","2018/08/07 18:19:13","新北市中和區南山路250巷2號","121.507673333333","24.9889633333333","6500300","中和區"
"235046","733-UM","2018/08/07 18:19:20","新北市中和區員山路36巷16-3號","121.484985","24.9914983333333","6500300","中和區"
"235062","800-TS","2018/08/07 18:19:19","新北市中和區橋和路122-1號","121.492696666667","25.0059116666667","6500300","中和區"
"235057","801-TS","2018/08/07 18:19:24","新北市中和區民享街97巷19號","121.475323333333","24.99961","6500300","中和區"
"235041","802-TS","2018/08/07 18:19:24","新北市中和區中正路637巷52弄3號","121.485336666667","24.99361","6500300","中和區"
"235052","805-TS","2018/08/07 18:19:27","新北市中和區中正路13號","121.503006666667","24.9934666666667","6500300","中和區"
"235048","896-TW","2018/08/07 18:19:18","新北市中和區中正路395號","121.489923333333","24.9935666666667","6500300","中和區"
"235053","900-TW","2018/08/07 18:19:06","新北市中和區員山路82巷6-3號","121.48125","24.9936","6500300","中和區"
"235051","157-BY","2018/08/07 18:19:09","新北市中和區忠孝街122-2號","121.512168333333","24.9860416666667","6500300","中和區"
"235037","AAC-213","2018/08/07 18:19:07","新北市中和區景平路103號","121.51712","24.9918233333333","6500300","中和區"
"220065","072-UY","2018/08/07 18:19:14","新北市板橋區華東街1-9號","121.448081666667","24.99495","6500100","板橋區"
"226004","312-R5","2018/08/07 18:19:19","新北市平溪區靜安路二段56號","121.715001666667","25.0206566666667","6502400","平溪區"
"235059","251-BX","2018/08/07 18:19:15","新北市中和區員山路36巷16-2號","121.485255","24.99126","6500300","中和區"
"228001","212-TW","2018/08/07 18:19:23","新北市貢寮區真理里新港街26巷55弄2-1號","121.92738","25.0528616666667","6502600","貢寮區"
"228002","663-BX","2018/08/07 18:19:16","新北市貢寮區福連里福興街17號","121.99062","25.01202","6502600","貢寮區"
"228003","828-UM","2018/08/07 18:19:12","新北市貢寮區真理里美艷山街64-2號","121.919945","25.0723533333333","6502600","貢寮區"
"224010","AGQ-8101","2018/08/07 18:02:11","新北市瑞芳區烏勢巷145號","121.847745","25.1089983333333","6501200","瑞芳區"
"224006","676-BX","2018/08/07 18:19:16","新北市瑞芳區三爪子坑路106巷118號","121.809286666667","25.1044133333333","6501200","瑞芳區"
"224002","639-TC","2018/08/07 18:19:19","新北市瑞芳區三爪子坑路91巷1號","121.81165","25.1072666666667","6501200","瑞芳區"
"224008","285-BY","2018/08/07 18:19:21","新北市瑞芳區逢甲路84號","121.809695","25.1086933333333","6501200","瑞芳區"
"224007","275-VK","2018/08/07 18:19:15","新北市瑞芳區大埔路吉慶公園城6號","121.765431666667","25.1003616666667","6501200","瑞芳區"
"224009","273-VK","2018/08/07 18:19:14","新北市瑞芳區五號路14號","121.854821666667","25.1096583333333","6501200","瑞芳區"
"224005","271-BY","2018/08/07 18:19:23","新北市瑞芳區建基新村11號","121.811421666667","25.1314366666667","6501200","瑞芳區"
"227003","642-TC","2018/08/07 18:19:10","新北市雙溪區共和里中山路2號","121.863773333333","25.0338033333333","6502500","雙溪區"
"227009","400-TW","2018/08/07 18:19:19","新北市雙溪區牡丹里牡丹73號","121.85169","25.0593783333333","6502500","雙溪區"
"253005","032-BX","2018/08/07 18:19:23","新北市石門區中央路17號","121.567848333333","25.2923933333333","6502200","石門區"
"253006","295-VK","2018/08/07 18:19:13","新北市石門區老梅路75號","121.546133333333","25.2892566666667","6502200","石門區"
"222001","KEA-2212","2018/08/07 18:19:12","新北市深坑區北深路二段51-1號","121.619075","25.0040966666667","6501800","深坑區"
"208002","KEA-2872","2018/08/07 18:19:16","新北市金山區清泉里清水路60巷20號","121.635126666667","25.233595","6502700","金山區"
"208003","665-BX","2018/08/07 18:19:13","新北市金山區民生路148號","121.647235","25.2234333333333","6502700","金山區"
"208001","761-BX","2018/08/07 18:19:09","新北市金山區自強路13號","121.640423333333","25.2164","6502700","金山區"
"251005","010-UM","2018/08/07 18:19:08","新北市淡水區水源街一段122巷37號","121.447121666667","25.170535","6501000","淡水區"
"251001","011-UM","2018/08/07 18:19:13","新北市淡水區自強路299號","121.461585","25.131465","6501000","淡水區"
"251002","012-UM","2018/08/07 18:19:08","新北市淡水區中正東路一段65號","121.452658333333","25.1623016666667","6501000","淡水區"
"251013","KEA-2871","2018/08/07 18:19:25","新北市淡水區行忠路788號","121.473548333333","25.199665","6501000","淡水區"
"251016","179-VK","2018/08/07 18:19:11","新北市淡水區下圭柔山33號","121.450508333333","25.2048166666667","6501000","淡水區"
"251014","180-VK","2018/08/07 18:19:24","新北市淡水區崙頂10號","121.493073333333","25.219545","6501000","淡水區"
"251015","181-VK","2018/08/07 18:19:15","新北市淡水區興福寮66巷541號","121.484588333333","25.1651766666667","6501000","淡水區"
"251010","413-VK","2018/08/07 18:19:11","新北市淡水區淡海路188號","121.420386666667","25.18498","6501000","淡水區"
"251012","441-VK","2018/08/07 18:19:07","新北市淡水區北新路二段77-5號","121.480521666667","25.1856516666667","6501000","淡水區"
"251008","442-VK","2018/08/07 18:19:20","新北市淡水區水源街二段234號","121.460768333333","25.1763516666667","6501000","淡水區"
"251004","443-VK","2018/08/07 18:19:23","新北市淡水區民族路71號","121.463011666667","25.1345033333333","6501000","淡水區"
"251006","561-UM","2018/08/07 18:19:11","新北市淡水區新民街62號","121.438846666667","25.176015","6501000","淡水區"
"251007","577-R6","2018/08/07 18:19:11","新北市淡水區中正東路二段143巷2弄1號","121.46063","25.1473016666667","6501000","淡水區"
"251011","650-BX","2018/08/07 18:19:16","新北市淡水區坪頂路102號","121.462751666667","25.1632566666667","6501000","淡水區"
"251003","673-BX","2018/08/07 18:19:08","新北市淡水區北新路180號","121.449463333333","25.1787716666667","6501000","淡水區"
"207003","550-UM","2018/08/07 18:19:19","新北市萬里區野柳里港東路23號","121.68738","25.2035816666667","6502800","萬里區"
"207004","225-TW","2018/08/07 18:19:25","新北市萬里區中幅里中福路39-2號","121.676826666667","25.1658333333333","6502800","萬里區"
"252002","178-VK","2018/08/07 18:19:24","新北市三芝區中山路二段39號","121.502926666667","25.2551183333333","6502100","三芝區"
"252003","249-BX","2018/08/07 18:19:09","新北市三芝區錫板里南勢崗5-5號","121.480801666667","25.2631833333333","6502100","三芝區"
"252001","292-VK","2018/08/07 18:19:23","新北市三芝區中興街二段2號","121.498471666667","25.2566233333333","6502100","三芝區"
"237004","KEA-2597","2018/08/07 18:19:14","新北市三峽區五寮90-1號","121.36555","24.862975","6500900","三峽區"
"237007","153-BY","2018/08/07 18:19:27","新北市三峽區中正路二段612號","121.358665","24.905775","6500900","三峽區"
"237009","210-TH","2018/08/07 18:19:14","新北市三峽區大勇路36巷31號","121.365085","24.9367566666667","6500900","三峽區"
"237013","252-BX","2018/08/07 18:19:26","新北市三峽區介壽路一段232號","121.378515","24.930285","6500900","三峽區"
"237012","275-BY","2018/08/07 18:19:24","新北市三峽區三樹路34號","121.37766","24.93759","6500900","三峽區"
"237008","302-VK","2018/08/07 18:19:11","新北市三峽區白雞68-319號","121.391656666667","24.9093583333333","6500900","三峽區"
"237014","433-BY","2018/08/07 18:19:17","新北市三峽區民生街119-3號","121.373635","24.93528","6500900","三峽區"
"237011","KEA-2596","2018/08/07 18:19:13","新北市三峽區溪東路356號","121.413495","24.9279716666667","6500900","三峽區"
"237016","649-BX","2018/08/07 18:19:15","新北市三峽區紫新路1號","121.422491666667","24.9203033333333","6500900","三峽區"
"237010","706-TV","2018/08/07 18:19:25","新北市三峽區中山路72號","121.367043333333","24.935075","6500900","三峽區"
"237005","AKY-6261","2018/08/07 18:19:19","新北市三峽區清水街342號","121.370851666667","24.9336233333333","6500900","三峽區"
"236070","105-UM","2018/08/07 18:19:25","新北市土城區永豐路252號","121.468633333333","24.9800666666667","6501300","土城區"
"236042","107-UM","2018/08/07 18:19:21","新北市土城區樂利街3巷16號","121.44851","24.9863716666667","6501300","土城區"
"236079","166-UM","2018/08/07 18:19:21","新北市土城區中央路三段281巷23弄19號","121.42636","24.96152","6501300","土城區"
"236030","253-BX","2018/08/07 18:19:22","新北市土城區順風路41號","121.440703333333","24.9767616666667","6501300","土城區"
"236026","269-VK","2018/08/07 18:19:17","新北市土城區承天路43巷1號","121.438803333333","24.96419","6501300","土城區"
"236014","270-VK","2018/08/07 18:19:11","新北市土城區青雲路39巷7號","121.460281666667","24.987365","6501300","土城區"
"236038","271-VK","2018/08/07 18:19:26","新北市土城區青雲路451巷2弄1號","121.459321666667","24.97465","6501300","土城區"
"236021","401-BY","2018/08/07 18:19:08","新北市土城區明德路二段127號","121.449806666667","24.98224","6501300","土城區"
"236059","912-UM","2018/08/07 18:19:11","新北市土城區中央路四段464號","121.409853333333","24.950705","6501300","土城區"
"236049","913-UM","2018/08/07 18:19:09","新北市土城區明德路一段361-3號","121.456081666667","24.977785","6501300","土城區"
"236063","915-UM","2018/08/07 18:19:16","新北市土城區金城路三段192號","121.468355","24.988","6501300","土城區"
"236055","AAC-216","2018/08/07 18:19:14","新北市土城區中華路二段100號","121.438036666667","24.974445","6501300","土城區"
"242058","986-R7","2018/08/07 18:19:26","新北市新莊區中正路806號","121.410073333333","25.0209816666667","6500500","新莊區"
"242054","751-BX","2018/08/07 18:19:10","新北市新莊區民安西路406號","121.428836666667","25.0100716666667","6500500","新莊區"
"242027","615-BX","2018/08/07 18:19:19","新北市新莊區幸福路763-6號","121.447475","25.0490583333333","6500500","新莊區"
"242025","613-BX","2018/08/07 18:19:06","新北市新莊區五工二路95號","121.45915","25.06653","6500500","新莊區"
"242042","566-BX","2018/08/07 18:19:21","新北市新莊區天祥街73號","121.415783333333","25.0291683333333","6500500","新莊區"
"242046","497-BY","2018/08/07 18:19:18","新北市新莊區中正路829巷22弄3號","121.42157","25.0269733333333","6500500","新莊區"
"242051","441-UM","2018/08/07 18:19:08","新北市新莊區新樹路206巷3號","121.433461666667","25.020415","6500500","新莊區"
"242056","440-UM","2018/08/07 18:19:19","新北市新莊區瓊林路34號","121.448958333333","25.0310516666667","6500500","新莊區"
"242037","415-TV","2018/08/07 18:19:23","新北市新莊區後港一路31巷3弄2號","121.425076666667","25.02672","6500500","新莊區"
"242007","413-TV","2018/08/07 18:19:11","新北市新莊區中平路82巷9號","121.445303333333","25.0448666666667","6500500","新莊區"
"242044","400-BY","2018/08/07 18:19:23","新北市新莊區鳳山街56巷35號","121.413803333333","25.0267233333333","6500500","新莊區"
"242061","353-BY","2018/08/07 18:19:17","新北市新莊區新樹路69-4號","121.438726666667","25.0297283333333","6500500","新莊區"
"242009","132-UY","2018/08/07 18:19:08","新北市新莊區昌盛街15號","121.453223333333","25.0500983333333","6500500","新莊區"
"242032","135-UY","2018/08/07 18:19:16","新北市新莊區新泰路255巷83號","121.442776666667","25.0394166666667","6500500","新莊區"
"242048","172-VK","2018/08/07 18:19:25","新北市樹林區中正路280-1號","121.41565","25.009325","6500500","新莊區"
"242011","173-VK","2018/08/07 18:19:11","新北市新莊區中港路591巷24號","121.449931666667","25.0524216666667","6500500","新莊區"
"242005","176-VK","2018/08/07 18:19:17","新北市新莊區新泰路357巷3弄1號","121.44254","25.0413333333333","6500500","新莊區"
"242021","348-TH","2018/08/07 18:19:13","新北市新莊區新興街26號","121.450701666667","25.0368233333333","6500500","新莊區"
"242002","349-TH","2018/08/07 18:19:26","新北市新莊區碧江街18-7號","121.455373333333","25.0346266666667","6500500","新莊區"
"238023","601-UM","2018/08/07 18:19:17","新北市樹林區忠義街16號","121.409533333333","25.014605","6500700","樹林區"
"238019","599-UM","2018/08/07 18:19:13","新北市樹林區國凱街108號","121.422181666667","24.9797333333333","6500700","樹林區"
"238018","571-TV","2018/08/07 18:19:15","新北市樹林區保安街一段22號","121.427545","24.9935533333333","6500700","樹林區"
"238024","5061-A6","2018/08/07 18:19:10","新北市樹林區大安路380號","121.415875","24.9897166666667","6500700","樹林區"
"238022","KEA-2213","2018/08/07 18:19:18","新北市樹林區中山路三段147-5號","121.396151666667","24.97305","6500700","樹林區"
"238025","303-VK","2018/08/07 18:19:11","新北市樹林區保安街一段247號","121.41984","24.9967083333333","6500700","樹林區"
"238017","283-BY","2018/08/07 18:19:10","新北市樹林區中正路713號","121.411321666667","25.0142016666667","6500700","樹林區"
"238014","282-BY","2018/08/07 18:19:11","新北市樹林區大安路111巷6號","121.423126666667","24.9974766666667","6500700","樹林區"
"238020","268-VK","2018/08/07 18:19:24","新北市樹林區三龍街43號","121.41446","25.0186883333333","6500700","樹林區"
"238026","172-UY","2018/08/07 18:18:58","新北市樹林區佳園路一段75巷10-11號","121.395906666667","24.9706833333333","6500700","樹林區"
"238016","169-UY","2018/08/07 18:19:24","新北市樹林區文化街28號","121.419241666667","24.9877883333333","6500700","樹林區"
"239007","AAC-297","2018/08/07 18:19:22","新北市鶯歌區尖山埔路38號","121.34899","24.951125","6500800","鶯歌區"
"239006","891-R6","2018/08/07 18:19:15","新北市鶯歌區德昌街140巷83號","121.332568333333","24.9625833333333","6500800","鶯歌區"
"239008","527-UM","2018/08/07 18:19:07","新北市鶯歌區朝陽街2號","121.336185","24.9766","6500800","鶯歌區"
"239001","417-VK","2018/08/07 18:19:10","新北市鶯歌區國中街209號","121.337858333333","24.9388583333333","6500800","鶯歌區"
"239003","360-BY","2018/08/07 18:19:15","新北市鶯歌區福安街58號","121.33557","24.9652516666667","6500800","鶯歌區"
"239002","359-BY","2018/08/07 18:19:11","新北市鶯歌區國慶街169-2號","121.351323333333","24.95286","6500800","鶯歌區"
"239004","193-VK","2018/08/07 18:19:22","新北市鶯歌區尖山路240巷30號","121.342401666667","24.9474133333333","6500800","鶯歌區"
"221008","489-VK","2018/08/07 18:19:11","新北市汐止區汐萬路一段256巷3號","121.652085","25.074755","6501100","汐止區"
"221036","130-UY","2018/08/07 18:19:18","新北市汐止區長興街一段2號","121.669638333333","25.0783766666667","6501100","汐止區"
"221015","131-UY","2018/08/07 18:19:18","新北市汐止區鄉長路二段23巷2號","121.667015","25.0828233333333","6501100","汐止區"
"221010","269-BY","2018/08/07 18:19:26","新北市汐止區汐萬路35號","121.644188333333","25.091535","6501100","汐止區"
"221012","278-VK","2018/08/07 18:19:27","新北市汐止區保長路33號","121.672725","25.0796466666667","6501100","汐止區"
"221023","279-VK","2018/08/07 18:19:08","新北市汐止區中興路197號","121.629858333333","25.0676966666667","6501100","汐止區"
"221032","280-BY","2018/08/07 18:19:24","新北市汐止區橫科路52巷1號","121.619013333333","25.05069","6501100","汐止區"
"221027","281-BY","2018/08/07 18:19:27","新北市汐止區和平街32號","121.662815","25.0708116666667","6501100","汐止區"
"221029","298-VK","2018/08/07 18:19:12","新北市汐止區樟樹二路330巷72號","121.642998333333","25.069995","6501100","汐止區"
"221021","299-VK","2018/08/07 18:19:14","新北市汐止區新台五路一段125號","121.651678333333","25.0616416666667","6501100","汐止區"
"221031","353-TW","2018/08/07 18:19:10","新北市汐止區大同路一段160-1號","121.634368333333","25.0565","6501100","汐止區"
"221002","129-UY","2018/08/07 18:19:23","新北市汐止區福德一路201巷32號","121.6359","25.064835","6501100","汐止區"
"221035","622-UM","2018/08/07 18:19:28","新北市汐止區大同路二段179號","121.651938333333","25.064205","6501100","汐止區"
"221025","623-UM","2018/08/07 18:19:14","新北市汐止區勤進路12巷32號","121.659258333333","25.0625866666667","6501100","汐止區"
"221038","646-BX","2018/08/07 18:19:14","新北市汐止區忠孝東路258號","121.663118333333","25.0676416666667","6501100","汐止區"
"221033","647-BX","2018/08/07 18:19:17","新北市汐止區宜興街79巷2號","121.623455","25.043615","6501100","汐止區"
"221018","753-BX","2018/08/07 18:19:12","新北市汐止區茄苳路118號","121.66798","25.0703683333333","6501100","汐止區"
"220054","630-UY","2018/08/07 18:19:12","新北市板橋區華東街1-9號","121.448088333333","24.9949316666667","6500100","板橋區"
"235061","KEA-2875","2018/08/07 18:19:25","新北市中和區國光街215巷26-3號","121.467095","25.0003783333333","6500300","中和區"
