"lineid","car","time","location","longitude","latitude","cityid","cityname"
"234046","148-BY","2018/08/07 18:59:16","新北市永和區永元路52巷52號","121.524546666667","25.0007316666667","6500400","永和區"
"234007","207-UY","2018/08/07 18:59:20","新北市永和區中山路一段47號","121.51305","25.0104783333333","6500400","永和區"
"234081","298-R6","2018/08/07 18:59:21","新北市永和區國中路156號","121.522756666667","25.0066683333333","6500400","永和區"
"234064","337-UY","2018/08/07 18:59:12","新北市永和區秀朗路一段199號","121.517968333333","25.003535","6500400","永和區"
"234086","338-UY","2018/08/07 18:59:19","新北市永和區中正路498號","121.517343333333","25.0041433333333","6500400","永和區"
"234070","552-UM","2018/08/07 18:59:10","新北市永和區中興街92號","121.518803333333","25.0119966666667","6500400","永和區"
"234017","745-BX","2018/08/07 18:59:25","新北市永和區永和路二段297號","121.516055","25.0160633333333","6500400","永和區"
"234030","746-BX","2018/08/07 18:59:22","新北市永和區四維街46號","121.525103333333","24.9981166666667","6500400","永和區"
"234054","KEA-2590","2018/08/07 18:59:25","新北市永和區竹林路64號","121.518235","25.0135466666667","6500400","永和區"
"234013","KEA-2591","2018/08/07 18:59:21","新北市永和區信義路17巷22號","121.513131666667","25.0112633333333","6500400","永和區"
"234061","AAD-866","2018/08/07 18:59:12","新北市永和區福和路303號","121.51636","25.0071566666667","6500400","永和區"
"234038","847-RS","2018/08/07 18:59:26","新北市永和區成功路二段207號","121.526558333333","24.9959166666667","6500400","永和區"
"234042","862-TW","2018/08/07 18:59:07","新北市永和區永貞路267號","121.51184","25.0047316666667","6500400","永和區"
"234050","863-TW","2018/08/07 18:59:22","新北市永和區保安路23號","121.510336666667","25.016725","6500400","永和區"
"234026","9371-KE","2018/08/07 18:59:19","新北市永和區安樂路453號","121.514271666667","25.005035","6500400","永和區"
"234011","9373-KE","2018/08/07 18:59:09","新北市永和區信義路77號","121.512386666667","25.0131816666667","6500400","永和區"
"249005","172-UM","2018/08/07 18:59:15","新北市八里區長道坑11號","121.396041666667","25.123005","6502300","八里區"
"249001","173-UM","2018/08/07 18:59:14","新北市八里區渡船頭街3-1號","121.434423333333","25.1583516666667","6502300","八里區"
"248016","026-BX","2018/08/07 18:59:29","新北市五股區成泰路三段543巷12弄8號","121.451256666667","25.102165","6501500","五股區"
"248006","077-UY","2018/08/07 18:59:06","新北市五股區中興路一段27號","121.468976666667","25.07234","6501500","五股區"
"248008","095-VK","2018/08/07 18:59:26","新北市五股區中興路一段128巷55號","121.465706666667","25.075345","6501500","五股區"
"248020","225-UY","2018/08/07 18:59:19","新北市五股區凌雲路三段57號","121.42529","25.1250133333333","6501500","五股區"
"248012","247-BX","2018/08/07 18:59:18","新北市五股區工商路36巷16號","121.439811666667","25.0842466666667","6501500","五股區"
"248010","272-BY","2018/08/07 18:59:20","新北市五股區水碓三路1號","121.428895","25.0707266666667","6501500","五股區"
"248004","677-BX","2018/08/07 18:59:23","新北市五股區民義路二段41-1號","121.411453333333","25.1034383333333","6501500","五股區"
"248002","678-BX","2018/08/07 18:59:18","新北市五股區凌雲路一段85號","121.450711666667","25.10136","6501500","五股區"
"234023","9380-KE","2018/08/07 18:59:25","新北市永和區竹林路75巷33弄47號","121.521115","25.0146333333333","6500400","永和區"
"234077","969-R7","2018/08/07 18:59:17","新北市永和區中正路286巷12號","121.517566666667","24.9984516666667","6500400","永和區"
"234074","AAC-211","2018/08/07 18:59:28","新北市永和區豫溪街217巷7號","121.525153333333","25.0098716666667","6500400","永和區"
"234067","AAC-212","2018/08/07 18:59:22","新北市永和區自由街62號","121.513661666667","25.0057","6500400","永和區"
"234003","AAC-295","2018/08/07 18:59:23","新北市永和區和平街38號","121.513048333333","25.0099283333333","6500400","永和區"
"232011","375-UM","2018/08/07 18:59:09","新北市坪林區水聳淒坑19-1號","121.712583333333","24.9348516666667","6502000","坪林區"
"244007","080-UY","2018/08/07 18:59:20","新北市林口區太平嶺26-2號","121.376348333333","25.1167783333333","6501700","林口區"
"244019","403-UM","2018/08/07 18:59:16","新北市林口區麗園二街1巷6-3號","121.377935","25.0701116666667","6501700","林口區"
"244013","KEA-2802","2018/08/07 18:59:24","新北市林口區麗園一街6巷1-2號","121.376901666667","25.0702716666667","6501700","林口區"
"244009","410-SL","2018/08/07 18:59:17","新北市林口區台電新村146號","121.388753333333","25.0876466666667","6501700","林口區"
"244023","483-VK","2018/08/07 18:59:18","新北市林口區文化三路二段115巷16號","121.373475","25.0808816666667","6501700","林口區"
"244017","485-VK","2018/08/07 18:59:08","新北市林口區文化二路一段20巷25弄4號","121.366063333333","25.06788","6501700","林口區"
"244011","657-BX","2018/08/07 18:59:26","新北市林口區中正路268號","121.38927","25.0777233333333","6501700","林口區"
"244025","837-TS","2018/08/07 18:59:12","新北市林口區文化北路一段386-2號","121.36307","25.074945","6501700","林口區"
"243013","AAD-798","2018/08/07 18:59:28","新北市泰山區明志路三段239號","121.423511666667","25.0377533333333","6501600","泰山區"
"243009","297-R6","2018/08/07 18:59:27","新北市泰山區泰林路二段365號","121.427986666667","25.063705","6501600","泰山區"
"243016","KEA-2801","2018/08/07 18:59:17","新北市泰山區明志路二段137號","121.42765","25.05063","6501600","泰山區"
"243015","421-VK","2018/08/07 18:59:30","新北市泰山區明志路一段195號","121.432795","25.06152","6501600","泰山區"
"243011","KEA-2215","2018/08/07 18:59:19","新北市泰山區明志路二段246-1號","121.426946666667","25.0481583333333","6501600","泰山區"
"243010","KEA-2216","2018/08/07 18:59:21","新北市泰山區辭修路24號","121.42902","25.0581866666667","6501600","泰山區"
"243012","646-TV","2018/08/07 18:59:15","新北市泰山區福興三街166號","121.432635","25.0570983333333","6501600","泰山區"
"243014","680-BX","2018/08/07 18:59:09","新北市泰山區黎明路2-5號","121.420873333333","25.0626016666667","6501600","泰山區"
"222003","436-BY","2018/08/07 18:59:18","新北市深坑區深南路51-1號","121.621438333333","25.01012","6501800","深坑區"
"222002","659-BX","2018/08/07 18:59:27","新北市深坑區文山路一段31巷2號","121.629875","25.0032733333333","6501800","深坑區"
"231041","002-UM","2018/08/07 18:59:24","新北市新店區環河路76號","121.53706","24.963195","6500600","新店區"
"231059","046-UY","2018/08/07 18:59:13","新北市新店區安華路28-1號","121.519573333333","24.9607833333333","6500600","新店區"
"231040","047-UY","2018/08/07 18:59:16","新北市新店區中正路384號","121.534675","24.9770583333333","6500600","新店區"
"231044","106-UY","2018/08/07 18:59:20","新北市新店區寶中路72號","121.547876666667","24.9805916666667","6500600","新店區"
"231046","107-UY","2018/08/07 18:59:27","新北市新店區直潭五街28號","121.534135","24.9415033333333","6500600","新店區"
"231053","108-UY","2018/08/07 18:59:21","新北市新店區屈尺路柏園巷1號","121.54861","24.9225383333333","6500600","新店區"
"231065","110-UY","2018/08/07 18:59:10","新北市新店區安康路三段440-5號","121.484645","24.9513766666667","6500600","新店區"
"231048","187-VK","2018/08/07 18:59:28","新北市新店區德正街25巷2號","121.544341666667","24.9715833333333","6500600","新店區"
"231054","KEA-2219","2018/08/07 18:59:29","新北市新店區新店路13號","121.540305","24.9528133333333","6500600","新店區"
"231042","268-BY","2018/08/07 18:59:26","新北市新店區中正路10號","121.54553","24.9694866666667","6500600","新店區"
"231051","278-BY","2018/08/07 18:59:22","新北市新店區百忍街21號","121.534023333333","24.9756816666667","6500600","新店區"
"231050","AAD-862","2018/08/07 18:59:26","新北市新店區北宜路二段56巷3弄6號","121.549163333333","24.950855","6500600","新店區"
"231058","3713-VJ","2018/08/07 18:59:25","新北市新店區光明街94號","121.538933333333","24.9603466666667","6500600","新店區"
"231066","4716-K9","2018/08/07 18:59:08","新北市新店區安豐路49號","121.500041666667","24.954005","6500600","新店區"
"231056","4715-K9","2018/08/07 18:59:10","新北市新店區二十張路33巷16號","121.538981666667","24.980985","6500600","新店區"
"231067","4772-VM","2018/08/07 18:59:20","新北市新店區安華路28-1號","121.518883333333","24.9608233333333","6500600","新店區"
"231049","513-UM","2018/08/07 18:59:16","新北市新店區中正路454-5號","121.53443","24.9790583333333","6500600","新店區"
"231063","616-UM","2018/08/07 18:59:10","新北市新店區安華路1-1號","121.519448333333","24.960495","6500600","新店區"
"231045","617-UM","2018/08/07 18:59:21","新北市新店區光明街51號","121.538468333333","24.9602133333333","6500600","新店區"
"231061","619-UM","2018/08/07 18:59:16","新北市新店區安華路30巷12-1號","121.518105","24.9580966666667","6500600","新店區"
"231062","720-UM","2018/08/07 18:59:27","新北市新店區安豐路49號","121.50018","24.9541266666667","6500600","新店區"
"231060","897-TW","2018/08/07 18:59:19","新北市新店區安華路30巷12-1號","121.518353333333","24.9579816666667","6500600","新店區"
"231043","899-TW","2018/08/07 18:59:16","新北市新店區北新路二段2號","121.542628333333","24.9706083333333","6500600","新店區"
"231055","AKT-0513","2018/08/07 18:59:17","新北市新店區中央路181-1號","121.535821666667","24.9690033333333","6500600","新店區"
"241026","066-VK","2018/08/07 18:59:09","新北市三重區泉州街108號","121.49485","25.0537033333333","6500200","三重區"
"241035","KEA-2210","2018/08/07 18:59:26","新北市三重區捷運路36號","121.482816666667","25.05526","6500200","三重區"
"241030","480-VK","2018/08/07 18:59:25","新北市三重區中正南路269號","121.493176666667","25.0523566666667","6500200","三重區"
"235066","003-UY","2018/08/07 18:59:23","新北市中和區中山路二段131巷5弄5號","121.50285","25.00292","6500300","中和區"
"235064","005-UY","2018/08/07 18:59:10","新北市中和區泰和街36號","121.499298333333","25.0000916666667","6500300","中和區"
"235063","006-UY","2018/08/07 18:59:19","新北市中和區中正路579號","121.486306666667","24.9945583333333","6500300","中和區"
"235056","096-UM","2018/08/07 18:59:26","新北市中和區新民街91號","121.481206666667","25.0082816666667","6500300","中和區"
"235039","097-UM","2018/08/07 18:59:22","新北市永和區安樂路98號","121.514181666667","24.999245","6500300","中和區"
"235065","098-UM","2018/08/07 18:58:56","新北市中和區勝利路9號","121.499721666667","25.0081833333333","6500300","中和區"
"235040","150-BY","2018/08/07 18:59:15","新北市永和區中正路1號","121.513561666667","24.9954116666667","6500300","中和區"
"235058","151-BY","2018/08/07 18:59:09","新北市中和區員山路145號","121.4809","24.9962516666667","6500300","中和區"
"235055","183-VK","2018/08/07 18:59:14","新北市中和區民德路27號","121.468968333333","25.0026233333333","6500300","中和區"
"235038","185-VK","2018/08/07 18:59:14","新北市中和區立人街24-5號","121.518946666667","24.9941416666667","6500300","中和區"
"235013","186-VK","2018/08/07 18:59:18","新北市中和區景安路167巷17號","121.506458333333","24.9948933333333","6500300","中和區"
"235067","255-BX","2018/08/07 18:59:20","新北市中和區中正路839巷2號","121.484551666667","25.0024683333333","6500300","中和區"
"235044","293-VK","2018/08/07 18:59:12","新北市中和區中興街161巷10弄2號","121.501211666667","24.9908666666667","6500300","中和區"
"235072","301-VK","2018/08/07 18:59:09","新北市中和區中山路二段132號","121.5024","25.0033666666667","6500300","中和區"
"235043","352-BY","2018/08/07 18:59:12","新北市中和區成功路5號","121.52637","24.99415","6500300","中和區"
"235042","KEA-2878","2018/08/07 18:59:07","新北市中和區秀朗路三段50巷2弄7號","121.526041666667","24.995915","6500300","中和區"
"235050","4979-A6","2018/08/07 18:59:08","新北市中和區忠孝街58巷8號","121.511793333333","24.9833633333333","6500300","中和區"
"235069","4980-A6","2018/08/07 18:59:28","新北市中和區景平路459巷1弄4號","121.50034","24.9963483333333","6500300","中和區"
"235070","558-UM","2018/08/07 18:59:25","新北市中和區中和路212號","121.50597","24.9994933333333","6500300","中和區"
"235045","565-BX","2018/08/07 18:59:25","新北市中和區景新街467巷20弄7號","121.514345","24.987975","6500300","中和區"
"235054","640-BX","2018/08/07 18:59:22","新北市中和區國光街8巷1號","121.471528333333","25.0002616666667","6500300","中和區"
"235060","647-TV","2018/08/07 18:59:22","新北市中和區民治街16號","121.475103333333","25.0044633333333","6500300","中和區"
"235047","732-UM","2018/08/07 18:59:17","新北市中和區興南路二段55號","121.507095","24.9853516666667","6500300","中和區"
"235046","733-UM","2018/08/07 18:59:20","新北市中和區興南路一段135巷22弄4號","121.50913","24.9868083333333","6500300","中和區"
"235062","800-TS","2018/08/07 18:59:19","新北市中和區中山路二段311-3號","121.495123333333","25.0018466666667","6500300","中和區"
"235057","801-TS","2018/08/07 18:59:24","新北市中和區民利街86號","121.47802","24.998175","6500300","中和區"
"235041","802-TS","2018/08/07 18:59:25","新北市中和區宜安路96號","121.510606666667","24.99763","6500300","中和區"
"235052","805-TS","2018/08/07 18:59:27","新北市中和區興南路二段301-1號","121.502281666667","24.9813683333333","6500300","中和區"
"235048","896-TW","2018/08/07 18:59:18","新北市中和區華新街111號","121.508556666667","24.98136","6500300","中和區"
"235053","900-TW","2018/08/07 18:59:26","新北市中和區民德路360號","121.466058333333","24.99392","6500300","中和區"
"235051","157-BY","2018/08/07 18:59:29","新北市中和區忠孝街11巷1號","121.509918333333","24.983105","6500300","中和區"
"235037","AAC-213","2018/08/07 18:59:22","新北市中和區秀朗路三段128巷9弄1號","121.524563333333","24.9931066666667","6500300","中和區"
"220106","013-TV","2018/08/07 18:59:18","新北市板橋區文化路二段124巷28-2號","121.471191666667","25.0257433333333","6500100","板橋區"
"220055","015-TV","2018/08/07 18:59:23","新北市板橋區中山路一段158巷18號","121.466253333333","25.011355","6500100","板橋區"
"220065","072-UY","2018/08/07 18:59:14","新北市板橋區漢生東路324號","121.471675","25.007925","6500100","板橋區"
"220086","073-UY","2018/08/07 18:59:27","新北市板橋區中正路250巷13號","121.456178333333","25.019475","6500100","板橋區"
"220069","AAD-861","2018/08/07 18:59:11","新北市板橋區華興街61號","121.457356666667","25.0048666666667","6500100","板橋區"
"226004","312-R5","2018/08/07 18:59:19","新北市平溪區靜安路三段180號","121.775396666667","25.03912","6502400","平溪區"
"235059","251-BX","2018/08/07 18:59:15","新北市中和區圓通路367巷40號","121.492005","24.98861","6500300","中和區"
"228001","212-TW","2018/08/07 18:59:22","新北市貢寮區仁理村保健街71號","121.923698333333","25.0516333333333","6502600","貢寮區"
"228002","663-BX","2018/08/07 18:59:16","新北市貢寮區福隆里東興街106巷25弄1號","121.946408333333","25.0182966666667","6502600","貢寮區"
"228003","828-UM","2018/08/07 18:59:12","新北市貢寮區和美里龍洞街60-2號","121.914466666667","25.116475","6502600","貢寮區"
"224010","AGQ-8101","2018/08/07 18:59:22","新北市瑞芳區汽車路9-5號","121.845478333333","25.1097866666667","6501200","瑞芳區"
"224006","676-BX","2018/08/07 18:59:14","新北市瑞芳區三爪子坑路106巷1-8號","121.808375","25.1052283333333","6501200","瑞芳區"
"224002","639-TC","2018/08/07 18:59:19","新北市瑞芳區八分寮路21號","121.79322","25.084255","6501200","瑞芳區"
"224008","285-BY","2018/08/07 18:59:21","新北市瑞芳區逢甲路335號","121.801001666667","25.1122533333333","6501200","瑞芳區"
"224007","275-VK","2018/08/07 18:58:55","新北市瑞芳區中央路48巷180號","121.758268333333","25.1031066666667","6501200","瑞芳區"
"224009","273-VK","2018/08/07 18:59:14","新北市瑞芳區長仁路37-2號","121.864551666667","25.1172016666667","6501200","瑞芳區"
"224005","271-BY","2018/08/07 18:59:28","新北市瑞芳區豎崎路32-5號","121.824363333333","25.12099","6501200","瑞芳區"
"227003","642-TC","2018/08/07 18:59:10","新北市雙溪區平林里康福家園10號","121.858706666667","25.0373283333333","6502500","雙溪區"
"227009","400-TW","2018/08/07 18:59:19","新北市雙溪區牡丹里中正路58巷23號","121.866446666667","25.041545","6502500","雙溪區"
"253005","032-BX","2018/08/07 18:59:23","新北市石門區尖子鹿110號","121.575676666667","25.2976316666667","6502200","石門區"
"253006","295-VK","2018/08/07 18:59:13","新北市石門區海灣新城1號","121.52332","25.285365","6502200","石門區"
"222001","KEA-2212","2018/08/07 18:59:12","新北市深坑區北深路一段264號","121.629366666667","25.0087183333333","6501800","深坑區"
"208002","KEA-2872","2018/08/07 18:59:16","新北市金山區信義路72號","121.635143333333","25.2195816666667","6502700","金山區"
"208003","665-BX","2018/08/07 18:59:29","新北市金山區中正路32號","121.635386666667","25.2221566666667","6502700","金山區"
"208001","761-BX","2018/08/07 18:59:10","新北市金山區中山路79號","121.640293333333","25.218685","6502700","金山區"
"251005","010-UM","2018/08/07 18:59:08","新北市淡水區中正路18巷6號","121.437628333333","25.1728383333333","6501000","淡水區"
"251001","011-UM","2018/08/07 18:59:13","新北市淡水區自強路58號","121.463195","25.1274933333333","6501000","淡水區"
"251002","012-UM","2018/08/07 18:59:08","新北市淡水區中正東路61號","121.446891666667","25.167785","6501000","淡水區"
"251013","KEA-2871","2018/08/07 18:59:25","新北市淡水區安子內12-1號","121.481556666667","25.219075","6501000","淡水區"
"251016","179-VK","2018/08/07 18:59:11","新北市淡水區淡金路三段331巷8號","121.448445","25.2062066666667","6501000","淡水區"
"251014","180-VK","2018/08/07 18:59:24","新北市淡水區小中寮22號","121.489373333333","25.2295683333333","6501000","淡水區"
"251015","181-VK","2018/08/07 18:59:15","新北市淡水區糞箕湖60號","121.485136666667","25.1722683333333","6501000","淡水區"
"251010","413-VK","2018/08/07 18:59:30","新北市淡水區淡海路88-2號","121.422998333333","25.1817933333333","6501000","淡水區"
"251012","441-VK","2018/08/07 18:59:07","新北市淡水區新市一路一段32號","121.430625","25.1869216666667","6501000","淡水區"
"251009","575-R6","2018/08/07 18:59:27","新北市淡水區重建街69號","121.439858333333","25.1719616666667","6501000","淡水區"
"251007","577-R6","2018/08/07 18:59:11","新北市淡水區民生路113巷1弄68號","121.462378333333","25.138555","6501000","淡水區"
"251011","650-BX","2018/08/07 18:59:22","新北市淡水區中正東路一段111巷1號","121.453833333333","25.15983","6501000","淡水區"
"251003","673-BX","2018/08/07 18:59:08","新北市淡水區中山北路一段149巷31號","121.44303","25.17795","6501000","淡水區"
"207003","550-UM","2018/08/07 18:58:59","新北市萬里區大鵬里頂社29號","121.656586666667","25.210745","6502800","萬里區"
"207004","225-TW","2018/08/07 18:59:25","新北市萬里區萬里里獅頭路23號","121.69313","25.1782583333333","6502800","萬里區"
"252002","178-VK","2018/08/07 18:59:24","新北市三芝區中正路一段58號","121.503645","25.257915","6502100","三芝區"
"252003","249-BX","2018/08/07 18:59:29","新北市三芝區後厝里北勢子42-11號","121.47159","25.2520666666667","6502100","三芝區"
"252001","292-VK","2018/08/07 18:59:23","新北市三芝區中興街二段260號","121.501755","25.2530433333333","6502100","三芝區"
"237004","KEA-2597","2018/08/07 18:59:14","新北市三峽區有木205-1號","121.439048333333","24.8516733333333","6500900","三峽區"
"237007","153-BY","2018/08/07 18:59:27","新北市三峽區大埔路59號","121.366203333333","24.9087583333333","6500900","三峽區"
"237013","252-BX","2018/08/07 18:59:25","新北市三峽區光明路69巷25號","121.376755","24.9291766666667","6500900","三峽區"
"237012","275-BY","2018/08/07 18:59:24","新北市三峽區三樹路222巷192-9號","121.38825","24.9418316666667","6500900","三峽區"
"237008","302-VK","2018/08/07 18:59:11","新北市三峽區中正路一段213號","121.372223333333","24.9274266666667","6500900","三峽區"
"237014","433-BY","2018/08/07 18:59:17","新北市三峽區隆恩街236號","121.357745","24.9411583333333","6500900","三峽區"
"237006","5529-G3","2018/08/07 18:59:21","新北市三峽區溪東路201號","121.404255","24.933545","6500900","三峽區"
"237011","KEA-2596","2018/08/07 18:59:13","新北市三峽區介壽路二段6巷2號","121.389158333333","24.93456","6500900","三峽區"
"237016","649-BX","2018/08/07 18:59:14","新北市三峽區安坑13-3號","121.444406666667","24.9265816666667","6500900","三峽區"
"237010","706-TV","2018/08/07 18:59:25","新北市三峽區國光街362號","121.37096","24.93976","6500900","三峽區"
"237005","AKY-6261","2018/08/07 18:59:19","新北市三峽區中山路459巷163-3號","121.34864","24.9329233333333","6500900","三峽區"
"236070","105-UM","2018/08/07 18:59:17","新北市土城區裕民路267-1號","121.455326666667","24.9822016666667","6501300","土城區"
"236042","107-UM","2018/08/07 18:59:15","新北市土城區學府路一段209巷10號","121.451986666667","24.9840633333333","6501300","土城區"
"236079","166-UM","2018/08/07 18:59:21","新北市土城區中央路四段466號","121.409948333333","24.9505883333333","6501300","土城區"
"236030","253-BX","2018/08/07 18:59:22","新北市土城區慶利街9號","121.439653333333","24.9735666666667","6501300","土城區"
"236026","269-VK","2018/08/07 18:59:18","新北市土城區慶安街20號","121.441701666667","24.9734416666667","6501300","土城區"
"236014","270-VK","2018/08/07 18:59:11","新北市土城區立德路32號","121.463193333333","24.9874083333333","6501300","土城區"
"236038","271-VK","2018/08/07 18:59:26","新北市土城區仁愛路20號","121.460871666667","24.9802366666667","6501300","土城區"
"236021","401-BY","2018/08/07 18:59:09","新北市土城區延吉街168巷9號","121.468015","24.98583","6501300","土城區"
"236059","912-UM","2018/08/07 18:59:11","新北市土城區金城路二段188號","121.454181666667","24.9813483333333","6501300","土城區"
"236049","913-UM","2018/08/07 18:59:26","新北市土城區青雲路318號","121.458821666667","24.9770633333333","6501300","土城區"
"236063","915-UM","2018/08/07 18:59:16","新北市土城區延和路41巷2弄2號","121.466066666667","24.9896766666667","6501300","土城區"
"236055","AAC-216","2018/08/07 18:59:14","新北市土城區學成路147號","121.44877","24.98954","6501300","土城區"
"238023","601-UM","2018/08/07 18:59:27","新北市樹林區大慶街130號","121.396215","25.0135016666667","6500700","樹林區"
"238019","599-UM","2018/08/07 18:59:13","新北市樹林區鎮前街423號","121.413745","24.982815","6500700","樹林區"
"238018","571-TV","2018/08/07 18:59:15","新北市樹林區八德街37-3號","121.419025","24.9829333333333","6500700","樹林區"
"238024","5061-A6","2018/08/07 18:59:10","新北市樹林區育德街76巷1號","121.388626666667","24.96825","6500700","樹林區"
"238022","KEA-2213","2018/08/07 18:59:18","新北市樹林區東興街16巷6弄1號","121.40897","24.978195","6500700","樹林區"
"238021","KEA-2539","2018/08/07 18:59:26","新北市樹林區柑園街二段328巷6弄29號","121.373233333333","24.9527133333333","6500700","樹林區"
"238025","303-VK","2018/08/07 18:59:11","新北市樹林區民和街81號","121.378965","24.972975","6500700","樹林區"
"238017","283-BY","2018/08/07 18:59:10","新北市樹林區光興街50號","121.409828333333","25.0027533333333","6500700","樹林區"
"238014","282-BY","2018/08/07 18:59:11","新北市樹林區千歲街92巷7弄29號","121.427458333333","24.9981616666667","6500700","樹林區"
"238020","268-VK","2018/08/07 18:59:24","新北市樹林區俊英街183號","121.424083333333","25.012335","6500700","樹林區"
"238026","172-UY","2018/08/07 18:59:18","新北市樹林區佳園路一段45號","121.393205","24.9704466666667","6500700","樹林區"
"238016","169-UY","2018/08/07 18:59:24","新北市樹林區文化街25巷21號","121.418213333333","24.986635","6500700","樹林區"
"239007","AAC-297","2018/08/07 18:59:21","新北市鶯歌區中正一路225號","121.354111666667","24.9574266666667","6500800","鶯歌區"
"239006","891-R6","2018/08/07 18:59:15","新北市鶯歌區鶯桃路91巷25號","121.338218333333","24.9526116666667","6500800","鶯歌區"
"239008","527-UM","2018/08/07 18:59:27","新北市鶯歌區國際二路18巷2號","121.33722","24.9748566666667","6500800","鶯歌區"
"239001","417-VK","2018/08/07 18:59:10","新北市鶯歌區永安街40號","121.337896666667","24.9561766666667","6500800","鶯歌區"
"239003","360-BY","2018/08/07 18:59:15","新北市鶯歌區鶯桃路383號","121.33357","24.9636433333333","6500800","鶯歌區"
"239002","359-BY","2018/08/07 18:59:11","新北市鶯歌區中山路106號","121.350781666667","24.95706","6500800","鶯歌區"
"239004","193-VK","2018/08/07 18:59:22","新北市鶯歌區中正三路406巷3弄1號","121.325135","24.9357433333333","6500800","鶯歌區"
"221008","489-VK","2018/08/07 18:59:10","新北市汐止區康寧街861巷1號","121.645558333333","25.075935","6501100","汐止區"
"221036","130-UY","2018/08/07 18:59:18","新北市汐止區大同路二段324號","121.656238333333","25.066895","6501100","汐止區"
"221015","131-UY","2018/08/07 18:59:18","新北市汐止區汐萬路一段39-3號","121.654855","25.069745","6501100","汐止區"
"221010","269-BY","2018/08/07 18:59:26","新北市汐止區康寧街901號","121.651418333333","25.0750666666667","6501100","汐止區"
"221012","278-VK","2018/08/07 18:59:27","新北市汐止區康寧街901號","121.650801666667","25.0752533333333","6501100","汐止區"
"221023","279-VK","2018/08/07 18:59:28","新北市汐止區康寧街901號","121.650998333333","25.0752066666667","6501100","汐止區"
"221032","280-BY","2018/08/07 18:59:24","新北市汐止區橫科路407巷30弄28-5號","121.62743","25.0485133333333","6501100","汐止區"
"221027","281-BY","2018/08/07 18:59:27","新北市汐止區康寧街901號","121.651366666667","25.0750066666667","6501100","汐止區"
"221029","298-VK","2018/08/07 18:59:12","新北市汐止區樟樹一路230號","121.642218333333","25.0666933333333","6501100","汐止區"
"221021","299-VK","2018/08/07 18:59:14","新北市汐止區康寧街901號","121.651491666667","25.0750266666667","6501100","汐止區"
"221031","353-TW","2018/08/07 18:59:30","新北市汐止區福德二路156巷12號","121.630058333333","25.0655366666667","6501100","汐止區"
"221002","129-UY","2018/08/07 18:59:23","新北市汐止區大同路一段2號","121.621053333333","25.05499","6501100","汐止區"
"221035","622-UM","2018/08/07 18:59:08","新北市汐止區汐萬路一段256巷3號","121.652375","25.07466","6501100","汐止區"
"221025","623-UM","2018/08/07 18:59:14","新北市汐止區康寧街901號","121.651051666667","25.075155","6501100","汐止區"
"221038","646-BX","2018/08/07 18:59:13","新北市汐止區汐萬路一段312號","121.650623333333","25.0753533333333","6501100","汐止區"
"221033","647-BX","2018/08/07 18:59:16","新北市汐止區南勢街1巷1號","121.627008333333","25.0374133333333","6501100","汐止區"
"220079","145-BY","2018/08/07 18:59:13","新北市板橋區民權路202巷10弄1號","121.460435","25.0153433333333","6500100","板橋區"
"220080","200-UY","2018/08/07 18:59:15","新北市板橋區大觀路二段265巷3弄1號","121.44292","24.9984183333333","6500100","板橋區"
"220082","610-BX","2018/08/07 18:59:19","新北市板橋區滿平街141號","121.429136666667","24.98808","6500100","板橋區"
"220101","245-BX","2018/08/07 18:59:23","新北市板橋區文化路二段182巷27號","121.472348333333","25.0263933333333","6500100","板橋區"
"220091","267-BY","2018/08/07 18:59:20","新北市板橋區莒光路165巷28號","121.474181666667","25.0246816666667","6500100","板橋區"
"220056","276-BY","2018/08/07 18:59:26","新北市板橋區信義路167號","121.458838333333","24.9920933333333","6500100","板橋區"
"220072","277-BY","2018/08/07 18:59:10","新北市板橋區溪北路142號","121.430168333333","24.9884733333333","6500100","板橋區"
"220094","285-UM","2018/08/07 18:59:24","新北市板橋區文化路二段76號","121.469403333333","25.0249883333333","6500100","板橋區"
"220053","285-VK","2018/08/07 18:59:26","新北市板橋區中山路二段89巷34號","121.473836666667","25.0167983333333","6500100","板橋區"
"220083","286-VK","2018/08/07 18:59:27","新北市板橋區大觀路一段38巷156弄9號","121.442416666667","25.00504","6500100","板橋區"
"220081","287-VK","2018/08/07 18:59:24","新北市板橋區光華街19巷30號","121.45346","25.01212","6500100","板橋區"
"220090","288-VK","2018/08/07 18:59:14","新北市板橋區四維路171號","121.464673333333","25.0261","6500100","板橋區"
"220061","293-UM","2018/08/07 18:59:19","新北市板橋區富山街109巷70號","121.47532","25.021325","6500100","板橋區"
"220062","295-UM","2018/08/07 18:59:26","新北市板橋區民生路一段42號","121.474496666667","25.01476","6500100","板橋區"
"220084","296-UM","2018/08/07 18:59:18","新北市板橋區大觀路二段142號","121.44272","24.9991183333333","6500100","板橋區"
"220075","303-R5","2018/08/07 18:59:25","新北市板橋區後菜園街54號","121.45609","25.0100833333333","6500100","板橋區"
"220092","307-R5","2018/08/07 18:59:27","新北市板橋區漢生東路83巷1號","121.466211666667","25.015895","6500100","板橋區"
"220098","317-R6","2018/08/07 18:59:17","新北市板橋區民有街17號","121.466231666667","25.024865","6500100","板橋區"
"220064","486-VK","2018/08/07 18:59:22","新北市板橋區縣民大道二段102號","121.466821666667","25.0151083333333","6500100","板橋區"
"220088","491-VK","2018/08/07 18:59:27","新北市板橋區民生路二段216號","121.469376666667","25.021505","6500100","板橋區"
"220035","560-BX","2018/08/07 18:59:25","新北市板橋區中正路341巷35號","121.454131666667","25.0197733333333","6500100","板橋區"
"220103","561-BX","2018/08/07 18:59:24","新北市板橋區縣民大道三段32號","121.471535","25.0185483333333","6500100","板橋區"
"220071","568-UM","2018/08/07 18:59:10","新北市板橋區忠孝路132巷1號","121.463441666667","25.0022033333333","6500100","板橋區"
"220063","609-BX","2018/08/07 18:59:14","新北市板橋區中山路二段159號","121.475776666667","25.0167633333333","6500100","板橋區"
"220054","630-UY","2018/08/07 18:59:12","新北市板橋區後埔街60號","121.460603333333","25.0055916666667","6500100","板橋區"
"220057","686-BX","2018/08/07 18:59:18","新北市板橋區重慶路103號","121.462091666667","25.0054116666667","6500100","板橋區"
"220077","687-BX","2018/08/07 18:59:28","新北市板橋區大觀路二段146-2號","121.442095","24.9988333333333","6500100","板橋區"
"220093","689-BX","2018/08/07 18:59:23","新北市板橋區民生路三段64號","121.466965","25.0254383333333","6500100","板橋區"
"220102","KEA-2699","2018/08/07 18:59:24","新北市板橋區萬板路706號","121.481566666667","25.027445","6500100","板橋區"
"220067","829-TW","2018/08/07 18:59:17","新北市板橋區民享街116巷12號","121.478488333333","25.0154733333333","6500100","板橋區"
"220068","830-TW","2018/08/07 18:59:18","新北市板橋區中山路二段465巷78號","121.481146666667","25.0222883333333","6500100","板橋區"
"220096","831-TW","2018/08/07 18:59:07","新北市板橋區莒光路118號","121.47253","25.0239616666667","6500100","板橋區"
"220089","833-TW","2018/08/07 18:59:24","新北市板橋區文化路二段410巷2號","121.474001666667","25.031525","6500100","板橋區"
"220074","895-R6","2018/08/07 18:59:22","新北市板橋區文昌街22號","121.455911666667","25.0107083333333","6500100","板橋區"
"220073","985-R7","2018/08/07 18:59:13","新北市板橋區民權路254號","121.458241666667","25.0149","6500100","板橋區"
"220097","AAC-210","2018/08/07 18:59:19","新北市板橋區漢生東路73巷1號","121.466251666667","25.0162333333333","6500100","板橋區"
"220070","AAC-253","2018/08/07 18:59:23","新北市板橋區四川路一段327號","121.458661666667","25.00051","6500100","板橋區"
"235061","KEA-2875","2018/08/07 18:59:25","新北市中和區民享街69巷7號","121.47467","25.002335","6500300","中和區"
