"lineid","car","time","location","longitude","latitude","cityid","cityname"
"234046","148-BY","2018/08/07 19:29:56","新北市永和區秀朗路二段259號","121.526315","24.99917","6500400","永和區"
"234007","207-UY","2018/08/07 19:29:40","新北市永和區永和路一段186號","121.514335","25.0090583333333","6500400","永和區"
"234081","298-R6","2018/08/07 19:29:41","新北市永和區環河東路三段54號","121.526843333333","25.00622","6500400","永和區"
"234064","337-UY","2018/08/07 19:29:51","新北市永和區永元路17巷25弄9號","121.520808333333","25.001615","6500400","永和區"
"234086","338-UY","2018/08/07 19:29:59","新北市永和區國中路4號","121.524335","25.0043783333333","6500400","永和區"
"234070","552-UM","2018/08/07 19:29:50","新北市永和區竹林路175號","121.520558333333","25.009835","6500400","永和區"
"234017","745-BX","2018/08/07 19:29:45","新北市永和區環河西路一段51巷1號","121.514171666667","25.0181316666667","6500400","永和區"
"234030","746-BX","2018/08/07 19:29:42","新北市永和區民生路49號","121.522706666667","24.9978466666667","6500400","永和區"
"234054","KEA-2590","2018/08/07 19:29:45","新北市永和區復興街19巷2號","121.516146666667","25.0131183333333","6500400","永和區"
"234013","KEA-2591","2018/08/07 19:29:41","新北市永和區中山路一段143號","121.510271666667","25.0097516666667","6500400","永和區"
"234061","AAD-866","2018/08/07 19:29:59","新北市永和區中正路399號","121.5171","25.0041966666667","6500400","永和區"
"234038","847-RS","2018/08/07 19:29:46","新北市永和區民樂街38號","121.527473333333","25.0006366666667","6500400","永和區"
"234042","862-TW","2018/08/07 19:29:46","新北市永和區中和路573號","121.511736666667","25.0034366666667","6500400","永和區"
"234050","863-TW","2018/08/07 19:29:55","新北市永和區仁愛路127號","121.511851666667","25.0130966666667","6500400","永和區"
"234026","9371-KE","2018/08/07 19:29:41","新北市中和區中安街88號","121.51201","25.0015533333333","6500400","永和區"
"234011","9373-KE","2018/08/07 19:29:49","新北市永和區保福路二段163巷13弄16號","121.509148333333","25.0142616666667","6500400","永和區"
"249002","305-UY","2018/08/07 19:29:54","新北市八里區龍形一街33巷6-2號","121.449276666667","25.12946","6502300","八里區"
"249003","593-UM","2018/08/07 19:29:50","新北市八里區商港六路23號","121.396643333333","25.148585","6502300","八里區"
"248008","095-VK","2018/08/07 19:29:52","新北市五股區中興路一段93號","121.46667","25.0728066666667","6501500","五股區"
"248020","225-UY","2018/08/07 19:29:59","新北市五股區凌雲路三段41-1號","121.43113","25.1180683333333","6501500","五股區"
"248012","247-BX","2018/08/07 19:29:58","新北市五股區工商路83號","121.437931666667","25.08489","6501500","五股區"
"248014","261-SL","2018/08/07 19:29:53","新北市五股區民義路一段161-16號","121.431703333333","25.0868166666667","6501500","五股區"
"248010","272-BY","2018/08/07 19:29:40","新北市五股區自強路90巷72號","121.430761666667","25.07114","6501500","五股區"
"248004","677-BX","2018/08/07 19:29:43","新北市五股區工商路140號","121.435043333333","25.0866216666667","6501500","五股區"
"248002","678-BX","2018/08/07 19:29:57","新北市五股區凌雲路一段158巷14-1號","121.447798333333","25.1034466666667","6501500","五股區"
"234023","9380-KE","2018/08/07 19:29:50","新北市永和區竹林路91巷43弄2號","121.521311666667","25.012855","6500400","永和區"
"234077","969-R7","2018/08/07 19:29:37","新北市永和區民權路58巷3號","121.51963","24.9982516666667","6500400","永和區"
"234074","AAC-211","2018/08/07 19:29:48","新北市永和區永和路二段252號","121.515988333333","25.0148783333333","6500400","永和區"
"234067","AAC-212","2018/08/07 19:29:42","新北市永和區保平路186號","121.510545","25.006475","6500400","永和區"
"234003","AAC-295","2018/08/07 19:29:41","新北市永和區福和路379號","121.514411666667","25.0075066666667","6500400","永和區"
"244019","403-UM","2018/08/07 19:29:56","新北市林口區嘉溪雅坑6-1號","121.341775","25.106045","6501700","林口區"
"244023","483-VK","2018/08/07 19:29:37","新北市林口區民有街30號","121.371975","25.07664","6501700","林口區"
"243013","AAD-798","2018/08/07 19:29:52","新北市泰山區貴子路38號","121.425958333333","25.0415683333333","6501600","泰山區"
"243009","297-R6","2018/08/07 19:29:51","新北市泰山區半山雅4號","121.431725","25.0673966666667","6501600","泰山區"
"243016","KEA-2801","2018/08/07 19:29:37","新北市泰山區工專路74號","121.422458333333","25.040535","6501600","泰山區"
"243015","421-VK","2018/08/07 19:29:50","新北市泰山區民權街15號","121.428376666667","25.05092","6501600","泰山區"
"243011","KEA-2215","2018/08/07 19:29:59","新北市泰山區貴子路19-1號","121.428091666667","25.0407466666667","6501600","泰山區"
"243010","KEA-2216","2018/08/07 19:29:41","新北市泰山區民生路17巷62號","121.429158333333","25.0509733333333","6501600","泰山區"
"243012","646-TV","2018/08/07 19:29:56","新北市泰山區明志路一段501巷19號","121.431316666667","25.0545466666667","6501600","泰山區"
"243014","680-BX","2018/08/07 19:29:50","新北市泰山區泰林路二段85號","121.434876666667","25.058735","6501600","泰山區"
"222003","436-BY","2018/08/07 19:29:37","新北市深坑區深南路51-1號","121.621208333333","25.0098283333333","6501800","深坑區"
"222002","659-BX","2018/08/07 19:29:57","新北市深坑區北深路一段177號","121.632571666667","25.0108783333333","6501800","深坑區"
"231041","002-UM","2018/08/07 19:29:44","新北市新店區中正路558號","121.533663333333","24.987135","6500600","新店區"
"231059","046-UY","2018/08/07 19:29:53","新北市新店區安和路三段4巷1-3號","121.518198333333","24.9805633333333","6500600","新店區"
"231040","047-UY","2018/08/07 19:29:56","新北市新店區北新路一段40號","121.540961666667","24.9660566666667","6500600","新店區"
"231044","106-UY","2018/08/07 19:29:40","新北市新店區中興路三段133號","121.544683333333","24.979595","6500600","新店區"
"231046","107-UY","2018/08/07 19:29:47","新北市新店區光明街179號","121.539653333333","24.9628266666667","6500600","新店區"
"231053","108-UY","2018/08/07 19:30:01","新北市新店區廣興路76巷6號","121.539228333333","24.9132783333333","6500600","新店區"
"231065","110-UY","2018/08/07 19:29:51","新北市新店區安祥路109巷3弄39號","121.478971666667","24.9607333333333","6500600","新店區"
"231048","187-VK","2018/08/07 19:29:48","新北市新店區五峰路149號","121.544935","24.9656533333333","6500600","新店區"
"231054","KEA-2219","2018/08/07 19:29:49","新北市新店區文中路45號","121.539651666667","24.956665","6500600","新店區"
"231057","256-BX","2018/08/07 19:29:55","新北市新店區花園一路二段27號","121.551331666667","24.9324816666667","6500600","新店區"
"231042","268-BY","2018/08/07 19:29:45","新北市新店區北宜路一段3號","121.5384","24.95842","6500600","新店區"
"231051","278-BY","2018/08/07 19:29:42","新北市新店區中央五街85號","121.526325","24.9763583333333","6500600","新店區"
"231050","AAD-862","2018/08/07 19:29:46","新北市新店區竹林路151號","121.555586666667","24.9487666666667","6500600","新店區"
"231058","3713-VJ","2018/08/07 19:29:45","新北市新店區寶橋路69-1號","121.545478333333","24.975055","6500600","新店區"
"231066","4716-K9","2018/08/07 19:29:48","新北市新店區安康路三段359巷16號","121.484593333333","24.949595","6500600","新店區"
"231056","4715-K9","2018/08/07 19:29:50","新北市新店區安康路二段414巷2號","121.495836666667","24.95784","6500600","新店區"
"231049","513-UM","2018/08/07 19:29:56","新北市新店區北新路三段105巷11號","121.540636666667","24.9820283333333","6500600","新店區"
"231063","616-UM","2018/08/07 19:29:50","新北市新店區達觀路16號","121.502898333333","24.9411166666667","6500600","新店區"
"231045","617-UM","2018/08/07 19:29:41","新北市新店區北宜路二段211號","121.553211666667","24.9533216666667","6500600","新店區"
"231061","619-UM","2018/08/07 19:29:56","新北市新店區安康路一段266巷4號","121.520115","24.9640366666667","6500600","新店區"
"231064","719-UM","2018/08/07 19:29:50","新北市新店區安忠路25號","121.514458333333","24.9614866666667","6500600","新店區"
"231062","720-UM","2018/08/07 19:29:47","新北市新店區莒光路20號","121.523946666667","24.95944","6500600","新店區"
"231060","897-TW","2018/08/07 19:29:39","新北市新店區安康路二段3-1號","121.515965","24.9636983333333","6500600","新店區"
"231043","899-TW","2018/08/07 19:29:56","新北市新店區北新路二段228巷1號","121.543081666667","24.9777433333333","6500600","新店區"
"231055","AKT-0513","2018/08/07 19:29:57","新北市新店區力行路30號","121.539208333333","24.9646283333333","6500600","新店區"
"241028","022-UY","2018/08/07 19:29:43","新北市三重區中寮街90號","121.493183333333","25.0580483333333","6500200","三重區"
"241031","061-VK","2018/08/07 19:29:48","新北市三重區集美街100號","121.48854","25.0541116666667","6500200","三重區"
"241017","063-VK","2018/08/07 19:29:50","新北市三重區國隆路21號","121.492796666667","25.0641583333333","6500200","三重區"
"241026","066-VK","2018/08/07 19:29:49","新北市三重區文化南路47巷2弄1號","121.499885","25.0613066666667","6500200","三重區"
"241022","265-UM","2018/08/07 19:29:58","新北市三重區三民街167號","121.483403333333","25.0647933333333","6500200","三重區"
"241009","267-UM","2018/08/07 19:29:41","新北市三重區溪尾街242巷49號","121.486415","25.0815533333333","6500200","三重區"
"241032","269-UM","2018/08/07 19:29:50","新北市三重區三陽路106號","121.483378333333","25.058705","6500200","三重區"
"241013","270-UM","2018/08/07 19:29:43","新北市三重區仁愛街127號","121.495543333333","25.07484","6500200","三重區"
"241025","271-UM","2018/08/07 19:29:40","新北市三重區頂崁街210巷28弄5號","121.47584","25.0675866666667","6500200","三重區"
"241007","398-BY","2018/08/07 19:29:43","新北市三重區溪尾街124-1號","121.489433333333","25.0793183333333","6500200","三重區"
"241035","KEA-2210","2018/08/07 19:29:46","新北市三重區信義西街1號","121.498115","25.064835","6500200","三重區"
"241030","480-VK","2018/08/07 19:29:44","新北市三重區環河南路254巷25號","121.490058333333","25.0513266666667","6500200","三重區"
"241023","545-UM","2018/08/07 19:29:54","新北市三重區頂崁街99號","121.478","25.06382","6500200","三重區"
"241006","AAD-863","2018/08/07 19:29:42","新北市三重區自強路三段75號","121.486868333333","25.073725","6500200","三重區"
"241029","942-UM","2018/08/07 19:29:48","新北市三重區中正南路216號","121.493758333333","25.0551466666667","6500200","三重區"
"235066","003-UY","2018/08/07 19:29:43","新北市中和區景新街48號","121.503865","24.9992616666667","6500300","中和區"
"235064","005-UY","2018/08/07 19:29:50","新北市中和區南山路81巷58號","121.503921666667","24.9981333333333","6500300","中和區"
"235063","006-UY","2018/08/07 19:29:59","新北市中和區連城路203巷10弄2號","121.49499","24.9973316666667","6500300","中和區"
"235056","096-UM","2018/08/07 19:29:51","新北市中和區民富街19號","121.476416666667","25.0074816666667","6500300","中和區"
"235039","097-UM","2018/08/07 19:29:42","新北市中和區秀峰街119巷6弄18號","121.518933333333","24.9899333333333","6500300","中和區"
"235065","098-UM","2018/08/07 19:29:56","新北市中和區中山路二段2巷17號","121.503688333333","25.006695","6500300","中和區"
"235040","150-BY","2018/08/07 19:29:55","新北市中和區保健路10巷25弄1號","121.508261666667","24.9964933333333","6500300","中和區"
"235058","151-BY","2018/08/07 19:29:49","新北市中和區連城路376號","121.481298333333","24.995165","6500300","中和區"
"235055","183-VK","2018/08/07 19:29:55","新北市中和區莒光路120巷58號","121.471643333333","25.0007216666667","6500300","中和區"
"235038","185-VK","2018/08/07 19:29:54","新北市中和區自立路99巷1號","121.522033333333","24.9948733333333","6500300","中和區"
"235013","186-VK","2018/08/07 19:29:58","新北市中和區景新街285號","121.50983","24.9934933333333","6500300","中和區"
"235067","255-BX","2018/08/07 19:29:40","新北市中和區連城路324號","121.483316666667","24.99601","6500300","中和區"
"235044","293-VK","2018/08/07 19:29:52","新北市中和區捷運路122號","121.505376666667","24.99148","6500300","中和區"
"235072","301-VK","2018/08/07 19:29:49","新北市中和區連城路263-2號","121.491511666667","24.996445","6500300","中和區"
"235043","352-BY","2018/08/07 19:29:52","新北市中和區南山路78號","121.502616666667","24.9952216666667","6500300","中和區"
"235042","KEA-2878","2018/08/07 19:29:47","新北市中和區中和路262巷43弄2號","121.509833333333","24.9997766666667","6500300","中和區"
"235050","4979-A6","2018/08/07 19:29:49","新北市中和區中正路196號","121.497188333333","24.9939733333333","6500300","中和區"
"235070","558-UM","2018/08/07 19:29:45","新北市中和區景平路634-20號","121.497963333333","25.0001483333333","6500300","中和區"
"235045","565-BX","2018/08/07 19:29:44","新北市中和區景新街388號","121.512438333333","24.9898766666667","6500300","中和區"
"235054","640-BX","2018/08/07 19:29:42","新北市中和區國光街107巷4弄2號","121.470336666667","24.9997466666667","6500300","中和區"
"235060","647-TV","2018/08/07 19:29:42","新北市中和區新生街112巷20號","121.48244","25.0029533333333","6500300","中和區"
"235047","732-UM","2018/08/07 19:29:52","新北市中和區景平路241巷53號","121.508081666667","24.99226","6500300","中和區"
"235046","733-UM","2018/08/07 19:29:40","新北市中和區忠孝街37巷67號","121.510576666667","24.9847933333333","6500300","中和區"
"235071","783-BX","2018/08/07 19:29:40","新北市中和區連城路469巷21弄22號","121.484248333333","24.995045","6500300","中和區"
"235057","801-TS","2018/08/07 19:29:44","新北市中和區中山路三段4號","121.47969","25.0060466666667","6500300","中和區"
"235041","802-TS","2018/08/07 19:29:45","新北市中和區中安街132號","121.510951666667","25.0004016666667","6500300","中和區"
"235052","805-TS","2018/08/07 19:29:46","新北市中和區華新街143巷65弄1號","121.506548333333","24.97902","6500300","中和區"
"235048","896-TW","2018/08/07 19:29:58","新北市中和區忠孝街146號","121.512481666667","24.98725","6500300","中和區"
"235053","900-TW","2018/08/07 19:29:46","新北市中和區華順街2巷3號","121.467448333333","24.9991266666667","6500300","中和區"
"235051","157-BY","2018/08/07 19:29:55","新北市中和區景新街140-1號","121.505315","24.9977883333333","6500300","中和區"
"235037","AAC-213","2018/08/07 19:29:47","新北市中和區自立路15巷8號","121.523008333333","24.9959416666667","6500300","中和區"
"220106","013-TV","2018/08/07 19:29:58","新北市板橋區文化路二段437號","121.47468","25.0333483333333","6500100","板橋區"
"220055","015-TV","2018/08/07 19:29:58","新北市板橋區重慶路290巷22弄23號","121.4622","24.9993933333333","6500100","板橋區"
"220065","072-UY","2018/08/07 19:29:54","新北市板橋區國泰街75巷28弄54號","121.46769","25.0047733333333","6500100","板橋區"
"220086","073-UY","2018/08/07 19:29:47","新北市板橋區中正路236巷92號","121.458535","25.0193216666667","6500100","板橋區"
"220069","AAD-861","2018/08/07 19:29:51","新北市板橋區大明街20巷29弄8號","121.457928333333","25.0035033333333","6500100","板橋區"
"226004","312-R5","2018/08/07 19:29:59","新北市平溪區十分里十分街66巷17號","121.774896666667","25.0426933333333","6502400","平溪區"
"235059","251-BX","2018/08/07 19:29:55","新北市中和區圓通路252巷27號","121.492845","24.99174","6500300","中和區"
"228001","212-TW","2018/08/07 19:29:42","新北市貢寮區真理里延平街68號","121.925376666667","25.0574133333333","6502600","貢寮區"
"228002","663-BX","2018/08/07 19:29:56","新北市貢寮區龍門里龍門街76號","121.931343333333","25.027015","6502600","貢寮區"
"228003","828-UM","2018/08/07 19:29:52","新北市貢寮區和美里和美街19-2號","121.912795","25.0826066666667","6502600","貢寮區"
"224010","AGQ-8101","2018/08/07 19:29:11","新北市瑞芳區基山街105號","121.84455","25.10851","6501200","瑞芳區"
"224002","639-TC","2018/08/07 19:29:39","新北市瑞芳區三爪子坑路11號","121.813966666667","25.1075333333333","6501200","瑞芳區"
"224008","285-BY","2018/08/07 19:30:01","新北市瑞芳區一坑路63號","121.802608333333","25.108015","6501200","瑞芳區"
"227003","642-TC","2018/08/07 19:29:53","新北市雙溪區雙溪里光復街14號","121.864998333333","25.0354183333333","6502500","雙溪區"
"227009","400-TW","2018/08/07 19:29:59","新北市雙溪區新基里新基北街43號","121.868171666667","25.0396833333333","6502500","雙溪區"
"253005","032-BX","2018/08/07 19:29:43","新北市石門區小坑9號","121.594375","25.28844","6502200","石門區"
"253006","295-VK","2018/08/07 19:29:53","新北市石門區小坑9號","121.594455","25.2872333333333","6502200","石門區"
"222001","KEA-2212","2018/08/07 19:29:52","新北市深坑區深坑街10號","121.615886666667","25.0027766666667","6501800","深坑區"
"208002","KEA-2872","2018/08/07 19:29:56","新北市金山區仁愛路70號","121.634855","25.2212483333333","6502700","金山區"
"208003","665-BX","2018/08/07 19:29:58","新北市金山區中山路263巷10號","121.63623","25.2216616666667","6502700","金山區"
"208001","761-BX","2018/08/07 19:29:49","新北市金山區金包里街129號","121.636946666667","25.22251","6502700","金山區"
"251005","010-UM","2018/08/07 19:29:48","新北市淡水區水源街一段71巷24號","121.444221666667","25.173015","6501000","淡水區"
"251001","011-UM","2018/08/07 19:29:53","新北市淡水區民權路143號","121.460108333333","25.1363233333333","6501000","淡水區"
"251013","KEA-2871","2018/08/07 19:29:45","新北市淡水區安子內16-1號","121.477066666667","25.2190216666667","6501000","淡水區"
"251016","179-VK","2018/08/07 19:29:51","新北市淡水區下圭柔山119-51號","121.4507","25.2084833333333","6501000","淡水區"
"251014","180-VK","2018/08/07 19:29:44","新北市淡水區小中寮15-1號","121.485541666667","25.2303183333333","6501000","淡水區"
"251015","181-VK","2018/08/07 19:29:54","新北市淡水區山子頂24-1號","121.491461666667","25.1873433333333","6501000","淡水區"
"251010","413-VK","2018/08/07 19:29:50","新北市淡水區中正路二段142-2號","121.422133333333","25.18756","6501000","淡水區"
"251012","441-VK","2018/08/07 19:29:47","新北市淡水區中山北路三段156號","121.445573333333","25.195755","6501000","淡水區"
"251008","442-VK","2018/08/07 19:29:44","新北市淡水區中正路一段68號","121.425213333333","25.1769683333333","6501000","淡水區"
"251006","561-UM","2018/08/07 19:29:51","新北市淡水區大義街43號","121.441865","25.17831","6501000","淡水區"
"251009","575-R6","2018/08/07 19:29:47","新北市淡水區大忠街5巷8號","121.443381666667","25.1765083333333","6501000","淡水區"
"251007","577-R6","2018/08/07 19:29:51","新北市淡水區坪頂路46號","121.45773","25.1622783333333","6501000","淡水區"
"251011","650-BX","2018/08/07 19:29:47","新北市淡水區中正東路二段143巷2弄1號","121.460756666667","25.1473816666667","6501000","淡水區"
"251003","673-BX","2018/08/07 19:29:48","新北市淡水區中山北路三段165-1號","121.445006666667","25.1969366666667","6501000","淡水區"
"207003","550-UM","2018/08/07 19:29:39","新北市萬里區大鵬里萬里加投197-5號","121.643991666667","25.21508","6502800","萬里區"
"207004","225-TW","2018/08/07 19:29:45","新北市萬里區萬里里瑪鋉路123號","121.689045","25.1781866666667","6502800","萬里區"
"252002","178-VK","2018/08/07 19:29:44","新北市三芝區淡金路二段18-1號","121.502665","25.2594783333333","6502100","三芝區"
"252001","292-VK","2018/08/07 19:29:43","新北市三芝區長勤街63-1號","121.500116666667","25.256115","6502100","三芝區"
"237004","KEA-2597","2018/08/07 19:29:54","新北市三峽區有木206號","121.439118333333","24.8514966666667","6500900","三峽區"
"237007","153-BY","2018/08/07 19:29:47","新北市三峽區二鬮路136巷18弄17號","121.35881","24.9082216666667","6500900","三峽區"
"237009","210-TH","2018/08/07 19:29:54","新北市三峽區民權街145號","121.368746666667","24.9318183333333","6500900","三峽區"
"237013","252-BX","2018/08/07 19:29:45","新北市三峽區介壽路一段286號","121.380046666667","24.9302066666667","6500900","三峽區"
"237012","275-BY","2018/08/07 19:29:43","新北市三峽區民生街10號","121.376146666667","24.9367583333333","6500900","三峽區"
"237008","302-VK","2018/08/07 19:29:51","新北市三峽區永安街95巷8號","121.374753333333","24.9285783333333","6500900","三峽區"
"237014","433-BY","2018/08/07 19:29:57","新北市三峽區民權街203號","121.367713333333","24.928465","6500900","三峽區"
"237006","5529-G3","2018/08/07 19:29:41","新北市三峽區中正路一段336巷15弄2號","121.369958333333","24.92494","6500900","三峽區"
"237016","649-BX","2018/08/07 19:29:54","新北市三峽區安坑27-3號","121.446325","24.9284666666667","6500900","三峽區"
"237010","706-TV","2018/08/07 19:29:45","新北市三峽區復興路49號","121.373353333333","24.9370033333333","6500900","三峽區"
"237005","AKY-6261","2018/08/07 19:29:59","新北市三峽區復興路367巷19號","121.363783333333","24.9375816666667","6500900","三峽區"
"236070","105-UM","2018/08/07 19:29:57","新北市土城區裕民路185巷36弄10號","121.454326666667","24.9845366666667","6501300","土城區"
"236042","107-UM","2018/08/07 19:29:55","新北市土城區學府路一段239號","121.450431666667","24.9833816666667","6501300","土城區"
"236079","166-UM","2018/08/07 19:30:01","新北市土城區中州路27巷78號","121.412611666667","24.95638","6501300","土城區"
"236026","269-VK","2018/08/07 19:29:57","新北市土城區中央路二段61巷22號","121.443248333333","24.9787566666667","6501300","土城區"
"236014","270-VK","2018/08/07 19:29:51","新北市土城區廣福街123號","121.456255","24.992815","6501300","土城區"
"236021","401-BY","2018/08/07 19:29:48","新北市土城區峰廷街18號","121.469005","24.9872983333333","6501300","土城區"
"236059","912-UM","2018/08/07 19:29:51","新北市土城區中央路二段63號","121.442713333333","24.9789216666667","6501300","土城區"
"236049","913-UM","2018/08/07 19:29:46","新北市土城區清水路200號","121.460431666667","24.9818333333333","6501300","土城區"
"236055","AAC-216","2018/08/07 19:29:53","新北市土城區學府路一段276號","121.45033","24.983255","6501300","土城區"
"242032","135-UY","2018/08/07 19:29:46","新北市新莊區新泰路225巷22弄1號","121.445208333333","25.0392316666667","6500500","新莊區"
"242048","172-VK","2018/08/07 19:29:45","新北市新莊區民安路49號","121.4239","25.0262466666667","6500500","新莊區"
"242011","173-VK","2018/08/07 19:28:30","新北市新莊區新泰路357巷3弄57號","121.442023333333","25.03903","6500500","新莊區"
"242005","176-VK","2018/08/07 19:29:40","新北市新莊區化成路11巷66號","121.462326666667","25.0435183333333","6500500","新莊區"
"242013","347-TH","2018/08/07 19:29:54","新北市新莊區新泰路502巷44號","121.443921666667","25.0464066666667","6500500","新莊區"
"242021","348-TH","2018/08/07 19:29:39","新北市新莊區新泰路255巷83號","121.442135","25.0390583333333","6500500","新莊區"
"238023","601-UM","2018/08/07 19:29:56","新北市樹林區三福街114號","121.406436666667","25.0163116666667","6500700","樹林區"
"238019","599-UM","2018/08/07 19:29:53","新北市樹林區鎮前街347巷3弄38號","121.418026666667","24.983955","6500700","樹林區"
"238018","571-TV","2018/08/07 19:29:54","新北市樹林區中華路7號","121.42447","24.9838733333333","6500700","樹林區"
"238022","KEA-2213","2018/08/07 19:29:58","新北市樹林區太元街91號","121.419405","24.9779016666667","6500700","樹林區"
"238021","KEA-2539","2018/08/07 19:29:46","新北市樹林區佳園路三段546-1號","121.380741666667","24.9442366666667","6500700","樹林區"
"238025","303-VK","2018/08/07 19:29:51","新北市樹林區中山路一段139號","121.422308333333","24.9896833333333","6500700","樹林區"
"238017","283-BY","2018/08/07 19:29:50","新北市樹林區保安街二段167巷30號","121.414051666667","25.00277","6500700","樹林區"
"238014","282-BY","2018/08/07 19:29:51","新北市樹林區千歲街4號","121.42503","24.99574","6500700","樹林區"
"238020","268-VK","2018/08/07 19:29:44","新北市樹林區俊保路6號","121.425121666667","25.00934","6500700","樹林區"
"238026","172-UY","2018/08/07 19:29:38","新北市樹林區佳園路二段138號","121.389551666667","24.956115","6500700","樹林區"
"239007","AAC-297","2018/08/07 19:29:41","新北市鶯歌區大湖路326巷2弄3號","121.345776666667","24.9702333333333","6500800","鶯歌區"
"239006","891-R6","2018/08/07 19:29:55","新北市鶯歌區重慶街6-1號","121.351941666667","24.9527266666667","6500800","鶯歌區"
"239001","417-VK","2018/08/07 19:29:50","新北市鶯歌區鶯桃路12-1號","121.342586666667","24.951625","6500800","鶯歌區"
"239003","360-BY","2018/08/07 19:29:55","新北市樹林區中山路三段210-2號","121.38121","24.9658133333333","6500800","鶯歌區"
"239002","359-BY","2018/08/07 19:29:50","新北市鶯歌區大湖路159號","121.344146666667","24.96693","6500800","鶯歌區"
"239004","193-VK","2018/08/07 19:29:42","新北市鶯歌區二甲路佳美巷31號","121.337831666667","24.9338216666667","6500800","鶯歌區"
"221008","489-VK","2018/08/07 19:29:51","新北市汐止區康寧街145號","121.621831666667","25.0667366666667","6501100","汐止區"
"221036","130-UY","2018/08/07 19:29:37","新北市汐止區汐萬路一段312號","121.650688333333","25.0752966666667","6501100","汐止區"
"221015","131-UY","2018/08/07 19:29:38","新北市汐止區康寧街901號","121.651583333333","25.0748833333333","6501100","汐止區"
"221010","269-BY","2018/08/07 19:29:46","新北市汐止區連峰街5巷2號","121.64652","25.0770483333333","6501100","汐止區"
"221012","278-VK","2018/08/07 19:29:47","新北市汐止區大同路三段222-5號","121.6754","25.0728616666667","6501100","汐止區"
"221023","279-VK","2018/08/07 19:29:48","新北市汐止區康寧街607號","121.63607","25.0708716666667","6501100","汐止區"
"221027","281-BY","2018/08/07 19:29:47","新北市汐止區忠孝東路9號","121.6583","25.065955","6501100","汐止區"
"221029","298-VK","2018/08/07 19:30:00","新北市汐止區康寧街901號","121.65147","25.0749116666667","6501100","汐止區"
"221021","299-VK","2018/08/07 19:29:54","新北市汐止區康寧街901號","121.651475","25.075015","6501100","汐止區"
"221031","353-TW","2018/08/07 19:29:50","新北市汐止區康寧街901號","121.650905","25.0752916666667","6501100","汐止區"
"221002","129-UY","2018/08/07 19:29:42","新北市汐止區大同路一段337巷15弄1號","121.637716666667","25.0599666666667","6501100","汐止區"
"221025","623-UM","2018/08/07 19:29:54","新北市汐止區新台五路二段10號","121.660301666667","25.0650316666667","6501100","汐止區"
"221038","646-BX","2018/08/07 19:29:53","新北市汐止區大同路二段431號","121.658941666667","25.067265","6501100","汐止區"
"221033","647-BX","2018/08/07 19:29:56","新北市汐止區南勢街1巷1號","121.627053333333","25.0375416666667","6501100","汐止區"
"220079","145-BY","2018/08/07 19:29:53","新北市板橋區民權路306號","121.457248333333","25.0161616666667","6500100","板橋區"
"220080","200-UY","2018/08/07 19:29:55","新北市板橋區大觀路二段37巷180號","121.449506666667","25.00218","6500100","板橋區"
"220082","610-BX","2018/08/07 19:29:59","新北市板橋區金門街231號","121.432181666667","24.9895883333333","6500100","板橋區"
"220101","245-BX","2018/08/07 19:29:49","新北市板橋區莊敬路262-1號","121.474203333333","25.021835","6500100","板橋區"
"220091","267-BY","2018/08/07 19:29:49","新北市板橋區文聖街149巷23弄5號","121.479295","25.0287166666667","6500100","板橋區"
"220056","276-BY","2018/08/07 19:29:39","新北市板橋區信義路1巷26弄37號","121.458976666667","24.996735","6500100","板橋區"
"220072","277-BY","2018/08/07 19:29:50","新北市板橋區金門街253巷16弄11號","121.432691666667","24.9879383333333","6500100","板橋區"
"220094","285-UM","2018/08/07 19:29:44","新北市板橋區松江街118號","121.469293333333","25.0302433333333","6500100","板橋區"
"220053","285-VK","2018/08/07 19:29:43","新北市板橋區永豐街171號","121.475763333333","25.0205333333333","6500100","板橋區"
"220083","286-VK","2018/08/07 19:29:59","新北市板橋區龍興街73巷50號","121.442048333333","25.0029333333333","6500100","板橋區"
"220081","287-VK","2018/08/07 19:29:53","新北市板橋區大觀路一段75巷18號","121.447926666667","25.0043516666667","6500100","板橋區"
"220090","288-VK","2018/08/07 19:29:54","新北市板橋區裕民街83號","121.460585","25.0281816666667","6500100","板橋區"
"220061","293-UM","2018/08/07 19:29:59","新北市板橋區中山路二段255巷7號","121.477035","25.017965","6500100","板橋區"
"220062","295-UM","2018/08/07 19:29:52","新北市板橋區三民路二段153巷5弄11號","121.480308333333","25.015055","6500100","板橋區"
"220084","296-UM","2018/08/07 19:29:58","新北市板橋區滿平街84巷100弄6號","121.426233333333","24.9864566666667","6500100","板橋區"
"220075","303-R5","2018/08/07 19:29:58","新北市板橋區中正路253巷31號","121.454071666667","25.0176883333333","6500100","板橋區"
"220092","307-R5","2018/08/07 19:30:00","新北市板橋區松江街14號","121.46919","25.02627","6500100","板橋區"
"220098","317-R6","2018/08/07 19:29:56","新北市板橋區四維路266巷5弄17號","121.463513333333","25.028935","6500100","板橋區"
"220064","486-VK","2018/08/07 19:29:42","新北市板橋區中山路一段7號","121.45995","25.00811","6500100","板橋區"
"220088","491-VK","2018/08/07 19:29:54","新北市板橋區文化路二段426號","121.47427","25.03198","6500100","板橋區"
"220035","560-BX","2018/08/07 19:29:45","新北市板橋區中正路399巷34號","121.452908333333","25.0229483333333","6500100","板橋區"
"220103","561-BX","2018/08/07 19:29:44","新北市板橋區文化路一段208號","121.466456666667","25.0201083333333","6500100","板橋區"
"220071","568-UM","2018/08/07 19:29:50","新北市板橋區四川路一段325巷3弄6號","121.459588333333","25.00038","6500100","板橋區"
"220063","609-BX","2018/08/07 19:29:53","新北市板橋區三民路一段31巷87弄9-2號","121.48132","25.023365","6500100","板橋區"
"220054","630-UY","2018/08/07 19:29:52","新北市板橋區光明街81號","121.462211666667","25.0029183333333","6500100","板橋區"
"220057","686-BX","2018/08/07 19:29:38","新北市板橋區和平路96號","121.461848333333","24.9946266666667","6500100","板橋區"
"220077","687-BX","2018/08/07 19:29:52","新北市板橋區僑中二街116巷1號","121.44572","25.0062083333333","6500100","板橋區"
"220093","689-BX","2018/08/07 19:29:48","新北市板橋區新海路389號","121.458893333333","25.0263366666667","6500100","板橋區"
"220102","KEA-2699","2018/08/07 19:29:44","新北市板橋區雙十路二段108號","121.474631666667","25.0287283333333","6500100","板橋區"
"220067","829-TW","2018/08/07 19:29:56","新北市板橋區長安街138巷5弄12號","121.473228333333","25.0088183333333","6500100","板橋區"
"220068","830-TW","2018/08/07 19:29:57","新北市板橋區翠華街6巷70號","121.481745","25.0249866666667","6500100","板橋區"
"220096","831-TW","2018/08/07 19:29:47","新北市板橋區大同街14-4號","121.477521666667","25.0269833333333","6500100","板橋區"
"220089","833-TW","2018/08/07 19:29:44","新北市板橋區文化路一段31號","121.46029","25.012835","6500100","板橋區"
"220074","895-R6","2018/08/07 19:29:51","新北市板橋區後菜園街4號","121.457696666667","25.0105166666667","6500100","板橋區"
"220073","985-R7","2018/08/07 19:29:53","新北市板橋區國光路1號","121.456476666667","25.0173583333333","6500100","板橋區"
"220097","AAC-210","2018/08/07 19:29:52","新北市板橋區漢生西路131號","121.462858333333","25.02142","6500100","板橋區"
"220070","AAC-253","2018/08/07 19:29:44","新北市板橋區四川路一段22號","121.459468333333","25.0063866666667","6500100","板橋區"
"235061","KEA-2875","2018/08/07 19:29:55","新北市中和區民利街61巷15號","121.478788333333","24.9982116666667","6500300","中和區"
