"lineid","car","time","location","longitude","latitude","cityid","cityname"
"234046","148-BY","2018/08/07 19:39:16","新北市永和區永利路141號","121.524245","25.003585","6500400","永和區"
"234007","207-UY","2018/08/07 19:39:20","新北市中和區中和路454號","121.512093333333","25.0036433333333","6500400","永和區"
"234081","298-R6","2018/08/07 19:39:21","新北市永和區福和路7巷16弄8號","121.525188333333","25.006845","6500400","永和區"
"234064","337-UY","2018/08/07 19:39:12","新北市永和區秀朗路二段24巷18號","121.520063333333","25.0020516666667","6500400","永和區"
"234086","338-UY","2018/08/07 19:39:19","新北市永和區永亨路144號","121.525225","25.00394","6500400","永和區"
"234070","552-UM","2018/08/07 19:39:10","新北市永和區永和路二段237-1號","121.515693333333","25.0144366666667","6500400","永和區"
"234017","745-BX","2018/08/07 19:39:25","新北市永和區永和路二段425巷70號","121.51353","25.0171733333333","6500400","永和區"
"234030","746-BX","2018/08/07 19:39:22","新北市永和區民生路2號","121.522565","24.99813","6500400","永和區"
"234054","KEA-2590","2018/08/07 19:39:25","新北市永和區復興街91號","121.51776","25.0142233333333","6500400","永和區"
"234013","KEA-2591","2018/08/07 19:39:21","新北市永和區永平路250號","121.508501666667","25.0111583333333","6500400","永和區"
"234061","AAD-866","2018/08/07 19:39:12","新北市永和區中正路456號","121.517451666667","25.0029166666667","6500400","永和區"
"234038","847-RS","2018/08/07 19:39:26","新北市永和區民樂街29號","121.527773333333","25.001515","6500400","永和區"
"234042","862-TW","2018/08/07 19:39:26","新北市永和區永貞路265號","121.511818333333","25.0046766666667","6500400","永和區"
"234050","863-TW","2018/08/07 19:39:19","新北市永和區保安路37號","121.509803333333","25.0161216666667","6500400","永和區"
"234026","9371-KE","2018/08/07 19:39:25","新北市永和區中和路501巷2號","121.510545","25.0024783333333","6500400","永和區"
"249002","305-UY","2018/08/07 19:39:14","新北市八里區頂寮二街33-1號","121.450321666667","25.12515","6502300","八里區"
"249003","593-UM","2018/08/07 19:39:10","新北市八里區華峰三街38號","121.399301666667","25.146005","6502300","八里區"
"248016","026-BX","2018/08/07 19:39:24","新北市五股區成泰路三段625號","121.452916666667","25.10409","6501500","五股區"
"248008","095-VK","2018/08/07 19:39:26","新北市五股區四維路153號","121.467681666667","25.07447","6501500","五股區"
"248020","225-UY","2018/08/07 19:39:18","新北市五股區中直路17-2號","121.422721666667","25.1122616666667","6501500","五股區"
"248012","247-BX","2018/08/07 19:39:18","新北市五股區成泰路一段237-2號","121.435983333333","25.0805716666667","6501500","五股區"
"248014","261-SL","2018/08/07 19:39:13","新北市五股區五福路52巷3弄10號","121.433378333333","25.0901566666667","6501500","五股區"
"248010","272-BY","2018/08/07 19:39:19","新北市五股區水碓路28號","121.433071666667","25.0728216666667","6501500","五股區"
"248004","677-BX","2018/08/07 19:39:23","新北市五股區成泰路一段239號","121.436873333333","25.08094","6501500","五股區"
"248002","678-BX","2018/08/07 19:39:20","新北市五股區成泰路三段577巷56號","121.450478333333","25.1032866666667","6501500","五股區"
"234077","969-R7","2018/08/07 19:39:17","新北市永和區民族街67巷20號","121.519546666667","24.9971083333333","6500400","永和區"
"234074","AAC-211","2018/08/07 19:39:28","新北市永和區竹林路225巷13號","121.521608333333","25.00857","6500400","永和區"
"234067","AAC-212","2018/08/07 19:39:22","新北市永和區中山路一段192號","121.508876666667","25.0087766666667","6500400","永和區"
"234003","AAC-295","2018/08/07 19:39:26","新北市永和區自由街58號","121.513781666667","25.0057866666667","6500400","永和區"
"244023","483-VK","2018/08/07 19:39:18","新北市林口區文化三路二段38號","121.373765","25.079405","6501700","林口區"
"243013","AAD-798","2018/08/07 19:37:51","新北市泰山區應化街7號","121.423866666667","25.0437183333333","6501600","泰山區"
"243009","297-R6","2018/08/07 19:39:27","新北市泰山區美寧街71號","121.431025","25.06471","6501600","泰山區"
"243016","KEA-2801","2018/08/07 19:39:17","新北市泰山區明志路三段324號","121.421985","25.0368083333333","6501600","泰山區"
"243015","421-VK","2018/08/07 19:39:10","新北市泰山區文程路18巷35號","121.42814","25.0482266666667","6501600","泰山區"
"243011","KEA-2215","2018/08/07 19:39:19","新北市泰山區中山路二段661號","121.429846666667","25.0397516666667","6501600","泰山區"
"243010","KEA-2216","2018/08/07 19:39:21","新北市泰山區仁愛路6巷36號","121.431401666667","25.0530366666667","6501600","泰山區"
"243012","646-TV","2018/08/07 19:39:15","新北市泰山區全興路258號","121.435788333333","25.0532266666667","6501600","泰山區"
"243014","680-BX","2018/08/07 19:39:30","新北市泰山區仁愛路6巷4弄1號","121.431193333333","25.053645","6501600","泰山區"
"222003","436-BY","2018/08/07 19:39:18","新北市深坑區深南路51-1號","121.621161666667","25.0098","6501800","深坑區"
"222002","659-BX","2018/08/07 19:39:17","新北市深坑區北深路一段177號","121.63257","25.0108683333333","6501800","深坑區"
"231041","002-UM","2018/08/07 19:39:25","新北市新店區中正路487號","121.533726666667","24.9820833333333","6500600","新店區"
"231059","046-UY","2018/08/07 19:39:24","新北市新店區安和路三段59號","121.517953333333","24.98297","6500600","新店區"
"231040","047-UY","2018/08/07 19:39:16","新北市新店區中正路75巷71號","121.543151666667","24.968965","6500600","新店區"
"231044","106-UY","2018/08/07 19:39:20","新北市新店區北新路三段179號","121.540918333333","24.9842516666667","6500600","新店區"
"231046","107-UY","2018/08/07 19:39:27","新北市新店區自由街13號","121.535528333333","24.974915","6500600","新店區"
"231053","108-UY","2018/08/07 19:39:21","新北市新店區新烏路二段301-9號","121.549158333333","24.9120233333333","6500600","新店區"
"231065","110-UY","2018/08/07 19:39:10","新北市新店區安祥路109巷1弄17號","121.476135","24.9598033333333","6500600","新店區"
"231048","187-VK","2018/08/07 19:39:28","新北市新店區五峰路63巷10號","121.546481666667","24.96851","6500600","新店區"
"231054","KEA-2219","2018/08/07 19:39:29","新北市新店區文中路45號","121.539563333333","24.956575","6500600","新店區"
"231057","256-BX","2018/08/07 19:39:15","新北市新店區橘園一路11號","121.547945","24.9340166666667","6500600","新店區"
"231042","268-BY","2018/08/07 19:39:25","新北市新店區中興路一段216號","121.543908333333","24.965795","6500600","新店區"
"231051","278-BY","2018/08/07 19:39:22","新北市新店區中央路208-1號","121.530081666667","24.9737733333333","6500600","新店區"
"231050","AAD-862","2018/08/07 19:39:26","新北市新店區秀水路19號","121.554835","24.9548966666667","6500600","新店區"
"231058","3713-VJ","2018/08/07 19:39:24","新北市新店區中央路238號","121.528991666667","24.9722383333333","6500600","新店區"
"231066","4716-K9","2018/08/07 19:39:16","新北市新店區安康路三段242號","121.487788333333","24.9517766666667","6500600","新店區"
"231056","4715-K9","2018/08/07 19:39:10","新北市新店區柴埕路47號","121.514271666667","24.9651583333333","6500600","新店區"
"231049","513-UM","2018/08/07 19:39:16","新北市新店區大豐路35號","121.540656666667","24.9800316666667","6500600","新店區"
"231063","616-UM","2018/08/07 19:39:09","新北市新店區達觀路40號","121.503136666667","24.9386766666667","6500600","新店區"
"231045","617-UM","2018/08/07 19:39:21","新北市新店區北宜路二段415號","121.559961666667","24.95449","6500600","新店區"
"231061","619-UM","2018/08/07 19:39:16","新北市新店區安民街69號","121.516538333333","24.9669366666667","6500600","新店區"
"231064","719-UM","2018/08/07 19:39:29","新北市新店區安和路一段52巷2-1號","121.51767","24.9662533333333","6500600","新店區"
"231062","720-UM","2018/08/07 19:39:27","新北市新店區碧潭路42號","121.534298333333","24.9565916666667","6500600","新店區"
"231060","897-TW","2018/08/07 19:39:19","新北市新店區安康路二段135號","121.511915","24.9604233333333","6500600","新店區"
"231043","899-TW","2018/08/07 19:39:16","新北市新店區北新路二段68號","121.543073333333","24.9724733333333","6500600","新店區"
"231055","AKT-0513","2018/08/07 19:39:17","新北市新店區新生街3巷4號","121.540265","24.965615","6500600","新店區"
"241011","013-R5","2018/08/07 19:39:14","新北市三重區秀江街184號","121.497856666667","25.07167","6500200","三重區"
"241028","022-UY","2018/08/07 19:39:23","新北市三重區中正南路188號","121.493951666667","25.0561033333333","6500200","三重區"
"241031","061-VK","2018/08/07 19:39:08","新北市三重區重新路四段248-1號","121.486191666667","25.0534466666667","6500200","三重區"
"241015","062-VK","2018/08/07 19:39:19","新北市三重區福德北路34號","121.502055","25.0651066666667","6500200","三重區"
"241017","063-VK","2018/08/07 19:39:09","新北市三重區大仁街1號","121.491643333333","25.0635566666667","6500200","三重區"
"241026","066-VK","2018/08/07 19:39:29","新北市三重區文化南路65巷10號","121.49969","25.0607866666667","6500200","三重區"
"241003","091-VK","2018/08/07 19:39:24","新北市三重區五華街93巷66號","121.494106666667","25.0852066666667","6500200","三重區"
"241022","265-UM","2018/08/07 19:39:23","新北市三重區中正北路168-1號","121.484053333333","25.0660183333333","6500200","三重區"
"241009","267-UM","2018/08/07 19:39:21","新北市三重區三和路四段406巷18號","121.48048","25.0794","6500200","三重區"
"241032","269-UM","2018/08/07 19:39:10","新北市三重區重陽路一段60巷49號","121.484856666667","25.0582616666667","6500200","三重區"
"241013","270-UM","2018/08/07 19:39:23","新北市三重區仁賢街7號","121.495878333333","25.0745116666667","6500200","三重區"
"241025","271-UM","2018/08/07 19:39:20","新北市三重區大有街1-1號","121.47776","25.065585","6500200","三重區"
"241007","398-BY","2018/08/07 19:39:23","新北市三重區三和路四段125巷72號","121.487186666667","25.0785383333333","6500200","三重區"
"241035","KEA-2210","2018/08/07 19:39:26","新北市三重區正義北路61-3號","121.4976","25.0645416666667","6500200","三重區"
"241008","413-TH","2018/08/07 19:39:16","新北市三重區永福街68號","121.479035","25.0769183333333","6500200","三重區"
"241030","480-VK","2018/08/07 19:39:25","新北市三重區新興路12號","121.492545","25.0530883333333","6500200","三重區"
"241014","543-UM","2018/08/07 19:39:25","新北市三重區河邊北街82號","121.504221666667","25.06894","6500200","三重區"
"241023","545-UM","2018/08/07 19:39:14","新北市三重區忠孝路三段99巷11號","121.47981","25.06425","6500200","三重區"
"241001","547-UM","2018/08/07 19:39:23","新北市三重區仁愛街315巷5號","121.493081666667","25.0795166666667","6500200","三重區"
"241019","KEA-2593","2018/08/07 19:39:09","新北市三重區六張街194巷1弄1號","121.488538333333","25.0682466666667","6500200","三重區"
"241006","AAD-863","2018/08/07 19:39:23","新北市三重區聯華街92號","121.485571666667","25.075225","6500200","三重區"
"241012","941-UM","2018/08/07 19:39:28","新北市三重區仁義街15號","121.500198333333","25.075845","6500200","三重區"
"241029","942-UM","2018/08/07 19:39:11","新北市三重區同安街143號","121.493146666667","25.05609","6500200","三重區"
"235066","003-UY","2018/08/07 19:39:23","新北市中和區景新街160巷2號","121.50568","24.9972616666667","6500300","中和區"
"235064","005-UY","2018/08/07 19:39:30","新北市中和區南山路127巷18弄1號","121.503593333333","24.9974133333333","6500300","中和區"
"235063","006-UY","2018/08/07 19:39:19","新北市中和區連城路263巷7弄1號","121.492176666667","24.9959633333333","6500300","中和區"
"235056","096-UM","2018/08/07 19:39:11","新北市中和區民富街94號","121.476955","25.00866","6500300","中和區"
"235039","097-UM","2018/08/07 19:39:22","新北市中和區景德街3號","121.51902","24.9913366666667","6500300","中和區"
"235065","098-UM","2018/08/07 19:39:16","新北市中和區永和路9巷1號","121.49918","25.0039916666667","6500300","中和區"
"235040","150-BY","2018/08/07 19:39:15","新北市中和區安平路30號","121.50962","24.994915","6500300","中和區"
"235058","151-BY","2018/08/07 19:39:28","新北市中和區員山路146巷13號","121.482165","24.9968366666667","6500300","中和區"
"235055","183-VK","2018/08/07 19:39:14","新北市中和區中山路三段181巷2號","121.472815","25.006","6500300","中和區"
"235038","185-VK","2018/08/07 19:39:14","新北市中和區自強路27巷22號","121.521623333333","24.993215","6500300","中和區"
"235013","186-VK","2018/08/07 19:39:18","新北市中和區明仁街5號","121.505818333333","24.9956","6500300","中和區"
"235067","255-BX","2018/08/07 19:39:20","新北市中和區新生街186巷8號","121.483225","24.999685","6500300","中和區"
"235044","293-VK","2018/08/07 19:39:12","新北市中和區興南路一段91號","121.509795","24.9887066666667","6500300","中和區"
"235072","301-VK","2018/08/07 19:39:29","新北市中和區連城路263巷8弄7號","121.491791666667","24.99518","6500300","中和區"
"235043","352-BY","2018/08/07 19:39:25","新北市中和區景平路336號","121.511865","24.992885","6500300","中和區"
"235042","KEA-2878","2018/08/07 19:39:27","新北市中和區景安路79巷37弄1號","121.507461666667","24.9964383333333","6500300","中和區"
"235050","4979-A6","2018/08/07 19:39:29","新北市中和區員山路36巷16-8號","121.485383333333","24.9922816666667","6500300","中和區"
"235070","558-UM","2018/08/07 19:39:25","新北市中和區連城路171巷41弄1號","121.496098333333","24.9965466666667","6500300","中和區"
"235045","565-BX","2018/08/07 19:39:24","新北市中和區景新街462號","121.513386666667","24.987695","6500300","中和區"
"235054","640-BX","2018/08/07 19:39:21","新北市中和區莒光路4號","121.471905","25.0047133333333","6500300","中和區"
"235060","647-TV","2018/08/07 19:39:22","新北市中和區中山路二段521號","121.481718333333","25.0050466666667","6500300","中和區"
"235047","732-UM","2018/08/07 19:39:12","新北市中和區南山路283巷11號","121.504488333333","24.99262","6500300","中和區"
"235046","733-UM","2018/08/07 19:39:20","新北市中和區景新街496巷8弄1號","121.513338333333","24.9867933333333","6500300","中和區"
"235071","783-BX","2018/08/07 19:39:19","新北市中和區中正路839巷29號","121.483656666667","25.0023483333333","6500300","中和區"
"235057","801-TS","2018/08/07 19:39:24","新北市中和區員山路184號","121.481341666667","25.00028","6500300","中和區"
"235041","802-TS","2018/08/07 19:39:24","新北市永和區中和路603號","121.512376666667","25.00424","6500300","中和區"
"235052","805-TS","2018/08/07 19:39:26","新北市中和區華新街192巷7號","121.506641666667","24.9824333333333","6500300","中和區"
"235048","896-TW","2018/08/07 19:39:18","新北市中和區忠孝街1巷2-1號","121.509185","24.9830933333333","6500300","中和區"
"235053","900-TW","2018/08/07 19:39:26","新北市中和區國光街205巷2號","121.466868333333","25.0019666666667","6500300","中和區"
"235051","157-BY","2018/08/07 19:39:09","新北市中和區中正路2號","121.503278333333","24.99384","6500300","中和區"
"235037","AAC-213","2018/08/07 19:39:27","新北市永和區成功路二段152-1號","121.526436666667","24.9967583333333","6500300","中和區"
"220106","013-TV","2018/08/07 19:39:18","新北市板橋區文化路二段366號","121.473136666667","25.03075","6500100","板橋區"
"220055","015-TV","2018/08/07 19:39:18","新北市板橋區國慶路149巷11-3號","121.461125","24.99713","6500100","板橋區"
"220065","072-UY","2018/08/07 19:39:14","新北市板橋區民族路222巷15號","121.468763333333","25.0067933333333","6500100","板橋區"
"220086","073-UY","2018/08/07 19:39:27","新北市板橋區中正路1巷4號","121.455723333333","25.0119016666667","6500100","板橋區"
"220069","AAD-861","2018/08/07 19:39:14","新北市板橋區縣民大道一段64巷22號","121.455545","25.0036416666667","6500100","板橋區"
"247004","337-TH","2018/08/07 19:39:28","新北市蘆洲區中華街6巷16號","121.463045","25.0820783333333","6501400","蘆洲區"
"247008","056-VK","2018/08/07 19:39:18","新北市蘆洲區中山一路168號","121.47454","25.081375","6501400","蘆洲區"
"247002","002-UY","2018/08/07 19:39:09","新北市蘆洲區三民路595號","121.46091","25.0936583333333","6501400","蘆洲區"
"226004","312-R5","2018/08/07 19:39:19","新北市平溪區望古里灰3-1號","121.753935","25.0275883333333","6502400","平溪區"
"235059","251-BX","2018/08/07 19:39:15","新北市中和區錦和路203巷13號","121.491343333333","24.9905233333333","6500300","中和區"
"228001","212-TW","2018/08/07 19:39:22","新北市貢寮區真理里延平街49號","121.924568333333","25.0556283333333","6502600","貢寮區"
"228003","828-UM","2018/08/07 19:39:12","新北市貢寮區真理里美艷山街15-3號","121.92365","25.0680766666667","6502600","貢寮區"
"224010","AGQ-8101","2018/08/07 19:39:11","新北市瑞芳區基山街171號","121.843281666667","25.108045","6501200","瑞芳區"
"224002","639-TC","2018/08/07 19:39:26","新北市瑞芳區民享新村13號","121.816585","25.1057716666667","6501200","瑞芳區"
"227003","642-TC","2018/08/07 19:39:10","新北市雙溪區雙溪里太平路77號","121.865273333333","25.0360033333333","6502500","雙溪區"
"227009","400-TW","2018/08/07 19:39:19","新北市雙溪區新基里新基北街22號","121.867216666667","25.0389283333333","6502500","雙溪區"
"222001","KEA-2212","2018/08/07 19:39:12","新北市深坑區深坑街152號","121.612953333333","25.00143","6501800","深坑區"
"208002","KEA-2872","2018/08/07 19:39:16","新北市金山區四維路25號","121.635088333333","25.222805","6502700","金山區"
"208003","665-BX","2018/08/07 19:39:09","新北市金山區仁愛路1巷1號","121.638546666667","25.220045","6502700","金山區"
"208001","761-BX","2018/08/07 19:39:20","新北市金山區六股里下六股39號","121.619593333333","25.221565","6502700","金山區"
"251005","010-UM","2018/08/07 19:39:28","新北市淡水區原德路108巷1號","121.443363333333","25.17367","6501000","淡水區"
"251001","011-UM","2018/08/07 19:39:13","新北市淡水區民權路41號","121.459798333333","25.1399533333333","6501000","淡水區"
"251013","KEA-2871","2018/08/07 19:39:25","新北市淡水區店子後9號","121.460093333333","25.2189733333333","6501000","淡水區"
"251016","179-VK","2018/08/07 19:39:11","新北市淡水區下圭柔山119-51號","121.450705","25.2084816666667","6501000","淡水區"
"251014","180-VK","2018/08/07 19:39:24","新北市淡水區北勢子14-2號","121.475913333333","25.2308133333333","6501000","淡水區"
"251015","181-VK","2018/08/07 19:39:14","新北市淡水區北新路三段165號","121.489701666667","25.1906133333333","6501000","淡水區"
"251010","413-VK","2018/08/07 19:39:10","新北市淡水區濱海路二段202巷27號","121.435165","25.1932616666667","6501000","淡水區"
"251012","441-VK","2018/08/07 19:39:27","新北市淡水區中山北路三段156號","121.445596666667","25.19564","6501000","淡水區"
"251008","442-VK","2018/08/07 19:39:20","新北市淡水區中正路一段62巷2號","121.425685","25.1772016666667","6501000","淡水區"
"251006","561-UM","2018/08/07 19:39:11","新北市淡水區中山北路一段207巷73號","121.441386666667","25.1792833333333","6501000","淡水區"
"251009","575-R6","2018/08/07 19:39:27","新北市淡水區中山北路一段200號","121.444826666667","25.1793816666667","6501000","淡水區"
"251007","577-R6","2018/08/07 19:39:11","新北市淡水區中正東路一段111巷12號","121.454693333333","25.1606666666667","6501000","淡水區"
"251011","650-BX","2018/08/07 19:39:27","新北市淡水區中正東路二段79號","121.46042","25.1541183333333","6501000","淡水區"
"207003","550-UM","2018/08/07 19:39:19","新北市萬里區大鵬里下社41-1號","121.649033333333","25.2163133333333","6502800","萬里區"
"207004","225-TW","2018/08/07 19:39:25","新北市萬里區萬里里瑪鋉路5-2號","121.686888333333","25.17529","6502800","萬里區"
"252002","178-VK","2018/08/07 19:39:24","新北市三芝區中正路一段18巷56號","121.504316666667","25.258715","6502100","三芝區"
"252001","292-VK","2018/08/07 19:39:23","新北市三芝區公正街9號","121.499775","25.257505","6502100","三芝區"
"237004","KEA-2597","2018/08/07 19:39:14","新北市三峽區有木2-2號","121.419443333333","24.8662266666667","6500900","三峽區"
"237007","153-BY","2018/08/07 19:39:27","新北市三峽區二鬮路136巷149號","121.357226666667","24.9106483333333","6500900","三峽區"
"237009","210-TH","2018/08/07 19:39:23","新北市三峽區中園街51號","121.368153333333","24.926135","6500900","三峽區"
"237013","252-BX","2018/08/07 19:39:25","新北市三峽區介壽路二段2-2號","121.38974","24.9346916666667","6500900","三峽區"
"237012","275-BY","2018/08/07 19:39:24","新北市三峽區光明路26號","121.373563333333","24.9308333333333","6500900","三峽區"
"237008","302-VK","2018/08/07 19:39:11","新北市三峽區永安街183號","121.373158333333","24.9269566666667","6500900","三峽區"
"237014","433-BY","2018/08/07 19:39:17","新北市三峽區嘉添91號","121.369088333333","24.9097266666667","6500900","三峽區"
"237006","5529-G3","2018/08/07 19:39:21","新北市三峽區中正路一段336巷15弄2號","121.369958333333","24.924945","6500900","三峽區"
"237016","649-BX","2018/08/07 19:39:14","新北市三峽區成福路202號","121.426805","24.925685","6500900","三峽區"
"237005","AKY-6261","2018/08/07 19:39:19","新北市三峽區中山路167-1號","121.364428333333","24.9364466666667","6500900","三峽區"
"236070","105-UM","2018/08/07 19:39:17","新北市土城區金城路二段2巷5號","121.44773","24.976345","6501300","土城區"
"236042","107-UM","2018/08/07 19:39:26","新北市土城區裕民路254號","121.454496666667","24.9829866666667","6501300","土城區"
"236079","166-UM","2018/08/07 19:39:21","新北市土城區中央路四段260號","121.414915","24.9568933333333","6501300","土城區"
"236030","253-BX","2018/08/07 19:39:22","新北市土城區福祥街38號","121.441245","24.9807416666667","6501300","土城區"
"236026","269-VK","2018/08/07 19:39:17","新北市土城區中央路二段61巷26號","121.443306666667","24.9788116666667","6501300","土城區"
"236038","271-VK","2018/08/07 19:39:25","新北市土城區青雲路281巷13弄6號","121.459891666667","24.98047","6501300","土城區"
"236021","401-BY","2018/08/07 19:39:08","新北市土城區峰廷街18號","121.469016666667","24.9872966666667","6501300","土城區"
"236059","912-UM","2018/08/07 19:39:11","新北市土城區中央路二段63號","121.442698333333","24.9789216666667","6501300","土城區"
"236049","913-UM","2018/08/07 19:39:26","新北市土城區明德路一段22號","121.465111666667","24.9849633333333","6501300","土城區"
"236063","915-UM","2018/08/07 19:39:26","新北市土城區延平街53號","121.46789","24.9924333333333","6501300","土城區"
"236055","AAC-216","2018/08/07 19:39:26","新北市土城區學府路一段4號","121.459725","24.9883816666667","6501300","土城區"
"242046","497-BY","2018/08/07 19:39:18","新北市新莊區瓊林路61號","121.439171666667","25.02075","6500500","新莊區"
"242032","135-UY","2018/08/07 19:39:26","新北市新莊區公園一路140號","121.446343333333","25.038235","6500500","新莊區"
"242048","172-VK","2018/08/07 19:39:25","新北市新莊區民安路37巷1號","121.423748333333","25.0268683333333","6500500","新莊區"
"242011","173-VK","2018/08/07 19:31:10","新北市新莊區新泰路255巷83號","121.442276666667","25.0386716666667","6500500","新莊區"
"242005","176-VK","2018/08/07 19:39:20","新北市新莊區化成路29巷56號","121.46301","25.0440183333333","6500500","新莊區"
"242013","347-TH","2018/08/07 19:39:18","新北市新莊區中誠街121巷13號","121.449585","25.0468783333333","6500500","新莊區"
"242021","348-TH","2018/08/07 19:39:19","新北市新莊區景德路386號","121.44602","25.0334616666667","6500500","新莊區"
"238023","601-UM","2018/08/07 19:39:15","新北市樹林區三福街114號","121.406471666667","25.016295","6500700","樹林區"
"238022","KEA-2213","2018/08/07 19:39:18","新北市樹林區名園街51巷6弄29號","121.421008333333","24.9782566666667","6500700","樹林區"
"238021","KEA-2539","2018/08/07 19:39:26","新北市樹林區佳園路三段145巷30號","121.388571666667","24.9490516666667","6500700","樹林區"
"238025","303-VK","2018/08/07 19:39:30","新北市樹林區中山路一段115-4號","121.422806666667","24.9901783333333","6500700","樹林區"
"238017","283-BY","2018/08/07 19:39:10","新北市樹林區保安街二段45巷13弄3號","121.415368333333","24.9998233333333","6500700","樹林區"
"238014","282-BY","2018/08/07 19:39:11","新北市樹林區千歲街48號","121.426073333333","24.9969466666667","6500700","樹林區"
"238020","268-VK","2018/08/07 19:39:24","新北市樹林區樹新路112號","121.42981","24.9980716666667","6500700","樹林區"
"239006","891-R6","2018/08/07 19:39:28","新北市鶯歌區文化路149號","121.356453333333","24.9543183333333","6500800","鶯歌區"
"239002","359-BY","2018/08/07 19:39:11","新北市鶯歌區中正一路355號","121.35778","24.9570666666667","6500800","鶯歌區"
"221008","489-VK","2018/08/07 19:39:10","新北市汐止區康寧街61巷33號","121.61953","25.06757","6501100","汐止區"
"221036","130-UY","2018/08/07 19:39:18","新北市汐止區康寧街901號","121.650718333333","25.0752466666667","6501100","汐止區"
"221015","131-UY","2018/08/07 19:39:18","新北市汐止區康寧街901號","121.651038333333","25.0750966666667","6501100","汐止區"
"221010","269-BY","2018/08/07 19:39:26","新北市汐止區汐萬路二段37巷1號","121.64947","25.0812516666667","6501100","汐止區"
"221012","278-VK","2018/08/07 19:39:27","新北市汐止區汐平路一段5號","121.680761666667","25.0711683333333","6501100","汐止區"
"221023","279-VK","2018/08/07 19:39:28","新北市汐止區中興路286巷1號","121.628261666667","25.0696016666667","6501100","汐止區"
"221027","281-BY","2018/08/07 19:39:27","新北市汐止區忠孝東路9號","121.658305","25.0659466666667","6501100","汐止區"
"221029","298-VK","2018/08/07 19:39:21","新北市汐止區康寧街901號","121.651603333333","25.0748916666667","6501100","汐止區"
"221021","299-VK","2018/08/07 19:39:14","新北市汐止區新台五路一段131號","121.652221666667","25.0622233333333","6501100","汐止區"
"221031","353-TW","2018/08/07 19:39:30","新北市汐止區汐萬路一段312號","121.650373333333","25.0754966666667","6501100","汐止區"
"221002","129-UY","2018/08/07 19:39:22","新北市汐止區大同路一段219巷27號","121.63328","25.0583783333333","6501100","汐止區"
"221025","623-UM","2018/08/07 19:39:14","新北市汐止區福安街20巷2號","121.66254","25.0649883333333","6501100","汐止區"
"221038","646-BX","2018/08/07 19:39:13","新北市汐止區忠孝東路243號","121.662808333333","25.0674116666667","6501100","汐止區"
"221033","647-BX","2018/08/07 19:39:16","新北市汐止區南勢街1巷1號","121.627051666667","25.037475","6501100","汐止區"
"220079","145-BY","2018/08/07 19:39:13","新北市板橋區復興街128號","121.460791666667","25.0179866666667","6500100","板橋區"
"220080","200-UY","2018/08/07 19:38:55","新北市板橋區大觀路二段37巷282號","121.449805","25.0012533333333","6500100","板橋區"
"220082","610-BX","2018/08/07 19:39:19","新北市板橋區大觀路三段263號","121.42914","24.99215","6500100","板橋區"
"220101","245-BX","2018/08/07 19:39:09","新北市板橋區莒光路196巷27號","121.472925","25.0224916666667","6500100","板橋區"
"220091","267-BY","2018/08/07 19:39:26","新北市板橋區懷德街139巷20弄2號","121.479955","25.0307616666667","6500100","板橋區"
"220056","276-BY","2018/08/07 19:39:19","新北市板橋區四川路二段47巷3弄2號","121.454203333333","24.9946","6500100","板橋區"
"220072","277-BY","2018/08/07 19:39:30","新北市板橋區金門街253巷10弄9號","121.433055","24.988125","6500100","板橋區"
"220094","285-UM","2018/08/07 19:39:24","新北市板橋區宏國路97-3號","121.469831666667","25.0322683333333","6500100","板橋區"
"220053","285-VK","2018/08/07 19:39:23","新北市板橋區中山路二段253號","121.477318333333","25.0174783333333","6500100","板橋區"
"220083","286-VK","2018/08/07 19:39:07","新北市板橋區龍興街71巷6號","121.443531666667","25.0020483333333","6500100","板橋區"
"220081","287-VK","2018/08/07 19:39:13","新北市板橋區大觀路一段29巷131弄24號","121.450563333333","25.0048066666667","6500100","板橋區"
"220090","288-VK","2018/08/07 19:39:16","新北市板橋區長江路一段48巷6弄1號","121.459291666667","25.0281616666667","6500100","板橋區"
"220061","293-UM","2018/08/07 19:39:29","新北市板橋區漢生東路147號","121.46836","25.0139083333333","6500100","板橋區"
"220062","295-UM","2018/08/07 19:39:26","新北市板橋區三民路二段81巷41號","121.480635","25.0170033333333","6500100","板橋區"
"220084","296-UM","2018/08/07 19:39:30","新北市板橋區溪崑二街118巷1號","121.425695","24.9885216666667","6500100","板橋區"
"220075","303-R5","2018/08/07 19:39:19","新北市板橋區大勇街15號","121.454675","25.017255","6500100","板橋區"
"220092","307-R5","2018/08/07 19:39:27","新北市板橋區陽明街48號","121.465318333333","25.02212","6500100","板橋區"
"220098","317-R6","2018/08/07 19:39:21","新北市板橋區四維路269巷27號","121.462011666667","25.0278183333333","6500100","板橋區"
"220064","486-VK","2018/08/07 19:39:28","新北市板橋區民權路45號","121.462015","25.0113483333333","6500100","板橋區"
"220088","491-VK","2018/08/07 19:39:17","新北市板橋區仁化街147號","121.47761","25.03313","6500100","板橋區"
"220035","560-BX","2018/08/07 19:39:25","新北市板橋區中正路415號","121.45409","25.0226266666667","6500100","板橋區"
"220103","561-BX","2018/08/07 19:39:24","新北市板橋區民生路二段245號","121.468213333333","25.0216033333333","6500100","板橋區"
"220071","568-UM","2018/08/07 19:39:10","新北市板橋區信義路279巷21號","121.464298333333","24.9902016666667","6500100","板橋區"
"220063","609-BX","2018/08/07 19:39:13","新北市板橋區中山路二段531巷17弄1號","121.482833333333","25.0221916666667","6500100","板橋區"
"220054","630-UY","2018/08/07 19:39:11","新北市板橋區忠孝路205號","121.465216666667","25.002745","6500100","板橋區"
"220057","686-BX","2018/08/07 19:39:18","新北市板橋區和平路安樂巷29號","121.461671666667","24.9934983333333","6500100","板橋區"
"220077","687-BX","2018/08/07 19:39:12","新北市板橋區僑中一街96號","121.44688","25.011625","6500100","板橋區"
"220093","689-BX","2018/08/07 19:39:23","新北市板橋區民生路三段315號","121.462025","25.0306683333333","6500100","板橋區"
"220102","KEA-2699","2018/08/07 19:39:24","新北市板橋區松柏街25-2號","121.474915","25.0301183333333","6500100","板橋區"
"220067","829-TW","2018/08/07 19:39:17","新北市板橋區長安街144號","121.472945","25.0102183333333","6500100","板橋區"
"220068","830-TW","2018/08/07 19:39:17","新北市板橋區中山路二段529號","121.483328333333","25.0213433333333","6500100","板橋區"
"220096","831-TW","2018/08/07 19:39:27","新北市板橋區民生路二段234巷24弄1號","121.470353333333","25.022515","6500100","板橋區"
"220089","833-TW","2018/08/07 19:39:19","新北市板橋區英士路6號","121.462208333333","25.0254","6500100","板橋區"
"220074","895-R6","2018/08/07 19:39:11","新北市板橋區府中路111號","121.45641","25.0095666666667","6500100","板橋區"
"220073","985-R7","2018/08/07 19:39:13","新北市板橋區國光路31巷32號","121.457868333333","25.0184283333333","6500100","板橋區"
"220097","AAC-210","2018/08/07 19:39:29","新北市板橋區幸福路33號","121.46165","25.0199716666667","6500100","板橋區"
"220070","AAC-253","2018/08/07 19:39:24","新北市板橋區民族路300號","121.470568333333","25.0067266666667","6500100","板橋區"
"235068","KEA-2873","2018/08/07 19:39:18","新北市中和區莊敬路2號","121.499416666667","25.0041166666667","6500300","中和區"
"235061","KEA-2875","2018/08/07 19:39:25","新北市中和區民安街4號","121.480861666667","25.001105","6500300","中和區"
