"lineid","car","time","location","longitude","latitude","cityid","cityname"
"247005","336-TH","2018/08/07 22:26:01","新北市五股區中興路三段2巷10號","121.449106666667","25.0808583333333","6501400","蘆洲區"
"251010","413-VK","2018/08/07 22:29:30","新北市淡水區沙崙路200號","121.424691666667","25.1839216666667","6501000","淡水區"
"251012","441-VK","2018/08/07 22:25:12","新北市淡水區下圭柔山90-8號","121.431311666667","25.2100483333333","6501000","淡水區"
"251008","442-VK","2018/08/07 22:29:19","新北市淡水區學府路104號","121.449841666667","25.171805","6501000","淡水區"
"251004","443-VK","2018/08/07 22:29:28","新北市淡水區民族路33號","121.462323333333","25.1357866666667","6501000","淡水區"
"251007","577-R6","2018/08/07 22:29:31","新北市淡水區北新路137號","121.449396666667","25.1788433333333","6501000","淡水區"
"251011","650-BX","2018/08/07 22:29:27","新北市淡水區水碓街7號","121.443176666667","25.1771616666667","6501000","淡水區"
