"lineid","car","time","location","longitude","latitude","cityid","cityname"
"248004","653-BX","2018/11/15 08:07:56","新北市五股區明德路12巷1號","121.433261666667","25.0716033333333","6501500","五股區"
"232001","290-BY","2018/11/15 08:07:53","新北市坪林區坪雙路一段115號","121.728065","24.9481966666667","6502000","坪林區"
"232014","291-BY","2018/11/15 08:08:07","新北市坪林區金瓜寮13-2號","121.68134","24.9151683333333","6502000","坪林區"
"232010","375-UM","2018/11/15 08:08:02","新北市坪林區厚德岡坑8-5號","121.733188333333","24.9409433333333","6502000","坪林區"
"232007","758-BX","2018/11/15 08:07:57","新北市坪林區九芎林32號","121.702611666667","24.9215016666667","6502000","坪林區"
"244022","069-UM","2018/11/15 08:07:52","新北市林口區興林路2號","121.389358333333","25.076605","6501700","林口區"
"244006","080-UY","2018/11/15 08:07:58","新北市林口區中湖43-5號","121.381791666667","25.0923366666667","6501700","林口區"
"244003","248-BX","2018/11/15 08:08:03","新北市林口區嘉寶里67-5號","121.33754","25.1094483333333","6501700","林口區"
"244012","KEA-2802","2018/11/15 08:08:07","新北市林口區中山路143號","121.387481666667","25.0791483333333","6501700","林口區"
"244016","485-VK","2018/11/15 08:08:01","新北市林口區粉寮路一段105號","121.398006666667","25.080365","6501700","林口區"
"244010","701-TV","2018/11/15 08:07:52","新北市林口區仁愛路一段252號","121.394676666667","25.075865","6501700","林口區"
"244024","837-TS","2018/11/15 08:08:15","新北市林口區中山路2號","121.396816666667","25.0784433333333","6501700","林口區"
"244020","838-TS","2018/11/15 08:08:08","新北市林口區粉寮路二段92號","121.40454","25.0887666666667","6501700","林口區"
"222006","289-BY","2018/11/15 08:07:56","新北市深坑區北深路二段127號","121.615395","25.00266","6501800","深坑區"
"231069","189-VK","2018/11/15 08:07:55","新北市新店區華城路77巷6號","121.523988333333","24.9454933333333","6500600","新店區"
"231008","192-VK","2018/11/15 08:08:07","新北市新店區北宜路一段109巷18號","121.540761666667","24.9552633333333","6500600","新店區"
"235001","611-BX","2018/11/15 08:08:07","新北市中和區圓通路367巷33弄78號","121.495015","24.9837016666667","6500300","中和區"
"226005","5620-A6","2018/11/15 08:08:09","新北市平溪區靜安路三段10號","121.750705","25.0262833333333","6502400","平溪區"
"226007","7418-A5","2018/11/15 08:08:13","新北市平溪區十分里姜仔坑2號","121.766755","25.0353383333333","6502400","平溪區"
"226003","AGD-0702","2018/11/15 08:07:59","新北市平溪區十分里十分街51號","121.774723333333","25.0410216666667","6502400","平溪區"
"223006","022-BY","2018/11/15 08:08:07","新北市石碇區雙溪47-1號","121.651855","25.0066766666667","6501900","石碇區"
"223002","KEA-2673","2018/11/15 08:08:12","新北市石碇區北宜路五段66號","121.638523333333","24.9532783333333","6501900","石碇區"
"223003","205-TH","2018/11/15 08:07:55","新北市石碇區樟空子1號","121.66666","24.9597216666667","6501900","石碇區"
"223008","406-TH","2018/11/15 08:08:01","新北市石碇區靜安路一段298號","121.69209","25.0063516666667","6501900","石碇區"
"223001","592-UM","2018/11/15 08:05:39","新北市石碇區樟空子10-2號","121.666925","24.96162","6501900","石碇區"
"223004","660-BX","2018/11/15 08:08:03","新北市石碇區外按16-1號","121.650796666667","24.9974766666667","6501900","石碇區"
"223007","661-BX","2018/11/15 08:07:56","新北市石碇區蚯蚓坑11-10號","121.689883333333","25.0063283333333","6501900","石碇區"
"223005","677-TV","2018/11/15 08:08:10","新北市石碇區外按16-1號","121.650753333333","24.997455","6501900","石碇區"
"252004","249-BX","2018/11/15 08:07:52","新北市三芝區興華里車埕36-21號","121.50583","25.1930033333333","6502100","三芝區"
"252007","AAC-283","2018/11/15 08:07:59","新北市三芝區後厝里大片頭102號","121.459238333333","25.2398533333333","6502100","三芝區"
"237001","159-UY","2018/11/15 08:08:02","新北市三峽區大學路45-1號","121.376936666667","24.9405916666667","6500900","三峽區"
"242035","AAC-296","2018/11/15 08:08:05","新北市新莊區建福路59巷43號","121.428505","25.0278183333333","6500500","新莊區"
"242057","986-R7","2018/11/15 08:08:12","新北市新莊區中正路726-10號","121.415446666667","25.0239433333333","6500500","新莊區"
"242055","751-BX","2018/11/15 08:07:56","新北市新莊區泰豐街13號","121.448401666667","25.0315016666667","6500500","新莊區"
"242022","705-TV","2018/11/15 08:08:04","新北市新莊區民樂街23號","121.457566666667","25.0407166666667","6500500","新莊區"
"242026","615-BX","2018/11/15 08:08:10","新北市新莊區福壽街126-5號","121.457791666667","25.05116","6500500","新莊區"
"242024","613-BX","2018/11/15 08:08:09","新北市新莊區頭前路179號","121.460203333333","25.052055","6500500","新莊區"
"242028","612-BX","2018/11/15 08:08:03","新北市新莊區復興路一段145號","121.450303333333","25.043235","6500500","新莊區"
"242043","566-BX","2018/11/15 08:07:56","新北市新莊區富國路30號","121.418821666667","25.0261366666667","6500500","新莊區"
"242047","497-BY","2018/11/15 08:08:07","新北市新莊區萬安街161號","121.420231666667","25.021255","6500500","新莊區"
"242052","442-UM","2018/11/15 08:08:09","新北市新莊區新崑路59號","121.430861666667","24.9999266666667","6500500","新莊區"
"242038","415-TV","2018/11/15 08:07:53","新北市新莊區民安路322號","121.428976666667","25.021995","6500500","新莊區"
"242008","413-TV","2018/11/15 08:08:11","新北市新莊區福壽街169巷12號","121.457365","25.0537433333333","6500500","新莊區"
"242059","353-BY","2018/11/15 08:08:08","新北市新莊區瓊林南路35-10號","121.435711666667","25.0170666666667","6500500","新莊區"
"242010","132-UY","2018/11/15 08:08:00","新北市新莊區中港路597號","121.45145","25.0528233333333","6500500","新莊區"
"242040","133-UY","2018/11/15 08:07:57","新北市新莊區中正路558-17號","121.427306666667","25.0346916666667","6500500","新莊區"
"242033","135-UY","2018/11/15 08:08:10","新北市新莊區新莊路524號","121.445826666667","25.033045","6500500","新莊區"
"242049","172-VK","2018/11/15 08:07:56","新北市新莊區西盛街228號","121.428086666667","25.0165333333333","6500500","新莊區"
"242012","173-VK","2018/11/15 08:08:05","新北市新莊區中誠街97號","121.449955","25.0476933333333","6500500","新莊區"
"242018","175-VK","2018/11/15 08:08:13","新北市新莊區中港路249號","121.454061666667","25.0429183333333","6500500","新莊區"
"242006","176-VK","2018/11/15 08:08:08","新北市新莊區福樂街156巷12弄20號","121.456885","25.0487566666667","6500500","新莊區"
"242016","346-TH","2018/11/15 08:08:04","新北市新莊區復興路一段149巷22弄2號","121.450241666667","25.0440866666667","6500500","新莊區"
"242030","348-TH","2018/11/15 08:08:08","新北市新莊區新泰路334號","121.44485","25.0420166666667","6500500","新莊區"
"242003","349-TH","2018/11/15 08:08:06","新北市新莊區自立街198號","121.456671666667","25.045365","6500500","新莊區"
"242020","350-TH","2018/11/15 08:08:07","新北市新莊區中華路一段180號","121.452718333333","25.04187","6500500","新莊區"
"242014","351-TH","2018/11/15 08:07:58","新北市新莊區新泰路312號","121.445235","25.0414","6500500","新莊區"
"242001","281-VK","2018/11/15 08:08:13","新北市新莊區新莊路421號","121.450575","25.0335516666667","6500500","新莊區"
"242045","280-VK","2018/11/15 08:07:57","新北市新莊區福營路92號","121.436951666667","25.0326066666667","6500500","新莊區"
