"lineid","car","time","location","longitude","latitude","cityid","cityname"
"248004","653-BX","2018/11/15 08:57:58","新北市五股區明德路12巷1號","121.433328333333","25.0717433333333","6501500","五股區"
"244022","069-UM","2018/11/15 08:58:12","新北市林口區東湖路55巷42號","121.385678333333","25.0725683333333","6501700","林口區"
"244006","080-UY","2018/11/15 08:58:10","新北市林口區林口路113巷6弄1號","121.388718333333","25.0806033333333","6501700","林口區"
"244003","248-BX","2018/11/15 08:58:03","新北市林口區嘉寶里6鄰47號","121.314841666667","25.1213783333333","6501700","林口區"
"244018","403-UM","2018/11/15 08:57:56","新北市林口區麗園路121號","121.3715","25.0675066666667","6501700","林口區"
"244012","KEA-2802","2018/11/15 08:57:59","新北市林口區中山路299號","121.383988333333","25.0799533333333","6501700","林口區"
"244016","485-VK","2018/11/15 08:58:01","新北市林口區八德路78號","121.365451666667","25.06571","6501700","林口區"
"244008","656-BX","2018/11/15 08:58:07","新北市林口區中山路256-1號","121.385288333333","25.079615","6501700","林口區"
"244010","701-TV","2018/11/15 08:58:12","新北市林口區新生街6號","121.394221666667","25.07689","6501700","林口區"
"244024","837-TS","2018/11/15 08:57:54","新北市林口區南勢五街30號","121.356265","25.0753883333333","6501700","林口區"
"222006","289-BY","2018/11/15 08:57:56","新北市深坑區土庫尖路75-1號","121.63129","25.0181733333333","6501800","深坑區"
"231069","189-VK","2018/11/15 08:57:55","新北市新店區平廣路二段201巷3號","121.490801666667","24.89525","6500600","新店區"
"231008","192-VK","2018/11/15 08:58:07","新北市新店區廣興路66巷3號","121.538836666667","24.91369","6500600","新店區"
"235001","611-BX","2018/11/15 08:58:07","新北市中和區國光街112巷24弄2號","121.47062","25.0023866666667","6500300","中和區"
"226007","7418-A5","2018/11/15 08:58:13","新北市平溪區東勢里芊蓁坑30號","121.72751","24.9792166666667","6502400","平溪區"
"226003","AGD-0702","2018/11/15 08:58:14","新北市平溪區十分里十分街239號","121.778048333333","25.0442166666667","6502400","平溪區"
"223006","022-BY","2018/11/15 08:58:11","新北市深坑區昇高坑路43號","121.629271666667","24.9965516666667","6501900","石碇區"
"223003","205-TH","2018/11/15 08:58:08","新北市石碇區北宜路六段水底寮巷3號","121.653328333333","24.9465466666667","6501900","石碇區"
"223008","406-TH","2018/11/15 08:58:10","新北市石碇區光明路13號","121.680041666667","25.0336816666667","6501900","石碇區"
"223001","592-UM","2018/11/15 08:57:39","新北市石碇區北宜路六段水底寮巷3號","121.655088333333","24.9452383333333","6501900","石碇區"
"223004","660-BX","2018/11/15 08:58:05","新北市石碇區崩山58號","121.686423333333","24.96593","6501900","石碇區"
"223007","661-BX","2018/11/15 08:57:55","新北市石碇區碇南路二段8號","121.66741","25.03133","6501900","石碇區"
"223005","677-TV","2018/11/15 08:58:11","新北市石碇區崩山59號","121.685991666667","24.9661116666667","6501900","石碇區"
"252004","249-BX","2018/11/15 08:58:12","新北市三芝區興華里田心子21號","121.493491666667","25.2000633333333","6502100","三芝區"
"252007","AAC-283","2018/11/15 08:57:58","新北市三芝區樂全街12號","121.487006666667","25.2587166666667","6502100","三芝區"
"237001","159-UY","2018/11/15 08:58:02","新北市三峽區學成路468號","121.377711666667","24.9442516666667","6500900","三峽區"
"242035","AAC-296","2018/11/15 08:58:05","新北市新莊區建安街41巷5號","121.429171666667","25.025285","6500500","新莊區"
"242057","986-R7","2018/11/15 08:58:11","新北市新莊區八德街107號","121.4242","25.0211","6500500","新莊區"
"242055","751-BX","2018/11/15 08:57:56","新北市新莊區瓊泰路77巷16號","121.442626666667","25.0291583333333","6500500","新莊區"
"242022","705-TV","2018/11/15 08:58:00","新北市新莊區化成路750號","121.465516666667","25.0577383333333","6500500","新莊區"
"242026","615-BX","2018/11/15 08:58:05","新北市新莊區幸福路732號","121.448723333333","25.0492133333333","6500500","新莊區"
"242024","613-BX","2018/11/15 08:58:08","新北市新莊區五工一路91號","121.46089","25.0676666666667","6500500","新莊區"
"242028","612-BX","2018/11/15 08:58:03","新北市新莊區中原路215號","121.450461666667","25.0542433333333","6500500","新莊區"
"242043","566-BX","2018/11/15 08:58:11","新北市新莊區中正路新旺巷43號","121.416525","25.0225183333333","6500500","新莊區"
"242047","497-BY","2018/11/15 08:58:07","新北市新莊區民安路125號","121.424905","25.024535","6500500","新莊區"
"242052","442-UM","2018/11/15 08:58:10","新北市新莊區西盛街395巷25弄2號","121.42847","25.0124016666667","6500500","新莊區"
"242049","441-UM","2018/11/15 08:58:14","新北市新莊區民本街11巷20號","121.428666666667","25.0202866666667","6500500","新莊區"
"242038","415-TV","2018/11/15 08:57:53","新北市新莊區民安西路109號","121.42689","25.0183133333333","6500500","新莊區"
"242008","413-TV","2018/11/15 08:58:11","新北市新莊區福壽街99巷8弄15號","121.456746666667","25.05063","6500500","新莊區"
"242059","353-BY","2018/11/15 08:58:07","新北市新莊區富國路176巷5號","121.424185","25.0241766666667","6500500","新莊區"
"242010","132-UY","2018/11/15 08:58:00","新北市新莊區中信街66-14號","121.44904","25.05181","6500500","新莊區"
"242040","133-UY","2018/11/15 08:57:57","新北市新莊區青山路一段8號","121.411751666667","25.02759","6500500","新莊區"
"242033","135-UY","2018/11/15 08:58:09","新北市新莊區建中街72-1號","121.447456666667","25.03686","6500500","新莊區"
"242012","173-VK","2018/11/15 08:58:09","新北市新莊區中和街186巷9號","121.447946666667","25.0498116666667","6500500","新莊區"
"242018","175-VK","2018/11/15 08:58:12","新北市新莊區銘德街2號","121.459283333333","25.0438316666667","6500500","新莊區"
"242006","176-VK","2018/11/15 08:57:57","新北市新莊區思源路287巷2弄13號","121.45917","25.04882","6500500","新莊區"
"242016","346-TH","2018/11/15 08:58:04","新北市新莊區中港三街37巷1號","121.449836666667","25.0463033333333","6500500","新莊區"
"242030","348-TH","2018/11/15 08:58:08","新北市新莊區新泰路213巷38號","121.445658333333","25.0387316666667","6500500","新莊區"
"242003","349-TH","2018/11/15 08:58:06","新北市新莊區思源路52號","121.460513333333","25.0441183333333","6500500","新莊區"
"242020","350-TH","2018/11/15 08:58:07","新北市新莊區中興街13號","121.44927","25.03619","6500500","新莊區"
"242014","351-TH","2018/11/15 08:57:58","新北市新莊區中平路26巷37號","121.446706666667","25.043325","6500500","新莊區"
"242001","281-VK","2018/11/15 08:58:09","新北市新莊區中正路55-1號","121.462101666667","25.0398733333333","6500500","新莊區"
"242045","280-VK","2018/11/15 08:57:57","新北市新莊區中正路803巷62號","121.422041666667","25.0276583333333","6500500","新莊區"
