"lineid","car","time","location","longitude","latitude","cityid","cityname"
"248004","653-BX","2018/11/15 09:37:38","新北市五股區明德路8號","121.433333333333","25.0716633333333","6501500","五股區"
"244022","069-UM","2018/11/15 09:37:31","新北市林口區信義路118號","121.380638333333","25.0793566666667","6501700","林口區"
"244018","403-UM","2018/11/15 09:37:36","新北市林口區麗園二街47巷27號","121.381725","25.069765","6501700","林口區"
"244012","KEA-2802","2018/11/15 09:37:39","新北市林口區麗園一街5號","121.376151666667","25.072","6501700","林口區"
"244016","485-VK","2018/11/15 09:37:41","新北市林口區文化二路一段68巷6號","121.366525","25.0687616666667","6501700","林口區"
"244008","656-BX","2018/11/15 09:37:34","新北市林口區竹林路440號","121.388448333333","25.085245","6501700","林口區"
"244010","701-TV","2018/11/15 09:37:32","新北市林口區中正路332號","121.387298333333","25.077865","6501700","林口區"
"222006","289-BY","2018/11/15 09:35:16","新北市深坑區昇高坑路43號","121.629356666667","24.9968366666667","6501800","深坑區"
"231069","189-VK","2018/11/15 09:37:35","新北市新店區新潭路三段215巷25號","121.508116666667","24.9040683333333","6500600","新店區"
"231008","192-VK","2018/11/15 09:37:46","新北市新店區平廣路一段256號","121.506671666667","24.8874333333333","6500600","新店區"
"223006","022-BY","2018/11/15 09:37:27","新北市石碇區小粗坑(潭邊里)9-2號","121.678816666667","24.9860666666667","6501900","石碇區"
"223003","205-TH","2018/11/15 09:37:29","新北市石碇區北宜路五段1號","121.625645","24.954345","6501900","石碇區"
"223008","406-TH","2018/11/15 09:30:10","新北市石碇區南勢坑2-3號","121.69933","24.9904583333333","6501900","石碇區"
"223001","592-UM","2018/11/15 09:37:44","新北市石碇區北宜路四段2號","121.610765","24.9573716666667","6501900","石碇區"
"223007","661-BX","2018/11/15 09:35:35","新北市石碇區南勢坑4-1號","121.698021666667","24.9831466666667","6501900","石碇區"
"252004","249-BX","2018/11/15 09:37:32","新北市三芝區圓山里石曹子坑44-1號","121.518225","25.2158066666667","6502100","三芝區"
"252007","AAC-283","2018/11/15 09:37:19","新北市三芝區新庄里新庄子95-9號","121.513986666667","25.2743083333333","6502100","三芝區"
"237001","159-UY","2018/11/15 09:37:41","新北市樹林區中山路三段210-2號","121.380686666667","24.967345","6500900","三峽區"
"242035","AAC-296","2018/11/15 09:37:36","新北市新莊區中正路461號","121.442301666667","25.03394","6500500","新莊區"
"242055","751-BX","2018/11/15 09:37:36","新北市新莊區新莊路751巷55號","121.44276","25.0313916666667","6500500","新莊區"
"242024","613-BX","2018/11/15 09:37:29","新北市新莊區化成路218號","121.465625","25.0466283333333","6500500","新莊區"
"242043","566-BX","2018/11/15 09:37:41","新北市新莊區中正路新建巷10號","121.413948333333","25.0224533333333","6500500","新莊區"
"242047","497-BY","2018/11/15 09:37:27","新北市新莊區中正路519-5號","121.43974","25.032815","6500500","新莊區"
"242049","441-UM","2018/11/15 09:37:34","新北市新莊區民安西路50號","121.427428333333","25.02067","6500500","新莊區"
"242059","353-BY","2018/11/15 09:37:26","新北市新莊區民安路289-1號","121.429256666667","25.0223666666667","6500500","新莊區"
"242006","176-VK","2018/11/15 09:37:37","新北市新莊區中平路294號","121.444786666667","25.0515783333333","6500500","新莊區"
"242016","346-TH","2018/11/15 09:14:47","新北市新莊區三和路12-21號","121.442176666667","25.0382166666667","6500500","新莊區"
"242030","348-TH","2018/11/15 09:37:28","新北市泰山區新生路181-5號","121.436068333333","25.0391733333333","6500500","新莊區"
"242003","349-TH","2018/11/15 09:37:26","新北市新莊區頭前路15巷9號","121.467923333333","25.05164","6500500","新莊區"
"242001","281-VK","2018/11/15 09:37:42","新北市新莊區新泰路83號","121.449195","25.0347133333333","6500500","新莊區"
"242045","280-VK","2018/11/15 09:37:37","新北市新莊區富國路22巷19號","121.418355","25.0257766666667","6500500","新莊區"
