"lineid","car","time","location","longitude","latitude","cityid","cityname"
"234044","148-BY","2018/11/15 13:18:02","新北市永和區秀朗路二段148巷7弄2號","121.525243333333","25.0004333333333","6500400","永和區"
"234005","207-UY","2018/11/15 13:18:20","新北市永和區中山路一段331號","121.50616","25.0062966666667","6500400","永和區"
"234078","298-R6","2018/11/15 13:18:08","新北市永和區福和路50號","121.523448333333","25.0083116666667","6500400","永和區"
"234036","336-UY","2018/11/15 13:18:05","新北市永和區民樂街55巷2號","121.527515","24.9984466666667","6500400","永和區"
"234062","337-UY","2018/11/15 13:18:06","新北市永和區永元路17巷6弄2號","121.52142","25.0006483333333","6500400","永和區"
"234084","338-UY","2018/11/15 13:18:18","新北市永和區永利路4巷2號","121.517528333333","25.00541","6500400","永和區"
"234068","552-UM","2018/11/15 13:18:00","新北市永和區豫溪街67號","121.517661666667","25.0099266666667","6500400","永和區"
"234015","745-BX","2018/11/15 13:18:16","新北市永和區文化路192巷14弄21號","121.51177","25.0168766666667","6500400","永和區"
"234028","746-BX","2018/11/15 13:18:13","新北市永和區厚德街68號","121.524083333333","24.99885","6500400","永和區"
"234052","KEA-2590","2018/11/15 13:18:04","新北市永和區中興街63號","121.516748333333","25.0116983333333","6500400","永和區"
"234012","KEA-2591","2018/11/15 13:18:03","新北市永和區保福路二段85號","121.510578333333","25.0127583333333","6500400","永和區"
"234060","AAD-866","2018/11/15 13:18:06","新北市永和區中正路381號","121.517143333333","25.003665","6500400","永和區"
"234040","862-TW","2018/11/15 13:17:59","新北市永和區水源街43巷2號","121.509825","25.0041766666667","6500400","永和區"
"234048","863-TW","2018/11/15 13:16:26","新北市永和區保福路二段72號","121.510678333333","25.0131883333333","6500400","永和區"
"234022","9372-KE","2018/11/15 13:18:18","新北市永和區竹林路124巷25號","121.518485","25.01121","6500400","永和區"
"234025","9371-KE","2018/11/15 13:18:00","新北市永和區豫溪街28巷19號","121.515076666667","25.0089316666667","6500400","永和區"
"234010","9373-KE","2018/11/15 13:18:03","新北市永和區永和路二段425巷25號","121.514691666667","25.0176866666667","6500400","永和區"
"248015","026-BX","2018/11/15 13:18:07","新北市五股區成泰路三段477巷18號","121.449923333333","25.0989033333333","6501500","五股區"
"248005","077-UY","2018/11/15 13:18:02","新北市五股區中興路一段169號","121.464695","25.073725","6501500","五股區"
"248007","095-VK","2018/11/15 13:18:08","新北市五股區更洲路32巷8弄17號","121.459268333333","25.0796516666667","6501500","五股區"
"248017","225-UY","2018/11/15 13:18:08","新北市五股區御史路120-1號","121.437091666667","25.0966316666667","6501500","五股區"
"248011","247-BX","2018/11/15 13:18:17","新北市五股區御史路9號","121.441806666667","25.09047","6501500","五股區"
"248009","272-BY","2018/11/15 13:18:20","新北市五股區成泰路一段189巷16號","121.434075","25.07668","6501500","五股區"
"248003","677-BX","2018/11/15 13:18:10","新北市五股區成泰路二段222-3號","121.439151666667","25.0854966666667","6501500","五股區"
"248001","678-BX","2018/11/15 13:18:05","新北市五股區西雲路46號","121.44352","25.090985","6501500","五股區"
"234076","969-R7","2018/11/15 13:18:18","新北市永和區民有街7號","121.516218333333","24.9969316666667","6500400","永和區"
"234072","AAC-211","2018/11/15 13:18:09","新北市永和區竹林路86號","121.519345","25.0126833333333","6500400","永和區"
"234066","AAC-212","2018/11/15 13:18:16","新北市永和區保平路55號","121.511686666667","25.0070966666667","6500400","永和區"
"234001","AAC-295","2018/11/15 13:18:00","新北市永和區中山路一段105號","121.51105","25.0103233333333","6500400","永和區"
"244003","248-BX","2018/11/15 13:18:04","新北市林口區嘉寶里57號","121.341271666667","25.1161066666667","6501700","林口區"
"243005","AAD-798","2018/11/15 13:18:20","新北市泰山區錢厝坑13號","121.41597","25.0359866666667","6501600","泰山區"
"231001","001-UM","2018/11/15 13:18:15","新北市新店區安華路28-1號","121.519661666667","24.9610366666667","6500600","新店區"
"231002","002-UM","2018/11/15 13:17:59","新北市新店區安華路28-1號","121.51967","24.9609833333333","6500600","新店區"
"231027","0293-UT","2018/11/15 13:18:03","新北市新店區安華路28-1號","121.519553333333","24.9606233333333","6500600","新店區"
"231028","046-UY","2018/11/15 13:18:16","新北市新店區安華路28-1號","121.519716666667","24.96098","6500600","新店區"
"231005","106-UY","2018/11/15 13:18:15","新北市新店區安華路28-1號","121.519673333333","24.9608783333333","6500600","新店區"
"231010","107-UY","2018/11/15 13:18:06","新北市新店區安康路一段164-1號","121.526041666667","24.9630116666667","6500600","新店區"
"231021","108-UY","2018/11/15 13:18:02","新北市新店區安康路一段168號","121.52575","24.96323","6500600","新店區"
"231031","110-UY","2018/11/15 13:18:13","新北市新店區安一路一段1-1號","121.519421666667","24.9611933333333","6500600","新店區"
"231011","187-VK","2018/11/15 13:18:15","新北市新店區安一路一段1-1號","121.519653333333","24.9612866666667","6500600","新店區"
"231023","KEA-2219","2018/11/15 13:18:16","新北市新店區安一路一段1-1號","121.520008333333","24.9611916666667","6500600","新店區"
"231026","256-BX","2018/11/15 13:18:08","新北市新店區安一路一段1-1號","121.519728333333","24.9611833333333","6500600","新店區"
"231003","268-BY","2018/11/15 13:18:09","新北市新店區安一路一段1-1號","121.51972","24.96115","6500600","新店區"
"231018","278-BY","2018/11/15 13:18:15","新北市新店區環河路66號","121.53705","24.9628416666667","6500600","新店區"
"231017","AAD-862","2018/11/15 13:18:06","新北市新店區安康路一段222號","121.52378","24.9635583333333","6500600","新店區"
"231037","4716-K9","2018/11/15 13:18:19","新北市新店區安華路28-1號","121.519803333333","24.960655","6500600","新店區"
"231025","4715-K9","2018/11/15 13:18:06","新北市新店區中央五街57號","121.527651666667","24.97558","6500600","新店區"
"231036","512-UM","2018/11/15 13:18:03","新北市新店區車子路18-1號","121.506243333333","24.9546016666667","6500600","新店區"
"231013","513-UM","2018/11/15 13:18:08","新北市新店區安一路一段1-1號","121.519813333333","24.9612933333333","6500600","新店區"
"231034","616-UM","2018/11/15 13:18:13","新北市新店區安華路28-1號","121.519636666667","24.9606816666667","6500600","新店區"
"231006","617-UM","2018/11/15 13:18:10","新北市新店區安華路28-1號","121.519521666667","24.9609816666667","6500600","新店區"
"231030","619-UM","2018/11/15 13:18:16","新北市新店區安華路28-1號","121.519563333333","24.9608316666667","6500600","新店區"
"231035","719-UM","2018/11/15 13:18:08","新北市新店區安一路一段1-1號","121.519595","24.9614066666667","6500600","新店區"
"231029","897-TW","2018/11/15 13:18:09","新北市新店區安華路28-1號","121.51951","24.9607633333333","6500600","新店區"
"231004","899-TW","2018/11/15 13:18:16","新北市新店區安一路一段1-1號","121.519035","24.961035","6500600","新店區"
"231024","AKT-0513","2018/11/15 13:18:18","新北市新店區北新路一段91號","121.53875","24.9618233333333","6500600","新店區"
"235030","003-UY","2018/11/15 13:18:03","新北市中和區中山路二段119號","121.502963333333","25.0036916666667","6500300","中和區"
"235028","005-UY","2018/11/15 13:18:17","新北市中和區圓通路189號","121.497381666667","24.9945766666667","6500300","中和區"
"235027","006-UY","2018/11/15 13:18:11","新北市中和區中正路637巷52弄1號","121.485468333333","24.99339","6500300","中和區"
"235020","096-UM","2018/11/15 13:17:58","新北市中和區員山路36巷16號","121.484266666667","24.991715","6500300","中和區"
"235003","097-UM","2018/11/15 13:18:08","新北市中和區安平路38號","121.509986666667","24.995145","6500300","中和區"
"235029","098-UM","2018/11/15 13:18:14","新北市中和區莊敬路49巷20弄24號","121.502788333333","25.0057966666667","6500300","中和區"
"235004","150-BY","2018/11/15 13:17:50","新北市中和區南山路231號","121.503536666667","24.9935016666667","6500300","中和區"
"235019","183-VK","2018/11/15 13:18:11","新北市中和區員山路36巷16-3號","121.485021666667","24.9914433333333","6500300","中和區"
"235002","185-VK","2018/11/15 13:18:05","新北市中和區大智街38號","121.52168","24.9922","6500300","中和區"
"235013","186-VK","2018/11/15 13:18:14","新北市中和區員山路36巷13號","121.484075","24.9910016666667","6500300","中和區"
"235031","255-BX","2018/11/15 13:18:19","新北市中和區新生街177巷11號","121.484331666667","25.000725","6500300","中和區"
"235036","301-VK","2018/11/15 13:18:19","新北市中和區連城路297號","121.490156666667","24.9963833333333","6500300","中和區"
"235007","352-BY","2018/11/15 13:18:01","新北市中和區中正路165號","121.498336666667","24.9935116666667","6500300","中和區"
"235006","KEA-2878","2018/11/15 13:18:05","新北市中和區景平路159巷56號","121.512855","24.9911683333333","6500300","中和區"
"235014","4979-A6","2018/11/15 13:18:14","新北市中和區南山路273號","121.503993333333","24.9924566666667","6500300","中和區"
"235033","4980-A6","2018/11/15 13:18:20","新北市中和區中正路589巷15號","121.485845","24.99369","6500300","中和區"
"235034","558-UM","2018/11/15 13:18:02","新北市中和區圓通路113號","121.499411666667","24.9964416666667","6500300","中和區"
"235009","565-BX","2018/11/15 13:18:18","新北市中和區復興路81號","121.50344","24.9899933333333","6500300","中和區"
"235018","640-BX","2018/11/15 13:18:01","新北市中和區民德路136號","121.46874","25.0006666666667","6500300","中和區"
"235024","647-TV","2018/11/15 13:18:15","新北市中和區員山路72-1號","121.48106","24.9934933333333","6500300","中和區"
"235011","732-UM","2018/11/15 13:18:09","新北市中和區中正路171號","121.49789","24.9935766666667","6500300","中和區"
"235035","783-BX","2018/11/15 13:18:02","新北市中和區中板路2號","121.485011666667","25.0118633333333","6500300","中和區"
"235026","800-TS","2018/11/15 13:18:07","新北市中和區橋和路166號","121.494346666667","25.0063433333333","6500300","中和區"
"235021","801-TS","2018/11/15 13:18:07","新北市中和區民安街111巷4弄3號","121.476338333333","24.999035","6500300","中和區"
"235017","900-TW","2018/11/15 13:18:05","新北市中和區員山路36巷16-2號","121.485073333333","24.9918833333333","6500300","中和區"
"235015","157-BY","2018/11/15 13:18:02","新北市中和區忠孝街39-13號","121.512076666667","24.9844133333333","6500300","中和區"
"235001","AAC-213","2018/11/15 13:18:11","新北市中和區景德街52號","121.517533333333","24.99153","6500300","中和區"
"235023","AAC-215","2018/11/15 13:18:03","新北市中和區中正路637巷52弄1號","121.485498333333","24.993425","6500300","中和區"
"220017","AAD-861","2018/11/15 13:18:06","新北市板橋區華東街1-10號","121.4484","24.99499","6500100","板橋區"
"247015","546-UM","2018/11/15 13:18:10","新北市五股區中興路三段2巷10號","121.449406666667","25.080975","6501400","蘆洲區"
"247009","056-VK","2018/11/15 13:18:20","新北市五股區中興路三段2巷10號","121.44909","25.081245","6501400","蘆洲區"
"235005","251-BX","2018/11/15 13:18:10","新北市中和區景安路58號","121.506966666667","24.9979633333333","6500300","中和區"
"228005","097-TW","2018/11/15 13:18:22","新北市貢寮區美豐里丹裡街16號","121.913756666667","25.0570783333333","6502600","貢寮區"
"228004","212-TW","2018/11/15 13:18:06","新北市貢寮區吉林里內寮街35-2號","121.900353333333","24.98189","6502600","貢寮區"
"253003","6232-TK","2018/11/15 13:18:05","新北市石門區老崩山39-3號","121.565638333333","25.2661466666667","6502200","石門區"
"253004","6251-TK","2018/11/15 13:18:15","新北市石門區阿里荖69-1號","121.610043333333","25.27202","6502200","石門區"
"253002","637-UY","2018/11/15 13:18:12","新北市石門區大溪墘9-7號","121.552925","25.2751016666667","6502200","石門區"
"253001","KEC-0718","2018/11/15 13:18:12","新北市石門區楓林23-11號","121.538121666667","25.2926533333333","6502200","石門區"
"207002","291-VK","2018/11/15 13:18:02","新北市萬里區崁腳里崁腳路166號","121.645118333333","25.1558133333333","6502800","萬里區"
"207001","662-BX","2018/11/15 13:18:02","新北市萬里區龜吼里玉田路18號","121.677871666667","25.1887783333333","6502800","萬里區"
"252005","AAC-283","2018/11/15 13:18:18","新北市三芝區八賢里八連溪82號","121.519818333333","25.2295116666667","6502100","三芝區"
"221010","269-BY","2018/11/15 13:18:12","新北市汐止區忠三街8號","121.62475","25.0784433333333","6501100","汐止區"
"221032","280-BY","2018/11/15 13:18:19","新北市汐止區大同路二段184巷15號","121.65393","25.063475","6501100","汐止區"
"221033","647-BX","2018/11/15 13:18:02","新北市汐止區復興路28號","121.656098333333","25.06329","6501100","汐止區"
"220021","985-R7","2018/11/15 13:18:07","新北市板橋區華東街1-10號","121.448336666667","24.9949783333333","6500100","板橋區"
"235025","KEA-2875","2018/11/15 13:17:55","新北市中和區國光街215巷51號","121.46732","25.0001083333333","6500300","中和區"
