"lineid","car","time","location","longitude","latitude","cityid","cityname"
"234025","9371-KE","2018/11/15 14:49:40","新北市永和區雙和街25巷4號","121.50891","25.0019083333333","6500400","永和區"
"248015","026-BX","2018/11/15 14:49:46","新北市五股區成泰路三段577巷80弄54號","121.449761666667","25.1051116666667","6501500","五股區"
"248007","095-VK","2018/11/15 14:49:47","新北市五股區四維路171巷7號","121.467461666667","25.07518","6501500","五股區"
"248017","225-UY","2018/11/15 14:35:12","新北市五股區外寮路13-1號","121.424828333333","25.0812533333333","6501500","五股區"
"248011","247-BX","2018/11/15 14:49:51","新北市五股區民義路一段212號","121.430523333333","25.089525","6501500","五股區"
"248009","272-BY","2018/11/15 14:49:40","新北市五股區成泰路一段42號","121.43534","25.0686666666667","6501500","五股區"
"248003","677-BX","2018/11/15 14:49:50","新北市五股區成泰路一段106-1號","121.43564","25.071885","6501500","五股區"
"248001","678-BX","2018/11/15 14:49:45","新北市五股區成泰路三段149號","121.444898333333","25.0913933333333","6501500","五股區"
"244003","248-BX","2018/11/15 14:49:47","新北市林口區竹林路269號","121.389555","25.08098","6501700","林口區"
"243005","AAD-798","2018/11/15 14:49:34","新北市泰山區明志路三段76號","121.424875","25.04173","6501600","泰山區"
"243001","297-R6","2018/11/15 14:49:34","新北市泰山區福泰街60號","121.434245","25.0591116666667","6501600","泰山區"
"243008","KEA-2801","2018/11/15 14:49:44","新北市泰山區中山路二段841號","121.425526666667","25.0353466666667","6501600","泰山區"
"243007","421-VK","2018/11/15 14:49:40","新北市泰山區明志路一段312號","121.431686666667","25.0595066666667","6501600","泰山區"
"243003","KEA-2215","2018/11/15 14:49:36","新北市泰山區明志路三段166號","121.424191666667","25.0394266666667","6501600","泰山區"
"243002","KEA-2216","2018/11/15 14:49:49","新北市泰山區新生路31巷7號","121.427616666667","25.045925","6501600","泰山區"
"243004","646-TV","2018/11/15 14:49:45","新北市泰山區楓江路142號","121.439876666667","25.0651683333333","6501600","泰山區"
"243006","680-BX","2018/11/15 14:49:53","新北市泰山區明志路一段24號","121.433621666667","25.0655216666667","6501600","泰山區"
"231001","001-UM","2018/11/15 14:49:41","新北市新店區三民路121號","121.534835","24.97233","6500600","新店區"
"231002","002-UM","2018/11/15 14:49:39","新北市新店區民權路96號","121.536566666667","24.98313","6500600","新店區"
"231027","0293-UT","2018/11/15 14:49:43","新北市新店區中正路328巷5號","121.53697","24.9753766666667","6500600","新店區"
"231028","046-UY","2018/11/15 14:49:36","新北市新店區安德街62號","121.510683333333","24.9620716666667","6500600","新店區"
"231005","106-UY","2018/11/15 14:49:35","新北市新店區復興路2號","121.532481666667","24.9882683333333","6500600","新店區"
"231021","108-UY","2018/11/15 14:49:42","新北市新店區新烏路三段44號","121.553851666667","24.90476","6500600","新店區"
"231011","187-VK","2018/11/15 14:49:35","新北市新店區永華街75號","121.545055","24.975145","6500600","新店區"
"231023","KEA-2219","2018/11/15 14:49:36","新北市新店區檳榔路109號","121.544505","24.9617916666667","6500600","新店區"
"231026","256-BX","2018/11/15 14:49:48","新北市新店區安康路一段206號","121.524085","24.9635133333333","6500600","新店區"
"231003","268-BY","2018/11/15 14:49:49","新北市新店區中興路二段121巷1號","121.547573333333","24.9721933333333","6500600","新店區"
"231018","278-BY","2018/11/15 14:49:35","新北市新店區中央五街3-2號","121.530395","24.9744","6500600","新店區"
"231017","AAD-862","2018/11/15 14:49:46","新北市新店區北宜路三段69號","121.576521666667","24.951685","6500600","新店區"
"231038","3712-VJ","2018/11/15 14:49:44","新北市新店區安華路28-1號","121.519546666667","24.9609183333333","6500600","新店區"
"231037","4716-K9","2018/11/15 14:49:39","新北市新店區柴埕路26號","121.513745","24.96552","6500600","新店區"
"231025","4715-K9","2018/11/15 14:49:46","新北市新店區大豐路68巷40號","121.538178333333","24.9803716666667","6500600","新店區"
"231036","512-UM","2018/11/15 14:49:43","新北市新店區安祥路104巷6弄36號","121.483166666667","24.9629916666667","6500600","新店區"
"231013","513-UM","2018/11/15 14:49:49","新北市新店區北新路二段97巷9弄29號","121.542368333333","24.973515","6500600","新店區"
"231034","616-UM","2018/11/15 14:49:33","新北市新店區玫瑰路4-1號","121.493556666667","24.951445","6500600","新店區"
"231006","617-UM","2018/11/15 14:49:50","新北市新店區北宜路一段115巷1號","121.540181666667","24.9541983333333","6500600","新店區"
"231030","619-UM","2018/11/15 14:49:36","新北市新店區安民街316號","121.517565","24.9742333333333","6500600","新店區"
"231039","718-UY","2018/11/15 14:49:45","新北市新店區安華路8號","121.519805","24.962305","6500600","新店區"
"231035","719-UM","2018/11/15 14:48:48","新北市新店區安樂街1號","121.519773333333","24.9738516666667","6500600","新店區"
"231029","897-TW","2018/11/15 14:49:34","新北市新店區錦秀路11巷96弄2號","121.480026666667","24.94201","6500600","新店區"
"231004","899-TW","2018/11/15 14:49:36","新北市新店區建國路133號","121.53931","24.9782516666667","6500600","新店區"
"231024","AKT-0513","2018/11/15 14:49:38","新北市新店區中華路83巷67號","121.538381666667","24.9672783333333","6500600","新店區"
"235030","003-UY","2018/11/15 14:49:43","新北市中和區南工路26號","121.505533333333","25.00083","6500300","中和區"
"235020","096-UM","2018/11/15 14:49:38","新北市中和區民富街88號","121.476683333333","25.0082166666667","6500300","中和區"
"235003","097-UM","2018/11/15 14:49:48","新北市永和區安樂路50巷1弄1號","121.514743333333","24.9973","6500300","中和區"
"235029","098-UM","2018/11/15 14:49:34","新北市中和區福祥路50號","121.499416666667","25.0045483333333","6500300","中和區"
"235004","150-BY","2018/11/15 14:49:50","新北市中和區安平路38號","121.50982","24.9950766666667","6500300","中和區"
"235022","151-BY","2018/11/15 14:49:41","新北市中和區連城路376-1號","121.48113","24.9952783333333","6500300","中和區"
"235019","183-VK","2018/11/15 14:49:31","新北市中和區德光路20號","121.47097","25.004595","6500300","中和區"
"235002","185-VK","2018/11/15 14:49:45","新北市永和區民族街81巷66號","121.520301666667","24.9962233333333","6500300","中和區"
"235013","186-VK","2018/11/15 14:49:34","新北市中和區中正路64巷2號","121.50118","24.9936883333333","6500300","中和區"
"235031","255-BX","2018/11/15 14:49:39","新北市中和區新生街211號","121.48379","24.9997283333333","6500300","中和區"
"235008","293-VK","2018/11/15 14:49:52","新北市中和區南山路273號","121.503985","24.9924483333333","6500300","中和區"
"235036","301-VK","2018/11/15 14:49:39","新北市中和區保平路237號","121.507601666667","25.00425","6500300","中和區"
"235007","352-BY","2018/11/15 14:49:40","新北市中和區景新街273巷32號","121.510915","24.9941833333333","6500300","中和區"
"235006","KEA-2878","2018/11/15 14:49:45","新北市中和區安樂路83號","121.51271","24.9944033333333","6500300","中和區"
"247011","KEA-2869","2018/11/15 14:49:38","新北市蘆洲區中山一路124號","121.476695","25.0815516666667","6501400","蘆洲區"
"235014","4979-A6","2018/11/15 14:49:34","新北市中和區景平路241巷84弄54號","121.50606","24.99236","6500300","中和區"
"235034","558-UM","2018/11/15 14:49:42","新北市中和區連勝街45號","121.498175","24.997475","6500300","中和區"
"235018","640-BX","2018/11/15 14:49:41","新北市中和區莒光路211-7號","121.46929","24.9949533333333","6500300","中和區"
"235024","647-TV","2018/11/15 14:49:35","新北市中和區中正路839巷29號","121.483558333333","25.0024366666667","6500300","中和區"
"235011","732-UM","2018/11/15 14:49:48","新北市中和區和平街132號","121.506563333333","24.9917283333333","6500300","中和區"
"235010","733-UM","2018/11/15 14:49:45","新北市中和區仁愛街35號","121.510968333333","24.98855","6500300","中和區"
"235035","783-BX","2018/11/15 14:49:42","新北市中和區建康路28號","121.48655","24.99966","6500300","中和區"
"235026","800-TS","2018/11/15 14:49:47","新北市中和區中山路二段413號","121.485871666667","25.0043783333333","6500300","中和區"
"235021","801-TS","2018/11/15 14:49:47","新北市中和區民樂路81號","121.484596666667","25.00138","6500300","中和區"
"235016","805-TS","2018/11/15 14:49:44","新北市中和區華新街51號","121.507885","24.98443","6500300","中和區"
"235012","896-TW","2018/11/15 14:49:38","新北市中和區四維街40號","121.51237","24.9870316666667","6500300","中和區"
"235017","900-TW","2018/11/15 14:49:45","新北市中和區國光街215巷8弄1號","121.466596666667","25.001325","6500300","中和區"
"235015","157-BY","2018/11/15 14:49:42","新北市中和區景安路247巷9號","121.504461666667","24.9906966666667","6500300","中和區"
"235001","AAC-213","2018/11/15 14:49:51","新北市中和區秀朗路三段163號","121.524598333333","24.9919483333333","6500300","中和區"
"235023","AAC-215","2018/11/15 14:49:43","新北市中和區圓通路305巷5弄55號","121.494908333333","24.9902466666667","6500300","中和區"
"220016","013-TV","2018/11/15 14:49:32","新北市板橋區光復街133巷37-1號","121.48399","25.0194816666667","6500100","板橋區"
"220013","072-UY","2018/11/15 14:49:40","新北市板橋區民族路83號","121.465566666667","25.00849","6500100","板橋區"
"220034","073-UY","2018/11/15 14:49:37","新北市板橋區南雅西路二段7巷25號","121.451955","25.009485","6500100","板橋區"
"220105","075-UY","2018/11/15 14:49:16","新北市板橋區民治街57巷24弄7號","121.48042","25.0337233333333","6500100","板橋區"
"220017","AAD-861","2018/11/15 14:49:46","新北市板橋區南雅南路二段18號","121.454451666667","25.00353","6500100","板橋區"
"247001","893-R6","2018/11/15 14:49:38","新北市蘆洲區永康街2巷6號","121.459316666667","25.0861233333333","6501400","蘆洲區"
"247013","339-TH","2018/11/15 14:49:43","新北市蘆洲區中央路52號","121.473328333333","25.083495","6501400","蘆洲區"
"247021","001-UY","2018/11/15 14:49:36","新北市蘆洲區中正路472號","121.462323333333","25.0954666666667","6501400","蘆洲區"
"228005","097-TW","2018/11/15 14:49:41","新北市貢寮區美豐里丹裡街69號","121.905996666667","25.05627","6502600","貢寮區"
"228004","212-TW","2018/11/15 14:49:46","新北市貢寮區福隆里福隆街2巷31號","121.946421666667","25.0156866666667","6502600","貢寮區"
"253003","6232-TK","2018/11/15 14:49:45","新北市石門區尖子鹿87號","121.578768333333","25.2921533333333","6502200","石門區"
"253004","6251-TK","2018/11/15 14:48:54","新北市石門區茂林社區227號","121.591951666667","25.270525","6502200","石門區"
"253002","637-UY","2018/11/15 14:49:32","新北市石門區楓林62號","121.542166666667","25.2729966666667","6502200","石門區"
"253001","KEC-0718","2018/11/15 14:49:52","新北市石門區崁子腳47-4號","121.53531","25.2838833333333","6502200","石門區"
"207002","291-VK","2018/11/15 14:49:42","新北市萬里區崁腳里崁腳路73號","121.64771","25.1595666666667","6502800","萬里區"
"207001","662-BX","2018/11/15 14:49:22","新北市萬里區雙興里豐稟路22-2號","121.641343333333","25.1829783333333","6502800","萬里區"
"236068","105-UM","2018/11/15 14:49:36","新北市土城區明德路二段65號","121.451781666667","24.9807966666667","6501300","土城區"
"236040","KED-0685","2018/11/15 14:49:33","新北市土城區裕民路136巷29號","121.450788333333","24.9850716666667","6501300","土城區"
"236074","166-UM","2018/11/15 14:49:37","新北市土城區中央路四段125巷2弄21號","121.416331666667","24.9567383333333","6501300","土城區"
"236029","253-BX","2018/11/15 14:49:44","新北市土城區忠義路26巷30號","121.439456666667","24.9695983333333","6501300","土城區"
"236024","269-VK","2018/11/15 14:49:50","新北市土城區慶安街75號","121.440698333333","24.97264","6501300","土城區"
"236012","270-VK","2018/11/15 14:49:47","新北市土城區清水路235巷22號","121.460838333333","24.9838666666667","6501300","土城區"
"236032","271-VK","2018/11/15 14:49:39","新北市土城區仁愛路54巷1-3號","121.462365","24.9785533333333","6501300","土城區"
"236017","401-BY","2018/11/15 14:49:40","新北市土城區延安街42-3號","121.467436666667","24.985285","6501300","土城區"
"236057","912-UM","2018/11/15 14:49:46","新北市土城區金城路二段8-1號","121.448595","24.976735","6501300","土城區"
"236045","913-UM","2018/11/15 14:49:44","新北市板橋區信義路208號","121.460033333333","24.9906433333333","6501300","土城區"
"236060","915-UM","2018/11/15 14:49:42","新北市土城區金城路三段157號","121.468781666667","24.9884233333333","6501300","土城區"
"236054","AAC-216","2018/11/15 14:49:36","新北市土城區裕民路177號","121.453415","24.9847883333333","6501300","土城區"
"221010","269-BY","2018/11/15 14:49:31","新北市汐止區八連路二段625-3號","121.62157","25.1139316666667","6501100","汐止區"
"221033","647-BX","2018/11/15 14:49:42","新北市汐止區樟樹二路251巷46號","121.64041","25.0670116666667","6501100","汐止區"
"220027","145-BY","2018/11/15 14:49:52","新北市板橋區大仁街42號","121.455111666667","25.01669","6500100","板橋區"
"220028","200-UY","2018/11/15 14:49:32","新北市板橋區大觀路二段37巷28號","121.447756666667","25.0027183333333","6500100","板橋區"
"220030","610-BX","2018/11/15 14:49:42","新北市板橋區大觀路三段160巷36號","121.429943333333","24.9940683333333","6500100","板橋區"
"220004","276-BY","2018/11/15 14:49:51","新北市板橋區德興街37巷14號","121.453975","24.9938033333333","6500100","板橋區"
"220020","277-BY","2018/11/15 14:49:41","新北市板橋區金門街127巷15號","121.433648333333","24.9911716666667","6500100","板橋區"
"220050","280-UM","2018/11/15 14:49:32","新北市板橋區莒光路237-9號","121.474231666667","25.0218983333333","6500100","板橋區"
"220012","282-UM","2018/11/15 14:49:32","新北市板橋區公園街34巷2號","121.462475","25.008425","6500100","板橋區"
"220019","283-VK","2018/11/15 14:49:45","新北市板橋區和平路174巷9號","121.4639","24.9951783333333","6500100","板橋區"
"220043","285-UM","2018/11/15 14:49:42","新北市板橋區溪頭街4-1號","121.457555","25.028925","6500100","板橋區"
"220001","285-VK","2018/11/15 14:49:49","新北市板橋區中山路二段60巷9號","121.474238333333","25.015295","6500100","板橋區"
"220031","286-VK","2018/11/15 14:49:52","新北市板橋區僑中二街10巷30號","121.445825","25.0111066666667","6500100","板橋區"
"220029","287-VK","2018/11/15 14:49:47","新北市板橋區大觀路一段29巷33號","121.450265","25.0075416666667","6500100","板橋區"
"220039","288-VK","2018/11/15 14:49:38","新北市板橋區龍泉街90巷3號","121.456138333333","25.0247883333333","6500100","板橋區"
"220009","295-UM","2018/11/15 14:49:43","新北市板橋區觀光街3巷1號","121.4719","25.0157866666667","6500100","板橋區"
"220032","296-UM","2018/11/15 14:49:48","新北市板橋區溪崑二街101號","121.426921666667","24.98893","6500100","板橋區"
"220023","303-R5","2018/11/15 14:49:33","新北市板橋區金華街5號","121.45557","25.0201766666667","6500100","板橋區"
"220010","305-R5","2018/11/15 14:49:36","新北市板橋區中山路二段416巷38弄27-1號","121.48184","25.019425","6500100","板橋區"
"220041","307-R5","2018/11/15 14:49:48","新北市板橋區四維路259巷52號","121.461048333333","25.0269866666667","6500100","板橋區"
"220047","317-R6","2018/11/15 14:49:50","新北市板橋區新海路398號","121.458688333333","25.02673","6500100","板橋區"
"220038","487-VK","2018/11/15 14:49:43","新北市板橋區英士路55號","121.460738333333","25.024425","6500100","板橋區"
"220104","560-BX","2018/11/15 14:49:40","新北市板橋區新生街36號","121.456403333333","25.021","6500100","板橋區"
"220052","561-BX","2018/11/15 14:49:44","新北市板橋區陽明街29巷24號","121.46414","25.0224583333333","6500100","板橋區"
"220011","609-BX","2018/11/15 14:49:43","新北市板橋區三民路一段1巷28號","121.480175","25.0244383333333","6500100","板橋區"
"220040","637-BX","2018/11/15 14:49:37","新北市板橋區民治街81巷15號","121.480371666667","25.03222","6500100","板橋區"
"220005","686-BX","2018/11/15 14:49:45","新北市板橋區和平路14巷38號","121.461841666667","24.9915433333333","6500100","板橋區"
"220025","687-BX","2018/11/15 14:49:49","新北市板橋區僑中二街126巷2號","121.445093333333","25.0050483333333","6500100","板橋區"
"220042","689-BX","2018/11/15 14:49:45","新北市板橋區長江路二段2號","121.464526666667","25.0311983333333","6500100","板橋區"
"220002","741-BX","2018/11/15 14:49:47","新北市板橋區實踐路65巷39號","121.464953333333","25.006635","6500100","板橋區"
"220051","KEA-2699","2018/11/15 14:49:36","新北市板橋區松柏街33巷1號","121.475158333333","25.030335","6500100","板橋區"
"220003","827-TW","2018/11/15 14:49:45","新北市板橋區仁愛路62巷17弄1號","121.460036666667","24.998225","6500100","板橋區"
"220014","829-TW","2018/11/15 14:49:50","新北市板橋區長安街138巷1弄294號","121.474953333333","25.0112966666667","6500100","板橋區"
"220045","831-TW","2018/11/15 14:49:44","新北市板橋區文化路二段124巷34弄4號","121.471208333333","25.0253833333333","6500100","板橋區"
"220037","833-TW","2018/11/15 14:49:46","新北市板橋區雙十路二段134號","121.473801666667","25.028915","6500100","板橋區"
"220022","895-R6","2018/11/15 14:49:52","新北市板橋區縣民大道一段297號","121.460976666667","25.0107216666667","6500100","板橋區"
"220021","985-R7","2018/11/15 14:49:46","新北市板橋區大仁街55號","121.454536666667","25.0163566666667","6500100","板橋區"
"220046","AAC-210","2018/11/15 14:49:49","新北市板橋區文化路一段285巷1弄10號","121.463985","25.0189166666667","6500100","板橋區"
"220018","AAC-253","2018/11/15 14:49:30","新北市板橋區民族路258號","121.469401666667","25.0070783333333","6500100","板橋區"
"235032","KEA-2873","2018/11/15 14:49:49","新北市中和區中山路二段274號","121.496955","25.00242","6500300","中和區"
"235025","KEA-2875","2018/11/15 14:49:24","新北市中和區員山路226巷7弄1號","121.481813333333","25.0005516666667","6500300","中和區"
