"lineid","car","time","location","longitude","latitude","cityid","cityname"
"248011","247-BX","2018/11/15 15:23:21","新北市五股區中興路二段37巷28號","121.460193333333","25.0749166666667","6501500","五股區"
"244023","069-UM","2018/11/15 15:36:57","新北市林口區粉寮69號","121.405083333333","25.0908483333333","6501700","林口區"
"243010","KEA-2216","2018/11/15 15:36:27","新北市泰山區黎明路25號","121.421916666667","25.060755","6501600","泰山區"
"243012","646-TV","2018/11/15 15:35:22","新北市泰山區黎明路25號","121.422115","25.0606983333333","6501600","泰山區"
"243014","680-BX","2018/11/15 15:35:09","新北市泰山區黎明路25號","121.422005","25.060595","6501600","泰山區"
"231028","046-UY","2018/11/15 15:39:36","新北市新店區僑義路25號","121.500441666667","24.9508733333333","6500600","新店區"
"231005","106-UY","2018/11/15 15:39:35","新北市新店區中正路423號","121.534223333333","24.977935","6500600","新店區"
"231046","107-UY","2018/11/15 15:39:52","新北市新店區安一路一段1-1號","121.519701666667","24.96114","6500600","新店區"
"231021","108-UY","2018/11/15 15:39:42","新北市新店區梅崗三路1號","121.558823333333","24.931245","6500600","新店區"
"231031","110-UY","2018/11/15 15:39:33","新北市新店區雙城路133號","121.497853333333","24.9394366666667","6500600","新店區"
"231011","187-VK","2018/11/15 15:39:35","新北市新店區寶元路一段109號","121.545696666667","24.9831616666667","6500600","新店區"
"231023","KEA-2219","2018/11/15 15:39:36","新北市新店區中興路一段278號","121.545411666667","24.9682883333333","6500600","新店區"
"231026","256-BX","2018/11/15 15:39:48","新北市新店區三民路42號","121.536071666667","24.9715566666667","6500600","新店區"
"231003","268-BY","2018/11/15 15:39:49","新北市新店區寶高路102巷20號","121.552771666667","24.97411","6500600","新店區"
"231018","278-BY","2018/11/15 15:39:35","新北市新店區中正路663巷7弄15號","121.53299","24.9901116666667","6500600","新店區"
"231017","AAD-862","2018/11/15 15:39:46","新北市新店區北宜路一段169號","121.542896666667","24.9529983333333","6500600","新店區"
"231038","3712-VJ","2018/11/15 15:39:44","新北市新店區安康路二段18號","121.516063333333","24.9640333333333","6500600","新店區"
"231037","4716-K9","2018/11/15 15:39:39","新北市新店區安興路112號","121.51465","24.977645","6500600","新店區"
"231036","512-UM","2018/11/15 15:39:43","新北市新店區安祥路96號","121.487648333333","24.959975","6500600","新店區"
"231013","513-UM","2018/11/15 15:39:48","新北市新店區永業路81巷5弄2號","121.530276666667","24.9490033333333","6500600","新店區"
"231034","616-UM","2018/11/15 15:39:53","新北市新店區玫瑰路66巷1號","121.495925","24.94528","6500600","新店區"
"231030","619-UM","2018/11/15 15:39:53","新北市新店區新和街116巷7號","121.521393333333","24.98621","6500600","新店區"
"231039","718-UY","2018/11/15 15:39:45","新北市新店區寶元路一段107號","121.545615","24.98287","6500600","新店區"
"231035","719-UM","2018/11/15 15:39:48","新北市新店區安興路83號","121.515333333333","24.97539","6500600","新店區"
"231029","897-TW","2018/11/15 15:39:34","新北市新店區安康路三段466-2號","121.483998333333","24.9508883333333","6500600","新店區"
"231004","899-TW","2018/11/15 15:39:36","新北市新店區民族路105號","121.538105","24.9773066666667","6500600","新店區"
"241011","013-R5","2018/11/15 15:39:34","新北市三重區文化北路248號","121.497411666667","25.069885","6500200","三重區"
"241028","022-UY","2018/11/15 15:39:36","新北市三重區成功路6號","121.490278333333","25.0500133333333","6500200","三重區"
"241008","059-VK","2018/11/15 15:39:36","新北市三重區重新路四段121號","121.48509","25.052355","6500200","三重區"
"241022","060-VK","2018/11/15 15:39:42","新北市三重區重新路四段121號","121.484895","25.052495","6500200","三重區"
"241015","062-VK","2018/11/15 15:39:32","新北市三重區重新路四段121號","121.485205","25.0524083333333","6500200","三重區"
"241017","063-VK","2018/11/15 15:39:36","新北市三重區大仁街1號","121.491721666667","25.0635066666667","6500200","三重區"
"241018","268-UM","2018/11/15 15:39:35","新北市三重區重新路四段121號","121.484896666667","25.0527366666667","6500200","三重區"
"241013","270-UM","2018/11/15 15:39:50","新北市三重區正義北路291號","121.494968333333","25.0706566666667","6500200","三重區"
"241025","271-UM","2018/11/15 15:39:46","新北市三重區重新路四段121號","121.484836666667","25.0526566666667","6500200","三重區"
"241007","398-BY","2018/11/15 15:39:45","新北市三重區重新路四段121號","121.4852","25.052515","6500200","三重區"
"241004","475-VK","2018/11/15 15:39:52","新北市三重區重新路四段121號","121.48506","25.0524716666667","6500200","三重區"
"241020","478-VK","2018/11/15 15:39:54","新北市三重區新北大道一段250號","121.479876666667","25.0614","6500200","三重區"
"241014","543-UM","2018/11/15 15:39:46","新北市三重區重新路四段121號","121.485155","25.05248","6500200","三重區"
"241023","545-UM","2018/11/15 15:39:41","新北市三重區重新路四段121號","121.484776666667","25.05252","6500200","三重區"
"241001","547-UM","2018/11/15 15:39:48","新北市三重區重新路四段121號","121.4847","25.0524066666667","6500200","三重區"
"241019","KEA-2593","2018/11/15 15:39:41","新北市三重區重新路四段121號","121.48465","25.0523166666667","6500200","三重區"
"241006","AAD-863","2018/11/15 15:39:35","新北市三重區重新路四段121號","121.484751666667","25.0523566666667","6500200","三重區"
"241012","941-UM","2018/11/15 15:39:53","新北市三重區自強路一段66號","121.497165","25.0666816666667","6500200","三重區"
"241029","942-UM","2018/11/15 15:39:49","新北市三重區環河南路220-8號","121.493393333333","25.0527033333333","6500200","三重區"
"241033","AAC-255","2018/11/15 15:39:40","新北市三重區中興南街74號","121.471006666667","25.0436383333333","6500200","三重區"
"235033","4980-A6","2018/11/15 15:39:40","新北市中和區員山路383-1號","121.481063333333","25.002495","6500300","中和區"
"235023","AAC-215","2018/11/15 15:39:43","新北市中和區員山路32號","121.480975","24.9876733333333","6500300","中和區"
"227004","400-TW","2018/11/15 15:39:45","新北市雙溪區牡丹里中正路61巷16號","121.866086666667","25.04261","6502500","雙溪區"
"253003","6232-TK","2018/11/15 15:39:45","新北市石門區小坑9號","121.594435","25.28831","6502200","石門區"
"236068","105-UM","2018/11/15 15:39:36","新北市土城區大安路37-1號","121.43271","24.96612","6501300","土城區"
"236040","KED-0685","2018/11/15 15:39:53","新北市土城區裕民路73號","121.44964","24.98754","6501300","土城區"
"236074","166-UM","2018/11/15 15:39:37","新北市土城區中州路30巷39號","121.413215","24.95947","6501300","土城區"
"236029","253-BX","2018/11/15 15:39:37","新北市土城區中央路一段45巷2弄16號","121.44825","24.9899183333333","6501300","土城區"
"236024","269-VK","2018/11/15 15:39:52","新北市土城區中央路一段267巷5號","121.445333333333","24.9851366666667","6501300","土城區"
"236012","270-VK","2018/11/15 15:39:47","新北市土城區廣明街90巷23號","121.455473333333","24.99461","6501300","土城區"
"236017","401-BY","2018/11/15 15:39:39","新北市土城區延吉街111巷1弄1號","121.471436666667","24.9864633333333","6501300","土城區"
"236057","912-UM","2018/11/15 15:39:39","新北市土城區中央路一段289-2號","121.444148333333","24.9840333333333","6501300","土城區"
"236045","913-UM","2018/11/15 15:39:44","新北市土城區金城路三段315號","121.474935","24.9912933333333","6501300","土城區"
"236054","AAC-216","2018/11/15 15:39:36","新北市土城區學成路3號","121.453418333333","24.98639","6501300","土城區"
"238002","755-BX","2018/11/15 15:39:37","新北市樹林區日新街83號","121.421718333333","24.9904","6500700","樹林區"
"238010","601-UM","2018/11/15 15:39:49","新北市樹林區龍興街32巷30號","121.401818333333","25.015475","6500700","樹林區"
"238006","599-UM","2018/11/15 15:39:46","新北市樹林區中華路71號","121.423188333333","24.982935","6500700","樹林區"
"238005","571-TV","2018/11/15 15:39:49","新北市樹林區中華路174號","121.414673333333","24.9803616666667","6500700","樹林區"
"238011","5061-A6","2018/11/15 15:39:51","新北市樹林區中山路二段235號","121.402285","24.97604","6500700","樹林區"
"238009","KEA-2213","2018/11/15 15:39:51","新北市樹林區太元街19號","121.418131666667","24.9801583333333","6500700","樹林區"
"238008","KEA-2539","2018/11/15 15:39:51","新北市樹林區柑園街一段343號","121.390786666667","24.9564566666667","6500700","樹林區"
"238004","283-BY","2018/11/15 15:39:47","新北市樹林區保安街二段215號","121.413158333333","25.0040133333333","6500700","樹林區"
"238001","282-BY","2018/11/15 15:39:43","新北市樹林區潭興街107巷21弄17號","121.423803333333","24.998485","6500700","樹林區"
"238013","172-UY","2018/11/15 15:39:45","新北市樹林區新興街19巷2弄15號","121.40128","24.9728616666667","6500700","樹林區"
"238003","169-UY","2018/11/15 15:39:51","新北市樹林區育英街146號","121.419293333333","24.989495","6500700","樹林區"
"220050","280-UM","2018/11/15 15:39:52","新北市板橋區富山街109巷16號","121.475905","25.0217033333333","6500100","板橋區"
"220038","487-VK","2018/11/15 15:39:37","新北市板橋區四維路343號","121.462425","25.02981","6500100","板橋區"
"220052","561-BX","2018/11/15 15:39:46","新北市板橋區漢生東路53巷9號","121.466275","25.0170083333333","6500100","板橋區"
"220014","829-TW","2018/11/15 15:39:50","新北市五股區新五路三段181號","121.448716666667","25.0925383333333","6500100","板橋區"
"220018","AAC-253","2018/11/15 15:39:51","新北市板橋區華東街1-9號","121.448245","24.9948666666667","6500100","板橋區"
