"lineid","car","time","location","longitude","latitude","cityid","cityname"
"244023","069-UM","2018/11/15 15:46:09","新北市林口區粉寮69號","121.405063333333","25.0908566666667","6501700","林口區"
"243009","297-R6","2018/11/15 16:02:48","新北市泰山區黎明路25號","121.421906666667","25.0610133333333","6501600","泰山區"
"231046","107-UY","2018/11/15 16:09:12","新北市新店區灣潭路2-21號","121.536586666667","24.9486133333333","6500600","新店區"
"231018","278-BY","2018/11/15 16:09:15","新北市新店區中正路694巷15號","121.535293333333","24.9908666666667","6500600","新店區"
"231035","719-UM","2018/11/15 16:08:08","新北市新店區柴埕路116號","121.505388333333","24.9601883333333","6500600","新店區"
"241011","013-R5","2018/11/15 16:09:14","新北市三重區正義北路337號","121.493593333333","25.07158","6500200","三重區"
"241028","022-UY","2018/11/15 16:09:17","新北市三重區正義南路111號","121.498256666667","25.0585833333333","6500200","三重區"
"241008","059-VK","2018/11/15 16:09:16","新北市三重區中正北路380號","121.476353333333","25.0699166666667","6500200","三重區"
"241022","060-VK","2018/11/15 16:09:22","新北市三重區新北大道一段6號","121.488848333333","25.061525","6500200","三重區"
"241015","062-VK","2018/11/15 16:09:11","新北市三重區泉州街110號","121.495186666667","25.0530166666667","6500200","三重區"
"241017","063-VK","2018/11/15 16:09:16","新北市三重區民生街76號","121.490233333333","25.0647166666667","6500200","三重區"
"241024","065-VK","2018/11/15 16:09:17","新北市三重區力行路一段38巷21號","121.485625","25.0672733333333","6500200","三重區"
"241026","066-VK","2018/11/15 16:09:21","新北市三重區正義南路15號","121.497818333333","25.06157","6500200","三重區"
"241002","090-VK","2018/11/15 16:09:06","新北市三重區仁義街91號","121.499651666667","25.079735","6500200","三重區"
"241003","091-VK","2018/11/15 16:09:05","新北市三重區仁義街220巷2號","121.495466666667","25.0839433333333","6500200","三重區"
"241005","262-UM","2018/11/15 16:09:16","新北市三重區溪尾街300-2號","121.487478333333","25.08363","6500200","三重區"
"241016","266-UM","2018/11/15 16:09:06","新北市三重區重新路三段157號","121.489905","25.0587466666667","6500200","三重區"
"241009","267-UM","2018/11/15 16:09:18","新北市三重區力行路二段122-1號","121.482175","25.075205","6500200","三重區"
"241018","268-UM","2018/11/15 16:09:15","新北市三重區明志街84號","121.490405","25.063605","6500200","三重區"
"241013","270-UM","2018/11/15 16:09:17","新北市三重區安樂街7號","121.496818333333","25.0698383333333","6500200","三重區"
"241025","271-UM","2018/11/15 16:09:06","新北市三重區中正北路131號","121.483055","25.0671516666667","6500200","三重區"
"241007","398-BY","2018/11/15 16:09:05","新北市三重區慈愛街1號","121.484655","25.07844","6500200","三重區"
"241004","475-VK","2018/11/15 16:09:12","新北市三重區中正南路252巷5號","121.493726666667","25.0526616666667","6500200","三重區"
"241020","478-VK","2018/11/15 16:09:14","新北市三重區車路頭街7號","121.483931666667","25.070355","6500200","三重區"
"241014","543-UM","2018/11/15 16:09:06","新北市三重區泉州街110號","121.495203333333","25.0530283333333","6500200","三重區"
"241023","545-UM","2018/11/15 16:09:21","新北市三重區力行路一段60-1號","121.484713333333","25.06908","6500200","三重區"
"241001","547-UM","2018/11/15 16:09:08","新北市三重區自強路四段77號","121.4907","25.0788866666667","6500200","三重區"
"241019","KEA-2593","2018/11/15 16:09:20","新北市三重區自強路二段76號","121.488048333333","25.0701033333333","6500200","三重區"
"241006","AAD-863","2018/11/15 16:09:15","新北市三重區車路頭街139巷14號","121.484308333333","25.0761583333333","6500200","三重區"
"241030","743-BX","2018/11/15 16:09:24","新北市三重區重新路四段121號","121.484981666667","25.0523833333333","6500200","三重區"
"241012","941-UM","2018/11/15 16:09:13","新北市三重區文化北路132巷25號","121.497913333333","25.0666583333333","6500200","三重區"
"241029","942-UM","2018/11/15 16:09:09","新北市三重區同安東街8號","121.497058333333","25.0570866666667","6500200","三重區"
"241033","AAC-255","2018/11/15 16:09:21","新北市三重區五谷王南街50-1號","121.473925","25.04461","6500200","三重區"
"235026","800-TS","2018/11/15 16:09:06","新北市中和區永和路206號","121.491961666667","25.0073983333333","6500300","中和區"
"247016","546-UM","2018/11/15 15:48:30","新北市五股區中興路三段163號","121.449135","25.0807483333333","6501400","蘆洲區"
"224007","275-VK","2018/11/15 16:09:12","新北市瑞芳區粗坑口路1巷4-3號","121.763143333333","25.0952483333333","6501200","瑞芳區"
"227010","642-TC","2018/11/15 16:09:12","新北市雙溪區三港里雙澳路72號","121.881748333333","25.0545083333333","6502500","雙溪區"
"227004","400-TW","2018/11/15 16:09:25","新北市雙溪區上林里內平林47號","121.833325","25.030445","6502500","雙溪區"
"236057","912-UM","2018/11/15 16:09:19","新北市土城區中央路三段4-3號","121.439046666667","24.9699366666667","6501300","土城區"
"238002","755-BX","2018/11/15 16:09:17","新北市樹林區啟智街82-15號","121.41875","24.9905433333333","6500700","樹林區"
"238006","599-UM","2018/11/15 16:09:12","新北市樹林區東榮街147巷2弄18號","121.414133333333","24.981225","6500700","樹林區"
"238005","571-TV","2018/11/15 16:09:09","新北市樹林區博愛街194號","121.424946666667","24.9896","6500700","樹林區"
"238011","5061-A6","2018/11/15 16:09:22","新北市樹林區育德街64號","121.389716666667","24.96883","6500700","樹林區"
"238009","KEA-2213","2018/11/15 16:09:11","新北市樹林區八德街321-1號","121.419446666667","24.974275","6500700","樹林區"
"238004","283-BY","2018/11/15 16:09:07","新北市樹林區中正路433-1號","121.414925","25.0081383333333","6500700","樹林區"
"238001","282-BY","2018/11/15 16:09:21","新北市樹林區千歲街34號","121.425851666667","24.9964633333333","6500700","樹林區"
"238013","172-UY","2018/11/15 16:09:26","新北市樹林區佳園路一段75巷186號","121.396713333333","24.970705","6500700","樹林區"
"238003","169-UY","2018/11/15 15:55:10","新北市樹林區復興路298號","121.417171666667","24.9873216666667","6500700","樹林區"
"220018","AAC-253","2018/11/15 16:09:20","新北市板橋區華東街1-9號","121.448253333333","24.994875","6500100","板橋區"
