"lineid","car","time","location","longitude","latitude","cityid","cityname"
"234001","149-BY","2018/11/15 17:09:53","新北市永和區福和路1號","121.52633","25.0099366666667","6500400","永和區"
"249005","172-UM","2018/11/15 17:19:16","新北市八里區荖阡坑路44號","121.411316666667","25.1250333333333","6502300","八里區"
"249001","173-UM","2018/11/15 17:19:17","新北市八里區中華路二段165巷2-1號","121.407663333333","25.1507783333333","6502300","八里區"
"249004","303-UY","2018/11/15 17:19:16","新北市八里區忠八街2號","121.420831666667","25.1594466666667","6502300","八里區"
"249002","305-UY","2018/11/15 17:19:04","新北市八里區龍米路二段117巷10號","121.446556666667","25.142985","6502300","八里區"
"249003","593-UM","2018/11/15 17:19:25","新北市八里區中山路二段369號","121.398786666667","25.1470583333333","6502300","八里區"
"244023","069-UM","2018/11/15 17:19:04","新北市林口區隆林街82號","121.386461666667","25.075285","6501700","林口區"
"244007","080-UY","2018/11/15 17:19:22","新北市林口區湖子17-1號","121.386668333333","25.0896566666667","6501700","林口區"
"244019","403-UM","2018/11/15 17:19:21","新北市林口區公園路203號","121.372515","25.0727233333333","6501700","林口區"
"244013","KEA-2802","2018/11/15 17:19:22","新北市林口區粉寮69號","121.404805","25.0908333333333","6501700","林口區"
"244017","485-VK","2018/11/15 17:19:26","新北市林口區粉寮路一段77-2號","121.397101666667","25.0795016666667","6501700","林口區"
"244009","656-BX","2018/11/15 17:19:20","新北市林口區文化北路二段550巷29弄37號","121.379068333333","25.09285","6501700","林口區"
"244011","701-TV","2018/11/15 17:19:22","新北市林口區粉寮路一段105號","121.397815","25.08025","6501700","林口區"
"244025","837-TS","2018/11/15 17:19:10","新北市林口區文化三路二段22號","121.373405","25.0791233333333","6501700","林口區"
"244021","838-TS","2018/11/15 17:19:20","新北市林口區粉寮路二段358-11號","121.406641666667","25.0968516666667","6501700","林口區"
"243010","KEA-2216","2018/11/15 17:19:21","新北市泰山區黎明路33號","121.42153","25.0603466666667","6501600","泰山區"
"231046","107-UY","2018/11/15 17:19:12","新北市新店區直潭路92號","121.530903333333","24.9375883333333","6500600","新店區"
"241011","013-R5","2018/11/15 17:19:14","新北市三重區龍濱路114號","121.50214","25.0702933333333","6500200","三重區"
"241028","022-UY","2018/11/15 17:19:16","新北市三重區中正南路73號","121.493971666667","25.05892","6500200","三重區"
"241008","059-VK","2018/11/15 17:19:16","新北市三重區下竹圍街8號","121.480905","25.0758583333333","6500200","三重區"
"241022","060-VK","2018/11/15 17:19:22","新北市三重區中正北路64巷9號","121.48642","25.0640766666667","6500200","三重區"
"241015","062-VK","2018/11/15 17:19:11","新北市三重區長元街82-1號","121.501856666667","25.066295","6500200","三重區"
"241017","063-VK","2018/11/15 17:19:16","新北市三重區大同北路44巷1號","121.495025","25.0630316666667","6500200","三重區"
"241024","065-VK","2018/11/15 17:19:17","新北市三重區中正北路193巷11弄30號","121.47804","25.0704616666667","6500200","三重區"
"241026","066-VK","2018/11/15 17:19:25","新北市三重區正義南路60-4號","121.498266666667","25.060395","6500200","三重區"
"241002","090-VK","2018/11/15 17:19:05","新北市三重區自強路五段23號","121.493093333333","25.0808766666667","6500200","三重區"
"241003","091-VK","2018/11/15 17:19:24","新北市三重區富福街47號","121.491586666667","25.08424","6500200","三重區"
"251014","742-BX","2018/11/15 17:19:14","新北市淡水區公埔子45號","121.463925","25.2302166666667","6501000","淡水區"
"241005","262-UM","2018/11/15 17:19:16","新北市三重區仁華街20號","121.483371666667","25.0817366666667","6500200","三重區"
"241016","266-UM","2018/11/15 17:19:06","新北市三重區大同北路97-2號","121.494453333333","25.0638116666667","6500200","三重區"
"241009","267-UM","2018/11/15 17:19:18","新北市三重區仁愛街618號","121.483578333333","25.080615","6500200","三重區"
"241018","268-UM","2018/11/15 17:19:15","新北市三重區正義北路332-1號","121.494346666667","25.0703933333333","6500200","三重區"
"241013","270-UM","2018/11/15 17:19:10","新北市三重區仁愛街88號","121.495476666667","25.07388","6500200","三重區"
"241025","271-UM","2018/11/15 17:19:26","新北市三重區中正北路253號","121.475371666667","25.070745","6500200","三重區"
"241007","398-BY","2018/11/15 17:19:21","新北市三重區三和路四段155巷27號","121.484673333333","25.0786533333333","6500200","三重區"
"241024","KEA-2210","2018/11/15 17:19:21","新北市三重區國道路一段58巷20號","121.481308333333","25.0720216666667","6500200","三重區"
"241004","475-VK","2018/11/15 17:19:12","新北市三重區五華街112號","121.49212","25.0829266666667","6500200","三重區"
"241020","478-VK","2018/11/15 17:19:14","新北市三重區自強路三段72號","121.486785","25.073495","6500200","三重區"
"241014","543-UM","2018/11/15 17:19:26","新北市三重區長榮路6號","121.50012","25.06848","6500200","三重區"
"241023","545-UM","2018/11/15 17:19:21","新北市三重區三民街195號","121.482048333333","25.0656733333333","6500200","三重區"
"241001","547-UM","2018/11/15 17:19:08","新北市三重區仁愛街269巷50號","121.49443","25.07959","6500200","三重區"
"241019","KEA-2593","2018/11/15 17:19:24","新北市三重區忠孝路二段6號","121.486203333333","25.0710383333333","6500200","三重區"
"241006","AAD-863","2018/11/15 17:19:15","新北市三重區三和路四段218巷16號","121.48563","25.0764433333333","6500200","三重區"
"241030","743-BX","2018/11/15 17:19:04","新北市三重區集成路9號","121.488653333333","25.051835","6500200","三重區"
"241012","941-UM","2018/11/15 17:19:13","新北市三重區河邊北街248巷21號","121.50114","25.07578","6500200","三重區"
"241029","942-UM","2018/11/15 17:19:09","新北市三重區重新路四段53號","121.48777","25.05728","6500200","三重區"
"241033","AAC-255","2018/11/15 17:19:20","新北市三重區中興北街195號","121.469028333333","25.0572916666667","6500200","三重區"
"235064","005-UY","2018/11/15 17:19:15","新北市中和區員山路36巷16-3號","121.485005","24.9912416666667","6500300","中和區"
"247012","KEA-2869","2018/11/15 17:19:18","新北市蘆洲區信義路319巷4號","121.478036666667","25.0863483333333","6501400","蘆洲區"
"247002","893-R6","2018/11/15 17:19:07","新北市蘆洲區永樂街38巷33弄20號","121.457253333333","25.089715","6501400","蘆洲區"
"247016","546-UM","2018/11/15 17:19:21","新北市蘆洲區正和街96巷22號","121.467781666667","25.0812033333333","6501400","蘆洲區"
"247024","500-BY","2018/11/15 17:19:20","新北市蘆洲區長榮路256號","121.46051","25.085885","6501400","蘆洲區"
"247014","339-TH","2018/11/15 17:19:08","新北市蘆洲區得勝街163號","121.471401666667","25.083005","6501400","蘆洲區"
"247006","337-TH","2018/11/15 17:19:09","新北市蘆洲區長安街73巷13號","121.462351666667","25.0794616666667","6501400","蘆洲區"
"247020","057-VK","2018/11/15 17:19:08","新北市蘆洲區仁愛街35巷12號","121.471528333333","25.092655","6501400","蘆洲區"
"247010","056-VK","2018/11/15 17:19:22","新北市蘆洲區中山一路120巷7弄42-1號","121.477048333333","25.0824583333333","6501400","蘆洲區"
"247008","053-VK","2018/11/15 17:19:17","新北市蘆洲區永安北路一段72巷40號","121.476341666667","25.0769833333333","6501400","蘆洲區"
"247018","007-UY","2018/11/15 17:19:19","新北市蘆洲區民權路82巷5弄11號","121.474585","25.0883166666667","6501400","蘆洲區"
"247004","002-UY","2018/11/15 17:19:12","新北市蘆洲區永安南路二段282-1號","121.457858333333","25.0811683333333","6501400","蘆洲區"
"247022","001-UY","2018/11/15 17:19:09","新北市蘆洲區水湳街36-20號","121.470818333333","25.0893233333333","6501400","蘆洲區"
"228003","097-TW","2018/11/15 17:19:18","新北市貢寮區福隆里東興街98號","121.94629","25.0169533333333","6502600","貢寮區"
"228001","212-TW","2018/11/15 17:19:20","新北市貢寮區仁理村尖山腳街18-3號","121.925528333333","25.0483233333333","6502600","貢寮區"
"228002","585-TW","2018/11/15 17:19:26","新北市貢寮區雙玉里下雙溪街26號","121.92429","25.0104966666667","6502600","貢寮區"
"224006","676-BX","2018/11/15 17:19:14","新北市瑞芳區傑魚坑路314號","121.786833333333","25.105405","6501200","瑞芳區"
"224008","285-BY","2018/11/15 17:19:04","新北市瑞芳區侯硐路48號","121.82577","25.0829883333333","6501200","瑞芳區"
"224009","273-VK","2018/11/15 17:19:20","新北市瑞芳區汽車路93-9號","121.842886666667","25.10949","6501200","瑞芳區"
"224005","271-BY","2018/11/15 17:19:16","新北市瑞芳區鼻頭路1號","121.915883333333","25.1247116666667","6501200","瑞芳區"
"227010","642-TC","2018/11/15 17:19:12","新北市雙溪區三貂里定福路31號","121.852148333333","25.07555","6502500","雙溪區"
"227004","400-TW","2018/11/15 17:19:05","新北市雙溪區上林里內平林90號","121.827535","25.027465","6502500","雙溪區"
"251009","008-UM","2018/11/15 17:19:22","新北市淡水區三民街20號","121.439036666667","25.1717533333333","6501000","淡水區"
"251005","010-UM","2018/11/15 17:19:10","新北市淡水區鄧公路29巷2號","121.45158","25.1699233333333","6501000","淡水區"
"251013","KEA-2871","2018/11/15 17:19:07","新北市淡水區竹圍子12號","121.476396666667","25.1935966666667","6501000","淡水區"
"251016","179-VK","2018/11/15 17:19:13","新北市淡水區鄒厝崙13-1號","121.462558333333","25.1907266666667","6501000","淡水區"
"251008","180-VK","2018/11/15 17:19:12","新北市淡水區大同路285號","121.468061666667","25.1424416666667","6501000","淡水區"
"251015","182-VK","2018/11/15 17:19:14","新北市淡水區樹林口168號","121.474946666667","25.1684966666667","6501000","淡水區"
"251010","413-VK","2018/11/15 17:19:20","新北市淡水區新民街一段117號","121.427991666667","25.1877766666667","6501000","淡水區"
"251012","441-VK","2018/11/15 17:19:10","新北市淡水區水碓街81號","121.44508","25.1776766666667","6501000","淡水區"
"251007","442-VK","2018/11/15 17:19:15","新北市淡水區民生路60號","121.462101666667","25.137955","6501000","淡水區"
"251004","443-VK","2018/11/15 17:02:09","新北市淡水區中正東路二段88巷15號","121.459101666667","25.1504766666667","6501000","淡水區"
"251006","561-UM","2018/11/15 17:19:04","新北市淡水區新生街29號","121.439491666667","25.1749433333333","6501000","淡水區"
"251011","650-BX","2018/11/15 17:19:10","新北市淡水區坪頂路128號","121.465146666667","25.1611033333333","6501000","淡水區"
"251002","672-BX","2018/11/15 17:19:22","新北市淡水區中正路二段31號","121.419313333333","25.18166","6501000","淡水區"
"251003","766-UM","2018/11/15 17:19:20","新北市淡水區中正路二段31號","121.419078333333","25.1821383333333","6501000","淡水區"
"207003","550-UM","2018/11/15 17:19:21","新北市萬里區萬里里獅頭路23號","121.693413333333","25.1782266666667","6502800","萬里區"
"252002","178-VK","2018/11/15 17:19:24","新北市三芝區忠孝街1-14號","121.505528333333","25.253935","6502100","三芝區"
"252001","292-VK","2018/11/15 17:19:15","新北市三芝區長安街119號","121.498065","25.2596883333333","6502100","三芝區"
"242058","986-R7","2018/11/15 17:19:22","新北市新莊區中正路501號","121.440695","25.0331516666667","6500500","新莊區"
"242056","751-BX","2018/11/15 17:19:23","新北市新莊區新莊路664-2號","121.44236","25.0328516666667","6500500","新莊區"
"242027","615-BX","2018/11/15 17:19:13","新北市新莊區中港路306號","121.45258","25.04499","6500500","新莊區"
"242025","613-BX","2018/11/15 17:19:12","新北市新莊區中平路82巷29號","121.446125","25.0449883333333","6500500","新莊區"
"242029","612-BX","2018/11/15 17:19:04","新北市新莊區幸福路613號","121.452021666667","25.0491816666667","6500500","新莊區"
"242044","566-BX","2018/11/15 17:19:11","新北市新莊區中正路539-1號","121.435423333333","25.0327983333333","6500500","新莊區"
"242048","497-BY","2018/11/15 17:19:14","新北市新莊區龍安路252-2號","121.421206666667","25.0195416666667","6500500","新莊區"
"242053","442-UM","2018/11/15 17:19:19","新北市新莊區瓊林南路77-41號","121.437115","25.0122583333333","6500500","新莊區"
"242042","441-UM","2018/11/15 17:19:00","新北市新莊區新樹路113巷21號","121.439418333333","25.0264166666667","6500500","新莊區"
"242039","415-TV","2018/11/15 17:19:07","新北市新莊區民安路301號","121.429523333333","25.0224666666667","6500500","新莊區"
"242009","413-TV","2018/11/15 17:19:12","新北市新莊區新泰路480號","121.442661666667","25.045455","6500500","新莊區"
"242023","362-BY","2018/11/15 17:19:05","新北市新莊區中港路343號","121.452211666667","25.0455566666667","6500500","新莊區"
"242061","353-BY","2018/11/15 17:19:24","新北市新莊區中正路400號","121.442016666667","25.0342516666667","6500500","新莊區"
"242034","135-UY","2018/11/15 17:19:20","新北市新莊區中正路471號","121.442035","25.0335466666667","6500500","新莊區"
"242051","172-VK","2018/11/15 17:19:16","新北市新莊區瓊林南路75-2號","121.435013333333","25.0142833333333","6500500","新莊區"
"242013","173-VK","2018/11/15 17:19:07","新北市新莊區三和路12-21號","121.442118333333","25.0383366666667","6500500","新莊區"
"242019","175-VK","2018/11/15 17:19:14","新北市新莊區中平路82巷26號","121.445911666667","25.044875","6500500","新莊區"
"242007","176-VK","2018/11/15 17:19:19","新北市新莊區中平路82巷29號","121.44618","25.0449116666667","6500500","新莊區"
"242017","346-TH","2018/11/15 17:19:04","新北市新莊區中港路349號","121.452076666667","25.045655","6500500","新莊區"
"242031","348-TH","2018/11/15 17:19:08","新北市新莊區新泰路464號","121.443166666667","25.0448983333333","6500500","新莊區"
"242004","349-TH","2018/11/15 17:19:08","新北市新莊區復興路一段6號","121.44563","25.0414716666667","6500500","新莊區"
"242021","350-TH","2018/11/15 17:19:20","新北市新莊區中港路278號","121.453075","25.0440833333333","6500500","新莊區"
"242015","351-TH","2018/11/15 17:19:09","新北市新莊區中環路二段392-1號","121.442393333333","25.0456916666667","6500500","新莊區"
"238015","755-BX","2018/11/15 17:19:18","新北市樹林區大安路269號","121.41901","24.99364","6500700","樹林區"
"238023","601-UM","2018/11/15 17:19:09","新北市樹林區中正路433號","121.414938333333","25.008525","6500700","樹林區"
"238019","599-UM","2018/11/15 17:19:24","新北市樹林區太平路273巷23號","121.42119","24.9763616666667","6500700","樹林區"
"238018","571-TV","2018/11/15 17:19:24","新北市樹林區鎮前街269巷39號","121.419025","24.9847466666667","6500700","樹林區"
"238024","5061-A6","2018/11/15 17:19:04","新北市樹林區樹新路19號","121.426948333333","24.9944166666667","6500700","樹林區"
"238022","KEA-2213","2018/11/15 17:19:11","新北市樹林區仁愛街73巷1號","121.423515","24.9827733333333","6500700","樹林區"
"238021","KEA-2539","2018/11/15 17:19:21","新北市樹林區西圳街一段123號","121.398271666667","24.9641133333333","6500700","樹林區"
"238017","283-BY","2018/11/15 17:19:27","新北市樹林區光武街21號","121.416483333333","25.006215","6500700","樹林區"
"238014","282-BY","2018/11/15 17:19:21","新北市樹林區長壽街70巷19-1號","121.421851666667","24.9947183333333","6500700","樹林區"
"238026","172-UY","2018/11/15 17:19:13","新北市樹林區東大街166號","121.40949","24.97569","6500700","樹林區"
"238016","169-UY","2018/11/15 17:19:10","新北市樹林區中山路二段34號","121.417471666667","24.9849733333333","6500700","樹林區"
"239007","AAC-297","2018/11/15 17:19:23","新北市鶯歌區光復街13號","121.351606666667","24.955245","6500800","鶯歌區"
"239006","891-R6","2018/11/15 17:19:05","新北市鶯歌區德昌二街73號","121.333366666667","24.957865","6500800","鶯歌區"
"239008","527-UM","2018/11/15 17:19:15","新北市鶯歌區西湖街6-2號","121.340966666667","24.9575916666667","6500800","鶯歌區"
"239005","526-UM","2018/11/15 17:19:14","新北市鶯歌區福德三街24號","121.329326666667","24.9672716666667","6500800","鶯歌區"
"239001","417-VK","2018/11/15 17:19:15","新北市鶯歌區尖山路191巷47號","121.344415","24.946715","6500800","鶯歌區"
"239003","360-BY","2018/11/15 17:19:12","新北市鶯歌區德昌二街70巷34弄2號","121.33184","24.958045","6500800","鶯歌區"
"239002","359-BY","2018/11/15 17:19:11","新北市鶯歌區建國路170號","121.350083333333","24.953545","6500800","鶯歌區"
"239004","193-VK","2018/11/15 17:19:22","新北市鶯歌區文化路280號","121.35265","24.9471183333333","6500800","鶯歌區"
"242002","281-VK","2018/11/15 17:19:17","新北市新莊區瓊林路19號","121.445685","25.0287","6500500","新莊區"
"242046","280-VK","2018/11/15 17:19:07","新北市泰山區磚雅厝3號","121.442026666667","25.04166","6500500","新莊區"
