"lineid","car","time","location","longitude","latitude","cityid","cityname"
"234046","148-BY","2018/11/15 19:37:53","新北市永和區永元路95巷4號","121.522536666667","25.0020083333333","6500400","永和區"
"234007","207-UY","2018/11/15 19:37:57","新北市中和區中和路416號","121.511611666667","25.0032183333333","6500400","永和區"
"234081","298-R6","2018/11/15 19:37:51","新北市永和區國中路104巷12弄15號","121.525621666667","25.0065016666667","6500400","永和區"
"234038","336-UY","2018/11/15 19:37:49","新北市永和區民樂街31巷4號","121.527793333333","25.0014333333333","6500400","永和區"
"234064","337-UY","2018/11/15 19:37:42","新北市永和區秀朗路二段24巷45號","121.520001666667","25.0018983333333","6500400","永和區"
"234086","338-UY","2018/11/15 19:37:41","新北市永和區成功路一段18巷20號","121.526195","25.005155","6500400","永和區"
"234070","552-UM","2018/11/15 19:37:49","新北市永和區永和路二段235號","121.515603333333","25.0143533333333","6500400","永和區"
"234017","745-BX","2018/11/15 19:37:56","新北市永和區永和路二段425巷51號","121.513801666667","25.0173633333333","6500400","永和區"
"234030","746-BX","2018/11/15 19:37:51","新北市永和區四維街103巷5號","121.523993333333","24.9979233333333","6500400","永和區"
"234054","KEA-2590","2018/11/15 19:37:55","新北市永和區竹林路39巷14號","121.518551666667","25.0145533333333","6500400","永和區"
"234013","KEA-2591","2018/11/15 19:37:45","新北市永和區永平路246號","121.508703333333","25.01096","6500400","永和區"
"234061","AAD-866","2018/11/15 19:37:46","新北市永和區中正路404號","121.517536666667","25.0017866666667","6500400","永和區"
"234042","862-TW","2018/11/15 19:37:53","新北市永和區中和路573號","121.511876666667","25.0036016666667","6500400","永和區"
"234050","863-TW","2018/11/15 19:37:45","新北市永和區保安路132號","121.508976666667","25.0153116666667","6500400","永和區"
"234026","9371-KE","2018/11/15 19:37:37","新北市中和區中和路402號","121.511238333333","25.0025983333333","6500400","永和區"
"234011","9373-KE","2018/11/15 19:37:41","新北市永和區保安路168號","121.508046666667","25.0143433333333","6500400","永和區"
"249004","303-UY","2018/11/15 19:37:54","新北市八里區中山路一段268巷18號","121.414406666667","25.1603466666667","6502300","八里區"
"249002","305-UY","2018/11/15 19:37:44","新北市八里區頂寮二街81號","121.450053333333","25.1254633333333","6502300","八里區"
"249003","593-UM","2018/11/15 19:37:48","新北市八里區華峰三街38號","121.399275","25.14597","6502300","八里區"
"248016","026-BX","2018/11/15 19:37:40","新北市五股區成泰路四段22巷43號","121.456023333333","25.10893","6501500","五股區"
"248008","095-VK","2018/11/15 19:37:39","新北市五股區四維路124號","121.467926666667","25.0748683333333","6501500","五股區"
"248020","225-UY","2018/11/15 19:37:54","新北市五股區中直路10-5號","121.428006666667","25.1114783333333","6501500","五股區"
"248012","247-BX","2018/11/15 19:37:56","新北市五股區成泰路二段106號","121.437666666667","25.0829366666667","6501500","五股區"
"248010","272-BY","2018/11/15 19:37:45","新北市五股區自強路76號","121.43291","25.072925","6501500","五股區"
"248004","677-BX","2018/11/15 19:37:47","新北市五股區成泰路二段102號","121.437621666667","25.0828616666667","6501500","五股區"
"248002","678-BX","2018/11/15 19:37:47","新北市五股區成泰路三段577巷77號","121.449716666667","25.1036266666667","6501500","五股區"
"234077","969-R7","2018/11/15 19:37:57","新北市永和區民族街67巷9號","121.518876666667","24.9972083333333","6500400","永和區"
"234074","AAC-211","2018/11/15 19:37:51","新北市永和區竹林路225巷42號","121.522043333333","25.008615","6500400","永和區"
"234067","AAC-212","2018/11/15 19:37:41","新北市永和區中山路一段191巷9弄1號","121.509661666667","25.0080666666667","6500400","永和區"
"234003","AAC-295","2018/11/15 19:37:50","新北市永和區秀朗路一段42號","121.514616666667","25.0065466666667","6500400","永和區"
"244023","069-UM","2018/11/15 19:37:44","新北市林口區文林五街33號","121.373085","25.0847966666667","6501700","林口區"
"244019","403-UM","2018/11/15 19:37:21","新北市林口區太平里180號","121.366593333333","25.1340116666667","6501700","林口區"
"243013","AAD-798","2018/11/15 19:37:45","新北市泰山區應化街7號","121.42386","25.04371","6501600","泰山區"
"243009","297-R6","2018/11/15 19:37:40","新北市泰山區美寧街64號","121.430995","25.0646433333333","6501600","泰山區"
"243016","KEA-2801","2018/11/15 19:37:54","新北市泰山區明志路三段427號","121.420818333333","25.03327","6501600","泰山區"
"243015","421-VK","2018/11/15 19:37:54","新北市泰山區明志路二段239號","121.427233333333","25.0481183333333","6501600","泰山區"
"243011","KEA-2215","2018/11/15 19:37:56","新北市泰山區貴子路41-1號","121.42963","25.0399733333333","6501600","泰山區"
"243010","KEA-2216","2018/11/15 19:36:52","新北市泰山區仁義路220巷53號","121.432151666667","25.052615","6501600","泰山區"
"243012","646-TV","2018/11/15 19:37:43","新北市泰山區仁武街21號","121.433628333333","25.0546833333333","6501600","泰山區"
"243014","680-BX","2018/11/15 19:37:55","新北市泰山區泰林路二段33-7號","121.435168333333","25.0564033333333","6501600","泰山區"
"222003","436-BY","2018/11/15 19:32:29","新北市深坑區深南路51-1號","121.621288333333","25.0097583333333","6501800","深坑區"
"222002","659-BX","2018/11/15 19:37:58","新北市深坑區北深路一段177號","121.632586666667","25.010835","6501800","深坑區"
"231041","002-UM","2018/11/15 19:37:46","新北市新店區中正路485號","121.533796666667","24.9820533333333","6500600","新店區"
"231059","046-UY","2018/11/15 19:37:42","新北市新店區安和路三段139號","121.51692","24.9853783333333","6500600","新店區"
"231040","047-UY","2018/11/15 19:37:55","新北市新店區中正路75巷71號","121.543175","24.968835","6500600","新店區"
"231044","106-UY","2018/11/15 19:37:55","新北市新店區北新路三段113號","121.541388333333","24.9823383333333","6500600","新店區"
"231046","107-UY","2018/11/15 19:37:52","新北市新店區中正路329巷1弄2號","121.535593333333","24.974865","6500600","新店區"
"231052","108-UY","2018/11/15 19:37:41","新北市新店區新烏路二段402號","121.551566666667","24.9090683333333","6500600","新店區"
"231062","110-UY","2018/11/15 19:37:39","新北市新店區秀山路11巷8號","121.531891666667","24.9594666666667","6500600","新店區"
"231047","187-VK","2018/11/15 19:37:45","新北市新店區五峰路63巷8弄20號","121.547321666667","24.969315","6500600","新店區"
"231054","KEA-2219","2018/11/15 19:37:55","新北市新店區文中路40號","121.53956","24.9565583333333","6500600","新店區"
"231057","256-BX","2018/11/15 19:37:47","新北市新店區橘園一路11號","121.547896666667","24.934","6500600","新店區"
"231042","268-BY","2018/11/15 19:37:49","新北市新店區中興路一段146號","121.542453333333","24.96376","6500600","新店區"
"231051","278-BY","2018/11/15 19:37:52","新北市新店區中央路214號","121.529865","24.9735066666667","6500600","新店區"
"231050","AAD-862","2018/11/15 19:37:54","新北市新店區秀水路50號","121.555473333333","24.9565383333333","6500600","新店區"
"231058","3713-VJ","2018/11/15 19:37:42","新北市新店區中正路76巷11弄19號","121.543651666667","24.9717183333333","6500600","新店區"
"231066","4716-K9","2018/11/15 19:37:42","新北市新店區安康路三段456號","121.484343333333","24.9510866666667","6500600","新店區"
"231056","4715-K9","2018/11/15 19:37:41","新北市新店區溪園路397號","121.52341","24.9780783333333","6500600","新店區"
"231065","512-UM","2018/11/15 19:37:52","新北市新店區安祥路109巷85弄15號","121.478156666667","24.9601866666667","6500600","新店區"
"231049","513-UM","2018/11/15 19:37:50","新北市新店區大豐路1號","121.54168","24.9805","6500600","新店區"
"231063","616-UM","2018/11/15 19:37:49","新北市新店區達觀路41號","121.502553333333","24.9382833333333","6500600","新店區"
"231045","617-UM","2018/11/15 19:37:40","新北市新店區北宜路二段112-1號","121.556386666667","24.9537466666667","6500600","新店區"
"231061","618-UM","2018/11/15 19:37:54","新北市新店區安民街113號","121.516345","24.968325","6500600","新店區"
"231064","719-UM","2018/11/15 19:37:30","新北市新店區安和路一段52巷2-1號","121.517663333333","24.9662516666667","6500600","新店區"
"231060","897-TW","2018/11/15 19:37:49","新北市新店區安康路二段161號","121.510215","24.9593466666667","6500600","新店區"
"231043","899-TW","2018/11/15 19:37:57","新北市新店區中正路137號","121.541736666667","24.9714666666667","6500600","新店區"
"231055","AKT-0513","2018/11/15 19:37:45","新北市新店區力行路14巷16弄3號","121.53932","24.9655783333333","6500600","新店區"
"241011","013-R5","2018/11/15 19:37:54","新北市三重區秀江街114號","121.499231666667","25.0719766666667","6500200","三重區"
"241028","022-UY","2018/11/15 19:37:36","新北市三重區中正南路210號","121.493811666667","25.0557216666667","6500200","三重區"
"241008","059-VK","2018/11/15 19:37:52","新北市三重區永福街135巷12號","121.47827","25.076825","6500200","三重區"
"241022","060-VK","2018/11/15 19:37:41","新北市三重區中正北路162號","121.484576666667","25.0659683333333","6500200","三重區"
"241031","061-VK","2018/11/15 19:37:47","新北市三重區重新路四段244巷17-1號","121.486646666667","25.0534883333333","6500200","三重區"
"241015","062-VK","2018/11/15 19:37:46","新北市三重區福德北路24號","121.502266666667","25.0647583333333","6500200","三重區"
"241017","063-VK","2018/11/15 19:37:56","新北市三重區大仁街1號","121.49162","25.063605","6500200","三重區"
"241026","066-VK","2018/11/15 19:37:42","新北市三重區文化南路65巷48號","121.498673333333","25.0605766666667","6500200","三重區"
"251014","742-BX","2018/11/15 19:37:54","新北市淡水區北勢子20號","121.476183333333","25.23172","6501000","淡水區"
"241009","267-UM","2018/11/15 19:37:37","新北市三重區三和路四段406巷8號","121.480736666667","25.07958","6500200","三重區"
"241032","269-UM","2018/11/15 19:37:44","新北市三重區三陽路114號","121.48305","25.0585983333333","6500200","三重區"
"241013","270-UM","2018/11/15 19:37:50","新北市三重區仁愛街131號","121.495611666667","25.0749","6500200","三重區"
"241025","271-UM","2018/11/15 19:37:46","新北市三重區頂崁街190號","121.47748","25.0664033333333","6500200","三重區"
"241007","398-BY","2018/11/15 19:37:49","新北市三重區溪尾街120巷36號","121.488231666667","25.0787916666667","6500200","三重區"
"241035","KEA-2210","2018/11/15 19:37:41","新北市三重區正義北路99號","121.497083333333","25.0653683333333","6500200","三重區"
"241004","475-VK","2018/11/15 19:37:57","新北市三重區仁愛街377巷132號","121.493533333333","25.0819483333333","6500200","三重區"
"241020","478-VK","2018/11/15 19:37:38","新北市三重區自強路三段41號","121.487188333333","25.0728216666667","6500200","三重區"
"241014","543-UM","2018/11/15 19:37:46","新北市三重區長榮路129號","121.503765","25.0693883333333","6500200","三重區"
"241023","545-UM","2018/11/15 19:37:47","新北市三重區忠孝路三段99巷21號","121.4794","25.0645416666667","6500200","三重區"
"241001","547-UM","2018/11/15 19:37:47","新北市三重區福隆路115號","121.492738333333","25.0785333333333","6500200","三重區"
"241019","KEA-2593","2018/11/15 19:37:43","新北市三重區六張街194巷1弄2號","121.488585","25.06802","6500200","三重區"
"241006","AAD-863","2018/11/15 19:37:55","新北市三重區聯華街102號","121.485396666667","25.0751566666667","6500200","三重區"
"241030","743-BX","2018/11/15 19:37:54","新北市三重區新興路30-1號","121.49188","25.05316","6500200","三重區"
"241012","941-UM","2018/11/15 19:37:53","新北市三重區仁興街33巷38-1號","121.500221666667","25.0758733333333","6500200","三重區"
"241029","942-UM","2018/11/15 19:37:48","新北市三重區同安街122號","121.493355","25.056005","6500200","三重區"
"235066","003-UY","2018/11/15 19:37:43","新北市中和區南華路89號","121.505535","24.997575","6500300","中和區"
"235064","005-UY","2018/11/15 19:37:55","新北市中和區南山路127巷32弄2號","121.50395","24.9975616666667","6500300","中和區"
"235063","006-UY","2018/11/15 19:37:44","新北市中和區連城路169號","121.495435","24.9984483333333","6500300","中和區"
"235056","096-UM","2018/11/15 19:37:51","新北市中和區員山路581巷31弄22號","121.476556666667","25.0103816666667","6500300","中和區"
"235039","097-UM","2018/11/15 19:37:53","新北市中和區景平路148號","121.518203333333","24.9919566666667","6500300","中和區"
"235065","098-UM","2018/11/15 19:37:55","新北市中和區永和路58-2號","121.499048333333","25.0042466666667","6500300","中和區"
"235040","150-BY","2018/11/15 19:37:52","新北市中和區保健路10巷25弄1號","121.508143333333","24.99652","6500300","中和區"
"235058","151-BY","2018/11/15 19:37:37","新北市中和區連城路346-1號","121.482458333333","24.9955566666667","6500300","中和區"
"235055","183-VK","2018/11/15 19:37:55","新北市中和區中山路三段209號","121.471908333333","25.0063583333333","6500300","中和區"
"235038","185-VK","2018/11/15 19:37:49","新北市中和區自立路139巷10號","121.522681666667","24.9938283333333","6500300","中和區"
"235049","186-VK","2018/11/15 19:37:57","新北市中和區安平路15號","121.509128333333","24.9941133333333","6500300","中和區"
"235067","255-BX","2018/11/15 19:37:58","新北市中和區新生街220巷15弄10號","121.482873333333","24.9981483333333","6500300","中和區"
"235044","293-VK","2018/11/15 19:37:40","新北市中和區興南路一段109號","121.509288333333","24.98808","6500300","中和區"
"235072","301-VK","2018/11/15 19:37:49","新北市中和區錦和路95號","121.490125","24.9956266666667","6500300","中和區"
"235043","352-BY","2018/11/15 19:37:49","新北市中和區興南路一段25號","121.511308333333","24.9907733333333","6500300","中和區"
"235042","KEA-2878","2018/11/15 19:37:41","新北市中和區保健路26巷3號","121.508613333333","24.99763","6500300","中和區"
"235050","4979-A6","2018/11/15 19:37:42","新北市中和區員山路36巷13號","121.484425","24.9912283333333","6500300","中和區"
"235070","558-UM","2018/11/15 19:37:40","新北市中和區景平路644號","121.497805","25.0003933333333","6500300","中和區"
"235045","565-BX","2018/11/15 19:37:44","新北市中和區景新街432號","121.513083333333","24.98856","6500300","中和區"
"235054","640-BX","2018/11/15 19:37:36","新北市中和區德光路92-2號","121.468725","25.0035283333333","6500300","中和區"
"235060","647-TV","2018/11/15 19:37:55","新北市中和區中山路二段519號","121.481795","25.0052016666667","6500300","中和區"
"235047","732-UM","2018/11/15 19:37:39","新北市中和區景平路371號","121.504246666667","24.9931866666667","6500300","中和區"
"235046","733-UM","2018/11/15 19:37:52","新北市中和區忠孝街39-15號","121.511873333333","24.9846116666667","6500300","中和區"
"235071","783-BX","2018/11/15 19:37:53","新北市中和區中正路808號","121.484925","25.0028666666667","6500300","中和區"
"235057","801-TS","2018/11/15 19:37:44","新北市中和區員山路332號","121.48122","25.0032733333333","6500300","中和區"
"235052","805-TS","2018/11/15 19:37:42","新北市中和區華新街206巷23號","121.506143333333","24.982795","6500300","中和區"
"235048","896-TW","2018/11/15 19:37:39","新北市中和區忠孝街1巷2-1號","121.509151666667","24.9830266666667","6500300","中和區"
"235053","900-TW","2018/11/15 19:37:56","新北市中和區國光街142巷31號","121.46814","25.0022933333333","6500300","中和區"
"235051","157-BY","2018/11/15 19:37:54","新北市中和區中興街134號","121.49976","24.9921283333333","6500300","中和區"
"235037","AAC-213","2018/11/15 19:37:52","新北市中和區秀朗路三段10巷29弄11號","121.525093333333","24.9959516666667","6500300","中和區"
"235059","AAC-215","2018/11/15 19:37:50","新北市中和區圓通路323-5號","121.492576666667","24.9906516666667","6500300","中和區"
"220068","013-TV","2018/11/15 19:37:55","新北市板橋區萬安街14號","121.484715","25.02259","6500100","板橋區"
"220065","072-UY","2018/11/15 19:37:47","新北市板橋區國泰街28-2號","121.468465","25.0067366666667","6500100","板橋區"
"220086","073-UY","2018/11/15 19:37:52","新北市板橋區中正路9號","121.456096666667","25.012115","6500100","板橋區"
"220106","075-UY","2018/11/15 19:37:43","新北市板橋區文化路二段548巷25號","121.476715","25.0337433333333","6500100","板橋區"
"220069","AAD-861","2018/11/15 19:37:53","新北市板橋區貴興路106巷3號","121.455366666667","25.0026133333333","6500100","板橋區"
"247004","002-UY","2018/11/15 19:37:54","新北市蘆洲區長安街98巷18號","121.462915","25.0817266666667","6501400","蘆洲區"
"226004","312-R5","2018/11/15 19:37:46","新北市平溪區十分里十分街204號","121.779063333333","25.04427","6502400","平溪區"
"235041","251-BX","2018/11/15 19:37:54","新北市中和區永貞路249巷12號","121.512535","25.0036566666667","6500300","中和區"
"228003","097-TW","2018/11/15 19:37:58","新北市貢寮區和美里和美街63號","121.922456666667","25.0707216666667","6502600","貢寮區"
"228001","212-TW","2018/11/15 19:37:52","新北市貢寮區真理里延平街47號","121.924516666667","25.055615","6502600","貢寮區"
"224010","AGQ-8101","2018/11/15 19:37:49","新北市瑞芳區山尖路172-1號","121.848043333333","25.1118916666667","6501200","瑞芳區"
"224002","639-TC","2018/11/15 19:37:58","新北市瑞芳區三爪子坑路13巷281-8號","121.814656666667","25.106345","6501200","瑞芳區"
"227010","642-TC","2018/11/15 19:37:47","新北市雙溪區新基里新基北街20號","121.86725","25.038865","6502500","雙溪區"
"227004","400-TW","2018/11/15 19:37:45","新北市雙溪區雙溪里太平路54號","121.864686666667","25.0354583333333","6502500","雙溪區"
"253006","032-BX","2018/11/15 19:37:51","新北市石門區小坑12號","121.5915","25.290535","6502200","石門區"
"222001","KEA-2212","2018/11/15 19:37:41","新北市深坑區深坑街152號","121.612958333333","25.0014633333333","6501800","深坑區"
"208002","KEA-2872","2018/11/15 19:37:50","新北市金山區中正路27號","121.635316666667","25.2221283333333","6502700","金山區"
"208003","665-BX","2018/11/15 19:37:40","新北市金山區仁愛路1巷1號","121.638503333333","25.219995","6502700","金山區"
"208001","761-BX","2018/11/15 19:37:47","新北市金山區重和里牛埔仔1-4號","121.607506666667","25.223025","6502700","金山區"
"251009","008-UM","2018/11/15 19:37:42","新北市淡水區中山北路一段186巷13弄2號","121.445436666667","25.17892","6501000","淡水區"
"251005","010-UM","2018/11/15 19:37:49","新北市淡水區原德路112號","121.443588333333","25.1738316666667","6501000","淡水區"
"251001","011-UM","2018/11/15 19:37:42","新北市淡水區民權路99-5號","121.45997","25.1379516666667","6501000","淡水區"
"251013","KEA-2871","2018/11/15 19:37:46","新北市淡水區頂田寮路147號","121.462356666667","25.2164433333333","6501000","淡水區"
"251016","179-VK","2018/11/15 19:37:53","新北市淡水區下圭柔山119-51號","121.450696666667","25.2084883333333","6501000","淡水區"
"251008","180-VK","2018/11/15 19:37:46","新北市淡水區中正路382號","121.429083333333","25.1753166666667","6501000","淡水區"
"251015","182-VK","2018/11/15 19:37:54","新北市淡水區北新路三段120號","121.487111666667","25.18844","6501000","淡水區"
"251010","413-VK","2018/11/15 19:37:39","新北市淡水區濱海路二段202巷65弄37號","121.433973333333","25.19373","6501000","淡水區"
"251012","441-VK","2018/11/15 19:37:49","新北市淡水區中山北路三段164號","121.445701666667","25.1965683333333","6501000","淡水區"
"251007","442-VK","2018/11/15 19:37:35","新北市淡水區中正東路一段111巷28-1號","121.455686666667","25.1608566666667","6501000","淡水區"
"251006","561-UM","2018/11/15 19:37:44","新北市淡水區中山北路一段207巷66號","121.441741666667","25.1792466666667","6501000","淡水區"
"251011","650-BX","2018/11/15 19:37:49","新北市淡水區八勢路50巷23號","121.46281","25.1506866666667","6501000","淡水區"
"207003","550-UM","2018/11/15 19:37:41","新北市萬里區大鵬里下社15-3號","121.647815","25.2183316666667","6502800","萬里區"
"207004","225-TW","2018/11/15 19:37:50","新北市萬里區萬里里瑪鋉路43號","121.687773333333","25.175915","6502800","萬里區"
"252002","178-VK","2018/11/15 19:37:44","新北市三芝區中正路一段18巷34-1號","121.503865","25.2591683333333","6502100","三芝區"
"252001","292-VK","2018/11/15 19:37:55","新北市三芝區公正街9號","121.499746666667","25.2574883333333","6502100","三芝區"
"237004","KEA-2597","2018/11/15 19:37:42","新北市三峽區有木314號","121.42192","24.8639466666667","6500900","三峽區"
"237007","153-BY","2018/11/15 19:37:53","新北市三峽區二鬮路136巷20弄31號","121.357076666667","24.90989","6500900","三峽區"
"237009","210-TH","2018/11/15 19:37:44","新北市三峽區民權街239號","121.36802","24.9274816666667","6500900","三峽區"
"237013","252-BX","2018/11/15 19:37:49","新北市三峽區介壽路二段82號","121.39247","24.9354666666667","6500900","三峽區"
"237012","275-BY","2018/11/15 19:37:44","新北市三峽區光明路36號","121.373788333333","24.93057","6500900","三峽區"
"237008","302-VK","2018/11/15 19:37:42","新北市三峽區大同路154號","121.373128333333","24.9267716666667","6500900","三峽區"
"237014","433-BY","2018/11/15 19:37:43","新北市三峽區民權街225號","121.367768333333","24.92809","6500900","三峽區"
"237006","5529-G3","2018/11/15 19:37:43","新北市三峽區中正路一段336巷15弄2號","121.369951666667","24.9249383333333","6500900","三峽區"
"237011","KEA-2596","2018/11/15 19:37:57","新北市三峽區中正路一段112-1號","121.374036666667","24.9294366666667","6500900","三峽區"
"237016","649-BX","2018/11/15 19:37:51","新北市三峽區成福路180號","121.423945","24.9282883333333","6500900","三峽區"
"237010","706-TV","2018/11/15 19:37:51","新北市三峽區復興路77號","121.372675","24.9374616666667","6500900","三峽區"
"237005","AKY-6261","2018/11/15 19:37:48","新北市三峽區中山路219巷17弄2號","121.363268333333","24.9362216666667","6500900","三峽區"
"236070","105-UM","2018/11/15 19:37:46","新北市土城區明德路二段71-7號","121.450881666667","24.9803916666667","6501300","土城區"
"236042","KED-0685","2018/11/15 19:37:46","新北市土城區學士路11號","121.453685","24.98296","6501300","土城區"
"236078","166-UM","2018/11/15 19:37:44","新北市土城區中州路27巷81號","121.412653333333","24.9563583333333","6501300","土城區"
"236030","253-BX","2018/11/15 19:37:57","新北市土城區福祥街12號","121.440805","24.9795816666667","6501300","土城區"
"236026","269-VK","2018/11/15 19:37:57","新北市土城區中央路二段61巷26號","121.443233333333","24.9786183333333","6501300","土城區"
"236038","271-VK","2018/11/15 19:37:52","新北市土城區青雲路230號","121.458866666667","24.9808433333333","6501300","土城區"
"236021","401-BY","2018/11/15 19:37:44","新北市土城區峰廷街3號","121.469036666667","24.9873066666667","6501300","土城區"
"236059","912-UM","2018/11/15 19:37:46","新北市土城區中央路二段63號","121.442711666667","24.9788916666667","6501300","土城區"
"236049","913-UM","2018/11/15 19:37:51","新北市土城區明德路一段69巷5號","121.465558333333","24.983815","6501300","土城區"
"236063","915-UM","2018/11/15 19:37:42","新北市土城區延平街69巷2號","121.467506666667","24.9928316666667","6501300","土城區"
"236055","AAC-216","2018/11/15 19:37:49","新北市土城區學府路一段83號","121.456558333333","24.9880783333333","6501300","土城區"
"242056","751-BX","2018/11/15 19:37:42","新北市新莊區瓊林路59-66號","121.441358333333","25.0226183333333","6500500","新莊區"
"242048","497-BY","2018/11/15 19:37:54","新北市新莊區後港一路17巷20號","121.42432","25.0269666666667","6500500","新莊區"
"242023","362-BY","2018/11/15 19:37:47","新北市新莊區復興路三段117號","121.46444","25.044515","6500500","新莊區"
"242034","135-UY","2018/11/15 19:37:57","新北市新莊區仁愛街24號","121.444291666667","25.03596","6500500","新莊區"
"242013","173-VK","2018/11/15 19:37:47","新北市新莊區中誠街147巷7號","121.448933333333","25.0470183333333","6500500","新莊區"
"242007","176-VK","2018/11/15 19:37:39","新北市新莊區思源路593巷30號","121.457663333333","25.05972","6500500","新莊區"
"242031","348-TH","2018/11/15 19:37:53","新北市新莊區新泰路213巷18號","121.446105","25.0387216666667","6500500","新莊區"
"242004","349-TH","2018/11/15 19:37:42","新北市新莊區化成路11巷58弄8號","121.462598333333","25.043895","6500500","新莊區"
"242015","351-TH","2018/11/15 19:37:51","新北市新莊區新泰路361巷23號","121.442323333333","25.042985","6500500","新莊區"
"238015","755-BX","2018/11/15 19:37:58","新北市樹林區復興路168號","121.420475","24.9916733333333","6500700","樹林區"
"238023","601-UM","2018/11/15 19:37:48","新北市樹林區三福街123巷1號","121.405646666667","25.0159533333333","6500700","樹林區"
"238019","599-UM","2018/11/15 19:37:44","新北市樹林區東榮街8號","121.418223333333","24.9836383333333","6500700","樹林區"
"238018","571-TV","2018/11/15 19:37:44","新北市樹林區水源街48號","121.42564","24.9812283333333","6500700","樹林區"
"238024","5061-A6","2018/11/15 19:37:44","新北市樹林區佳園路一段72巷13號","121.392231666667","24.969705","6500700","樹林區"
"238022","KEA-2213","2018/11/15 19:37:50","新北市樹林區名園街78巷3號","121.419965","24.9776216666667","6500700","樹林區"
"238021","KEA-2539","2018/11/15 19:37:56","新北市樹林區佳園路三段181巷54號","121.388841666667","24.947585","6500700","樹林區"
"238017","283-BY","2018/11/15 19:37:46","新北市樹林區光華街2號","121.413598333333","25.0038466666667","6500700","樹林區"
"238014","282-BY","2018/11/15 19:37:41","新北市樹林區千歲街39號","121.425271666667","24.9960733333333","6500700","樹林區"
"238026","172-UY","2018/11/15 19:37:53","新北市樹林區佳園路二段138號","121.389288333333","24.956055","6500700","樹林區"
"238016","169-UY","2018/11/15 19:37:50","新北市樹林區東和街46號","121.399913333333","24.9837933333333","6500700","樹林區"
"239007","AAC-297","2018/11/15 19:37:42","新北市鶯歌區大湖路328號","121.345373333333","24.9704083333333","6500800","鶯歌區"
"239006","891-R6","2018/11/15 19:37:45","新北市鶯歌區永昌街29-6號","121.342313333333","24.9497433333333","6500800","鶯歌區"
"239001","417-VK","2018/11/15 19:37:55","新北市鶯歌區鶯桃路35號","121.343198333333","24.95068","6500800","鶯歌區"
"239003","360-BY","2018/11/15 19:35:52","新北市樹林區中山路三段210-2號","121.38062","24.9677","6500800","鶯歌區"
"239004","193-VK","2018/11/15 19:37:41","新北市鶯歌區二甲路26-2號","121.338975","24.9359366666667","6500800","鶯歌區"
"221008","489-VK","2018/11/15 19:37:52","新北市汐止區康寧街145號","121.621808333333","25.0665966666667","6501100","汐止區"
"221036","130-UY","2018/11/15 19:37:54","新北市汐止區康寧街901號","121.651435","25.0750283333333","6501100","汐止區"
"221015","131-UY","2018/11/15 19:37:49","新北市汐止區康寧街901號","121.651391666667","25.074995","6501100","汐止區"
"221010","269-BY","2018/11/15 19:37:44","新北市汐止區汐萬路二段62巷1號","121.64936","25.0822816666667","6501100","汐止區"
"221012","278-VK","2018/11/15 19:37:42","新北市汐止區茄安路198號","121.678071666667","25.070345","6501100","汐止區"
"221023","279-VK","2018/11/15 19:37:29","新北市汐止區中興路250號","121.629135","25.068555","6501100","汐止區"
"221032","280-BY","2018/11/15 19:37:43","新北市汐止區康寧街901號","121.651241666667","25.0750566666667","6501100","汐止區"
"221027","281-BY","2018/11/15 19:37:56","新北市汐止區忠孝東路9號","121.658288333333","25.0659083333333","6501100","汐止區"
"221029","298-VK","2018/11/15 19:37:46","新北市汐止區康寧街901號","121.651558333333","25.0750233333333","6501100","汐止區"
"221021","299-VK","2018/11/15 19:37:44","新北市汐止區大同路二段171號","121.65164","25.0647933333333","6501100","汐止區"
"221031","353-TW","2018/11/15 19:37:53","新北市汐止區康寧街901號","121.651016666667","25.0752","6501100","汐止區"
"221035","622-UM","2018/11/15 19:37:54","新北市汐止區康寧街901號","121.65089","25.07524","6501100","汐止區"
"221025","623-UM","2018/11/15 19:37:56","新北市汐止區福安街19號","121.66259","25.06514","6501100","汐止區"
"221038","646-BX","2018/11/15 19:37:55","新北市汐止區忠孝東路223號","121.66227","25.0668366666667","6501100","汐止區"
"221033","647-BX","2018/11/15 19:37:39","新北市汐止區南勢街1巷1號","121.627056666667","25.0374383333333","6501100","汐止區"
"221002","707-TV","2018/11/15 19:38:00","新北市汐止區中興路27巷4號","121.635195","25.0611566666667","6501100","汐止區"
"220079","145-BY","2018/11/15 19:37:57","新北市板橋區建國街111號","121.460255","25.01765","6500100","板橋區"
"220080","200-UY","2018/11/15 19:37:48","新北市板橋區大觀路二段37巷254號","121.449951666667","25.0020733333333","6500100","板橋區"
"220082","610-BX","2018/11/15 19:37:48","新北市板橋區大觀路三段207號","121.431501666667","24.9930433333333","6500100","板橋區"
"220056","276-BY","2018/11/15 19:37:44","新北市板橋區四川路二段47巷1弄2號","121.454121666667","24.9949433333333","6500100","板橋區"
"220072","277-BY","2018/11/15 19:37:58","新北市板橋區金門街215巷2弄1號","121.43249","24.9889166666667","6500100","板橋區"
"220101","280-UM","2018/11/15 19:37:39","新北市板橋區縣民大道三段33巷1弄9號","121.473555","25.0205416666667","6500100","板橋區"
"220064","282-UM","2018/11/15 19:37:40","新北市板橋區中山路一段104號","121.462815","25.0104683333333","6500100","板橋區"
"220071","283-VK","2018/11/15 19:37:46","新北市板橋區信義路192號","121.45977","24.9911116666667","6500100","板橋區"
"220094","285-UM","2018/11/15 19:37:45","新北市板橋區松江街109巷1號","121.469083333333","25.0305416666667","6500100","板橋區"
"220053","285-VK","2018/11/15 19:37:39","新北市板橋區懷仁街77巷16號","121.477536666667","25.0188566666667","6500100","板橋區"
"220083","286-VK","2018/11/15 19:37:49","新北市板橋區龍興街71巷11號","121.443303333333","25.0020116666667","6500100","板橋區"
"220081","287-VK","2018/11/15 19:37:56","新北市板橋區大觀路一段29巷143號","121.449491666667","25.00556","6500100","板橋區"
"220090","288-VK","2018/11/15 19:37:39","新北市板橋區長江路一段48巷6弄2號","121.459193333333","25.028395","6500100","板橋區"
"220061","295-UM","2018/11/15 19:37:49","新北市板橋區中山路一段265巷2弄1號","121.468541666667","25.0138366666667","6500100","板橋區"
"220084","296-UM","2018/11/15 19:37:53","新北市板橋區滿平二街2巷1弄24號","121.424946666667","24.9869333333333","6500100","板橋區"
"220075","303-R5","2018/11/15 19:37:40","新北市板橋區大勇街1巷5弄1號","121.455518333333","25.017445","6500100","板橋區"
"220062","305-R5","2018/11/15 19:37:52","新北市板橋區三民路二段81巷27弄28號","121.481293333333","25.017785","6500100","板橋區"
"220092","307-R5","2018/11/15 19:37:52","新北市板橋區文化路一段387巷17號","121.466171666667","25.0222033333333","6500100","板橋區"
"220098","317-R6","2018/11/15 19:37:51","新北市板橋區四維路304號","121.462608333333","25.0295883333333","6500100","板橋區"
"220089","487-VK","2018/11/15 19:37:42","新北市板橋區新生街89巷4號","121.458188333333","25.0222183333333","6500100","板橋區"
"220035","560-BX","2018/11/15 19:37:48","新北市板橋區金華街147號","121.459818333333","25.0209616666667","6500100","板橋區"
"220103","561-BX","2018/11/15 19:37:42","新北市板橋區文化路一段290號","121.467508333333","25.0214066666667","6500100","板橋區"
"220063","609-BX","2018/11/15 19:37:45","新北市板橋區中山路二段531巷17弄18號","121.482241666667","25.0220266666667","6500100","板橋區"
"220091","637-BX","2018/11/15 19:37:48","新北市板橋區懷德街139巷20弄4號","121.480026666667","25.0307366666667","6500100","板橋區"
"220057","686-BX","2018/11/15 19:37:38","新北市板橋區和平路70號","121.461313333333","24.99452","6500100","板橋區"
"220077","687-BX","2018/11/15 19:37:55","新北市板橋區僑中二街108巷2號","121.445856666667","25.0073816666667","6500100","板橋區"
"220093","689-BX","2018/11/15 19:37:52","新北市板橋區新海路405號","121.458566666667","25.0268033333333","6500100","板橋區"
"220054","741-BX","2018/11/15 19:37:48","新北市板橋區重慶路218號","121.462598333333","25.0022","6500100","板橋區"
"220102","KEA-2699","2018/11/15 19:37:49","新北市板橋區文化路二段410巷30號","121.474311666667","25.0305983333333","6500100","板橋區"
"220055","827-TW","2018/11/15 19:37:54","新北市板橋區國慶路149巷2弄2號","121.461335","24.996505","6500100","板橋區"
"220067","829-TW","2018/11/15 19:37:55","新北市板橋區長安街168巷10弄16-1號","121.473568333333","25.0104133333333","6500100","板橋區"
"220096","831-TW","2018/11/15 19:37:43","新北市板橋區文化路一段360號","121.468665","25.0237716666667","6500100","板橋區"
"220088","833-TW","2018/11/15 19:37:48","新北市板橋區文化路二段488號","121.475281666667","25.0331433333333","6500100","板橋區"
"220074","895-R6","2018/11/15 19:37:40","新北市板橋區府中路29-2號","121.458566666667","25.00798","6500100","板橋區"
"220073","985-R7","2018/11/15 19:37:44","新北市板橋區國光路67巷14號","121.458985","25.0187033333333","6500100","板橋區"
"220097","AAC-210","2018/11/15 19:37:56","新北市板橋區幸福路32巷6號","121.461595","25.0206266666667","6500100","板橋區"
"220070","AAC-253","2018/11/15 19:37:45","新北市板橋區民族路258號","121.46943","25.007145","6500100","板橋區"
"235068","KEA-2873","2018/11/15 19:37:37","新北市中和區泰和街12號","121.499858333333","25.00104","6500300","中和區"
"235061","KEA-2875","2018/11/15 19:37:30","新北市中和區員山路169號","121.481188333333","24.9968216666667","6500300","中和區"
