"lineid","car","time","location","longitude","latitude","cityid","cityname"
"234046","148-BY","2018/11/15 19:59:53","新北市永和區成功路一段89號","121.526865","25.0029516666667","6500400","永和區"
"234007","207-UY","2018/11/15 19:59:57","新北市永和區保生路22巷15號","121.506968333333","25.0081683333333","6500400","永和區"
"234081","298-R6","2018/11/15 19:59:51","新北市永和區永利路81巷2弄2號","121.521513333333","25.0035816666667","6500400","永和區"
"234038","336-UY","2018/11/15 19:59:49","新北市永和區成功路二段56號","121.526665","24.999805","6500400","永和區"
"234064","337-UY","2018/11/15 19:59:45","新北市永和區中正路412巷20弄28號","121.518951666667","25.0013416666667","6500400","永和區"
"234086","338-UY","2018/11/15 19:59:41","新北市永和區福和路161號","121.520286666667","25.0077033333333","6500400","永和區"
"234070","552-UM","2018/11/15 19:59:49","新北市永和區國光路14號","121.519085","25.0083183333333","6500400","永和區"
"234017","745-BX","2018/11/15 19:59:56","新北市永和區文化路33號","121.514761666667","25.0149733333333","6500400","永和區"
"234030","746-BX","2018/11/15 19:59:51","新北市永和區民權路47號","121.51996","24.9971766666667","6500400","永和區"
"234054","KEA-2590","2018/11/15 19:59:55","新北市永和區環河東路一段108號","121.520266666667","25.0160083333333","6500400","永和區"
"234013","KEA-2591","2018/11/15 19:59:46","新北市永和區保生路55號","121.50475","25.0106116666667","6500400","永和區"
"234061","AAD-866","2018/11/15 19:59:58","新北市永和區中正路283巷55弄1號","121.515745","24.999145","6500400","永和區"
"234042","862-TW","2018/11/15 19:59:53","新北市永和區中和路421巷16弄1號","121.508638333333","25.0011133333333","6500400","永和區"
"234050","863-TW","2018/11/15 19:59:45","新北市永和區保安路244號","121.506523333333","25.0127983333333","6500400","永和區"
"234026","9371-KE","2018/11/15 19:59:57","新北市永和區水源街33巷1號","121.51088","25.004455","6500400","永和區"
"234011","9373-KE","2018/11/15 19:59:41","新北市永和區仁愛路352巷112弄10號","121.501063333333","25.0085166666667","6500400","永和區"
"249005","172-UM","2018/11/15 19:59:54","新北市八里區楓林路1-9號","121.386455","25.1324166666667","6502300","八里區"
"249001","173-UM","2018/11/15 19:59:51","新北市八里區中華路二段312號","121.40382","25.1483233333333","6502300","八里區"
"249004","303-UY","2018/11/15 19:59:54","新北市八里區中山路一段418-2號","121.411046666667","25.1577733333333","6502300","八里區"
"249002","305-UY","2018/11/15 19:59:44","新北市八里區頂寮二街1號","121.451045","25.1238683333333","6502300","八里區"
"249003","593-UM","2018/11/15 19:59:48","新北市八里區中華路二段562號","121.398818333333","25.1448266666667","6502300","八里區"
"248016","026-BX","2018/11/15 19:59:40","新北市五股區成泰路三段577巷80弄72號","121.448911666667","25.10477","6501500","五股區"
"248008","095-VK","2018/11/15 19:59:59","新北市五股區中興路一段1巷12弄23號","121.469353333333","25.0706","6501500","五股區"
"248020","225-UY","2018/11/15 19:59:34","新北市五股區凌雲路三段9-11號","121.431435","25.107315","6501500","五股區"
"248012","247-BX","2018/11/15 19:59:56","新北市五股區民義路一段109號","121.434096666667","25.08647","6501500","五股區"
"248010","272-BY","2018/11/15 19:59:45","新北市五股區成泰路一段42號","121.43527","25.06882","6501500","五股區"
"248004","677-BX","2018/11/15 19:59:47","新北市五股區成泰路一段10號","121.434438333333","25.0674016666667","6501500","五股區"
"248002","678-BX","2018/11/15 19:59:47","新北市五股區成泰路三段487號","121.450786666667","25.0992133333333","6501500","五股區"
"234023","9380-KE","2018/11/15 19:59:54","新北市永和區中正路702巷18號","121.51646","25.0105866666667","6500400","永和區"
"234077","969-R7","2018/11/15 19:59:50","新北市永和區智光街94號","121.516148333333","24.9969116666667","6500400","永和區"
"234074","AAC-211","2018/11/15 19:59:52","新北市永和區豫溪街162巷2號","121.523595","25.0096183333333","6500400","永和區"
"234067","AAC-212","2018/11/15 19:59:41","新北市永和區保平路196號","121.510148333333","25.0064483333333","6500400","永和區"
"234003","AAC-295","2018/11/15 19:59:45","新北市永和區中正路623號","121.515998333333","25.0099133333333","6500400","永和區"
"243013","AAD-798","2018/11/15 19:41:41","新北市泰山區應化街7號","121.423863333333","25.04371","6501600","泰山區"
"243009","297-R6","2018/11/15 19:59:40","新北市泰山區泰林路二段164巷37號","121.434238333333","25.0613116666667","6501600","泰山區"
"243016","KEA-2801","2018/11/15 19:59:54","新北市泰山區中山路二段776號","121.423498333333","25.0338583333333","6501600","泰山區"
"243015","421-VK","2018/11/15 19:59:54","新北市泰山區明志路二段71號","121.428958333333","25.0524433333333","6501600","泰山區"
"243011","KEA-2215","2018/11/15 19:59:56","新北市泰山區工專路45號","121.42285","25.0399883333333","6501600","泰山區"
"243010","KEA-2216","2018/11/15 19:59:52","新北市泰山區中華街9號","121.427723333333","25.0524283333333","6501600","泰山區"
"243012","646-TV","2018/11/15 19:59:49","新北市泰山區全興路188號","121.433453333333","25.0569483333333","6501600","泰山區"
"243014","680-BX","2018/11/15 19:59:55","新北市泰山區明志路一段184號","121.43295","25.0622966666667","6501600","泰山區"
"222003","436-BY","2018/11/15 19:59:49","新北市深坑區埔新街14號","121.620731666667","25.00394","6501800","深坑區"
"222002","659-BX","2018/11/15 19:59:38","新北市深坑區北深路二段81巷8弄3號","121.61828","25.0030116666667","6501800","深坑區"
"231041","002-UM","2018/11/15 19:59:46","新北市新店區中正路354號","121.535776666667","24.9756533333333","6500600","新店區"
"231059","046-UY","2018/11/15 19:59:42","新北市新店區安和路一段15號","121.516783333333","24.9641033333333","6500600","新店區"
"231040","047-UY","2018/11/15 19:59:55","新北市新店區中正路96號","121.543476666667","24.9705","6500600","新店區"
"231044","106-UY","2018/11/15 19:59:55","新北市新店區復興路27號","121.538978333333","24.9866966666667","6500600","新店區"
"231052","108-UY","2018/11/15 19:59:41","新北市新店區新烏路三段寶島巷2弄3號","121.551946666667","24.8986916666667","6500600","新店區"
"231062","110-UY","2018/11/15 19:59:42","新北市新店區華潭街26巷1弄11號","121.529703333333","24.9542233333333","6500600","新店區"
"231047","187-VK","2018/11/15 19:59:45","新北市新店區寶宏路38號","121.549458333333","24.975485","6500600","新店區"
"231054","KEA-2219","2018/11/15 19:59:56","新北市新店區光明街125號","121.539343333333","24.961805","6500600","新店區"
"231057","256-BX","2018/11/15 19:59:47","新北市新店區花園二路一段11號","121.55549","24.9325083333333","6500600","新店區"
"231042","268-BY","2018/11/15 19:59:49","新北市新店區中興路一段283號","121.545431666667","24.9684433333333","6500600","新店區"
"231051","278-BY","2018/11/15 19:59:52","新北市新店區中央一街10號","121.528718333333","24.9728133333333","6500600","新店區"
"231050","AAD-862","2018/11/15 19:59:54","新北市新店區北宜路二段12號","121.547876666667","24.9517583333333","6500600","新店區"
"231066","4716-K9","2018/11/15 19:59:42","新北市新店區薏仁坑路自強巷6號","121.496628333333","24.9584816666667","6500600","新店區"
"231056","4715-K9","2018/11/15 19:59:41","新北市新店區北新路二段29巷3弄1號","121.542223333333","24.9730516666667","6500600","新店區"
"231067","4772-VM","2018/11/15 19:59:47","新北市新店區秀山路11巷18弄1號","121.531606666667","24.9589683333333","6500600","新店區"
"231065","512-UM","2018/11/15 19:59:52","新北市新店區安祥路106巷10號","121.478775","24.9626166666667","6500600","新店區"
"231049","513-UM","2018/11/15 19:59:45","新北市新店區建國路219號","121.537671666667","24.981075","6500600","新店區"
"231063","616-UM","2018/11/15 19:59:49","新北市新店區車子路11號","121.5028","24.951125","6500600","新店區"
"231045","617-UM","2018/11/15 19:59:56","新北市新店區北宜路二段92-1號","121.555041666667","24.9535433333333","6500600","新店區"
"231061","618-UM","2018/11/15 19:59:54","新北市新店區安民街379巷16號","121.51541","24.9766383333333","6500600","新店區"
"231068","718-UY","2018/11/15 19:59:54","新北市新店區安平路42號","121.522515","24.9678433333333","6500600","新店區"
"231064","719-UM","2018/11/15 19:59:50","新北市新店區安和路二段5號","121.5179","24.9672283333333","6500600","新店區"
"231060","897-TW","2018/11/15 19:59:49","新北市新店區安康路三段30號","121.49307","24.9531216666667","6500600","新店區"
"231043","899-TW","2018/11/15 19:59:37","新北市新店區中正路263-3號","121.538368333333","24.9737666666667","6500600","新店區"
"231055","AKT-0513","2018/11/15 19:59:50","新北市新店區中華路48巷7號","121.540081666667","24.9686983333333","6500600","新店區"
"241011","013-R5","2018/11/15 19:59:55","新北市三重區三和路二段127號","121.498545","25.0691683333333","6500200","三重區"
"241028","022-UY","2018/11/15 19:59:56","新北市三重區中正南路5號","121.4934","25.0603533333333","6500200","三重區"
"241008","059-VK","2018/11/15 19:59:52","新北市三重區永福街179巷21號","121.47819","25.074895","6500200","三重區"
"241022","060-VK","2018/11/15 19:59:41","新北市三重區過圳街19號","121.488651666667","25.0605683333333","6500200","三重區"
"241031","061-VK","2018/11/15 19:59:46","新北市三重區重新路四段144巷7號","121.487021666667","25.0555183333333","6500200","三重區"
"241015","062-VK","2018/11/15 19:59:36","新北市三重區三和路二段31號","121.500961666667","25.06707","6500200","三重區"
"241017","063-VK","2018/11/15 19:59:56","新北市三重區自強路一段314號","121.491155","25.068455","6500200","三重區"
"241026","066-VK","2018/11/15 19:59:42","新北市三重區仁慈街20號","121.501986666667","25.06312","6500200","三重區"
"241002","090-VK","2018/11/15 19:59:46","新北市三重區仁愛街263號","121.492996666667","25.0785333333333","6500200","三重區"
"241003","091-VK","2018/11/15 19:59:47","新北市三重區仁愛街445巷1號","121.490053333333","25.082375","6500200","三重區"
"251014","742-BX","2018/11/15 19:59:54","新北市淡水區石頭厝2號","121.458305","25.2356366666667","6501000","淡水區"
"241005","262-UM","2018/11/15 19:59:56","新北市三重區溪尾街325巷1號","121.488078333333","25.08445","6500200","三重區"
"241016","266-UM","2018/11/15 19:59:46","新北市三重區正義北路48巷19號","121.496681666667","25.0637066666667","6500200","三重區"
"241009","267-UM","2018/11/15 19:59:37","新北市三重區三和路四段390巷11號","121.481366666667","25.07895","6500200","三重區"
"241018","268-UM","2018/11/15 19:59:41","新北市三重區正義北路244巷88號","121.493595","25.0675583333333","6500200","三重區"
"241032","269-UM","2018/11/15 19:59:44","新北市三重區捷運路37巷32號","121.483771666667","25.057535","6500200","三重區"
"241013","270-UM","2018/11/15 19:59:50","新北市三重區三和路三段125巷5號","121.493203333333","25.0734516666667","6500200","三重區"
"241025","271-UM","2018/11/15 19:59:46","新北市三重區頂崁街210巷35號","121.47536","25.06811","6500200","三重區"
"241007","398-BY","2018/11/15 19:59:45","新北市三重區慈愛街145號","121.489278333333","25.0796666666667","6500200","三重區"
"241035","KEA-2210","2018/11/15 19:59:41","新北市三重區大榮街9號","121.498268333333","25.0631283333333","6500200","三重區"
"241004","475-VK","2018/11/15 19:59:57","新北市三重區仁愛街425巷91-1號","121.492256666667","25.082675","6500200","三重區"
"241020","478-VK","2018/11/15 19:59:38","新北市三重區忠孝路一段101號","121.489503333333","25.0721416666667","6500200","三重區"
"241014","543-UM","2018/11/15 19:59:46","新北市三重區三和路二段103號","121.499543333333","25.0684716666667","6500200","三重區"
"241023","545-UM","2018/11/15 19:59:41","新北市三重區頂崁街168號","121.477566666667","25.0658916666667","6500200","三重區"
"241001","547-UM","2018/11/15 19:59:47","新北市三重區仁愛街283巷39號","121.494391666667","25.079945","6500200","三重區"
"241019","KEA-2593","2018/11/15 19:59:43","新北市三重區自強路二段27號","121.489658333333","25.0692866666667","6500200","三重區"
"241006","AAD-863","2018/11/15 19:59:55","新北市三重區力行路二段91巷1弄18號","121.483308333333","25.0759216666667","6500200","三重區"
"241030","743-BX","2018/11/15 19:59:54","新北市三重區重新路四段248-1號","121.486186666667","25.0534233333333","6500200","三重區"
"241012","941-UM","2018/11/15 19:59:53","新北市三重區仁厚街5號","121.499231666667","25.0760733333333","6500200","三重區"
"241029","942-UM","2018/11/15 19:59:48","新北市三重區重安街6號","121.490165","25.0582666666667","6500200","三重區"
"241033","AAC-255","2018/11/15 19:59:49","新北市三重區中興北街93號","121.469566666667","25.048105","6500200","三重區"
"235066","003-UY","2018/11/15 19:59:43","新北市中和區中山路二段14號","121.504953333333","25.0055533333333","6500300","中和區"
"235056","096-UM","2018/11/15 19:59:51","新北市中和區中山路三段170巷8弄24號","121.473096666667","25.0076766666667","6500300","中和區"
"235039","097-UM","2018/11/15 20:00:00","新北市中和區景平路278巷14弄1號","121.513956666667","24.99306","6500300","中和區"
"235065","098-UM","2018/11/15 19:59:53","新北市中和區福美路269號","121.498126666667","25.0049883333333","6500300","中和區"
"235040","150-BY","2018/11/15 19:59:51","新北市中和區景安路79巷39號","121.507375","24.9962366666667","6500300","中和區"
"235058","151-BY","2018/11/15 19:59:57","新北市中和區員山路152-1號","121.481375","24.9984","6500300","中和區"
"235055","183-VK","2018/11/15 19:59:55","新北市中和區民生街23巷3弄2號","121.47107","25.00497","6500300","中和區"
"235049","186-VK","2018/11/15 19:59:57","新北市中和區南華路15號","121.502516666667","24.99569","6500300","中和區"
"235067","255-BX","2018/11/15 19:59:57","新北市中和區員山路148巷23弄28號","121.482231666667","24.997745","6500300","中和區"
"235044","293-VK","2018/11/15 19:59:40","新北市中和區復興路75號","121.503431666667","24.9902283333333","6500300","中和區"
"235042","KEA-2878","2018/11/15 19:59:41","新北市中和區景平路1號","121.525136666667","24.9901866666667","6500300","中和區"
"247012","KEA-2869","2018/11/15 19:59:55","新北市蘆洲區民族路163號","121.479338333333","25.08818","6501400","蘆洲區"
"235050","4979-A6","2018/11/15 19:59:42","新北市中和區景平路239巷1號","121.509958333333","24.9927066666667","6500300","中和區"
"235069","4980-A6","2018/11/15 19:59:51","新北市中和區南山路47號","121.502078333333","24.9985366666667","6500300","中和區"
"235070","558-UM","2018/11/15 19:59:40","新北市中和區圓通路154號","121.498036666667","24.9956416666667","6500300","中和區"
"235054","640-BX","2018/11/15 19:59:56","新北市中和區中正路899號","121.484148333333","25.0048916666667","6500300","中和區"
"235046","733-UM","2018/11/15 19:59:46","新北市中和區興南路一段105巷20弄4號","121.51024","24.9857766666667","6500300","中和區"
"235052","805-TS","2018/11/15 19:59:42","新北市中和區華新街192巷31號","121.506285","24.98326","6500300","中和區"
"235048","896-TW","2018/11/15 19:59:59","新北市中和區景新街447-1號","121.51312","24.9886533333333","6500300","中和區"
"235053","900-TW","2018/11/15 19:59:57","新北市中和區莒光路211號","121.469488333333","24.9951566666667","6500300","中和區"
"235051","157-BY","2018/11/15 19:59:54","新北市中和區景安路221號","121.504295","24.9913683333333","6500300","中和區"
"235037","AAC-213","2018/11/15 19:59:48","新北市中和區自立路143號","121.52238","24.9932766666667","6500300","中和區"
"235059","AAC-215","2018/11/15 19:59:49","新北市中和區圓通路305巷5弄78號","121.494871666667","24.9897883333333","6500300","中和區"
"220068","013-TV","2018/11/15 19:59:54","新北市板橋區光復街172巷8號","121.485496666667","25.019305","6500100","板橋區"
"220065","072-UY","2018/11/15 19:59:53","新北市板橋區中山路一段154巷3弄2號","121.46538","25.010475","6500100","板橋區"
"220086","073-UY","2018/11/15 19:59:32","新北市五股區凌雲路一段21號","121.452618333333","25.1000283333333","6500100","板橋區"
"220106","075-UY","2018/11/15 19:59:43","新北市板橋區懷德街13號","121.47681","25.0329383333333","6500100","板橋區"
"220069","AAD-861","2018/11/15 19:59:52","新北市板橋區大明街25巷2弄17號","121.457543333333","25.0025316666667","6500100","板橋區"
"247002","893-R6","2018/11/15 19:59:36","新北市蘆洲區長安街272號","121.457505","25.08695","6501400","蘆洲區"
"247016","546-UM","2018/11/15 19:59:50","新北市蘆洲區光華路15-1號","121.469585","25.083345","6501400","蘆洲區"
"247024","500-BY","2018/11/15 19:59:49","新北市蘆洲區光榮路120巷12號","121.465538333333","25.08837","6501400","蘆洲區"
"247014","339-TH","2018/11/15 19:59:57","新北市蘆洲區成功路98號","121.472568333333","25.0820566666667","6501400","蘆洲區"
"247006","337-TH","2018/11/15 19:59:49","新北市蘆洲區九芎街143號","121.465576666667","25.07935","6501400","蘆洲區"
"247020","057-VK","2018/11/15 19:59:36","新北市蘆洲區民權路113號","121.472481666667","25.0894833333333","6501400","蘆洲區"
"247010","056-VK","2018/11/15 19:59:37","新北市蘆洲區集賢路232-1號","121.48219","25.0860883333333","6501400","蘆洲區"
"247008","053-VK","2018/11/15 19:59:49","新北市蘆洲區信義路119巷1號","121.47844","25.080295","6501400","蘆洲區"
"247018","007-UY","2018/11/15 19:59:45","新北市蘆洲區民族路290巷7號","121.478306666667","25.0897966666667","6501400","蘆洲區"
"247004","002-UY","2018/11/15 19:59:54","新北市蘆洲區長安街198號","121.458726666667","25.0840816666667","6501400","蘆洲區"
"226004","312-R5","2018/11/15 19:59:46","新北市平溪區十分里十分街116號","121.77691","25.0431183333333","6502400","平溪區"
"228003","097-TW","2018/11/15 19:59:58","新北市貢寮區仁理村仁和路242號","121.924013333333","25.0538966666667","6502600","貢寮區"
"224010","AGQ-8101","2018/11/15 19:59:49","新北市瑞芳區輕便路308號","121.842996666667","25.1084333333333","6501200","瑞芳區"
"224002","639-TC","2018/11/15 19:59:38","新北市瑞芳區員山子路員山巷39號","121.816638333333","25.1039683333333","6501200","瑞芳區"
"227010","642-TC","2018/11/15 19:59:47","新北市雙溪區新基里新基南街25號","121.866273333333","25.03813","6502500","雙溪區"
"227004","400-TW","2018/11/15 19:59:45","新北市雙溪區雙溪里長安街16號","121.864985","25.034675","6502500","雙溪區"
"222001","KEA-2212","2018/11/15 19:59:41","新北市深坑區北深路三段157號","121.602116666667","25.0031883333333","6501800","深坑區"
"208002","KEA-2872","2018/11/15 19:59:50","新北市金山區中山路16號","121.641623333333","25.21747","6502700","金山區"
"208003","665-BX","2018/11/15 19:59:40","新北市金山區永興里忠義路29-1號","121.630305","25.263875","6502700","金山區"
"208001","761-BX","2018/11/15 19:59:46","新北市金山區南勢41-1號","121.629166666667","25.2198383333333","6502700","金山區"
"251009","008-UM","2018/11/15 19:59:42","新北市淡水區英專路28巷20號","121.44595","25.1697233333333","6501000","淡水區"
"251005","010-UM","2018/11/15 19:59:49","新北市淡水區學府路136巷26號","121.45148","25.1727116666667","6501000","淡水區"
"251001","011-UM","2018/11/15 19:59:42","新北市淡水區埤島3-18號","121.447095","25.1906466666667","6501000","淡水區"
"251013","KEA-2871","2018/11/15 19:59:46","新北市淡水區下圭柔山63-7號","121.451713333333","25.2061883333333","6501000","淡水區"
"251016","179-VK","2018/11/15 19:59:53","新北市淡水區番子田16-13號","121.453686666667","25.2317333333333","6501000","淡水區"
"251008","180-VK","2018/11/15 19:59:46","新北市淡水區中正路一段132巷7弄6號","121.42245","25.1800283333333","6501000","淡水區"
"251015","182-VK","2018/11/15 19:59:54","新北市淡水區埤島80-1號","121.449578333333","25.1896516666667","6501000","淡水區"
"251010","413-VK","2018/11/15 19:59:39","新北市淡水區崁頂三路149號","121.430921666667","25.2011466666667","6501000","淡水區"
"251012","441-VK","2018/11/15 19:58:29","新北市淡水區下圭柔山93-4號","121.436858333333","25.2096783333333","6501000","淡水區"
"251004","443-VK","2018/11/15 19:59:55","新北市淡水區民族路48號","121.461608333333","25.1359966666667","6501000","淡水區"
"251006","561-UM","2018/11/15 19:59:44","新北市淡水區水碓街75號","121.444856666667","25.1774016666667","6501000","淡水區"
"251011","650-BX","2018/11/15 19:59:49","新北市淡水區崁頂55-3號","121.442201666667","25.19666","6501000","淡水區"
"251003","766-UM","2018/11/15 19:59:40","新北市淡水區中山北路二段189巷15弄29號","121.443513333333","25.1843033333333","6501000","淡水區"
"207003","550-UM","2018/11/15 19:59:41","新北市萬里區磺潭里公館崙5號","121.64191","25.2142133333333","6502800","萬里區"
"207004","225-TW","2018/11/15 19:59:49","新北市萬里區北基里忠二街37號","121.685701666667","25.17577","6502800","萬里區"
"252002","178-VK","2018/11/15 19:59:44","新北市三芝區忠孝街116-3號","121.505508333333","25.2575416666667","6502100","三芝區"
"252001","292-VK","2018/11/15 19:59:55","新北市三芝區公正街9號","121.499766666667","25.2574933333333","6502100","三芝區"
"237004","KEA-2597","2018/11/15 19:59:42","新北市三峽區添福6-20號","121.372308333333","24.9051966666667","6500900","三峽區"
"237007","153-BY","2018/11/15 19:59:53","新北市三峽區麻園12-2號","121.362211666667","24.9164816666667","6500900","三峽區"
"237009","210-TH","2018/11/15 19:59:44","新北市三峽區民族街78巷3號","121.368808333333","24.9298283333333","6500900","三峽區"
"237012","275-BY","2018/11/15 19:59:44","新北市三峽區中華路116號","121.371031666667","24.927545","6500900","三峽區"
"237008","302-VK","2018/11/15 19:59:42","新北市三峽區中正路一段292巷11號","121.370776666667","24.92588","6500900","三峽區"
"237014","433-BY","2018/11/15 19:59:43","新北市三峽區添福13-20號","121.374718333333","24.90824","6500900","三峽區"
"237006","5529-G3","2018/11/15 19:59:43","新北市三峽區中正路二段168號","121.365998333333","24.9155933333333","6500900","三峽區"
"237016","649-BX","2018/11/15 19:59:51","新北市三峽區橫溪路99巷52號","121.40021","24.937155","6500900","三峽區"
"237005","AKY-6261","2018/11/15 19:59:48","新北市三峽區民生街1巷27-1號","121.379661666667","24.9341183333333","6500900","三峽區"
"236070","105-UM","2018/11/15 19:59:46","新北市土城區忠義路92號","121.444325","24.9622966666667","6501300","土城區"
"236042","KED-0685","2018/11/15 19:59:46","新北市土城區學府路一段98巷25-1號","121.455225","24.9886983333333","6501300","土城區"
"236078","166-UM","2018/11/15 19:59:50","新北市土城區福安街73號","121.416935","24.96375","6501300","土城區"
"236030","253-BX","2018/11/15 19:59:37","新北市土城區中央路一段250巷1-1號","121.444065","24.9846366666667","6501300","土城區"
"236026","269-VK","2018/11/15 19:59:57","新北市土城區中央路二段94號","121.442333333333","24.97866","6501300","土城區"
"236014","270-VK","2018/11/15 19:59:55","新北市土城區廣福街123號","121.45629","24.9928566666667","6501300","土城區"
"236038","271-VK","2018/11/15 19:59:52","新北市土城區國際路52號","121.466403333333","24.9783166666667","6501300","土城區"
"236021","401-BY","2018/11/15 19:59:44","新北市土城區延吉街111巷12弄8號","121.471621666667","24.9857383333333","6501300","土城區"
"236059","912-UM","2018/11/15 19:59:46","新北市土城區中央路一段346號","121.443071666667","24.981035","6501300","土城區"
"236049","913-UM","2018/11/15 19:59:51","新北市土城區金城路三段315號","121.475051666667","24.9912333333333","6501300","土城區"
"236063","915-UM","2018/11/15 19:59:42","新北市土城區金城路三段33巷39號","121.464861666667","24.9876666666667","6501300","土城區"
"236055","AAC-216","2018/11/15 19:59:49","新北市土城區學府路一段64號","121.457076666667","24.9883066666667","6501300","土城區"
"242036","AAC-296","2018/11/15 19:59:23","新北市新莊區建安街41巷13號","121.42926","25.02509","6500500","新莊區"
"242058","986-R7","2018/11/15 19:59:52","新北市新莊區八德街99號","121.424306666667","25.0213033333333","6500500","新莊區"
"242056","751-BX","2018/11/15 19:59:42","新北市新莊區中正路347巷17弄2號","121.447305","25.0343033333333","6500500","新莊區"
"242025","613-BX","2018/11/15 19:59:56","新北市新莊區五工一路91號","121.460993333333","25.06771","6500500","新莊區"
"242029","612-BX","2018/11/15 19:59:46","新北市新莊區中榮街152巷18號","121.44599","25.05346","6500500","新莊區"
"242044","566-BX","2018/11/15 19:59:32","新北市新莊區中正路746巷45-1號","121.41131","25.025335","6500500","新莊區"
"242048","497-BY","2018/11/15 19:59:54","新北市新莊區四維路130號","121.42306","25.0239066666667","6500500","新莊區"
"242053","442-UM","2018/11/15 19:59:39","新北市新莊區西盛街418號","121.427216666667","25.01219","6500500","新莊區"
"242042","441-UM","2018/11/15 19:59:40","新北市新莊區青山路一段199-4號","121.397648333333","25.0318","6500500","新莊區"
"242039","415-TV","2018/11/15 19:59:46","新北市新莊區民安路289-1號","121.429173333333","25.0223066666667","6500500","新莊區"
"242023","362-BY","2018/11/15 19:59:47","新北市新莊區化成路480號","121.466045","25.0516416666667","6500500","新莊區"
"242061","353-BY","2018/11/15 19:59:43","新北市新莊區瓊泰路39號","121.443761666667","25.0285666666667","6500500","新莊區"
"242011","132-UY","2018/11/15 19:59:59","新北市新莊區中港路531巷35號","121.44994","25.0514716666667","6500500","新莊區"
"242034","135-UY","2018/11/15 19:59:51","新北市新莊區建中街81巷8號","121.447318333333","25.0361166666667","6500500","新莊區"
"242051","172-VK","2018/11/15 19:59:56","新北市新莊區龍安路478號","121.426585","25.0177983333333","6500500","新莊區"
"242013","173-VK","2018/11/15 19:59:47","新北市新莊區幸福路670巷2弄1號","121.45101","25.04945","6500500","新莊區"
"242019","175-VK","2018/11/15 19:59:53","新北市新莊區民生街15巷6弄2號","121.45563","25.0424466666667","6500500","新莊區"
"242007","176-VK","2018/11/15 19:59:39","新北市新莊區福壽街171號","121.458016666667","25.05372","6500500","新莊區"
"242017","346-TH","2018/11/15 19:59:55","新北市新莊區中華路二段3巷14號","121.453346666667","25.0460983333333","6500500","新莊區"
"242031","348-TH","2018/11/15 19:59:47","新北市新莊區公園一路77號","121.443168333333","25.0371216666667","6500500","新莊區"
"242004","349-TH","2018/11/15 19:59:41","新北市新莊區頭前路96號","121.463835","25.05254","6500500","新莊區"
"242021","350-TH","2018/11/15 19:59:42","新北市新莊區建中街16巷27號","121.44914","25.0387216666667","6500500","新莊區"
"242015","351-TH","2018/11/15 19:59:51","新北市新莊區復興路一段49號","121.447065","25.0421983333333","6500500","新莊區"
"238021","KEA-2539","2018/11/15 19:59:56","新北市樹林區田尾街222號","121.398268333333","24.9476333333333","6500700","樹林區"
"238017","283-BY","2018/11/15 19:59:46","新北市樹林區大安路571號","121.411995","24.9837","6500700","樹林區"
"238014","282-BY","2018/11/15 19:59:40","新北市樹林區中山路二段237號","121.402223333333","24.9759816666667","6500700","樹林區"
"239006","891-R6","2018/11/15 19:59:45","新北市鶯歌區文化路115巷23號","121.357741666667","24.9550566666667","6500800","鶯歌區"
"221008","489-VK","2018/11/15 19:59:52","新北市汐止區康寧街13號","121.61791","25.06735","6501100","汐止區"
"221036","130-UY","2018/11/15 19:59:54","新北市汐止區忠孝東路258巷11弄2號","121.663685","25.0671883333333","6501100","汐止區"
"221015","131-UY","2018/11/15 19:59:49","新北市汐止區忠孝東路473巷16號","121.665275","25.0733833333333","6501100","汐止區"
"221010","269-BY","2018/11/15 19:59:44","新北市汐止區連峰街227號","121.645033333333","25.0813266666667","6501100","汐止區"
"221012","278-VK","2018/11/15 19:59:42","新北市汐止區大同路三段294號","121.678286666667","25.0712583333333","6501100","汐止區"
"221023","279-VK","2018/11/15 19:59:25","新北市汐止區民族六街18號","121.629945","25.0688466666667","6501100","汐止區"
"221032","280-BY","2018/11/15 19:59:43","新北市汐止區橫科路18巷18號","121.6177","25.0501783333333","6501100","汐止區"
"221027","281-BY","2018/11/15 19:59:56","新北市汐止區中正路97號","121.660988333333","25.0694","6501100","汐止區"
"221029","298-VK","2018/11/15 19:59:46","新北市汐止區樟樹一路137巷26號","121.640998333333","25.0658933333333","6501100","汐止區"
"221021","299-VK","2018/11/15 19:59:44","新北市汐止區水源路一段143號","121.655991666667","25.0621583333333","6501100","汐止區"
"221031","353-TW","2018/11/15 19:59:53","新北市汐止區福德一路260號","121.63316","25.064465","6501100","汐止區"
"221035","622-UM","2018/11/15 19:59:54","新北市汐止區長江街57巷2號","121.65631","25.0716566666667","6501100","汐止區"
"221025","623-UM","2018/11/15 19:59:55","新北市汐止區秀峰路109巷12號","121.660511666667","25.063405","6501100","汐止區"
"221038","646-BX","2018/11/15 19:59:55","新北市汐止區忠孝東路499號","121.666425","25.0747683333333","6501100","汐止區"
"221033","647-BX","2018/11/15 19:59:50","新北市汐止區東勢街203號","121.63382","25.041905","6501100","汐止區"
"221002","707-TV","2018/11/15 20:00:00","新北市汐止區康寧街901號","121.650946666667","25.075245","6501100","汐止區"
"221018","753-BX","2018/11/15 19:59:44","新北市汐止區茄苳路31號","121.665375","25.07091","6501100","汐止區"
"220079","145-BY","2018/11/15 19:59:37","新北市板橋區南雅西路二段213號","121.45115","25.0135466666667","6500100","板橋區"
"220080","200-UY","2018/11/15 19:59:42","新北市板橋區大觀路二段163巷6-1號","121.445701666667","25.0003683333333","6500100","板橋區"
"220072","277-BY","2018/11/15 19:59:54","新北市板橋區金門街109巷2號","121.433525","24.9919683333333","6500100","板橋區"
"220101","280-UM","2018/11/15 19:59:59","新北市板橋區莒光路180巷23號","121.47318","25.0228283333333","6500100","板橋區"
"220064","282-UM","2018/11/15 19:59:40","新北市板橋區區運路20號","121.465263333333","25.009315","6500100","板橋區"
"220071","283-VK","2018/11/15 19:59:49","新北市板橋區和平路190巷20號","121.46471","24.9948233333333","6500100","板橋區"
"220094","285-UM","2018/11/15 19:59:45","新北市板橋區陽明街239號","121.462956666667","25.0245033333333","6500100","板橋區"
"220053","285-VK","2018/11/15 19:59:55","新北市板橋區永豐街12號","121.474908333333","25.016835","6500100","板橋區"
"220083","286-VK","2018/11/15 19:59:55","新北市板橋區僑中二街10巷17號","121.4462","25.0110283333333","6500100","板橋區"
"220081","287-VK","2018/11/15 19:59:55","新北市板橋區僑中一街80巷6弄1號","121.447718333333","25.0121266666667","6500100","板橋區"
"220090","288-VK","2018/11/15 19:59:59","新北市板橋區新海路109巷1弄2號","121.460706666667","25.022385","6500100","板橋區"
"220061","295-UM","2018/11/15 19:59:49","新北市板橋區觀光街35號","121.471301666667","25.0162116666667","6500100","板橋區"
"220084","296-UM","2018/11/15 19:59:52","新北市板橋區板林路192號","121.424556666667","24.988355","6500100","板橋區"
"242002","281-VK","2018/11/15 19:59:59","新北市新莊區中正路283號","121.448941666667","25.035285","6500500","新莊區"
"220092","307-R5","2018/11/15 19:59:52","新北市板橋區四維路259巷89號","121.459975","25.0263333333333","6500100","板橋區"
"220098","317-R6","2018/11/15 19:59:51","新北市板橋區新海路198號","121.460898333333","25.0234583333333","6500100","板橋區"
"220089","487-VK","2018/11/15 19:59:42","新北市板橋區新海路385巷34弄12號","121.457125","25.025995","6500100","板橋區"
"220103","561-BX","2018/11/15 19:59:42","新北市板橋區自由路41號","121.465603333333","25.02322","6500100","板橋區"
"220091","637-BX","2018/11/15 19:59:47","新北市板橋區懷德街158巷5號","121.478565","25.0305866666667","6500100","板橋區"
"220057","686-BX","2018/11/15 19:59:58","新北市板橋區四川路二段130巷21號","121.449473333333","24.994115","6500100","板橋區"
"220093","689-BX","2018/11/15 19:59:52","新北市板橋區長江路三段120號","121.475148333333","25.0344866666667","6500100","板橋區"
"220054","741-BX","2018/11/15 19:59:48","新北市板橋區實踐路93巷10號","121.46453","25.0054066666667","6500100","板橋區"
"220102","KEA-2699","2018/11/15 19:59:49","新北市板橋區仁化街76號","121.476085","25.0317783333333","6500100","板橋區"
"220055","827-TW","2018/11/15 19:59:54","新北市板橋區仁愛路62巷15弄2號","121.460011666667","24.9984633333333","6500100","板橋區"
"220067","829-TW","2018/11/15 19:59:55","新北市板橋區漢生東路181號","121.469715","25.0117866666667","6500100","板橋區"
"220096","831-TW","2018/11/15 19:59:43","新北市板橋區莒光路79巷4號","121.471955","25.0243766666667","6500100","板橋區"
"220088","833-TW","2018/11/15 19:59:48","新北市板橋區大同街79號","121.47982","25.02821","6500100","板橋區"
"220074","895-R6","2018/11/15 19:59:40","新北市板橋區府後街1巷1號","121.459001666667","25.0106633333333","6500100","板橋區"
"220073","985-R7","2018/11/15 19:59:49","新北市板橋區南雅西路二段65號","121.452848333333","25.0097983333333","6500100","板橋區"
"220097","AAC-210","2018/11/15 19:59:57","新北市板橋區光正街18巷2號","121.462751666667","25.017235","6500100","板橋區"
"220070","AAC-253","2018/11/15 19:59:55","新北市板橋區四川路一段127號","121.459893333333","25.0046983333333","6500100","板橋區"
"235068","KEA-2873","2018/11/15 19:59:37","新北市中和區福美路301巷39號","121.497871666667","25.0035333333333","6500300","中和區"
"235061","KEA-2875","2018/11/15 19:59:58","新北市中和區員山路214號","121.481276666667","25.0008733333333","6500300","中和區"
