"lineid","car","time","location","longitude","latitude","cityid","cityname"
"231059","046-UY","2018/11/15 20:59:02","新北市新店區僑信路111號","121.500566666667","24.9463333333333","6500600","新店區"
"231040","047-UY","2018/11/15 20:59:16","新北市新店區中正路139號","121.541698333333","24.971525","6500600","新店區"
"231052","108-UY","2018/11/15 20:59:21","新北市新店區安康路一段226號","121.523675","24.9635583333333","6500600","新店區"
"231062","110-UY","2018/11/15 20:59:19","新北市新店區裕合街24號","121.489306666667","24.9499683333333","6500600","新店區"
"231047","187-VK","2018/11/15 20:59:25","新北市新店區寶中路95號","121.549071666667","24.9835","6500600","新店區"
"231054","KEA-2219","2018/11/15 20:59:16","新北市新店區北新路一段96巷23號","121.542953333333","24.968695","6500600","新店區"
"231042","268-BY","2018/11/15 20:59:09","新北市新店區寶高路102巷20號","121.552486666667","24.97402","6500600","新店區"
"231051","278-BY","2018/11/15 20:59:12","新北市新店區中正路663巷7弄15號","121.532936666667","24.9900633333333","6500600","新店區"
"231050","AAD-862","2018/11/15 20:59:19","新北市新店區三民路29巷2弄4號","121.537715","24.969925","6500600","新店區"
"231058","3713-VJ","2018/11/15 20:59:22","新北市新店區光華街29號","121.515531666667","24.9697433333333","6500600","新店區"
"231066","4716-K9","2018/11/15 20:59:22","新北市新店區吉安街14號","121.516775","24.965765","6500600","新店區"
"231067","4772-VM","2018/11/15 20:59:27","新北市新店區安德街148巷11弄2號","121.507801666667","24.9601","6500600","新店區"
"231065","512-UM","2018/11/15 20:59:12","新北市新店區安祥路67巷28弄1號","121.484823333333","24.9593883333333","6500600","新店區"
"231063","616-UM","2018/11/15 20:59:29","新北市新店區如意街95號","121.495508333333","24.9471333333333","6500600","新店區"
"231061","618-UM","2018/11/15 20:59:14","新北市新店區永安街109巷11號","121.521333333333","24.9859616666667","6500600","新店區"
"231068","718-UY","2018/11/15 20:59:14","新北市新店區寶元路二段68號","121.547358333333","24.9809733333333","6500600","新店區"
"231064","719-UM","2018/11/15 20:59:10","新北市新店區安民街133巷17號","121.515603333333","24.9693166666667","6500600","新店區"
"231060","897-TW","2018/11/15 20:59:31","新北市新店區安康路三段103號","121.491378333333","24.9517633333333","6500600","新店區"
"231043","899-TW","2018/11/15 20:59:17","新北市新店區中央路151號","121.529325","24.9724183333333","6500600","新店區"
"241011","013-R5","2018/11/15 20:59:14","新北市三重區介壽路26號","121.499678333333","25.0721333333333","6500200","三重區"
"241028","022-UY","2018/11/15 20:59:16","新北市三重區正義南路47號","121.498226666667","25.0606766666667","6500200","三重區"
"241008","059-VK","2018/11/15 20:59:12","新北市三重區力行路二段136巷23弄35號","121.481391666667","25.076445","6500200","三重區"
"241022","060-VK","2018/11/15 20:59:21","新北市三重區過圳街27-5號","121.487991666667","25.06234","6500200","三重區"
"241031","061-VK","2018/11/15 20:59:27","新北市三重區重陽路一段113巷2弄2號","121.487533333333","25.059855","6500200","三重區"
"241015","062-VK","2018/11/15 20:59:16","新北市三重區福德北路46號","121.50203","25.0654983333333","6500200","三重區"
"241017","063-VK","2018/11/15 20:59:16","新北市三重區民生街38巷2弄24號","121.492215","25.067305","6500200","三重區"
"241026","066-VK","2018/11/15 20:59:22","新北市三重區文化南路45號","121.500256666667","25.0614433333333","6500200","三重區"
"241002","090-VK","2018/11/15 20:59:25","新北市三重區五華街1巷48號","121.496506666667","25.0801466666667","6500200","三重區"
"241003","091-VK","2018/11/15 20:59:22","新北市三重區進安街198號","121.493901666667","25.085965","6500200","三重區"
"251014","742-BX","2018/11/15 20:59:14","新北市淡水區溪口4-8號","121.453075","25.23873","6501000","淡水區"
"241005","262-UM","2018/11/15 20:59:16","新北市三重區五華街187號","121.490001666667","25.08521","6500200","三重區"
"241016","266-UM","2018/11/15 20:59:26","新北市三重區自強路一段125號","121.495285","25.0663766666667","6500200","三重區"
"241009","267-UM","2018/11/15 20:59:17","新北市三重區三和路四段165-2號","121.483248333333","25.0785933333333","6500200","三重區"
"241018","268-UM","2018/11/15 20:59:22","新北市三重區自強路一段236號","121.493286666667","25.067105","6500200","三重區"
"241032","269-UM","2018/11/15 20:59:24","新北市三重區三陽路123號","121.483358333333","25.0589466666667","6500200","三重區"
"241013","270-UM","2018/11/15 20:59:30","新北市三重區仁愛街129巷1號","121.495601666667","25.0749383333333","6500200","三重區"
"241025","271-UM","2018/11/15 20:59:26","新北市三重區貴陽街18-1號","121.484218333333","25.0618866666667","6500200","三重區"
"241007","398-BY","2018/11/15 20:59:24","新北市三重區慈愛街10號","121.484535","25.07844","6500200","三重區"
"241004","475-VK","2018/11/15 20:59:16","新北市三重區仁愛街420號","121.49039","25.0814216666667","6500200","三重區"
"241020","478-VK","2018/11/15 20:59:18","新北市三重區忠孝路二段34號","121.48578","25.0709483333333","6500200","三重區"
"241014","543-UM","2018/11/15 20:59:26","新北市三重區長榮路75號","121.502578333333","25.0690683333333","6500200","三重區"
"241023","545-UM","2018/11/15 20:59:21","新北市三重區洛陽街45巷15號","121.482393333333","25.063745","6500200","三重區"
"241001","547-UM","2018/11/15 20:59:27","新北市三重區三和路四段138巷3號","121.488286666667","25.0754033333333","6500200","三重區"
"241019","KEA-2593","2018/11/15 20:59:23","新北市三重區自強路二段74巷23-1號","121.487946666667","25.0698383333333","6500200","三重區"
"241006","AAD-863","2018/11/15 20:59:15","新北市三重區永福街50號","121.481746666667","25.0781033333333","6500200","三重區"
"241030","743-BX","2018/11/15 20:59:14","新北市三重區昌隆街26號","121.492081666667","25.0523083333333","6500200","三重區"
"241012","941-UM","2018/11/15 20:59:13","新北市三重區仁信街27號","121.501286666667","25.075515","6500200","三重區"
"241029","942-UM","2018/11/15 20:59:28","新北市三重區大同南路122巷15號","121.497351666667","25.0585033333333","6500200","三重區"
"241033","AAC-255","2018/11/15 20:59:29","新北市三重區光復路二段4號","121.472071666667","25.0536883333333","6500200","三重區"
"247012","KEA-2869","2018/11/15 20:59:14","新北市蘆洲區民權路26號","121.476773333333","25.0857266666667","6501400","蘆洲區"
"235069","4980-A6","2018/11/15 20:59:16","新北市中和區連城路469巷70弄24號","121.482533333333","24.993965","6500300","中和區"
"247002","893-R6","2018/11/15 20:59:17","新北市蘆洲區永樂街36號","121.458066666667","25.0882933333333","6501400","蘆洲區"
"247016","546-UM","2018/11/15 20:59:30","新北市蘆洲區正和街79號","121.468361666667","25.080895","6501400","蘆洲區"
"247024","500-BY","2018/11/15 20:59:09","新北市蘆洲區長興路211號","121.461161666667","25.086285","6501400","蘆洲區"
"247014","339-TH","2018/11/15 20:59:17","新北市蘆洲區得勝街67-1號","121.473976666667","25.0837033333333","6501400","蘆洲區"
"247006","337-TH","2018/11/15 20:59:29","新北市蘆洲區永安南路二段16巷8號","121.467853333333","25.0771883333333","6501400","蘆洲區"
"247020","057-VK","2018/11/15 20:59:16","新北市蘆洲區民族路488號","121.471101666667","25.0912683333333","6501400","蘆洲區"
"247010","056-VK","2018/11/15 20:59:17","新北市蘆洲區鷺江街76號","121.476966666667","25.0837683333333","6501400","蘆洲區"
"247008","053-VK","2018/11/15 20:59:28","新北市蘆洲區和平路13號","121.472775","25.0791466666667","6501400","蘆洲區"
"247018","007-UY","2018/11/15 20:59:24","新北市蘆洲區民權路132-2號","121.473236666667","25.0887883333333","6501400","蘆洲區"
"247004","002-UY","2018/11/15 20:59:14","新北市蘆洲區永安南路二段268號","121.458676666667","25.0807283333333","6501400","蘆洲區"
"247022","001-UY","2018/11/15 20:59:30","新北市蘆洲區中正路293號","121.466758333333","25.0880766666667","6501400","蘆洲區"
"251005","010-UM","2018/11/15 20:59:10","新北市淡水區學府路51巷2弄16號","121.447925","25.1700316666667","6501000","淡水區"
"251001","011-UM","2018/11/15 20:59:22","新北市淡水區北投子14-3號","121.449113333333","25.1832133333333","6501000","淡水區"
"251013","KEA-2871","2018/11/15 20:59:26","新北市淡水區行忠路253號","121.459628333333","25.2004216666667","6501000","淡水區"
"251016","179-VK","2018/11/15 20:59:12","新北市淡水區牛埔子11-1號","121.450223333333","25.2184616666667","6501000","淡水區"
"251015","182-VK","2018/11/15 20:59:13","新北市淡水區淡金路四段542巷17號","121.45274","25.227075","6501000","淡水區"
"251010","413-VK","2018/11/15 20:59:19","新北市淡水區中正路一段116-3號","121.4239","25.1787183333333","6501000","淡水區"
"251012","441-VK","2018/11/15 20:59:29","新北市淡水區淡金路五段116-1號","121.456565","25.2369833333333","6501000","淡水區"
"251007","442-VK","2018/11/15 20:59:14","新北市淡水區仁愛街2巷31號","121.446386666667","25.17108","6501000","淡水區"
"251011","650-BX","2018/11/15 20:59:09","新北市淡水區新民街322巷1號","121.435305","25.1837533333333","6501000","淡水區"
"251002","672-BX","2018/11/15 20:59:22","新北市淡水區英專路68號","121.445693333333","25.171065","6501000","淡水區"
"251003","766-UM","2018/11/15 20:59:20","新北市淡水區新春街125巷5號","121.441455","25.1823066666667","6501000","淡水區"
"242023","362-BY","2018/11/15 20:59:27","新北市八里區荖阡坑路24-11號","121.398551666667","25.1378883333333","6500500","新莊區"
"242011","132-UY","2018/11/15 20:59:19","新北市五股區成泰路三段362號","121.451781666667","25.0987566666667","6500500","新莊區"
"221029","298-VK","2018/11/15 20:59:26","新北市汐止區新台五路二段78-1號","121.661996666667","25.0658333333333","6501100","汐止區"
"221018","753-BX","2018/11/15 20:59:24","新北市汐止區汐萬路一段256巷3號","121.65339","25.0746883333333","6501100","汐止區"
"220070","AAC-253","2018/11/15 20:59:26","新北市林口區太平里180號","121.368283333333","25.1347483333333","6500100","板橋區"
