"lineid","car","time","location","longitude","latitude","cityid","cityname"
"234066","AAC-212","2018/11/15 21:35:02","新北市永和區福和路1號","121.526388333333","25.0096133333333","6500400","永和區"
"241017","063-VK","2018/11/15 21:39:16","新北市新莊區化成路565號","121.465285","25.0658933333333","6500200","三重區"
"251014","742-BX","2018/11/15 21:39:14","新北市淡水區淡金路三段426號","121.450358333333","25.2121683333333","6501000","淡水區"
"241005","262-UM","2018/11/15 21:39:16","新北市三重區碧華街1號","121.48359","25.0810533333333","6500200","三重區"
"241013","270-UM","2018/11/15 21:39:10","新北市新莊區化成路585-8號","121.463326666667","25.0668783333333","6500200","三重區"
"241025","271-UM","2018/11/15 21:39:25","新北市八里區中山路三段386號","121.368395","25.1360033333333","6500200","三重區"
"247012","KEA-2869","2018/11/15 21:37:55","新北市五股區中直路13-7號","121.424728333333","25.11051","6501400","蘆洲區"
"251009","008-UM","2018/11/15 21:39:22","新北市淡水區民族路29巷2弄6號","121.462628333333","25.1369983333333","6501000","淡水區"
"251005","010-UM","2018/11/15 21:39:29","新北市淡水區學府路88號","121.449076666667","25.1710633333333","6501000","淡水區"
"251001","011-UM","2018/11/15 21:39:22","新北市淡水區崁頂二路250號","121.435828333333","25.19679","6501000","淡水區"
"251016","179-VK","2018/11/15 21:39:32","新北市淡水區崁頂59-2號","121.441548333333","25.198375","6501000","淡水區"
"251008","180-VK","2018/11/15 21:39:26","新北市淡水區水源街二段90號","121.451705","25.1743333333333","6501000","淡水區"
"251010","413-VK","2018/11/15 21:39:19","新北市淡水區沙崙路216巷17號","121.426121666667","25.1841583333333","6501000","淡水區"
"251012","441-VK","2018/11/15 21:39:29","新北市淡水區淡金路四段215號","121.451645","25.2222733333333","6501000","淡水區"
"251007","442-VK","2018/11/15 21:39:14","新北市淡水區水源街二段179號","121.455285","25.175735","6501000","淡水區"
"251004","443-VK","2018/11/15 21:39:15","新北市淡水區民生路60號","121.462151666667","25.1379633333333","6501000","淡水區"
"251006","561-UM","2018/11/15 21:39:24","新北市淡水區中正路11巷28-7號","121.438055","25.170775","6501000","淡水區"
"251011","650-BX","2018/11/15 21:39:29","新北市淡水區新民街320號","121.435171666667","25.183145","6501000","淡水區"
"251002","672-BX","2018/11/15 21:39:22","新北市淡水區學府路152號","121.446381666667","25.1742466666667","6501000","淡水區"
"251003","766-UM","2018/11/15 21:39:28","新北市淡水區新民街276號","121.43549","25.1814933333333","6501000","淡水區"
"220070","AAC-253","2018/11/15 21:39:25","新北市板橋區華東街1-9號","121.448266666667","24.9948516666667","6500100","板橋區"
