"lineid","car","time","location","longitude","latitude","cityid","cityname"
"241025","271-UM","2018/11/15 22:09:25","新北市三重區成功路50巷69號","121.485548333333","25.0488283333333","6500200","三重區"
"247012","KEA-2869","2018/11/15 22:07:54","新北市八里區荖阡坑路28-2號","121.402895","25.1279183333333","6501400","蘆洲區"
"235010","733-UM","2018/11/15 21:40:19","新北市中和區員山路36巷13號","121.484156666667","24.9908083333333","6500300","中和區"
"251005","010-UM","2018/11/15 22:09:29","新北市淡水區鄧公路19號","121.45139","25.17","6501000","淡水區"
"251008","180-VK","2018/11/15 22:09:26","新北市淡水區學府路104號","121.449881666667","25.171775","6501000","淡水區"
"251010","413-VK","2018/11/15 22:09:19","新北市淡水區沙崙路200號","121.424693333333","25.1839033333333","6501000","淡水區"
"251007","442-VK","2018/11/15 22:09:14","新北市淡水區北新路186-3號","121.44959","25.1788166666667","6501000","淡水區"
"251004","443-VK","2018/11/15 22:08:35","新北市淡水區民族路33號","121.462245","25.1358016666667","6501000","淡水區"
"251011","650-BX","2018/11/15 22:09:29","新北市淡水區水碓街15-1號","121.443245","25.177175","6501000","淡水區"
