"lineid","car","time","location","longitude","latitude","cityid","cityname"
"247015","546-UM","2018/11/15 22:21:23","新北市五股區中興路三段163號","121.449246666667","25.0807733333333","6501400","蘆洲區"
"247007","053-VK","2018/11/15 22:29:28","新北市五股區中興路三段2巷10號","121.44908","25.0808616666667","6501400","蘆洲區"
"251008","180-VK","2018/11/15 22:29:26","新北市淡水區學府路104號","121.449898333333","25.171795","6501000","淡水區"
"251010","413-VK","2018/11/15 22:29:19","新北市淡水區沙崙路200號","121.424716666667","25.1839283333333","6501000","淡水區"
"251007","442-VK","2018/11/15 22:29:14","新北市淡水區北新路186-3號","121.449621666667","25.1787966666667","6501000","淡水區"
"251004","443-VK","2018/11/15 22:29:15","新北市淡水區民族路33號","121.462228333333","25.1357566666667","6501000","淡水區"
"251011","650-BX","2018/11/15 22:29:29","新北市淡水區水碓街7號","121.443188333333","25.177145","6501000","淡水區"
