"lineid","car","time","location","longitude","latitude","cityid","cityname"
"234044","148-BY","2018/08/03 12:39:28","新北市永和區秀朗路二段66巷9號","121.522666666667","25.0012733333333","6500400","永和區"
"234070","149-BY","2018/08/03 12:39:29","新北市永和區福和路1號","121.526128333333","25.00979","6500400","永和區"
"234078","298-R6","2018/08/03 12:39:37","新北市永和區林森路75號","121.524023333333","25.0039116666667","6500400","永和區"
"234084","338-UY","2018/08/03 12:39:39","新北市永和區中正路279號","121.517593333333","25.0008283333333","6500400","永和區"
"234015","745-BX","2018/08/03 12:39:30","新北市永和區福和路1號","121.5263","25.0096133333333","6500400","永和區"
"234028","746-BX","2018/08/03 12:39:33","新北市永和區環河東路三段48號","121.526763333333","25.006385","6500400","永和區"
"234036","847-RS","2018/08/03 12:39:42","新北市永和區福和路1號","121.526663333333","25.0101166666667","6500400","永和區"
"234010","9373-KE","2018/08/03 12:39:42","新北市永和區福和路1號","121.526346666667","25.0096933333333","6500400","永和區"
"234022","9380-KE","2018/08/03 12:39:36","新北市永和區豫溪街191巷3弄17號","121.523141666667","25.0107416666667","6500400","永和區"
"234076","969-R7","2018/08/03 12:39:40","新北市永和區中正路74號","121.513556666667","24.9951116666667","6500400","永和區"
"234066","AAC-212","2018/08/03 12:39:39","新北市永和區福和路1號","121.526323333333","25.0096833333333","6500400","永和區"
"234001","AAC-295","2018/08/03 12:39:25","新北市永和區福和路1號","121.526633333333","25.0098416666667","6500400","永和區"
"244004","248-BX","2018/08/03 12:39:36","新北市林口區粉寮路二段160巷28號","121.405171666667","25.0908083333333","6501700","林口區"
"231005","106-UY","2018/08/03 12:39:24","新北市新店區安華路28-1號","121.519776666667","24.9608566666667","6500600","新店區"
"231010","107-UY","2018/08/03 12:39:41","新北市新店區安一路一段1-1號","121.51951","24.9613683333333","6500600","新店區"
"231026","256-BX","2018/08/03 12:39:31","新北市新店區安一路一段1-1號","121.51979","24.96113","6500600","新店區"
"231018","278-BY","2018/08/03 12:39:44","新北市新店區安一路一段1-1號","121.519608333333","24.9611683333333","6500600","新店區"
"231016","AAD-862","2018/08/03 12:39:28","新北市新店區安一路一段1-1號","121.519861666667","24.9613116666667","6500600","新店區"
"231035","719-UM","2018/08/03 12:39:39","新北市新店區安一路一段1-1號","121.519505","24.9612766666667","6500600","新店區"
"235031","255-BX","2018/08/03 12:39:39","新北市中和區中正路637巷52弄1號","121.485463333333","24.9935483333333","6500300","中和區"
"235006","551-UM","2018/08/03 12:39:26","新北市中和區和城路一段271巷1號","121.485418333333","24.9917016666667","6500300","中和區"
"235001","611-BX","2018/08/03 12:39:26","新北市中和區中山路三段1號","121.479986666667","25.005805","6500300","中和區"
"235005","802-TS","2018/08/03 12:39:41","新北市中和區員山路36巷16-2號","121.48537","24.9916466666667","6500300","中和區"
"235017","900-TW","2018/08/03 12:39:28","新北市中和區員山路36巷16-3號","121.484906666667","24.991825","6500300","中和區"
"207002","749-BX","2018/08/03 12:39:22","新北市萬里區雙興里太和路7-2號","121.658456666667","25.1740933333333","6502800","萬里區"
"207001","662-BX","2018/08/03 12:39:34","新北市萬里區萬里里獅頭路15-2號","121.695215","25.1797183333333","6502800","萬里區"
"235025","KEA-2875","2018/08/03 12:39:23","新北市中和區員山路36巷16-3號","121.485113333333","24.9914483333333","6500300","中和區"
