"lineid","car","time","location","longitude","latitude","cityid","cityname"
"234044","148-BY","2018/08/03 13:39:29","新北市永和區永亨路174號","121.526096666667","25.0029116666667","6500400","永和區"
"234070","149-BY","2018/08/03 13:39:29","新北市中和區永貞路262巷3號","121.51378","25.004095","6500400","永和區"
"234005","207-UY","2018/08/03 13:39:40","新北市永和區永和路一段122號","121.513763333333","25.0076433333333","6500400","永和區"
"234078","298-R6","2018/08/03 13:39:38","新北市永和區林森路20巷11號","121.525588333333","25.0059483333333","6500400","永和區"
"234062","337-UY","2018/08/03 13:39:34","新北市永和區秀朗路二段24巷28弄14號","121.519471666667","25.0019716666667","6500400","永和區"
"234084","338-UY","2018/08/03 13:39:38","新北市永和區國中路1號","121.523908333333","25.0044216666667","6500400","永和區"
"234068","552-UM","2018/08/03 13:39:39","新北市永和區永和路二段235號","121.515656666667","25.0143316666667","6500400","永和區"
"234015","745-BX","2018/08/03 13:39:30","新北市永和區忠孝街26巷19號","121.515203333333","25.01682","6500400","永和區"
"234028","746-BX","2018/08/03 13:39:32","新北市永和區民權路29巷3號","121.520446666667","24.9978933333333","6500400","永和區"
"234052","KEA-2590","2018/08/03 13:39:42","新北市永和區竹林路39巷22號","121.518921666667","25.0147516666667","6500400","永和區"
"234012","KEA-2591","2018/08/03 13:39:36","新北市永和區仁愛路203號","121.509886666667","25.012485","6500400","永和區"
"234060","AAD-866","2018/08/03 13:39:41","新北市永和區中正路436號","121.51745","25.002525","6500400","永和區"
"234036","847-RS","2018/08/03 13:39:42","新北市永和區環河東路四段22號","121.528568333333","24.9995133333333","6500400","永和區"
"234040","862-TW","2018/08/03 13:39:33","新北市永和區永貞路267號","121.511835","25.00474","6500400","永和區"
"234048","863-TW","2018/08/03 13:39:40","新北市永和區保安路76號","121.509925","25.0163433333333","6500400","永和區"
"234025","9371-KE","2018/08/03 13:39:45","新北市永和區永平路148號","121.511393333333","25.0085266666667","6500400","永和區"
"234010","9373-KE","2018/08/03 13:39:44","新北市永和區保福路二段106號","121.509945","25.0137566666667","6500400","永和區"
"248019","225-UY","2018/08/03 13:38:37","新北市五股區孝義路102號","121.445368333333","25.1195933333333","6501500","五股區"
"234022","9380-KE","2018/08/03 13:39:36","新北市永和區中正路702巷20弄1號","121.516505","25.010565","6500400","永和區"
"234076","969-R7","2018/08/03 13:39:40","新北市永和區民權路48號","121.520096666667","24.998535","6500400","永和區"
"234072","AAC-211","2018/08/03 13:39:36","新北市永和區竹林路213巷17號","121.521896666667","25.0089783333333","6500400","永和區"
"234066","AAC-212","2018/08/03 13:39:40","新北市永和區中山路一段191巷9弄1號","121.50957","25.0080883333333","6500400","永和區"
"234001","AAC-295","2018/08/03 13:39:25","新北市永和區永和路一段116號","121.513783333333","25.0074933333333","6500400","永和區"
"244004","248-BX","2018/08/03 13:39:36","新北市林口區頂福里5-2號","121.360171666667","25.0829516666667","6501700","林口區"
"231002","002-UM","2018/08/03 13:39:38","新北市新店區溪園路405號","121.524031666667","24.9782466666667","6500600","新店區"
"231028","046-UY","2018/08/03 13:39:41","新北市新店區安和路一段23號","121.516995","24.9649733333333","6500600","新店區"
"231001","047-UY","2018/08/03 13:39:32","新北市新店區中正路376號","121.534836666667","24.9767833333333","6500600","新店區"
"231005","106-UY","2018/08/03 13:39:44","新北市新店區寶中路72號","121.54781","24.9805733333333","6500600","新店區"
"231010","107-UY","2018/08/03 13:39:41","新北市新店區中正路307巷20號","121.536313333333","24.974285","6500600","新店區"
"231022","108-UY","2018/08/03 13:39:46","新北市新店區永興路88-1號","121.544006666667","24.9336916666667","6500600","新店區"
"231012","187-VK","2018/08/03 13:39:33","新北市新店區德正街40號","121.544298333333","24.9715583333333","6500600","新店區"
"231023","KEA-2219","2018/08/03 13:39:36","新北市新店區新店路149號","121.537036666667","24.95488","6500600","新店區"
"231026","256-BX","2018/08/03 13:39:31","新北市新店區中正路114號","121.542395","24.9709933333333","6500600","新店區"
"231003","268-BY","2018/08/03 13:39:46","新北市新店區中正路5號","121.545768333333","24.96911","6500600","新店區"
"231018","278-BY","2018/08/03 13:39:44","新北市新店區百忍街43巷1弄7號","121.533395","24.975945","6500600","新店區"
"231016","AAD-862","2018/08/03 13:39:43","新北市新店區竹林路28號","121.552033333333","24.9514116666667","6500600","新店區"
"231038","3712-VJ","2018/08/03 13:39:32","新北市新店區安華路1-1號","121.519383333333","24.9605283333333","6500600","新店區"
"231027","3713-VJ","2018/08/03 13:39:37","新北市新店區北宜路一段105巷10弄3號","121.540496666667","24.9557466666667","6500600","新店區"
"231037","4716-K9","2018/08/03 13:39:42","新北市新店區安康路二段382號","121.50027","24.9569183333333","6500600","新店區"
"231025","4715-K9","2018/08/03 13:39:41","新北市新店區中央六街58號","121.527865","24.9757533333333","6500600","新店區"
"231036","512-UM","2018/08/03 13:39:32","新北市新店區安祥路147巷33號","121.476731666667","24.9568666666667","6500600","新店區"
"231013","513-UM","2018/08/03 13:39:26","新北市新店區中正路454-5號","121.534478333333","24.97905","6500600","新店區"
"231034","616-UM","2018/08/03 13:39:41","新北市新店區車子路134號","121.504885","24.9485366666667","6500600","新店區"
"231006","617-UM","2018/08/03 13:39:35","新北市新店區北宜路一段76號","121.538571666667","24.955885","6500600","新店區"
"231030","619-UM","2018/08/03 13:39:43","新北市新店區安康路一段351-1號","121.519595","24.963915","6500600","新店區"
"231035","719-UM","2018/08/03 13:39:39","新北市新店區安忠路56巷6號","121.512915","24.9594233333333","6500600","新店區"
"231032","720-UM","2018/08/03 13:39:18","新北市新店區安忠路205巷8號","121.509355","24.9546633333333","6500600","新店區"
"231029","897-TW","2018/08/03 13:39:40","新北市新店區安康路二段269號","121.504426666667","24.9578716666667","6500600","新店區"
"231004","899-TW","2018/08/03 13:39:45","新北市新店區北新路二段7號","121.542708333333","24.971305","6500600","新店區"
"231024","AKT-0513","2018/08/03 13:39:43","新北市新店區中華路47巷9號","121.539658333333","24.96734","6500600","新店區"
"235030","003-UY","2018/08/03 13:39:40","新北市中和區水源路45號","121.504895","25.003605","6500300","中和區"
"235028","005-UY","2018/08/03 13:39:42","新北市中和區連城路87號","121.496836666667","25.0003966666667","6500300","中和區"
"235027","006-UY","2018/08/03 13:39:43","新北市中和區連城路399號","121.486266666667","24.9961483333333","6500300","中和區"
"235020","096-UM","2018/08/03 13:39:43","新北市中和區新民街97號","121.48076","25.0083066666667","6500300","中和區"
"235003","097-UM","2018/08/03 13:39:36","新北市中和區景平路278巷16弄2號","121.513913333333","24.9933116666667","6500300","中和區"
"235029","098-UM","2018/08/03 13:39:45","新北市中和區莊敬路49巷29弄22號","121.500888333333","25.006495","6500300","中和區"
"235004","150-BY","2018/08/03 13:39:38","新北市中和區安平路59號","121.509471666667","24.99521","6500300","中和區"
"235022","151-BY","2018/08/03 13:39:43","新北市中和區連城路384號","121.480575","24.9950133333333","6500300","中和區"
"235019","183-VK","2018/08/03 13:39:39","新北市中和區國光街102巷40號","121.471211666667","25.0006833333333","6500300","中和區"
"235002","185-VK","2018/08/03 13:39:34","新北市中和區立人街14巷61號","121.518716666667","24.9955833333333","6500300","中和區"
"235013","186-VK","2018/08/03 13:39:41","新北市中和區明義街9號","121.503971666667","24.99495","6500300","中和區"
"235031","255-BX","2018/08/03 13:39:39","新北市中和區新生街186巷5弄27號","121.482986666667","24.9986733333333","6500300","中和區"
"235008","293-VK","2018/08/03 13:39:31","新北市中和區復興路280巷19號","121.502213333333","24.9915216666667","6500300","中和區"
"235036","301-VK","2018/08/03 13:39:29","新北市中和區連城路169號","121.495486666667","24.99843","6500300","中和區"
"235043","352-BY","2018/08/03 13:39:40","新北市中和區景平路155巷2弄2號","121.513248333333","24.9922933333333","6500300","中和區"
"235014","4979-A6","2018/08/03 13:39:24","新北市中和區忠孝街113巷31號","121.512508333333","24.9878766666667","6500300","中和區"
"235033","4980-A6","2018/08/03 13:39:32","新北市中和區景平路597號","121.496973333333","25.0004766666667","6500300","中和區"
"235006","551-UM","2018/08/03 13:39:46","新北市中和區成功路48號","121.526081666667","24.992915","6500300","中和區"
"235034","558-UM","2018/08/03 13:39:45","新北市中和區景平路576號","121.50146","24.995515","6500300","中和區"
"235009","565-BX","2018/08/03 13:39:43","新北市中和區南山路236巷20弄1號","121.50589","24.9890633333333","6500300","中和區"
"235018","640-BX","2018/08/03 13:39:40","新北市中和區民享街54巷14號","121.473246666667","25.0023733333333","6500300","中和區"
"235024","647-TV","2018/08/03 13:39:34","新北市中和區中山路二段610號","121.481651666667","25.00536","6500300","中和區"
"235010","733-UM","2018/08/03 13:39:43","新北市中和區興南路一段85巷12號","121.510051666667","24.9883016666667","6500300","中和區"
"235035","783-BX","2018/08/03 13:39:25","新北市中和區中原街92號","121.488365","25.0104016666667","6500300","中和區"
"235026","800-TS","2018/08/03 13:39:35","新北市中和區中山路二段312巷33弄17號","121.494816666667","25.0038566666667","6500300","中和區"
"235021","801-TS","2018/08/03 13:39:35","新北市中和區民安街42巷36號","121.479028333333","25.00116","6500300","中和區"
"235005","802-TS","2018/08/03 13:39:32","新北市中和區中安街78號","121.512003333333","25.0020416666667","6500300","中和區"
"235016","805-TS","2018/08/03 13:39:32","新北市中和區興南路三段52巷6號","121.493886666667","24.9761733333333","6500300","中和區"
"235012","896-TW","2018/08/03 13:39:32","新北市中和區中正路73號","121.50099","24.99353","6500300","中和區"
"235017","900-TW","2018/08/03 13:39:31","新北市中和區民享街492號","121.469611666667","24.992255","6500300","中和區"
"235015","157-BY","2018/08/03 13:39:34","新北市中和區華新街143巷106弄30號","121.506163333333","24.9786916666667","6500300","中和區"
"235001","AAC-213","2018/08/03 13:39:31","新北市中和區景德街52號","121.517716666667","24.9914966666667","6500300","中和區"
"235023","AAC-215","2018/08/03 13:39:25","新北市中和區中正路501號","121.488878333333","24.9935466666667","6500300","中和區"
"220013","072-UY","2018/08/03 13:39:28","新北市板橋區民族路151巷52號","121.470071666667","25.00851","6500100","板橋區"
"220034","073-UY","2018/08/03 13:39:43","新北市板橋區大智街71巷42弄16號","121.45219","25.0146683333333","6500100","板橋區"
"220017","AAD-861","2018/08/03 13:39:43","新北市板橋區華東街1-10號","121.448358333333","24.995075","6500100","板橋區"
"247007","056-VK","2018/08/03 13:39:27","新北市五股區四維路183號","121.467908333333","25.0754983333333","6501400","蘆洲區"
"247019","001-UY","2018/08/03 13:39:37","新北市五股區新城三路61號","121.449208333333","25.0935383333333","6501400","蘆洲區"
"235011","251-BX","2018/08/03 13:39:38","新北市中和區南山路320巷6號","121.507623333333","24.9866116666667","6500300","中和區"
"207002","749-BX","2018/08/03 13:39:42","新北市萬里區崁腳里崁腳路166號","121.645046666667","25.1558433333333","6502800","萬里區"
"207001","662-BX","2018/08/03 13:39:34","新北市萬里區大鵬里萬里加投46-1號","121.641918333333","25.2110783333333","6502800","萬里區"
"236040","107-UM","2018/08/03 13:39:47","新北市土城區城林路6巷80號","121.438533333333","24.9797683333333","6501300","土城區"
"236077","166-UM","2018/08/03 13:39:41","新北市土城區城林路6巷80號","121.438785","24.9796966666667","6501300","土城區"
"236013","270-VK","2018/08/03 13:39:46","新北市土城區城林路6巷80號","121.438645","24.9797833333333","6501300","土城區"
"236006","498-BY","2018/08/03 13:39:30","新北市土城區慶祥街76號","121.436225","24.97361","6501300","土城區"
"236054","AAC-216","2018/08/03 13:39:32","新北市土城區城林路6巷80號","121.438748333333","24.9796483333333","6501300","土城區"
"221032","280-BY","2018/08/03 13:39:36","新北市汐止區仁愛路25號","121.659291666667","25.06375","6501100","汐止區"
"220027","145-BY","2018/08/03 13:39:46","新北市板橋區南雅西路二段255號","121.451696666667","25.0147016666667","6500100","板橋區"
"220028","200-UY","2018/08/03 13:39:40","新北市板橋區大觀路二段265巷76弄31號","121.441346666667","24.9966116666667","6500100","板橋區"
"220030","610-BX","2018/08/03 13:39:41","新北市板橋區大觀路三段50巷49號","121.432148333333","24.9956916666667","6500100","板橋區"
"220020","277-BY","2018/08/03 13:39:34","新北市板橋區大觀路三段62巷2號","121.433218333333","24.9950916666667","6500100","板橋區"
"220019","283-VK","2018/08/03 13:39:37","新北市土城區四川路2號","121.455895","24.99622","6500100","板橋區"
"220043","285-UM","2018/08/03 13:39:36","新北市板橋區民生路二段161巷5號","121.470175","25.019745","6500100","板橋區"
"220031","286-VK","2018/08/03 13:39:42","新北市板橋區大觀路二段101巷21號","121.446993333333","25.00142","6500100","板橋區"
"220029","287-VK","2018/08/03 13:39:40","新北市板橋區大觀路一段79號","121.447015","25.0042933333333","6500100","板橋區"
"220009","293-UM","2018/08/03 13:39:29","新北市板橋區民生路二段120號","121.470316666667","25.0198533333333","6500100","板橋區"
"220010","295-UM","2018/08/03 13:39:33","新北市板橋區民生路二段120號","121.470385","25.0195766666667","6500100","板橋區"
"220032","296-UM","2018/08/03 13:39:41","新北市板橋區大觀路2段148巷1-1號","121.441863333333","24.9995016666667","6500100","板橋區"
"220023","303-R5","2018/08/03 13:39:34","新北市板橋區南雅西路一段63巷4號","121.452028333333","25.0077266666667","6500100","板橋區"
"220047","317-R6","2018/08/03 13:39:28","新北市板橋區民生路二段120號","121.470366666667","25.01967","6500100","板橋區"
"220012","486-VK","2018/08/03 13:39:45","新北市板橋區縣民大道二段68-1號","121.463686666667","25.0129733333333","6500100","板橋區"
"220104","560-BX","2018/08/03 13:39:27","新北市板橋區南雅西路二段145巷10號","121.451593333333","25.011995","6500100","板橋區"
"220003","568-UM","2018/08/03 13:39:30","新北市板橋區華東街1-10號","121.448663333333","24.995075","6500100","板橋區"
"220011","609-BX","2018/08/03 13:39:40","新北市板橋區民生路二段175號","121.469576666667","25.0201433333333","6500100","板橋區"
"220040","637-BX","2018/08/03 13:39:43","新北市板橋區民生路二段161巷1號","121.470183333333","25.0199883333333","6500100","板橋區"
"220005","686-BX","2018/08/03 13:39:28","新北市板橋區華東街1-10號","121.448275","24.9949083333333","6500100","板橋區"
"220025","687-BX","2018/08/03 13:39:37","新北市板橋區大觀路三段131號","121.432548333333","24.99417","6500100","板橋區"
"220002","741-BX","2018/08/03 13:39:33","新北市板橋區華東街1-10號","121.44827","24.9949283333333","6500100","板橋區"
"220014","829-TW","2018/08/03 13:39:28","新北市板橋區民生路二段120號","121.4704","25.01983","6500100","板橋區"
"220022","895-R6","2018/08/03 13:39:38","新北市板橋區南雅南路一段29號","121.456126666667","25.0065983333333","6500100","板橋區"
"220021","985-R7","2018/08/03 13:39:36","新北市板橋區華興街91巷4號","121.45646","25.0051866666667","6500100","板橋區"
"220018","AAC-253","2018/08/03 13:39:24","新北市板橋區華東街1-8號","121.447505","24.9950683333333","6500100","板橋區"
"235032","KEA-2873","2018/08/03 13:39:42","新北市中和區圓通路265巷29號","121.496173333333","24.992515","6500300","中和區"
"235025","KEA-2875","2018/08/03 13:39:34","新北市中和區民享街26號","121.47385","25.0036283333333","6500300","中和區"
