"lineid","car","time","location","longitude","latitude","cityid","cityname"
"231046","107-UY","2018/08/03 16:29:30","新北市新店區灣潭路3-3號","121.538253333333","24.9507966666667","6500600","新店區"
"241011","013-R5","2018/08/03 16:29:40","新北市三重區龍濱路257號","121.50142","25.07279","6500200","三重區"
"241028","022-UY","2018/08/03 16:29:31","新北市三重區重安街170巷6號","121.496303333333","25.0547133333333","6500200","三重區"
"241008","059-VK","2018/08/03 16:29:30","新北市三重區力行路二段136巷45弄10號","121.479071666667","25.0753133333333","6500200","三重區"
"241022","060-VK","2018/08/03 16:29:38","新北市三重區過圳街106號","121.486071666667","25.0622383333333","6500200","三重區"
"241015","062-VK","2018/08/03 16:29:42","新北市三重區信義街79號","121.501791666667","25.0650483333333","6500200","三重區"
"241017","063-VK","2018/08/03 16:29:36","新北市三重區重新路三段2號","121.495595","25.061615","6500200","三重區"
"241024","065-VK","2018/08/03 16:29:42","新北市三重區中正北路315巷16弄10號","121.475401666667","25.0717216666667","6500200","三重區"
"241026","066-VK","2018/08/03 16:29:40","新北市三重區文化南路42號","121.500378333333","25.0603516666667","6500200","三重區"
"241003","091-VK","2018/08/03 16:29:38","新北市三重區五華街71巷101號","121.494666666667","25.08408","6500200","三重區"
"241031","742-BX","2018/08/03 16:29:26","新北市三重區重陽路一段67號","121.486936666667","25.058645","6500200","三重區"
"241005","262-UM","2018/08/03 16:29:41","新北市三重區溪尾街305號","121.487598333333","25.08364","6500200","三重區"
"241016","266-UM","2018/08/03 16:29:33","新北市三重區大智街19號","121.494333333333","25.065675","6500200","三重區"
"241009","267-UM","2018/08/03 16:29:35","新北市三重區三和路四段191巷78號","121.484596666667","25.079835","6500200","三重區"
"241018","268-UM","2018/08/03 16:29:44","新北市三重區重陽路四段20-1號","121.491076666667","25.06927","6500200","三重區"
"241032","269-UM","2018/08/03 16:29:33","新北市三重區三陽路100巷3弄13號","121.483051666667","25.058115","6500200","三重區"
"241013","270-UM","2018/08/03 16:29:37","新北市三重區三和路三段91巷35號","121.49567","25.07266","6500200","三重區"
"241025","271-UM","2018/08/03 16:29:37","新北市三重區中正北路560巷100弄17-1號","121.472665","25.0684433333333","6500200","三重區"
"241007","398-BY","2018/08/03 16:29:44","新北市三重區三和路四段167巷186號","121.488086666667","25.0803966666667","6500200","三重區"
"241001","413-TH","2018/08/03 16:29:38","新北市三重區仁愛街304號","121.49201","25.0794383333333","6500200","三重區"
"241004","475-VK","2018/08/03 16:29:43","新北市三重區仁愛街377巷44號","121.492323333333","25.08083","6500200","三重區"
"241020","478-VK","2018/08/03 16:29:41","新北市三重區車路頭街37巷25號","121.484445","25.0716866666667","6500200","三重區"
"241030","480-VK","2018/08/03 16:29:33","新北市三重區成功路100號","121.487805","25.051365","6500200","三重區"
"241014","543-UM","2018/08/03 16:29:39","新北市三重區河邊北街70-3號","121.504368333333","25.0683816666667","6500200","三重區"
"241023","545-UM","2018/08/03 16:29:41","新北市三重區忠孝路三段50巷47號","121.483051666667","25.064335","6500200","三重區"
"241019","KEA-2593","2018/08/03 16:29:40","新北市三重區重陽路三段89號","121.490015","25.0676866666667","6500200","三重區"
"241006","AAD-863","2018/08/03 16:29:32","新北市三重區力行路二段131號","121.483236666667","25.0768516666667","6500200","三重區"
"241002","887-TS","2018/08/03 16:29:40","新北市三重區五華街20號","121.494806666667","25.080435","6500200","三重區"
"241012","941-UM","2018/08/03 16:29:38","新北市三重區河邊北街254號","121.50173","25.0762233333333","6500200","三重區"
"241029","942-UM","2018/08/03 16:29:34","新北市三重區集美街126巷18號","121.48969","25.0538666666667","6500200","三重區"
"241033","AAC-255","2018/08/03 16:29:44","新北市三重區重新路五段317巷1弄1號","121.477505","25.0490616666667","6500200","三重區"
"235064","005-UY","2018/08/03 16:29:38","新北市中和區員山路36巷16-3號","121.485061666667","24.9912283333333","6500300","中和區"
"235026","800-TS","2018/08/03 16:29:34","新北市中和區建八路121號","121.489546666667","24.9987","6500300","中和區"
"247008","056-VK","2018/08/03 16:29:40","新北市五股區中興路三段163號","121.449148333333","25.080615","6501400","蘆洲區"
"224008","285-BY","2018/08/03 16:29:30","新北市瑞芳區大寮路356-1號","121.784788333333","25.1030483333333","6501200","瑞芳區"
"224007","275-VK","2018/08/03 16:29:40","新北市瑞芳區中央路39號","121.76196","25.1030833333333","6501200","瑞芳區"
"224005","271-BY","2018/08/03 16:29:43","新北市瑞芳區阿美家園44號","121.821233333333","25.11705","6501200","瑞芳區"
"227003","642-TC","2018/08/03 16:29:47","新北市雙溪區上林里內平林120-2號","121.824481666667","25.0262566666667","6502500","雙溪區"
"227011","400-TW","2018/08/03 16:29:30","新北市雙溪區三港里雙澳路37-5號","121.872683333333","25.0503216666667","6502500","雙溪區"
"251008","181-VK","2018/08/03 16:29:34","新北市淡水區民生路54號","121.461958333333","25.1379466666667","6501000","淡水區"
"252002","178-VK","2018/08/03 16:29:41","新北市三芝區埔坪里埔頭坑84號","121.508396666667","25.254205","6502100","三芝區"
