"lineid","car","time","location","longitude","latitude","cityid","cityname"
"234026","9371-KE","2018/08/03 18:09:36","新北市永和區秀朗路一段10巷21號","121.513243333333","25.00625","6500400","永和區"
"249005","172-UM","2018/08/03 18:09:39","新北市八里區荖阡坑路15-40號","121.401635","25.13994","6502300","八里區"
"249001","173-UM","2018/08/03 18:09:32","新北市八里區龍米路二段28號","121.44876","25.1396816666667","6502300","八里區"
"249004","303-UY","2018/08/03 18:09:30","新北市八里區龍米路二段236-2號","121.43151","25.158965","6502300","八里區"
"249002","305-UY","2018/08/03 18:09:46","新北市八里區龍米路一段356巷5號","121.452238333333","25.1313633333333","6502300","八里區"
"249003","593-UM","2018/08/03 18:09:44","新北市八里區中華路二段165巷19弄22號","121.410366666667","25.1516833333333","6502300","八里區"
"248006","077-UY","2018/08/03 18:09:32","新北市五股區中興路二段70號","121.461266666667","25.07697","6501500","五股區"
"248008","095-VK","2018/08/03 18:09:36","新北市五股區中興路二段182巷50號","121.456233333333","25.0819166666667","6501500","五股區"
"248018","225-UY","2018/08/03 18:09:45","新北市五股區成泰路三段101-1號","121.444203333333","25.09024","6501500","五股區"
"248014","261-SL","2018/08/03 18:09:30","新北市五股區成泰路一段219號","121.435216666667","25.0771666666667","6501500","五股區"
"248010","272-BY","2018/08/03 18:09:30","新北市五股區新五路二段258號","121.44083","25.08216","6501500","五股區"
"248004","677-BX","2018/08/03 18:09:29","新北市五股區工商路57號","121.439105","25.0840283333333","6501500","五股區"
"248002","678-BX","2018/08/03 18:09:41","新北市五股區中興路三段198號","121.441318333333","25.0821066666667","6501500","五股區"
"232011","375-UM","2018/08/03 18:09:44","新北市坪林區國中路3號","121.712883333333","24.9370233333333","6502000","坪林區"
"244007","080-UY","2018/08/03 18:09:34","新北市林口區林口路132號","121.388253333333","25.0817916666667","6501700","林口區"
"244019","403-UM","2018/08/03 18:09:31","新北市林口區文化一路一段100巷12號","121.373913333333","25.0707066666667","6501700","林口區"
"244013","KEA-2802","2018/08/03 18:09:30","新北市林口區中山路158號","121.390701666667","25.0787966666667","6501700","林口區"
"244009","410-SL","2018/08/03 18:09:47","新北市林口區文林一街123號","121.37929","25.0869716666667","6501700","林口區"
"244023","483-VK","2018/08/03 18:09:38","新北市林口區東湖路153巷135號","121.38218","25.0735","6501700","林口區"
"244017","485-VK","2018/08/03 18:09:34","新北市林口區八德路18號","121.368775","25.0676333333333","6501700","林口區"
"244011","657-BX","2018/08/03 18:09:30","新北市林口區中正路78號","121.394646666667","25.0774033333333","6501700","林口區"
"244025","837-TS","2018/08/03 18:09:36","新北市林口區文化北路一段285號","121.359565","25.0724033333333","6501700","林口區"
"244021","838-TS","2018/08/03 18:09:30","新北市林口區自強一街70號","121.399885","25.0770216666667","6501700","林口區"
"243013","AAD-798","2018/08/03 18:09:49","新北市泰山區南林路93號","121.415501666667","25.0512","6501600","泰山區"
"222003","436-BY","2018/08/03 18:09:44","新北市深坑區文山路三段15號","121.612808333333","24.9980283333333","6501800","深坑區"
"222002","659-BX","2018/08/03 18:09:40","新北市深坑區文化街52號","121.618913333333","25.0016","6501800","深坑區"
"231059","046-UY","2018/08/03 18:09:34","新北市新店區安華路28-1號","121.51961","24.960785","6500600","新店區"
"231040","047-UY","2018/08/03 18:09:40","新北市新店區安華路28-1號","121.519221666667","24.9608316666667","6500600","新店區"
"231044","106-UY","2018/08/03 18:09:39","新北市新店區安華路28-1號","121.519658333333","24.9607866666667","6500600","新店區"
"231046","107-UY","2018/08/03 18:09:30","新北市新店區直潭七街60號","121.53229","24.9399016666667","6500600","新店區"
"231053","108-UY","2018/08/03 18:09:35","新北市新店區安一路一段1-1號","121.51939","24.9611116666667","6500600","新店區"
"231048","187-VK","2018/08/03 18:09:46","新北市新店區安一路一段1-1號","121.519428333333","24.9610316666667","6500600","新店區"
"231057","256-BX","2018/08/03 18:09:39","新北市新店區安一路一段1-1號","121.519751666667","24.9611066666667","6500600","新店區"
"231042","268-BY","2018/08/03 18:09:47","新北市新店區安華路1-1號","121.519401666667","24.9604716666667","6500600","新店區"
"231058","3713-VJ","2018/08/03 18:09:28","新北市新店區安華路28-1號","121.519145","24.9606166666667","6500600","新店區"
"231066","4716-K9","2018/08/03 18:09:43","新北市新店區安一路一段1-1號","121.519326666667","24.961285","6500600","新店區"
"231056","4715-K9","2018/08/03 18:09:32","新北市新店區安康路一段164號","121.526076666667","24.9629966666667","6500600","新店區"
"231049","513-UM","2018/08/03 18:09:42","新北市新店區安一路一段1-1號","121.519675","24.9611","6500600","新店區"
"231063","616-UM","2018/08/03 18:09:27","新北市新店區安華路1-1號","121.519383333333","24.9604133333333","6500600","新店區"
"231045","617-UM","2018/08/03 18:09:35","新北市新店區安華路28-1號","121.519438333333","24.96084","6500600","新店區"
"231061","619-UM","2018/08/03 18:09:38","新北市新店區安華路28-1號","121.519435","24.9607283333333","6500600","新店區"
"231055","AKT-0513","2018/08/03 18:09:44","新北市新店區安華路28-1號","121.51947","24.9606183333333","6500600","新店區"
"241024","065-VK","2018/08/03 18:09:42","新北市三重區中正北路193巷28號","121.475946666667","25.070705","6500200","三重區"
"241026","066-VK","2018/08/03 17:40:15","新北市三重區重安街18號","121.490281666667","25.0581133333333","6500200","三重區"
"241033","AAC-255","2018/08/03 18:09:44","新北市三重區中興北街54-1號","121.468911666667","25.0506583333333","6500200","三重區"
"235066","003-UY","2018/08/03 18:09:29","新北市中和區圓通路142號","121.498243333333","24.9957533333333","6500300","中和區"
"235064","005-UY","2018/08/03 18:09:38","新北市中和區中正路271號","121.495898333333","24.9937333333333","6500300","中和區"
"235063","006-UY","2018/08/03 18:09:40","新北市中和區員山路36巷16-3號","121.48491","24.9913133333333","6500300","中和區"
"235056","096-UM","2018/08/03 18:09:37","新北市中和區員山路36巷16-3號","121.48497","24.9916466666667","6500300","中和區"
"235065","098-UM","2018/08/03 18:09:28","新北市中和區橋和路270號","121.495651666667","25.0065316666667","6500300","中和區"
"235040","150-BY","2018/08/03 18:09:31","新北市中和區員山路36巷16-8號","121.485403333333","24.992305","6500300","中和區"
"235058","151-BY","2018/08/03 18:09:30","新北市中和區圓通路367巷29號","121.492631666667","24.9857266666667","6500300","中和區"
"235055","183-VK","2018/08/03 18:09:43","新北市中和區員山路36巷16-3號","121.484975","24.9914033333333","6500300","中和區"
"235038","185-VK","2018/08/03 18:09:44","新北市中和區景平路111巷2號","121.516563333333","24.992015","6500300","中和區"
"235050","4979-A6","2018/08/03 18:09:34","新北市中和區錦和路350-1號","121.490466666667","24.993575","6500300","中和區"
"235069","4980-A6","2018/08/03 18:09:31","新北市中和區中正路305號","121.492508333333","24.99373","6500300","中和區"
"235042","551-UM","2018/08/03 18:09:47","新北市中和區錦和路350-1號","121.490521666667","24.9935583333333","6500300","中和區"
"235070","558-UM","2018/08/03 18:09:44","新北市中和區圓通路207號","121.497153333333","24.9944483333333","6500300","中和區"
"235045","565-BX","2018/08/03 18:09:33","新北市中和區中正路173號","121.49767","24.9936533333333","6500300","中和區"
"235054","640-BX","2018/08/03 18:09:45","新北市中和區莒光路203號","121.472353333333","24.9988166666667","6500300","中和區"
"235060","647-TV","2018/08/03 18:09:39","新北市中和區員山路36巷16-3號","121.484896666667","24.99169","6500300","中和區"
"235047","732-UM","2018/08/03 18:09:42","新北市中和區中正路589巷15號","121.485635","24.99357","6500300","中和區"
"235046","733-UM","2018/08/03 18:09:35","新北市中和區員山路36巷13號","121.484135","24.9908683333333","6500300","中和區"
"235062","800-TS","2018/08/03 18:09:37","新北市中和區中正路790-1號","121.485205","25.001305","6500300","中和區"
"235057","801-TS","2018/08/03 18:09:32","新北市中和區連城路469巷13號","121.483573333333","24.9954283333333","6500300","中和區"
"235052","805-TS","2018/08/03 18:09:31","新北市中和區中正路271-1號","121.49576","24.99369","6500300","中和區"
"235048","896-TW","2018/08/03 18:09:28","新北市中和區員山路36巷16-2號","121.48529","24.99166","6500300","中和區"
"235053","900-TW","2018/08/03 18:09:31","新北市中和區員山路36巷16-3號","121.484991666667","24.9917783333333","6500300","中和區"
"235051","157-BY","2018/08/03 18:09:45","新北市中和區復興路275號","121.502571666667","24.9902783333333","6500300","中和區"
"235037","AAC-213","2018/08/03 18:09:34","新北市中和區景平路227號","121.510285","24.9927333333333","6500300","中和區"
"226004","205-ST","2018/08/03 18:09:42","新北市平溪區薯榔里薯榔寮28號","121.713645","25.01956","6502400","平溪區"
"228001","212-TW","2018/08/03 18:09:38","新北市貢寮區真理里新港街26巷55弄2-1號","121.927365","25.052885","6502600","貢寮區"
"228002","663-BX","2018/08/03 18:09:42","新北市貢寮區福連里馬崗街13-3號","122.001418333333","25.0131383333333","6502600","貢寮區"
"228003","828-UM","2018/08/03 18:09:40","新北市貢寮區真理里美艷山街6-2號","121.92879","25.060745","6502600","貢寮區"
"224006","676-BX","2018/08/03 18:09:41","新北市瑞芳區中山路149號","121.80253","25.106365","6501200","瑞芳區"
"224002","639-TC","2018/08/03 18:09:31","新北市瑞芳區三爪子坑路111巷30號","121.810991666667","25.10586","6501200","瑞芳區"
"224008","285-BY","2018/08/03 18:09:29","新北市瑞芳區員山子路23號","121.821356666667","25.103025","6501200","瑞芳區"
"224009","273-VK","2018/08/03 18:09:37","新北市瑞芳區金光路115號","121.853571666667","25.10626","6501200","瑞芳區"
"224005","271-BY","2018/08/03 18:09:43","新北市瑞芳區建基路二段12-1號","121.815275","25.1285966666667","6501200","瑞芳區"
"227003","642-TC","2018/08/03 18:09:33","新北市雙溪區共和里東榮街52號","121.866311666667","25.03369","6502500","雙溪區"
"253005","032-BX","2018/08/03 18:09:36","新北市石門區福安街11號","121.568556666667","25.292755","6502200","石門區"
"253006","295-VK","2018/08/03 18:09:47","新北市石門區老梅路52巷21號","121.546388333333","25.28859","6502200","石門區"
"222001","KEA-2212","2018/08/03 18:09:31","新北市深坑區北深路二段190號","121.61378","25.002275","6501800","深坑區"
"208002","KEA-2872","2018/08/03 18:09:45","新北市金山區三界壇路56號","121.622566666667","25.2292633333333","6502700","金山區"
"208003","665-BX","2018/08/03 18:09:47","新北市金山區民生路142號","121.647426666667","25.2236166666667","6502700","金山區"
"208001","761-BX","2018/08/03 18:09:42","新北市金山區磺港里磺港路73-1號","121.64759","25.2269416666667","6502700","金山區"
"251004","009-UM","2018/08/03 18:09:40","新北市淡水區民權路187巷43號","121.461166666667","25.1340933333333","6501000","淡水區"
"251006","010-UM","2018/08/03 18:09:39","新北市淡水區新民街94號","121.438306666667","25.1768433333333","6501000","淡水區"
"251001","011-UM","2018/08/03 18:09:42","新北市淡水區自立路8號","121.462775","25.12956","6501000","淡水區"
"251002","012-UM","2018/08/03 18:09:30","新北市淡水區中正東路一段135號","121.455673333333","25.1591166666667","6501000","淡水區"
"251008","181-VK","2018/08/03 18:09:34","新北市淡水區坪頂路70巷41號","121.460711666667","25.16042","6501000","淡水區"
"251010","413-VK","2018/08/03 18:09:48","新北市淡水區中正路二段52號","121.419828333333","25.1833466666667","6501000","淡水區"
"251012","441-VK","2018/08/03 18:09:34","新北市淡水區北新路三段171-1號","121.492215","25.1917133333333","6501000","淡水區"
"251007","442-VK","2018/08/03 18:09:45","新北市淡水區中正東路二段143巷2弄1號","121.460735","25.1474066666667","6501000","淡水區"
"251005","443-VK","2018/08/03 18:09:30","新北市淡水區水源街一段141號","121.447223333333","25.1719166666667","6501000","淡水區"
"251011","650-BX","2018/08/03 18:09:38","新北市淡水區三空泉9-2號","121.47411","25.163525","6501000","淡水區"
"251003","673-BX","2018/08/03 18:09:39","新北市淡水區大忠街113巷24號","121.447438333333","25.17743","6501000","淡水區"
"207003","550-UM","2018/08/03 18:09:42","新北市萬里區野柳里港西路74號","121.685653333333","25.205035","6502800","萬里區"
"207004","225-TW","2018/08/03 18:09:28","新北市萬里區中幅里中福路112-1號","121.675905","25.1674216666667","6502800","萬里區"
"252002","178-VK","2018/08/03 18:09:41","新北市三芝區中山路二段39號","121.502886666667","25.2551483333333","6502100","三芝區"
"252003","249-BX","2018/08/03 18:09:37","新北市三芝區埔頭里埔頭37號","121.498448333333","25.26034","6502100","三芝區"
"252001","292-VK","2018/08/03 18:09:29","新北市三芝區中興街二段2號","121.49836","25.2566933333333","6502100","三芝區"
"237004","KEA-2597","2018/08/03 18:09:43","新北市三峽區圳頭96號","121.380268333333","24.8755516666667","6500900","三峽區"
"237007","153-BY","2018/08/03 18:09:34","新北市三峽區中正路二段472號","121.363561666667","24.907135","6500900","三峽區"
"237011","572-TV","2018/08/03 18:09:43","新北市三峽區大同路14號","121.377998333333","24.9296633333333","6500900","三峽區"
"237009","210-TH","2018/08/03 18:09:19","新北市三峽區大仁路54號","121.365283333333","24.9374666666667","6500900","三峽區"
"237013","252-BX","2018/08/03 18:09:39","新北市三峽區長泰街33巷14弄9號","121.377138333333","24.9318","6500900","三峽區"
"237012","275-BY","2018/08/03 18:09:41","新北市三峽區民生街1巷6-7號","121.377286666667","24.9360683333333","6500900","三峽區"
"237008","302-VK","2018/08/03 18:09:39","新北市三峽區白雞44-36號","121.377431666667","24.9099316666667","6500900","三峽區"
"237014","433-BY","2018/08/03 18:09:40","新北市三峽區國光街63巷8號","121.373851666667","24.9380083333333","6500900","三峽區"
"237006","5529-G3","2018/08/03 18:09:44","新北市三峽區溪東路231號","121.406355","24.9327433333333","6500900","三峽區"
"237015","649-BX","2018/08/03 18:09:41","新北市三峽區紫新路32巷1號","121.422273333333","24.9220366666667","6500900","三峽區"
"237010","706-TV","2018/08/03 18:09:42","新北市三峽區民族街17號","121.369373333333","24.9308866666667","6500900","三峽區"
"237005","AKY-6261","2018/08/03 18:09:42","新北市三峽區文化路115號","121.370296666667","24.9361216666667","6500900","三峽區"
"236069","105-UM","2018/08/03 18:09:37","新北市土城區明德路一段243號","121.462666666667","24.9782216666667","6501300","土城區"
"236042","107-UM","2018/08/03 18:09:37","新北市土城區中華路二段2號","121.43949","24.979585","6501300","土城區"
"236079","166-UM","2018/08/03 18:09:46","新北市土城區永安街53號","121.432861666667","24.964025","6501300","土城區"
"236030","253-BX","2018/08/03 18:09:38","新北市土城區城林路6巷80號","121.438591666667","24.9797083333333","6501300","土城區"
"236026","269-VK","2018/08/03 18:09:33","新北市土城區承天路67號","121.439485","24.963615","6501300","土城區"
"236014","270-VK","2018/08/03 18:09:28","新北市土城區學府路一段290號","121.449665","24.9825933333333","6501300","土城區"
"236039","271-VK","2018/08/03 18:09:47","新北市土城區青雲路457號","121.458833333333","24.9744716666667","6501300","土城區"
"236020","401-BY","2018/08/03 18:09:44","新北市土城區城林路6巷80號","121.438696666667","24.9796933333333","6501300","土城區"
"236059","912-UM","2018/08/03 18:09:36","新北市土城區中央路四段176號","121.416621666667","24.957955","6501300","土城區"
"236048","913-UM","2018/08/03 18:09:45","新北市土城區明德路一段369-6號","121.453298333333","24.9792816666667","6501300","土城區"
"236063","915-UM","2018/08/03 18:09:42","新北市土城區中正路82號","121.445196666667","24.9756816666667","6501300","土城區"
"236055","AAC-216","2018/08/03 18:09:29","新北市土城區城林路6巷80號","121.438441666667","24.9796566666667","6501300","土城區"
"242034","AAC-296","2018/08/03 18:09:36","新北市新莊區新豐街65號","121.446348333333","25.0336116666667","6500500","新莊區"
"242058","986-R7","2018/08/03 18:09:33","新北市新莊區壽山路49-2號","121.41439","25.0309066666667","6500500","新莊區"
"242027","615-BX","2018/08/03 18:09:34","新北市新莊區幸福路565號","121.45422","25.0492683333333","6500500","新莊區"
"242025","613-BX","2018/08/03 18:09:30","新北市新莊區五權一路96號","121.459506666667","25.0674733333333","6500500","新莊區"
"242041","566-BX","2018/08/03 18:09:26","新北市新莊區中正路694巷41號","121.41805","25.0287866666667","6500500","新莊區"
"242046","497-BY","2018/08/03 18:09:42","新北市新莊區福營路343號","121.424928333333","25.02837","6500500","新莊區"
"242050","441-UM","2018/08/03 18:09:48","新北市新莊區民本街11巷13號","121.428385","25.0203933333333","6500500","新莊區"
"242056","440-UM","2018/08/03 18:09:38","新北市新莊區豐年街豐1巷39號","121.447858333333","25.031295","6500500","新莊區"
"242037","415-TV","2018/08/03 18:09:42","新北市新莊區建福路48巷13號","121.425688333333","25.0273866666667","6500500","新莊區"
"242007","413-TV","2018/08/03 18:09:45","新北市新莊區自強街37巷8號","121.45431","25.046605","6500500","新莊區"
"242044","400-BY","2018/08/03 18:09:42","新北市新莊區天泉二街11號","121.414988333333","25.02494","6500500","新莊區"
"242023","362-BY","2018/08/03 18:09:41","新北市泰山區泰林路一段2號","121.442068333333","25.0477533333333","6500500","新莊區"
"242060","353-BY","2018/08/03 18:09:31","新北市新莊區新樹路215號","121.435556666667","25.02333","6500500","新莊區"
"242009","132-UY","2018/08/03 18:09:41","新北市新莊區昌平街71巷15號","121.453766666667","25.0535683333333","6500500","新莊區"
"242039","133-UY","2018/08/03 18:09:39","新北市新莊區民安西路88巷12弄2號","121.425931666667","25.02007","6500500","新莊區"
"242032","135-UY","2018/08/03 18:09:27","新北市新莊區新泰路255巷2號","121.445841666667","25.0398683333333","6500500","新莊區"
"242048","172-VK","2018/08/03 18:09:30","新北市新莊區民安路49號","121.42389","25.0262216666667","6500500","新莊區"
"242011","173-VK","2018/08/03 18:09:29","新北市新莊區中榮街49巷1號","121.449418333333","25.0525283333333","6500500","新莊區"
"242017","175-VK","2018/08/03 18:09:31","新北市新莊區中港路287號","121.452808333333","25.044055","6500500","新莊區"
"242013","347-TH","2018/08/03 18:09:43","新北市新莊區三和路12-19號","121.441951666667","25.03774","6500500","新莊區"
"242021","348-TH","2018/08/03 18:09:30","新北市新莊區建興街66號","121.449963333333","25.0391833333333","6500500","新莊區"
"242002","349-TH","2018/08/03 18:09:38","新北市新莊區新莊路58號","121.4578","25.036755","6500500","新莊區"
"242019","350-TH","2018/08/03 18:09:41","新北市新莊區中港路132巷12號","121.455855","25.040695","6500500","新莊區"
"238015","755-BX","2018/08/03 18:09:31","新北市樹林區文德街4巷1號","121.419111666667","24.9915433333333","6500700","樹林區"
"238023","601-UM","2018/08/03 18:09:27","新北市樹林區三福街72號","121.404691666667","25.0162533333333","6500700","樹林區"
"238019","599-UM","2018/08/03 18:09:33","新北市樹林區國凱街160號","121.424416666667","24.9808633333333","6500700","樹林區"
"238018","571-TV","2018/08/03 18:09:40","新北市樹林區博愛一街28號","121.425598333333","24.99095","6500700","樹林區"
"238024","5061-A6","2018/08/03 18:09:45","新北市樹林區豐林街60號","121.42189","24.9982366666667","6500700","樹林區"
"238022","KEA-2213","2018/08/03 18:09:39","新北市樹林區太平路150巷1號","121.4186","24.9779383333333","6500700","樹林區"
"238021","KEA-2539","2018/08/03 18:09:29","新北市樹林區柑園街二段149巷2號","121.382238333333","24.9538183333333","6500700","樹林區"
"238025","303-VK","2018/08/03 18:09:39","新北市樹林區保安街二段191號","121.414423333333","25.0035733333333","6500700","樹林區"
"238017","283-BY","2018/08/03 18:09:37","新北市樹林區中正路811號","121.409565","25.0166966666667","6500700","樹林區"
"238014","282-BY","2018/08/03 18:09:32","新北市樹林區千歲街61巷40弄9號","121.425955","24.9989733333333","6500700","樹林區"
"238020","268-VK","2018/08/03 18:09:40","新北市樹林區三龍街120號","121.415445","25.0184133333333","6500700","樹林區"
"238026","172-UY","2018/08/03 18:09:40","新北市樹林區佳園路一段75巷5-1號","121.393793333333","24.97014","6500700","樹林區"
"238016","169-UY","2018/08/03 18:09:42","新北市樹林區日新街148巷35號","121.419503333333","24.98783","6500700","樹林區"
"239007","AAC-297","2018/08/03 18:09:36","新北市鶯歌區育英街59號","121.347181666667","24.9525683333333","6500800","鶯歌區"
"239006","891-R6","2018/08/03 18:09:36","新北市鶯歌區鶯桃路381巷2弄9號","121.333023333333","24.9636233333333","6500800","鶯歌區"
"239008","527-UM","2018/08/03 18:09:28","新北市鶯歌區欣欣街4號","121.335811666667","24.977545","6500800","鶯歌區"
"239001","417-VK","2018/08/03 18:09:30","新北市鶯歌區高職東街29號","121.340563333333","24.9411816666667","6500800","鶯歌區"
"239003","360-BY","2018/08/03 18:09:40","新北市鶯歌區福安街30號","121.334658333333","24.9639566666667","6500800","鶯歌區"
"239002","359-BY","2018/08/03 18:09:46","新北市鶯歌區中山路129號","121.349491666667","24.956995","6500800","鶯歌區"
"239004","193-VK","2018/08/03 18:09:48","新北市鶯歌區尖山路168巷9號","121.344935","24.9483783333333","6500800","鶯歌區"
"221008","489-VK","2018/08/03 18:09:33","新北市汐止區康寧街397號","121.629425","25.0679066666667","6501100","汐止區"
"221036","130-UY","2018/08/03 18:09:28","新北市汐止區大同路三段95號","121.668071666667","25.07742","6501100","汐止區"
"221015","131-UY","2018/08/03 18:08:59","新北市汐止區鄉長路二段116號","121.664601666667","25.0860283333333","6501100","汐止區"
"221010","269-BY","2018/08/03 18:09:43","新北市汐止區祥雲街18巷23號","121.64722","25.08939","6501100","汐止區"
"221012","278-VK","2018/08/03 18:09:31","新北市汐止區保一街81-1號","121.674593333333","25.08021","6501100","汐止區"
"221023","279-VK","2018/08/03 18:09:43","新北市汐止區民族五街79號","121.627501666667","25.0699633333333","6501100","汐止區"
"221032","280-BY","2018/08/03 18:09:29","新北市汐止區橫科路25號","121.617965","25.0512","6501100","汐止區"
"221027","281-BY","2018/08/03 18:09:34","新北市汐止區大同路二段595號","121.663646666667","25.0705083333333","6501100","汐止區"
"221029","298-VK","2018/08/03 18:09:30","新北市汐止區樟樹二路134號","121.63995","25.0656283333333","6501100","汐止區"
"221021","299-VK","2018/08/03 18:09:27","新北市汐止區龍安路19號","121.655611666667","25.0638483333333","6501100","汐止區"
"221031","353-TW","2018/08/03 18:09:32","新北市汐止區中興路222號","121.630873333333","25.0664866666667","6501100","汐止區"
"221002","129-UY","2018/08/03 18:09:41","新北市汐止區福德一路201巷32號","121.635863333333","25.06487","6501100","汐止區"
"221035","622-UM","2018/08/03 18:09:30","新北市汐止區大同路二段196號","121.652835","25.0643883333333","6501100","汐止區"
"221025","623-UM","2018/08/03 18:09:32","新北市汐止區勤進路16號","121.659528333333","25.06137","6501100","汐止區"
"221038","646-BX","2018/08/03 18:09:35","新北市汐止區仁愛路202號","121.66481","25.0658916666667","6501100","汐止區"
"221033","647-BX","2018/08/03 18:09:41","新北市汐止區宜興街40巷22弄2號","121.622536666667","25.0410883333333","6501100","汐止區"
"221018","753-BX","2018/08/03 18:09:36","新北市汐止區忠孝東路351號","121.665576666667","25.0705116666667","6501100","汐止區"
"242015","281-VK","2018/08/03 18:09:45","新北市新莊區中平路152巷45號","121.446685","25.0474383333333","6500500","新莊區"
"242054","280-VK","2018/08/03 18:09:46","新北市新莊區民安西路346號","121.427098333333","25.01135","6500500","新莊區"
"220035","560-BX","2018/08/03 18:09:31","新北市板橋區華東街1-10號","121.448686666667","24.9950516666667","6500100","板橋區"
"235068","KEA-2873","2018/08/03 18:09:48","新北市中和區員山路36巷16-3號","121.485138333333","24.9912133333333","6500300","中和區"
"235061","KEA-2875","2018/08/03 18:09:41","新北市中和區連城路506號","121.477703333333","24.99283","6500300","中和區"
