"lineid","car","time","location","longitude","latitude","cityid","cityname"
"234046","148-BY","2018/08/03 19:09:36","新北市永和區得和路373巷31弄12號","121.524253333333","25.0004266666667","6500400","永和區"
"234007","207-UY","2018/08/03 19:09:35","新北市永和區中山路一段207號","121.508733333333","25.00855","6500400","永和區"
"234081","298-R6","2018/08/03 19:09:47","新北市永和區福和路57巷14弄1號","121.522781666667","25.0068833333333","6500400","永和區"
"234064","337-UY","2018/08/03 19:09:46","新北市永和區秀朗路二段33號","121.521225","25.00242","6500400","永和區"
"234086","338-UY","2018/08/03 19:09:31","新北市永和區中正路399號","121.517255","25.0042583333333","6500400","永和區"
"234070","552-UM","2018/08/03 19:09:32","新北市永和區豫溪街95巷9號","121.518125","25.0107083333333","6500400","永和區"
"234017","745-BX","2018/08/03 19:09:39","新北市永和區文化路90巷17號","121.513753333333","25.01621","6500400","永和區"
"234030","746-BX","2018/08/03 19:09:44","新北市永和區民生路23號","121.522886666667","24.9987883333333","6500400","永和區"
"234054","KEA-2590","2018/08/03 19:09:41","新北市永和區竹林路72巷2號","121.519126666667","25.0130033333333","6500400","永和區"
"234013","KEA-2591","2018/08/03 19:09:43","新北市永和區永和路二段84號","121.514926666667","25.0114983333333","6500400","永和區"
"234061","AAD-866","2018/08/03 19:09:40","新北市永和區安樂路324號","121.514405","25.005725","6500400","永和區"
"234038","847-RS","2018/08/03 19:09:41","新北市永和區民樂街71巷1號","121.527398333333","24.9975216666667","6500400","永和區"
"234042","862-TW","2018/08/03 19:09:30","新北市永和區保平路111巷2弄12號","121.510581666667","25.006145","6500400","永和區"
"234050","863-TW","2018/08/03 19:09:21","新北市永和區仁愛路104巷7弄62號","121.510823333333","25.0142416666667","6500400","永和區"
"234026","9371-KE","2018/08/03 19:09:36","新北市永和區安樂路272巷6號","121.514943333333","25.00424","6500400","永和區"
"234011","9373-KE","2018/08/03 19:09:43","新北市永和區中山路一段60巷9弄4號","121.512993333333","25.0112433333333","6500400","永和區"
"249005","172-UM","2018/08/03 19:09:39","新北市八里區中華路三段89-3號","121.393541666667","25.1394216666667","6502300","八里區"
"249001","173-UM","2018/08/03 19:09:32","新北市八里區龍米路二段209-27號","121.431251666667","25.1585533333333","6502300","八里區"
"248016","026-BX","2018/08/03 19:09:45","新北市五股區成泰路三段543巷41-1號","121.449571666667","25.1030266666667","6501500","五股區"
"248006","077-UY","2018/08/03 19:09:32","新北市五股區四維路183號","121.468005","25.0754683333333","6501500","五股區"
"248008","095-VK","2018/08/03 19:09:36","新北市五股區中興路一段118巷18號","121.466083333333","25.0743166666667","6501500","五股區"
"248018","225-UY","2018/08/03 19:09:45","新北市五股區民義路一段238-5號","121.428866666667","25.0911666666667","6501500","五股區"
"248012","247-BX","2018/08/03 19:09:34","新北市五股區中興路四段48巷16號","121.438588333333","25.0834516666667","6501500","五股區"
"248010","272-BY","2018/08/03 19:09:30","新北市五股區自強路90巷72號","121.430771666667","25.0711783333333","6501500","五股區"
"248004","677-BX","2018/08/03 19:09:31","新北市五股區五福路2號","121.434045","25.087285","6501500","五股區"
"248002","678-BX","2018/08/03 19:09:41","新北市五股區凌雲路一段158巷13號","121.447783333333","25.1035","6501500","五股區"
"234023","9380-KE","2018/08/03 19:09:45","新北市永和區中興街10巷29號","121.516393333333","25.0109816666667","6500400","永和區"
"234077","969-R7","2018/08/03 19:09:37","新北市永和區民權路34號","121.520231666667","24.9988983333333","6500400","永和區"
"234074","AAC-211","2018/08/03 19:09:38","新北市永和區竹林路229號","121.520798333333","25.0083533333333","6500400","永和區"
"234067","AAC-212","2018/08/03 19:09:41","新北市永和區保平路22號","121.512306666667","25.007415","6500400","永和區"
"234003","AAC-295","2018/08/03 19:09:33","新北市永和區保福路一段43號","121.512635","25.009275","6500400","永和區"
"244019","403-UM","2018/08/03 19:09:34","新北市林口區文化二路一段565號","121.375053333333","25.0772266666667","6501700","林口區"
"244013","KEA-2802","2018/08/03 19:09:30","新北市林口區麗園一街1號","121.376011666667","25.07255","6501700","林口區"
"244023","483-VK","2018/08/03 19:09:38","新北市林口區仁愛路二段688號","121.369698333333","25.0804533333333","6501700","林口區"
"244017","485-VK","2018/08/03 19:09:31","新北市林口區文化二路一段68巷29號","121.366811666667","25.0689766666667","6501700","林口區"
"244011","657-BX","2018/08/03 19:09:50","新北市林口區中正路296巷11弄2號","121.388038333333","25.07823","6501700","林口區"
"244025","837-TS","2018/08/03 19:09:36","新北市林口區文化三路一段555巷96-2號","121.369466666667","25.07723","6501700","林口區"
"243013","AAD-798","2018/08/03 19:09:32","新北市泰山區漢口街1號","121.423188333333","25.0367","6501600","泰山區"
"243009","297-R6","2018/08/03 19:09:28","新北市泰山區明志路一段121號","121.433561666667","25.0633666666667","6501600","泰山區"
"243016","KEA-2801","2018/08/03 19:09:44","新北市泰山區明志路二段325號","121.425855","25.04506","6501600","泰山區"
"243015","421-VK","2018/08/03 19:09:34","新北市泰山區明志路一段440號","121.430735","25.0561216666667","6501600","泰山區"
"243011","KEA-2215","2018/08/03 19:09:44","新北市泰山區明志路二段336號","121.426116666667","25.0455833333333","6501600","泰山區"
"243010","KEA-2216","2018/08/03 19:09:45","新北市泰山區明志路一段481號","121.431041666667","25.0554183333333","6501600","泰山區"
"243012","646-TV","2018/08/03 19:09:38","新北市泰山區辭修路36巷8弄5號","121.42782","25.0586566666667","6501600","泰山區"
"243014","680-BX","2018/08/03 19:09:33","新北市泰山區泰林路二段480-1號","121.424943333333","25.0641616666667","6501600","泰山區"
"222003","436-BY","2018/08/03 19:09:44","新北市深坑區深南路162號","121.626088333333","25.01497","6501800","深坑區"
"222002","659-BX","2018/08/03 19:09:40","新北市深坑區北深路一段185號","121.63178","25.0104466666667","6501800","深坑區"
"231041","002-UM","2018/08/03 19:09:41","新北市新店區溪園路411號","121.524258333333","24.978505","6500600","新店區"
"231059","046-UY","2018/08/03 19:09:34","新北市新店區安和路二段138-3號","121.519418333333","24.971785","6500600","新店區"
"231040","047-UY","2018/08/03 19:09:40","新北市新店區三民路98-4號","121.533908333333","24.9733733333333","6500600","新店區"
"231044","106-UY","2018/08/03 19:09:39","新北市新店區中興路三段188號","121.543983333333","24.9815883333333","6500600","新店區"
"231046","107-UY","2018/08/03 19:09:30","新北市新店區華城路77巷6號","121.525308333333","24.946365","6500600","新店區"
"231053","108-UY","2018/08/03 19:09:35","新北市新店區屈尺路168號","121.545125","24.9236166666667","6500600","新店區"
"231048","187-VK","2018/08/03 19:09:46","新北市新店區德正街27巷29弄29號","121.545373333333","24.9718933333333","6500600","新店區"
"231054","KEA-2219","2018/08/03 19:09:41","新北市新店區新店路148號","121.537198333333","24.9554716666667","6500600","新店區"
"231042","268-BY","2018/08/03 19:09:47","新北市新店區中興路一段171號","121.542841666667","24.9644733333333","6500600","新店區"
"231051","278-BY","2018/08/03 19:09:33","新北市新店區中正路400巷14號","121.53505","24.9780266666667","6500600","新店區"
"231050","AAD-862","2018/08/03 19:09:30","新北市新店區竹林路26巷50號","121.551668333333","24.95047","6500600","新店區"
"231058","3713-VJ","2018/08/03 19:09:48","新北市新店區光明街168巷5弄2-2號","121.540468333333","24.9618616666667","6500600","新店區"
"231066","4716-K9","2018/08/03 19:09:43","新北市新店區安康路二段418號","121.49626","24.9551116666667","6500600","新店區"
"231056","4715-K9","2018/08/03 19:09:32","新北市新店區中央路47號","121.532701666667","24.97754","6500600","新店區"
"231067","4772-VM","2018/08/03 19:09:38","新北市新店區安康路一段108號","121.527488333333","24.9626983333333","6500600","新店區"
"231065","512-UM","2018/08/03 19:09:35","新北市新店區安祥路145巷29號","121.47542","24.9566216666667","6500600","新店區"
"231049","513-UM","2018/08/03 19:09:42","新北市新店區二十張路25巷18弄9號","121.5393","24.981595","6500600","新店區"
"231063","616-UM","2018/08/03 19:09:27","新北市新店區車子路134號","121.505233333333","24.94999","6500600","新店區"
"231045","617-UM","2018/08/03 19:09:35","新北市新店區北宜路一段164號","121.54048","24.9533533333333","6500600","新店區"
"231061","619-UM","2018/08/03 19:09:39","新北市新店區安康路一段355-10號","121.520831666667","24.9638183333333","6500600","新店區"
"231064","719-UM","2018/08/03 19:09:38","新北市新店區安忠路56巷6號","121.51301","24.959455","6500600","新店區"
"231062","720-UM","2018/08/03 19:09:25","新北市新店區安平路53號","121.519845","24.96837","6500600","新店區"
"231060","897-TW","2018/08/03 19:09:42","新北市新店區安康路二段296-2號","121.506651666667","24.9581633333333","6500600","新店區"
"231043","899-TW","2018/08/03 19:09:45","新北市新店區中興路三段1-17號","121.546578333333","24.9762616666667","6500600","新店區"
"231055","AKT-0513","2018/08/03 19:09:44","新北市新店區安德街148巷37號","121.507343333333","24.9613866666667","6500600","新店區"
"241026","066-VK","2018/08/03 19:09:41","新北市三重區重安街137號","121.495306666667","25.0546766666667","6500200","三重區"
"241035","KEA-2210","2018/08/03 19:09:27","新北市三重區市前街2號","121.488978333333","25.0619466666667","6500200","三重區"
"241020","478-VK","2018/08/03 19:09:27","新北市三重區後竹圍街236號","121.484926666667","25.0714616666667","6500200","三重區"
"241029","942-UM","2018/08/03 19:09:44","新北市三重區重安街87巷14號","121.493145","25.055065","6500200","三重區"
"235066","003-UY","2018/08/03 19:09:29","新北市中和區廣福路6號","121.505955","25.00309","6500300","中和區"
"235064","005-UY","2018/08/03 19:09:38","新北市中和區連城路47巷1號","121.498256666667","25.001625","6500300","中和區"
"235063","006-UY","2018/08/03 19:09:40","新北市中和區連城路249巷5號","121.49374","24.9967783333333","6500300","中和區"
"235056","096-UM","2018/08/03 19:09:37","新北市中和區員山路520號","121.478921666667","25.0096616666667","6500300","中和區"
"235065","098-UM","2018/08/03 19:09:48","新北市中和區中山路二段116巷5弄7號","121.502215","25.0040966666667","6500300","中和區"
"235040","150-BY","2018/08/03 19:09:39","新北市中和區保健路48巷3號","121.510006666667","24.9969","6500300","中和區"
"235058","151-BY","2018/08/03 19:09:50","新北市中和區連城路523巷13弄11號","121.48197","24.9938833333333","6500300","中和區"
"235055","183-VK","2018/08/03 19:09:43","新北市中和區德光路43號","121.47036","25.004195","6500300","中和區"
"235038","185-VK","2018/08/03 19:09:44","新北市中和區大仁街10巷27弄4號","121.519245","24.9926883333333","6500300","中和區"
"235049","186-VK","2018/08/03 19:09:41","新北市中和區景新街132巷13號","121.504901666667","24.9975183333333","6500300","中和區"
"235067","255-BX","2018/08/03 19:09:35","新北市中和區新生街148巷19弄10號","121.482446666667","25.0002483333333","6500300","中和區"
"235044","293-VK","2018/08/03 19:09:36","新北市中和區中興街235巷1號","121.500713333333","24.9895833333333","6500300","中和區"
"235072","301-VK","2018/08/03 19:09:44","新北市中和區永和路39巷2號","121.498043333333","25.004995","6500300","中和區"
"235043","352-BY","2018/08/03 19:09:40","新北市中和區景平路81號","121.517906666667","24.9919566666667","6500300","中和區"
"235050","4979-A6","2018/08/03 19:09:34","新北市中和區南山路234號","121.506713333333","24.9900366666667","6500300","中和區"
"235069","4980-A6","2018/08/03 19:09:31","新北市中和區中和路217巷1弄3號","121.503995","25.0003516666667","6500300","中和區"
"235042","551-UM","2018/08/03 19:09:47","新北市中和區自強路13巷1號","121.520591666667","24.9936416666667","6500300","中和區"
"235070","558-UM","2018/08/03 19:09:44","新北市中和區中和路12號","121.499595","25.0021016666667","6500300","中和區"
"235045","565-BX","2018/08/03 19:09:33","新北市中和區景新街428號","121.513035","24.988725","6500300","中和區"
"235054","640-BX","2018/08/03 19:09:45","新北市中和區國光街105號","121.469978333333","25.0004366666667","6500300","中和區"
"235060","647-TV","2018/08/03 19:09:39","新北市中和區民有街11號","121.475645","25.005545","6500300","中和區"
"235047","732-UM","2018/08/03 19:09:42","新北市中和區興南路一段113號","121.50913","24.9879966666667","6500300","中和區"
"235046","733-UM","2018/08/03 19:09:35","新北市中和區忠孝街1巷45號","121.508521666667","24.9840133333333","6500300","中和區"
"235071","783-BX","2018/08/03 19:09:39","新北市中和區連城路322號","121.483373333333","24.9960066666667","6500300","中和區"
"235062","800-TS","2018/08/03 19:09:37","新北市中和區中山路二段359巷2號","121.488343333333","25.0043083333333","6500300","中和區"
"235057","801-TS","2018/08/03 19:09:32","新北市中和區民利街80號","121.478193333333","24.9981633333333","6500300","中和區"
"235041","802-TS","2018/08/03 19:09:31","新北市永和區中和路331號","121.507398333333","24.9997683333333","6500300","中和區"
"235052","805-TS","2018/08/03 19:09:31","新北市中和區興南路二段142巷17弄47號","121.502941666667","24.982685","6500300","中和區"
"235048","896-TW","2018/08/03 19:09:48","新北市中和區忠孝街29號","121.510541666667","24.98303","6500300","中和區"
"235053","900-TW","2018/08/03 19:09:31","新北市中和區華福街86號","121.467493333333","24.9964566666667","6500300","中和區"
"235051","157-BY","2018/08/03 19:09:50","新北市中和區興南路一段57-1號","121.510593333333","24.98987","6500300","中和區"
"235037","AAC-213","2018/08/03 19:09:43","新北市中和區秀朗路三段93號","121.526526666667","24.9952683333333","6500300","中和區"
"235059","AAC-215","2018/08/03 19:09:31","新北市中和區圓通路296巷31弄1號","121.488583333333","24.99049","6500300","中和區"
"220106","013-TV","2018/08/03 19:09:31","新北市板橋區文化路二段319號","121.47223","25.0299616666667","6500100","板橋區"
"220065","072-UY","2018/08/03 19:09:38","新北市板橋區民族路223號","121.469573333333","25.0072366666667","6500100","板橋區"
"220086","073-UY","2018/08/03 19:09:32","新北市板橋區國光路189-3號","121.461225","25.01859","6500100","板橋區"
"220069","AAD-861","2018/08/03 19:09:40","新北市板橋區縣民大道一段114號","121.457268333333","25.0059583333333","6500100","板橋區"
"226004","205-ST","2018/08/03 19:09:42","新北市平溪區靜安路三段392巷3號","121.784298333333","25.0495266666667","6502400","平溪區"
"228001","212-TW","2018/08/03 19:09:38","新北市貢寮區真理里新港街10號","121.925515","25.054375","6502600","貢寮區"
"228002","663-BX","2018/08/03 19:09:42","新北市貢寮區福隆里福隆街32-1號","121.945151666667","25.0174216666667","6502600","貢寮區"
"228003","828-UM","2018/08/03 19:09:40","新北市貢寮區和美里和美街36-1號","121.9122","25.0856483333333","6502600","貢寮區"
"224010","AGQ-8101","2018/08/03 19:07:36","新北市瑞芳區輕便路107號","121.84477","25.10865","6501200","瑞芳區"
"224002","639-TC","2018/08/03 19:09:11","新北市瑞芳區靜安路四段10號","121.796065","25.0858566666667","6501200","瑞芳區"
"224008","285-BY","2018/08/03 19:09:29","新北市瑞芳區瑞芳街112巷9號","121.801525","25.1109733333333","6501200","瑞芳區"
"224009","273-VK","2018/08/03 19:09:37","新北市瑞芳區洞頂路101巷56號","121.860456666667","25.121895","6501200","瑞芳區"
"227003","642-TC","2018/08/03 19:09:33","新北市雙溪區平林里外平林8-4號","121.85926","25.03807","6502500","雙溪區"
"227011","400-TW","2018/08/03 19:09:30","新北市雙溪區牡丹里自強路20號","121.86505","25.0392833333333","6502500","雙溪區"
"253005","032-BX","2018/08/03 19:09:36","新北市石門區阿里荖35-2號","121.606481666667","25.2807116666667","6502200","石門區"
"253006","295-VK","2018/08/03 19:09:47","新北市石門區崁子腳58-19號","121.531371666667","25.287445","6502200","石門區"
"222001","KEA-2212","2018/08/03 19:09:31","新北市深坑區北深路一段300號","121.62423","25.0057666666667","6501800","深坑區"
"208002","KEA-2872","2018/08/03 19:09:45","新北市金山區仁愛路67巷28號","121.63399","25.2208533333333","6502700","金山區"
"208003","665-BX","2018/08/03 19:09:46","新北市金山區中正路6號","121.636328333333","25.2223866666667","6502700","金山區"
"208001","761-BX","2018/08/03 19:09:42","新北市金山區福德街16巷4號","121.639181666667","25.2216616666667","6502700","金山區"
"251006","010-UM","2018/08/03 19:09:39","新北市淡水區中山北路三段16巷20號","121.443903333333","25.1901516666667","6501000","淡水區"
"251001","011-UM","2018/08/03 19:09:41","新北市淡水區自強路201巷39號","121.462206666667","25.1267866666667","6501000","淡水區"
"251002","012-UM","2018/08/03 19:09:30","新北市淡水區中山路95巷2號","121.442151666667","25.17054","6501000","淡水區"
"251010","413-VK","2018/08/03 19:09:48","新北市淡水區中正路一段156巷8號","121.421318333333","25.180315","6501000","淡水區"
"251007","442-VK","2018/08/03 19:09:45","新北市淡水區民生路145巷58號","121.468081666667","25.1388666666667","6501000","淡水區"
"251005","443-VK","2018/08/03 19:09:49","新北市淡水區原德路13號","121.44217","25.1713916666667","6501000","淡水區"
"251003","673-BX","2018/08/03 19:09:39","新北市淡水區中山北路一段84號","121.44234","25.17618","6501000","淡水區"
"207003","550-UM","2018/08/03 19:09:32","新北市萬里區大鵬里萬里加投14號","121.65047","25.20931","6502800","萬里區"
"207004","225-TW","2018/08/03 19:09:28","新北市萬里區萬里里瑪鋉下街46號","121.691443333333","25.179175","6502800","萬里區"
"252002","178-VK","2018/08/03 19:09:41","新北市三芝區埔坪里埔頭坑77號","121.509435","25.2544133333333","6502100","三芝區"
"252003","249-BX","2018/08/03 19:09:37","新北市三芝區錫板里南勢崗6號","121.479603333333","25.2619616666667","6502100","三芝區"
"252001","292-VK","2018/08/03 19:09:29","新北市三芝區長勤街80號","121.500265","25.2551133333333","6502100","三芝區"
"237004","KEA-2597","2018/08/03 19:09:43","新北市三峽區有木206號","121.439175","24.8515","6500900","三峽區"
"237007","153-BY","2018/08/03 19:09:34","新北市三峽區麻園36-10號","121.363745","24.9198916666667","6500900","三峽區"
"237011","572-TV","2018/08/03 19:09:42","新北市三峽區介壽路二段165號","121.394093333333","24.935985","6500900","三峽區"
"237009","210-TH","2018/08/03 19:09:39","新北市三峽區文化路29號","121.37307","24.9360683333333","6500900","三峽區"
"237013","252-BX","2018/08/03 19:09:39","新北市三峽區大同路48巷17弄8-1號","121.37676","24.9291066666667","6500900","三峽區"
"237012","275-BY","2018/08/03 19:09:41","新北市三峽區三樹路222巷236弄23號","121.391401666667","24.9430483333333","6500900","三峽區"
"237008","302-VK","2018/08/03 19:09:39","新北市三峽區光明路100-6號","121.376081666667","24.92795","6500900","三峽區"
"237014","433-BY","2018/08/03 19:09:40","新北市鶯歌區三鶯路5號","121.356933333333","24.94071","6500900","三峽區"
"237006","5529-G3","2018/08/03 19:09:36","新北市三峽區大同路16號","121.378031666667","24.9295883333333","6500900","三峽區"
"237015","649-BX","2018/08/03 19:09:41","新北市三峽區建安73-2號","121.4483","24.92645","6500900","三峽區"
"237010","706-TV","2018/08/03 19:09:42","新北市三峽區復興路159號","121.370588333333","24.9384533333333","6500900","三峽區"
"237005","AKY-6261","2018/08/03 19:09:42","新北市三峽區中山路459巷104號","121.351561666667","24.9367683333333","6500900","三峽區"
"236069","105-UM","2018/08/03 19:09:37","新北市土城區裕生路84巷2號","121.44732","24.9853766666667","6501300","土城區"
"236042","107-UM","2018/08/03 19:09:37","新北市土城區學府路一段239號","121.450375","24.983335","6501300","土城區"
"236079","166-UM","2018/08/03 19:08:46","新北市土城區龍泉路44號","121.41218","24.9455916666667","6501300","土城區"
"236026","269-VK","2018/08/03 19:09:42","新北市土城區中正路67巷14號","121.444475","24.9761383333333","6501300","土城區"
"236014","270-VK","2018/08/03 19:09:28","新北市土城區學府路一段75巷16弄1號","121.457305","24.98756","6501300","土城區"
"236020","401-BY","2018/08/03 19:09:44","新北市土城區延吉街134號","121.469128333333","24.9858083333333","6501300","土城區"
"236059","912-UM","2018/08/03 19:09:36","新北市土城區金城路一段131號","121.444785","24.97374","6501300","土城區"
"236048","913-UM","2018/08/03 19:09:45","新北市土城區明德路一段365-1號","121.45366","24.97908","6501300","土城區"
"236055","AAC-216","2018/08/03 19:09:48","新北市土城區學府路一段276號","121.450055","24.9831066666667","6501300","土城區"
"242058","986-R7","2018/08/03 18:55:48","新北市新莊區新泰路255巷83號","121.442155","25.039095","6500500","新莊區"
"238015","755-BX","2018/08/03 19:09:38","新北市樹林區光明街16號","121.411275","24.9894616666667","6500700","樹林區"
"238023","601-UM","2018/08/03 19:09:47","新北市樹林區三興路39號","121.396031666667","25.0144866666667","6500700","樹林區"
"238019","599-UM","2018/08/03 19:09:32","新北市樹林區東榮街50號","121.417161666667","24.9832016666667","6500700","樹林區"
"238024","5061-A6","2018/08/03 19:09:45","新北市樹林區中山路二段237號","121.402415","24.9757883333333","6500700","樹林區"
"238022","KEA-2213","2018/08/03 19:09:39","新北市樹林區中山路二段151巷6弄5號","121.40653","24.9782166666667","6500700","樹林區"
"238021","KEA-2539","2018/08/03 19:09:40","新北市樹林區柑園街二段426號","121.364683333333","24.9472916666667","6500700","樹林區"
"238025","303-VK","2018/08/03 19:09:39","新北市樹林區中山路三段71號","121.40049","24.97494","6500700","樹林區"
"238017","283-BY","2018/08/03 19:09:37","新北市樹林區光興街270號","121.406776666667","25.0049383333333","6500700","樹林區"
"238014","282-BY","2018/08/03 19:09:33","新北市樹林區千歲街70巷1弄22號","121.427021666667","24.9975766666667","6500700","樹林區"
"238020","268-VK","2018/08/03 19:09:40","新北市樹林區俊英街133巷4號","121.423991666667","25.011435","6500700","樹林區"
"238026","172-UY","2018/08/03 19:09:40","新北市樹林區佳園路二段30號","121.391481666667","24.9624783333333","6500700","樹林區"
"238016","169-UY","2018/08/03 19:08:42","新北市樹林區中山路一段380號","121.418588333333","24.985825","6500700","樹林區"
"239007","AAC-297","2018/08/03 19:09:36","新北市鶯歌區鶯桃路182巷96弄13號","121.340556666667","24.9581","6500800","鶯歌區"
"239006","891-R6","2018/08/03 19:09:16","新北市鶯歌區鶯桃路64號","121.340561666667","24.9532166666667","6500800","鶯歌區"
"239008","527-UM","2018/08/03 19:09:28","新北市鶯歌區國際二路4巷5號","121.338726666667","24.9734266666667","6500800","鶯歌區"
"239001","417-VK","2018/08/03 19:09:30","新北市鶯歌區鶯桃路95巷78號","121.337136666667","24.952815","6500800","鶯歌區"
"239003","360-BY","2018/08/03 19:09:39","新北市鶯歌區中正二路93號","121.348401666667","24.950125","6500800","鶯歌區"
"239002","359-BY","2018/08/03 19:09:46","新北市鶯歌區湖山路27巷1號","121.340315","24.97426","6500800","鶯歌區"
"239004","193-VK","2018/08/03 19:09:27","新北市鶯歌區二甲路26-3號","121.339085","24.9353533333333","6500800","鶯歌區"
"221008","489-VK","2018/08/03 19:09:33","新北市汐止區康寧街418-1號","121.630433333333","25.0680366666667","6501100","汐止區"
"221036","130-UY","2018/08/03 19:09:48","新北市汐止區康寧街901號","121.650848333333","25.0752516666667","6501100","汐止區"
"221015","131-UY","2018/08/03 19:09:39","新北市汐止區康寧街901號","121.65152","25.0749183333333","6501100","汐止區"
"221010","269-BY","2018/08/03 19:09:43","新北市汐止區康寧街901號","121.65137","25.0751216666667","6501100","汐止區"
"221012","278-VK","2018/08/03 19:09:31","新北市汐止區康寧街901號","121.650763333333","25.0752533333333","6501100","汐止區"
"221023","279-VK","2018/08/03 19:09:43","新北市汐止區康寧街901號","121.65095","25.075155","6501100","汐止區"
"221032","280-BY","2018/08/03 19:09:29","新北市汐止區橫科路407巷30弄28-5號","121.627021666667","25.0487716666667","6501100","汐止區"
"221027","281-BY","2018/08/03 19:09:29","新北市汐止區康寧街901號","121.651408333333","25.07502","6501100","汐止區"
"221029","298-VK","2018/08/03 19:09:10","新北市汐止區康寧街901號","121.651216666667","25.075165","6501100","汐止區"
"221021","299-VK","2018/08/03 19:09:47","新北市汐止區康寧街901號","121.651513333333","25.0749683333333","6501100","汐止區"
"221031","353-TW","2018/08/03 19:09:32","新北市汐止區福德一路1-1號","121.639696666667","25.0712466666667","6501100","汐止區"
"221002","129-UY","2018/08/03 19:09:41","新北市汐止區大同路一段148號","121.63161","25.05553","6501100","汐止區"
"221025","623-UM","2018/08/03 19:09:32","新北市汐止區康寧街901號","121.651643333333","25.0749516666667","6501100","汐止區"
"221038","646-BX","2018/08/03 19:09:35","新北市汐止區汐萬路一段312號","121.650643333333","25.0753383333333","6501100","汐止區"
"220079","145-BY","2018/08/03 19:09:29","新北市板橋區民權路310號","121.457228333333","25.0163183333333","6500100","板橋區"
"220080","200-UY","2018/08/03 19:09:35","新北市板橋區大觀路二段7巷4號","121.447265","25.00346","6500100","板橋區"
"220082","610-BX","2018/08/03 19:09:46","新北市板橋區溪崑二街26號","121.428545","24.99131","6500100","板橋區"
"220101","245-BX","2018/08/03 19:09:37","新北市板橋區民生路二段179號","121.469698333333","25.02044","6500100","板橋區"
"220103","257-TC","2018/08/03 19:09:42","新北市板橋區介壽街84巷48號","121.468835","25.0185016666667","6500100","板橋區"
"220056","276-BY","2018/08/03 19:09:41","新北市板橋區信義路110巷3號","121.458135","24.9920583333333","6500100","板橋區"
"220072","277-BY","2018/08/03 19:09:39","新北市板橋區金門街378號","121.426975","24.983695","6500100","板橋區"
"220071","283-VK","2018/08/03 19:09:40","新北市板橋區重慶路353巷1號","121.464385","24.9979166666667","6500100","板橋區"
"220094","285-UM","2018/08/03 19:09:50","新北市板橋區光武街151號","121.465565","25.0295016666667","6500100","板橋區"
"220053","285-VK","2018/08/03 19:09:40","新北市板橋區懷仁街10巷14號","121.47549","25.0198383333333","6500100","板橋區"
"220083","286-VK","2018/08/03 19:09:34","新北市板橋區大觀路二段174巷173弄2號","121.44179","25.0036616666667","6500100","板橋區"
"220081","287-VK","2018/08/03 19:09:37","新北市板橋區南雅西路二段139號","121.452288333333","25.011585","6500100","板橋區"
"220090","288-VK","2018/08/03 19:09:42","新北市板橋區四維路289巷33號","121.461473333333","25.0282283333333","6500100","板橋區"
"220061","293-UM","2018/08/03 19:09:30","新北市板橋區中山路二段265號","121.477728333333","25.0178583333333","6500100","板橋區"
"220062","295-UM","2018/08/03 19:09:47","新北市板橋區三民路二段居仁巷1弄6號","121.479543333333","25.013575","6500100","板橋區"
"220084","296-UM","2018/08/03 19:09:35","新北市板橋區溪崑二街66巷34號","121.42723","24.990995","6500100","板橋區"
"220075","303-R5","2018/08/03 19:09:44","新北市板橋區南雅南路一段5巷2號","121.455926666667","25.0055083333333","6500100","板橋區"
"220092","307-R5","2018/08/03 19:09:31","新北市板橋區文化路一段322號","121.467641666667","25.022225","6500100","板橋區"
"220098","317-R6","2018/08/03 19:09:45","新北市板橋區四維路103巷21號","121.464693333333","25.0240916666667","6500100","板橋區"
"220064","486-VK","2018/08/03 19:09:41","新北市板橋區漢生東路125號","121.46768","25.0145233333333","6500100","板橋區"
"220088","491-VK","2018/08/03 19:09:44","新北市板橋區文化路二段164號","121.470705","25.0271866666667","6500100","板橋區"
"220035","560-BX","2018/08/03 19:09:31","新北市板橋區中正路330號","121.454466666667","25.0216666666667","6500100","板橋區"
"220055","568-UM","2018/08/03 19:09:45","新北市板橋區中山路一段120號","121.463055","25.0107383333333","6500100","板橋區"
"220063","609-BX","2018/08/03 19:09:46","新北市板橋區三民路二段155號","121.47922","25.014965","6500100","板橋區"
"220091","637-BX","2018/08/03 19:09:38","新北市板橋區縣民大道三段245巷1號","121.48126","25.0259283333333","6500100","板橋區"
"220057","686-BX","2018/08/03 19:09:49","新北市板橋區重慶路293-1號","121.463251666667","24.9991433333333","6500100","板橋區"
"220077","687-BX","2018/08/03 19:09:35","新北市板橋區大觀路二段28號","121.446688333333","25.0029566666667","6500100","板橋區"
"220093","689-BX","2018/08/03 19:09:48","新北市板橋區民生路三段237號","121.464735","25.0287266666667","6500100","板橋區"
"220054","741-BX","2018/08/03 19:09:35","新北市板橋區重慶路89巷19號","121.462881666667","25.0065433333333","6500100","板橋區"
"220102","KEA-2699","2018/08/03 19:09:27","新北市板橋區田單街51號","121.482683333333","25.02792","6500100","板橋區"
"220067","829-TW","2018/08/03 19:09:49","新北市板橋區長安街349號","121.474901666667","25.012475","6500100","板橋區"
"220068","830-TW","2018/08/03 19:09:45","新北市板橋區三民路一段31巷36弄7號","121.480725","25.022805","6500100","板橋區"
"220096","831-TW","2018/08/03 19:09:32","新北市板橋區雙十路二段43號","121.47671","25.0261766666667","6500100","板橋區"
"220089","833-TW","2018/08/03 19:09:48","新北市板橋區文化路二段367號","121.473116666667","25.0308783333333","6500100","板橋區"
"220074","895-R6","2018/08/03 19:09:40","新北市板橋區中正路自強新村44-1號","121.45494","25.0137183333333","6500100","板橋區"
"220073","985-R7","2018/08/03 19:09:46","新北市板橋區中正路302號","121.454815","25.0205783333333","6500100","板橋區"
"220097","AAC-210","2018/08/03 19:09:30","新北市板橋區英士路199號","121.458873333333","25.0236033333333","6500100","板橋區"
"220070","AAC-253","2018/08/03 19:09:41","新北市板橋區四川路一段387號","121.457788333333","24.998555","6500100","板橋區"
"235068","KEA-2873","2018/08/03 19:09:18","新北市中和區圓通路162巷39號","121.496288333333","24.9954983333333","6500300","中和區"
"235061","KEA-2875","2018/08/03 19:09:41","新北市中和區員山路394巷14號","121.481273333333","25.0044833333333","6500300","中和區"
