"lineid","car","time","location","longitude","latitude","cityid","cityname"
"234046","148-BY","2018/08/03 19:49:47","新北市永和區永利路165號","121.525073333333","25.0034066666667","6500400","永和區"
"234007","207-UY","2018/08/03 19:49:35","新北市中和區南工路52號","121.505918333333","25.0015","6500400","永和區"
"234081","298-R6","2018/08/03 19:49:47","新北市永和區永亨路98號","121.522958333333","25.0049266666667","6500400","永和區"
"234064","337-UY","2018/08/03 19:49:46","新北市永和區中正路368巷2號","121.517946666667","25.0008816666667","6500400","永和區"
"234086","338-UY","2018/08/03 19:49:31","新北市永和區中正路566號","121.517155","25.0061083333333","6500400","永和區"
"234070","552-UM","2018/08/03 19:49:32","新北市永和區竹林路88號","121.519413333333","25.0125833333333","6500400","永和區"
"234038","553-UM","2018/08/03 19:49:36","新北市永和區豫溪街217巷1號","121.524885","25.0093233333333","6500400","永和區"
"234017","745-BX","2018/08/03 19:49:39","新北市永和區永和路二段299號","121.516065","25.0161483333333","6500400","永和區"
"234030","746-BX","2018/08/03 19:49:44","新北市永和區民生路67巷22號","121.523921666667","24.997185","6500400","永和區"
"234054","KEA-2590","2018/08/03 19:49:41","新北市永和區竹林路73-1號","121.518708333333","25.0132","6500400","永和區"
"234013","KEA-2591","2018/08/03 19:49:47","新北市永和區仁愛路188號","121.50988","25.0125766666667","6500400","永和區"
"234061","AAD-866","2018/08/03 19:49:40","新北市永和區中正路98號","121.51422","24.995565","6500400","永和區"
"234042","862-TW","2018/08/03 19:49:30","新北市永和區中和路389巷8號","121.508123333333","25.00089","6500400","永和區"
"234050","863-TW","2018/08/03 19:49:51","新北市永和區保安路144號","121.508563333333","25.014855","6500400","永和區"
"234026","9371-KE","2018/08/03 19:49:36","新北市永和區雙和街25巷4號","121.508896666667","25.0019366666667","6500400","永和區"
"234011","9373-KE","2018/08/03 19:49:49","新北市永和區仁愛路310號","121.50285","25.0073816666667","6500400","永和區"
"249001","173-UM","2018/08/03 19:49:37","新北市八里區中華路二段252號","121.405426666667","25.149695","6502300","八里區"
"249004","303-UY","2018/08/03 19:49:43","新北市八里區仁愛路127號","121.410096666667","25.1589016666667","6502300","八里區"
"249002","305-UY","2018/08/03 19:49:46","新北市八里區頂寮五街1號","121.452133333333","25.1263166666667","6502300","八里區"
"249003","593-UM","2018/08/03 19:49:31","新北市八里區中華路二段560巷17號","121.398456666667","25.145215","6502300","八里區"
"248016","026-BX","2018/08/03 19:49:44","新北市五股區成泰路四段24-5號","121.45363","25.1068","6501500","五股區"
"248008","095-VK","2018/08/03 19:49:36","新北市五股區國道路三段21號","121.468415","25.07531","6501500","五股區"
"248018","225-UY","2018/08/03 19:49:45","新北市五股區外寮路189巷41號","121.42866","25.07584","6501500","五股區"
"248012","247-BX","2018/08/03 19:49:34","新北市五股區蓬萊路1-2號","121.434928333333","25.079545","6501500","五股區"
"248014","261-SL","2018/08/03 19:49:39","新北市五股區五福路32巷26號","121.435071666667","25.0897383333333","6501500","五股區"
"248010","272-BY","2018/08/03 19:49:30","新北市五股區登林路貿商巷3弄15號","121.42967","25.0699533333333","6501500","五股區"
"248004","677-BX","2018/08/03 19:49:29","新北市五股區成泰路一段104號","121.435783333333","25.0717233333333","6501500","五股區"
"248002","678-BX","2018/08/03 19:49:41","新北市五股區成泰路四段15-6號","121.453361666667","25.1069166666667","6501500","五股區"
"234077","969-R7","2018/08/03 19:49:44","新北市永和區民權路80號","121.519898333333","24.997635","6500400","永和區"
"234074","AAC-211","2018/08/03 19:49:39","新北市永和區竹林路179巷16號","121.52134","25.00988","6500400","永和區"
"234067","AAC-212","2018/08/03 19:49:41","新北市永和區保平路236巷24弄15號","121.508508333333","25.0070866666667","6500400","永和區"
"234003","AAC-295","2018/08/03 19:49:33","新北市永和區福和路299號","121.516463333333","25.0072916666667","6500400","永和區"
"244019","403-UM","2018/08/03 19:49:30","新北市八里區長道坑1-3號","121.392386666667","25.1274133333333","6501700","林口區"
"243013","AAD-798","2018/08/03 19:40:14","新北市泰山區應化街7號","121.42389","25.0436916666667","6501600","泰山區"
"243009","297-R6","2018/08/03 19:49:48","新北市泰山區美寧街60號","121.430961666667","25.0646883333333","6501600","泰山區"
"243016","KEA-2801","2018/08/03 19:49:44","新北市泰山區新北大道七段93號","121.417928333333","25.0320366666667","6501600","泰山區"
"243015","421-VK","2018/08/03 19:49:34","新北市泰山區明志路二段214巷9號","121.42674","25.0489116666667","6501600","泰山區"
"243011","KEA-2215","2018/08/03 19:49:44","新北市泰山區明志路三段196巷21弄28號","121.422461666667","25.038565","6501600","泰山區"
"243010","KEA-2216","2018/08/03 19:49:45","新北市泰山區民生路33號","121.430748333333","25.0521666666667","6501600","泰山區"
"243012","646-TV","2018/08/03 19:49:38","新北市泰山區全興路15號","121.432355","25.0588916666667","6501600","泰山區"
"243014","680-BX","2018/08/03 19:49:33","新北市泰山區泰林路二段33-8號","121.435113333333","25.0564683333333","6501600","泰山區"
"222003","436-BY","2018/08/03 19:49:44","新北市深坑區深南路51號","121.621108333333","25.00974","6501800","深坑區"
"222002","659-BX","2018/08/03 19:49:40","新北市深坑區北深路一段361號","121.622306666667","25.004925","6501800","深坑區"
"231041","002-UM","2018/08/03 19:49:47","新北市新店區中央路137號","121.530231666667","24.9737","6500600","新店區"
"231059","046-UY","2018/08/03 19:49:34","新北市新店區安康路二段102號","121.51346","24.9629666666667","6500600","新店區"
"231040","047-UY","2018/08/03 19:49:40","新北市新店區中正路75巷71號","121.54316","24.9689183333333","6500600","新店區"
"231044","106-UY","2018/08/03 19:49:39","新北市新店區復興路107號","121.534538333333","24.9878666666667","6500600","新店區"
"231046","107-UY","2018/08/03 19:49:50","新北市新店區三民路159巷19弄48號","121.532171666667","24.9731833333333","6500600","新店區"
"231053","108-UY","2018/08/03 19:49:44","新北市新店區新烏路三段86號","121.553671666667","24.9038516666667","6500600","新店區"
"231048","187-VK","2018/08/03 19:49:46","新北市新店區中興路二段196號","121.548353333333","24.973865","6500600","新店區"
"231054","KEA-2219","2018/08/03 19:49:41","新北市新店區光明街107號","121.539178333333","24.961285","6500600","新店區"
"231057","256-BX","2018/08/03 19:49:33","新北市新店區花園二路三段21-3號","121.557078333333","24.9317683333333","6500600","新店區"
"231042","268-BY","2018/08/03 19:49:27","新北市新店區大新街5巷13弄6號","121.54455","24.9682066666667","6500600","新店區"
"231051","278-BY","2018/08/03 19:49:33","新北市新店區中央三街30-1號","121.528355","24.9741183333333","6500600","新店區"
"231050","AAD-862","2018/08/03 19:49:50","新北市新店區北宜路二段148號","121.557733333333","24.9534633333333","6500600","新店區"
"231058","3713-VJ","2018/08/03 19:48:27","新北市新店區安康路二段362號","121.501871666667","24.9574133333333","6500600","新店區"
"231066","4716-K9","2018/08/03 19:49:43","新北市新店區安康路二段341巷4號","121.49684","24.9549966666667","6500600","新店區"
"231056","4715-K9","2018/08/03 19:49:32","新北市新店區中正路504號","121.533831666667","24.9826616666667","6500600","新店區"
"231067","4772-VM","2018/08/03 19:49:36","新北市新店區安康路一段226號","121.523578333333","24.9635616666667","6500600","新店區"
"231065","512-UM","2018/08/03 19:49:35","新北市新店區安祥路109巷151弄12號","121.478125","24.958935","6500600","新店區"
"231049","513-UM","2018/08/03 19:49:42","新北市新店區民權路127巷9號","121.535575","24.981795","6500600","新店區"
"231063","616-UM","2018/08/03 19:49:47","新北市新店區車子路11號","121.50304","24.9520016666667","6500600","新店區"
"231045","617-UM","2018/08/03 19:49:35","新北市新店區北宜路二段384號","121.564575","24.952795","6500600","新店區"
"231061","619-UM","2018/08/03 19:49:38","新北市新店區安民街192號","121.517118333333","24.9715083333333","6500600","新店區"
"231068","718-UY","2018/08/03 19:49:32","新北市新店區安華路28-1號","121.519321666667","24.9609366666667","6500600","新店區"
"231064","719-UM","2018/08/03 19:49:38","新北市新店區安和路二段3-5號","121.517963333333","24.9673","6500600","新店區"
"231062","720-UM","2018/08/03 19:49:45","新北市新店區永業路91號","121.529013333333","24.9489783333333","6500600","新店區"
"231060","897-TW","2018/08/03 19:49:42","新北市新店區安康路二段233號","121.50831","24.9586366666667","6500600","新店區"
"231043","899-TW","2018/08/03 19:49:45","新北市新店區中正路263-3號","121.538313333333","24.9737916666667","6500600","新店區"
"231055","AKT-0513","2018/08/03 19:49:44","新北市新店區力行路5號","121.539436666667","24.9646016666667","6500600","新店區"
"241011","013-R5","2018/08/03 19:49:39","新北市三重區三和路二段173巷55號","121.499495","25.0702283333333","6500200","三重區"
"241028","022-UY","2018/08/03 19:49:40","新北市三重區中正南路150號","121.494156666667","25.057305","6500200","三重區"
"241008","059-VK","2018/08/03 19:49:37","新北市三重區永福街92號","121.478755","25.076115","6500200","三重區"
"241022","060-VK","2018/08/03 19:49:44","新北市三重區新北大道一段11號","121.488643333333","25.0606033333333","6500200","三重區"
"241015","062-VK","2018/08/03 19:49:29","新北市三重區重新路一段1號","121.50381","25.0643366666667","6500200","三重區"
"241017","063-VK","2018/08/03 19:49:36","新北市三重區重陽路三段5巷8弄20號","121.489623333333","25.0665016666667","6500200","三重區"
"241024","065-VK","2018/08/03 19:49:42","新北市三重區大勇街82巷9號","121.479546666667","25.0715483333333","6500200","三重區"
"241026","066-VK","2018/08/03 19:49:41","新北市三重區文化南路42號","121.500465","25.06021","6500200","三重區"
"241003","091-VK","2018/08/03 19:49:38","新北市三重區五華街91-4號","121.49179","25.083605","6500200","三重區"
"241031","742-BX","2018/08/03 19:49:46","新北市三重區重新路四段244巷4號","121.486101666667","25.053585","6500200","三重區"
"241016","266-UM","2018/08/03 19:49:35","新北市三重區正義北路48巷41-1號","121.496141666667","25.06363","6500200","三重區"
"241018","268-UM","2018/08/03 19:49:45","新北市三重區雙園街57巷25號","121.494588333333","25.06836","6500200","三重區"
"241032","269-UM","2018/08/03 19:49:42","新北市三重區重陽路一段68號","121.486476666667","25.058735","6500200","三重區"
"241013","270-UM","2018/08/03 19:49:37","新北市三重區仁愛街112巷14號","121.494733333333","25.0739666666667","6500200","三重區"
"241025","271-UM","2018/08/03 19:49:42","新北市三重區忠孝路三段52號","121.4807","25.06563","6500200","三重區"
"241007","398-BY","2018/08/03 19:49:37","新北市三重區慈愛街8號","121.484478333333","25.0784216666667","6500200","三重區"
"241035","KEA-2210","2018/08/03 19:49:47","新北市三重區文化北路10-7號","121.499283333333","25.06347","6500200","三重區"
"241001","413-TH","2018/08/03 19:49:38","新北市三重區仁愛街325號","121.492445","25.0796083333333","6500200","三重區"
"241004","475-VK","2018/08/03 19:49:42","新北市三重區五華街74號","121.4934","25.0820166666667","6500200","三重區"
"241020","478-VK","2018/08/03 19:49:47","新北市三重區後竹圍街22號","121.491386666667","25.0734483333333","6500200","三重區"
"241030","480-VK","2018/08/03 19:49:33","新北市三重區成功路97號","121.4878","25.051625","6500200","三重區"
"241014","543-UM","2018/08/03 19:49:18","新北市三重區三和路二段37-8號","121.501398333333","25.067465","6500200","三重區"
"241023","545-UM","2018/08/03 19:49:44","新北市三重區頂崁街172號","121.47753","25.06594","6500200","三重區"
"241019","KEA-2593","2018/08/03 19:49:44","新北市三重區自強路二段67巷20號","121.48908","25.07034","6500200","三重區"
"241006","AAD-863","2018/08/03 19:49:41","新北市三重區力行路二段76巷1弄2號","121.481383333333","25.0736533333333","6500200","三重區"
"241029","942-UM","2018/08/03 19:49:44","新北市三重區光明路13巷7號","121.490756666667","25.0585883333333","6500200","三重區"
"241033","AAC-255","2018/08/03 19:49:46","新北市三重區中興南街66號","121.470613333333","25.0439933333333","6500200","三重區"
"235066","003-UY","2018/08/03 19:49:49","新北市中和區南工路40號","121.505785","25.0011916666667","6500300","中和區"
"235056","096-UM","2018/08/03 19:49:37","新北市中和區中山路三段114巷11號","121.475573333333","25.0075683333333","6500300","中和區"
"235039","097-UM","2018/08/03 19:49:49","新北市中和區大勇街27巷5號","121.517126666667","24.9936083333333","6500300","中和區"
"235065","098-UM","2018/08/03 19:49:48","新北市中和區福美路261號","121.498478333333","25.0050983333333","6500300","中和區"
"235040","150-BY","2018/08/03 19:49:31","新北市中和區安平路38號","121.509715","24.9949016666667","6500300","中和區"
"235058","151-BY","2018/08/03 19:49:50","新北市中和區員山路146巷11號","121.482066666667","24.9968466666667","6500300","中和區"
"235055","183-VK","2018/08/03 19:49:43","新北市中和區德光路27巷1弄1號","121.470863333333","25.0039816666667","6500300","中和區"
"235038","185-VK","2018/08/03 19:49:44","新北市永和區民生路42號","121.522468333333","24.9967233333333","6500300","中和區"
"235049","186-VK","2018/08/03 19:49:41","新北市中和區景平路385巷42-1號","121.501496666667","24.9944466666667","6500300","中和區"
"235067","255-BX","2018/08/03 19:49:35","新北市中和區新生街186巷1弄2號","121.483345","24.999545","6500300","中和區"
"235044","293-VK","2018/08/03 19:49:36","新北市中和區南山路273號","121.504013333333","24.99246","6500300","中和區"
"235043","352-BY","2018/08/03 19:49:40","新北市中和區華新街232巷8號","121.505823333333","24.9821016666667","6500300","中和區"
"235050","4979-A6","2018/08/03 19:49:34","新北市中和區中正路161巷2號","121.498361666667","24.9936766666667","6500300","中和區"
"235069","4980-A6","2018/08/03 19:49:31","新北市中和區中正路637巷52弄1號","121.485526666667","24.9936316666667","6500300","中和區"
"235042","551-UM","2018/08/03 19:49:47","新北市中和區保健路7巷3號","121.508058333333","24.998685","6500300","中和區"
"235070","558-UM","2018/08/03 19:49:44","新北市中和區圓通路72號","121.500198333333","24.9972716666667","6500300","中和區"
"235054","640-BX","2018/08/03 19:49:45","新北市中和區莒光路70號","121.472233333333","25.003105","6500300","中和區"
"235060","647-TV","2018/08/03 19:49:39","新北市中和區新生街25號","121.483291666667","25.0038983333333","6500300","中和區"
"235047","732-UM","2018/08/03 19:49:42","新北市中和區興南路一段63-6號","121.510353333333","24.9895133333333","6500300","中和區"
"235046","733-UM","2018/08/03 19:49:35","新北市中和區仁愛街36號","121.510948333333","24.98835","6500300","中和區"
"235057","801-TS","2018/08/03 19:49:31","新北市中和區連城路376-1號","121.481093333333","24.995355","6500300","中和區"
"235041","802-TS","2018/08/03 19:49:31","新北市中和區永貞路239巷1號","121.512973333333","25.0035366666667","6500300","中和區"
"235052","805-TS","2018/08/03 19:49:31","新北市中和區華新街28-2號","121.507565","24.9844783333333","6500300","中和區"
"235048","896-TW","2018/08/03 19:49:48","新北市中和區興南路一段91-2號","121.509625","24.9887","6500300","中和區"
"235053","900-TW","2018/08/03 19:49:31","新北市中和區國光街172巷1號","121.467631666667","25.0017333333333","6500300","中和區"
"235051","157-BY","2018/08/03 19:49:45","新北市中和區中興街180巷45號","121.498221666667","24.9895533333333","6500300","中和區"
"235037","AAC-213","2018/08/03 19:49:34","新北市中和區自立路66號","121.523933333333","24.991285","6500300","中和區"
"235059","AAC-215","2018/08/03 19:49:31","新北市中和區圓通路305巷27弄1號","121.495053333333","24.989145","6500300","中和區"
"220106","013-TV","2018/08/03 19:49:31","新北市板橋區民治街57巷32-1號","121.480156666667","25.0341033333333","6500100","板橋區"
"220065","072-UY","2018/08/03 19:49:38","新北市板橋區民族路69巷18弄1號","121.466516666667","25.0100316666667","6500100","板橋區"
"220069","AAD-861","2018/08/03 19:49:35","新北市板橋區稚暉街2巷50號","121.455231666667","25.00286","6500100","板橋區"
"247014","546-UM","2018/08/03 19:49:33","新北市蘆洲區復興路30號","121.472203333333","25.0852116666667","6501400","蘆洲區"
"247004","337-TH","2018/08/03 19:49:31","新北市蘆洲區永安南路二段334號","121.45668","25.0830583333333","6501400","蘆洲區"
"247006","336-TH","2018/08/03 19:49:48","新北市蘆洲區永安南路二段28號","121.46715","25.0771533333333","6501400","蘆洲區"
"247008","056-VK","2018/08/03 19:49:33","新北市蘆洲區信義路107號","121.478245","25.0800666666667","6501400","蘆洲區"
"247016","053-VK","2018/08/03 19:49:40","新北市蘆洲區中正路261號","121.467455","25.0872366666667","6501400","蘆洲區"
"247002","002-UY","2018/08/03 19:49:39","新北市蘆洲區永平街30號","121.458831666667","25.090875","6501400","蘆洲區"
"226004","205-ST","2018/08/03 19:49:42","新北市平溪區石底里公園街18-3號","121.73326","25.025755","6502400","平溪區"
"228001","212-TW","2018/08/03 19:49:38","新北市貢寮區真理里新港街26巷26號","121.927576666667","25.0553283333333","6502600","貢寮區"
"228003","828-UM","2018/08/03 19:49:40","新北市貢寮區真理里美艷山街3-1號","121.925743333333","25.0596083333333","6502600","貢寮區"
"224010","AGQ-8101","2018/08/03 19:43:36","新北市瑞芳區金光路334號","121.848546666667","25.1101683333333","6501200","瑞芳區"
"224002","639-TC","2018/08/03 19:49:31","新北市瑞芳區員山子路員山巷39號","121.81662","25.1040166666667","6501200","瑞芳區"
"227003","642-TC","2018/08/03 19:49:33","新北市雙溪區雙溪里內挖路47號","121.863245","25.0367333333333","6502500","雙溪區"
"227011","400-TW","2018/08/03 19:49:30","新北市雙溪區新基里中華路90-1號","121.866036666667","25.03903","6502500","雙溪區"
"253006","295-VK","2018/08/03 19:49:47","新北市石門區阿里磅1號","121.586968333333","25.292185","6502200","石門區"
"222001","KEA-2212","2018/08/03 19:49:34","新北市深坑區北深路三段47號","121.60788","25.0012816666667","6501800","深坑區"
"208002","KEA-2872","2018/08/03 19:49:45","新北市金山區中山路323號","121.635338333333","25.2237166666667","6502700","金山區"
"208003","665-BX","2018/08/03 19:49:46","新北市金山區海興路28號","121.63054","25.2379066666667","6502700","金山區"
"208001","761-BX","2018/08/03 19:49:42","新北市金山區重和里林口28-2號","121.596973333333","25.2092466666667","6502700","金山區"
"251006","010-UM","2018/08/03 19:49:39","新北市淡水區水碓街15號","121.443485","25.1769383333333","6501000","淡水區"
"251001","011-UM","2018/08/03 19:49:41","新北市淡水區淡金路101號","121.457085","25.1639066666667","6501000","淡水區"
"251008","181-VK","2018/08/03 19:49:33","新北市淡水區中正路二段24巷2-1號","121.426821666667","25.1769316666667","6501000","淡水區"
"251010","413-VK","2018/08/03 19:49:48","新北市淡水區下圭柔山91-3號","121.431151666667","25.21021","6501000","淡水區"
"251012","441-VK","2018/08/03 19:49:36","新北市淡水區淡金路三段66號","121.448263333333","25.199935","6501000","淡水區"
"251007","442-VK","2018/08/03 19:49:45","新北市淡水區竿蓁一街101號","121.454716666667","25.1663966666667","6501000","淡水區"
"251005","443-VK","2018/08/03 19:49:29","新北市淡水區中正東路6號","121.447083333333","25.167145","6501000","淡水區"
"251009","575-R6","2018/08/03 19:49:37","新北市淡水區中正路38-1號","121.443751666667","25.1692383333333","6501000","淡水區"
"251011","650-BX","2018/08/03 19:49:34","新北市淡水區埤島7-2號","121.444813333333","25.19243","6501000","淡水區"
"251003","673-BX","2018/08/03 19:49:39","新北市淡水區崁頂70-2號","121.437351666667","25.202975","6501000","淡水區"
"207003","550-UM","2018/08/03 19:49:32","新北市萬里區大鵬里萬里加投45-1號","121.640838333333","25.2108933333333","6502800","萬里區"
"207004","225-TW","2018/08/03 19:49:48","新北市萬里區萬里里瑪鋉路238號","121.68923","25.1804566666667","6502800","萬里區"
"252002","178-VK","2018/08/03 19:49:41","新北市三芝區三民街33-1號","121.504638333333","25.258545","6502100","三芝區"
"252001","292-VK","2018/08/03 19:49:29","新北市三芝區公正街66號","121.499775","25.2574766666667","6502100","三芝區"
"237004","KEA-2597","2018/08/03 19:49:43","新北市三峽區圳頭35號","121.377178333333","24.8865666666667","6500900","三峽區"
"237007","153-BY","2018/08/03 19:49:34","新北市三峽區麻園12-2號","121.362421666667","24.9162033333333","6500900","三峽區"
"237011","572-TV","2018/08/03 19:49:43","新北市三峽區中山路269號","121.36217","24.9374616666667","6500900","三峽區"
"237009","210-TH","2018/08/03 19:49:39","新北市三峽區民權街177號","121.367971666667","24.9298516666667","6500900","三峽區"
"237013","252-BX","2018/08/03 19:49:39","新北市三峽區介壽路二段165號","121.394083333333","24.9359583333333","6500900","三峽區"
"237012","275-BY","2018/08/03 19:49:41","新北市三峽區中華路3巷2號","121.374745","24.9322916666667","6500900","三峽區"
"237008","302-VK","2018/08/03 19:49:39","新北市三峽區中正路一段108巷11號","121.373468333333","24.93008","6500900","三峽區"
"237014","433-BY","2018/08/03 19:49:40","新北市三峽區嘉添79號","121.368725","24.9101016666667","6500900","三峽區"
"237006","5529-G3","2018/08/03 19:49:36","新北市三峽區中正路一段328-7號","121.3708","24.9248033333333","6500900","三峽區"
"237015","649-BX","2018/08/03 19:49:41","新北市三峽區溪東路1號","121.39919","24.9354066666667","6500900","三峽區"
"237005","AKY-6261","2018/08/03 19:49:43","新北市三峽區長泰街20號","121.378831666667","24.93176","6500900","三峽區"
"236069","105-UM","2018/08/03 19:49:37","新北市土城區中央路二段258號","121.44158","24.9745616666667","6501300","土城區"
"236042","107-UM","2018/08/03 19:49:44","新北市土城區裕民路185巷9號","121.453953333333","24.9848733333333","6501300","土城區"
"236079","166-UM","2018/08/03 19:47:26","新北市土城區溪頭路155號","121.409181666667","24.950705","6501300","土城區"
"236030","253-BX","2018/08/03 19:49:38","新北市土城區中央路一段290號","121.4433","24.9824216666667","6501300","土城區"
"236026","269-VK","2018/08/03 19:49:33","新北市土城區中央路二段61巷26號","121.44331","24.978895","6501300","土城區"
"236039","271-VK","2018/08/03 19:49:26","新北市土城區國際路158巷41號","121.468343333333","24.9755216666667","6501300","土城區"
"236020","401-BY","2018/08/03 19:49:44","新北市土城區延吉街165巷9號","121.470375","24.9852816666667","6501300","土城區"
"236059","912-UM","2018/08/03 19:49:36","新北市土城區中央路一段186-1號","121.445491666667","24.98635","6501300","土城區"
"236048","913-UM","2018/08/03 19:49:45","新北市土城區青雲路214號","121.459035","24.9817016666667","6501300","土城區"
"236063","915-UM","2018/08/03 19:49:42","新北市土城區延和路103號","121.467608333333","24.9902116666667","6501300","土城區"
"236055","AAC-216","2018/08/03 19:49:28","新北市土城區延和路205號","121.469658333333","24.990065","6501300","土城區"
"242034","AAC-296","2018/08/03 19:49:38","新北市新莊區公園一路95號","121.444193333333","25.0380433333333","6500500","新莊區"
"242058","986-R7","2018/08/03 19:49:37","新北市新莊區新泰路357巷3弄51號","121.441988333333","25.040025","6500500","新莊區"
"242046","497-BY","2018/08/03 19:49:42","新北市新莊區後港一路160號","121.430693333333","25.0276483333333","6500500","新莊區"
"242056","440-UM","2018/08/03 19:49:36","新北市新莊區新泰路79號","121.44921","25.0344916666667","6500500","新莊區"
"242037","415-TV","2018/08/03 19:49:42","新北市新莊區民安路207巷30弄26號","121.428255","25.0240283333333","6500500","新莊區"
"242007","413-TV","2018/08/03 19:49:45","新北市新莊區思源路593巷5弄14號","121.458446666667","25.0593866666667","6500500","新莊區"
"242023","362-BY","2018/08/03 19:49:41","新北市新莊區化成路150號","121.465448333333","25.0449416666667","6500500","新莊區"
"242060","353-BY","2018/08/03 19:49:32","新北市新莊區中環路一段10號","121.44282","25.0258266666667","6500500","新莊區"
"242039","133-UY","2018/08/03 19:49:47","新北市新莊區民安路299巷26號","121.429376666667","25.02323","6500500","新莊區"
"242032","135-UY","2018/08/03 19:49:42","新北市新莊區忠孝街26號","121.443991666667","25.0354433333333","6500500","新莊區"
"242048","172-VK","2018/08/03 19:49:50","新北市新莊區建安街76巷1弄11號","121.426151666667","25.0242766666667","6500500","新莊區"
"242011","173-VK","2018/08/03 19:48:03","新北市泰山區泰林路一段2號","121.44278","25.0477","6500500","新莊區"
"242017","175-VK","2018/08/03 19:49:31","新北市新莊區中華路一段226號","121.45268","25.043","6500500","新莊區"
"242005","176-VK","2018/08/03 19:49:38","新北市新莊區化成路63巷24弄11號","121.462783333333","25.04598","6500500","新莊區"
"242013","347-TH","2018/08/03 19:49:39","新北市新莊區中泰街36號","121.45081","25.0469616666667","6500500","新莊區"
"242021","348-TH","2018/08/03 19:49:39","新北市新莊區建中街23號","121.448933333333","25.0373766666667","6500500","新莊區"
"242019","350-TH","2018/08/03 19:49:41","新北市新莊區中華路一段136巷28號","121.453523333333","25.0412383333333","6500500","新莊區"
"238015","755-BX","2018/08/03 19:49:38","新北市樹林區中山路二段230號","121.408931666667","24.98023","6500700","樹林區"
"238021","KEA-2539","2018/08/03 19:49:40","新北市樹林區佳園路三段101巷62弄10號","121.393491666667","24.95017","6500700","樹林區"
"239006","891-R6","2018/08/03 19:49:43","新北市鶯歌區文化路89號","121.357541666667","24.9552866666667","6500800","鶯歌區"
"239003","360-BY","2018/08/03 19:49:39","新北市鶯歌區環河路85號","121.347295","24.9395766666667","6500800","鶯歌區"
"239002","359-BY","2018/08/03 19:49:46","新北市鶯歌區文化路324巷42-1號","121.351168333333","24.944165","6500800","鶯歌區"
"221008","489-VK","2018/08/03 19:49:33","新北市汐止區康寧街39號","121.618608333333","25.0668216666667","6501100","汐止區"
"221036","130-UY","2018/08/03 19:49:28","新北市汐止區汐萬路一段312號","121.650386666667","25.0749916666667","6501100","汐止區"
"221015","131-UY","2018/08/03 19:49:39","新北市汐止區大同路二段537號","121.662001666667","25.069145","6501100","汐止區"
"221010","269-BY","2018/08/03 19:49:43","新北市汐止區汐萬路一段419號","121.64915","25.079575","6501100","汐止區"
"221012","278-VK","2018/08/03 19:49:31","新北市汐止區大同路三段543號","121.681211666667","25.0714633333333","6501100","汐止區"
"221023","279-VK","2018/08/03 19:49:46","新北市汐止區明峰街166號","121.629111666667","25.0703766666667","6501100","汐止區"
"221032","280-BY","2018/08/03 19:49:29","新北市汐止區新台五路一段76號","121.64391","25.059765","6501100","汐止區"
"221027","281-BY","2018/08/03 19:49:39","新北市汐止區中正路7號","121.663061666667","25.0701016666667","6501100","汐止區"
"221029","298-VK","2018/08/03 19:49:30","新北市汐止區康寧街901號","121.651605","25.0748916666667","6501100","汐止區"
"221021","299-VK","2018/08/03 19:49:27","新北市汐止區新興路78號","121.657663333333","25.0618383333333","6501100","汐止區"
"221031","353-TW","2018/08/03 19:49:32","新北市汐止區福德二路55巷6弄1號","121.634566666667","25.066555","6501100","汐止區"
"221002","129-UY","2018/08/03 19:49:41","新北市汐止區康寧街901號","121.650896666667","25.07526","6501100","汐止區"
"221035","622-UM","2018/08/03 19:49:29","新北市汐止區長江街13巷6弄1號","121.654686666667","25.071685","6501100","汐止區"
"221025","623-UM","2018/08/03 19:49:32","新北市汐止區秀峰路81巷21號","121.661108333333","25.0645666666667","6501100","汐止區"
"221038","646-BX","2018/08/03 19:49:35","新北市汐止區忠孝東路428號","121.666086666667","25.0719866666667","6501100","汐止區"
"221033","647-BX","2018/08/03 19:49:44","新北市汐止區東勢街76巷87號","121.635621666667","25.0389683333333","6501100","汐止區"
"221018","753-BX","2018/08/03 19:49:36","新北市汐止區茄苳路12號","121.664843333333","25.0706133333333","6501100","汐止區"
"220079","145-BY","2018/08/03 19:49:29","新北市板橋區中正路183巷29號","121.454953333333","25.0158583333333","6500100","板橋區"
"220080","200-UY","2018/08/03 19:49:36","新北市板橋區大觀路二段101巷27號","121.447265","25.0014883333333","6500100","板橋區"
"220082","610-BX","2018/08/03 19:49:46","新北市板橋區存德街17號","121.43021","24.9917733333333","6500100","板橋區"
"220101","245-BX","2018/08/03 19:49:37","新北市板橋區縣民大道三段97巷2號","121.475961666667","25.02209","6500100","板橋區"
"220103","257-TC","2018/08/03 19:49:42","新北市板橋區陽明街29巷7號","121.46507","25.0217533333333","6500100","板橋區"
"220072","277-BY","2018/08/03 19:49:39","新北市板橋區金門街137巷2號","121.432996666667","24.99116","6500100","板橋區"
"220071","283-VK","2018/08/03 19:49:42","新北市板橋區五權街30巷15號","121.464231666667","24.9932016666667","6500100","板橋區"
"220094","285-UM","2018/08/03 19:49:45","新北市板橋區長江路一段11號","121.457881666667","25.029115","6500100","板橋區"
"220053","285-VK","2018/08/03 19:49:40","新北市板橋區中山路二段60巷1弄24號","121.475103333333","25.0157583333333","6500100","板橋區"
"220083","286-VK","2018/08/03 19:49:34","新北市板橋區僑中二街108巷1號","121.44586","25.0071233333333","6500100","板橋區"
"220081","287-VK","2018/08/03 19:49:37","新北市板橋區大觀路一段28巷104號","121.450113333333","25.0111666666667","6500100","板橋區"
"220090","288-VK","2018/08/03 19:46:02","新北市板橋區龍泉街54巷8弄16號","121.457536666667","25.02695","6500100","板橋區"
"220061","293-UM","2018/08/03 19:49:50","新北市板橋區板新路204號","121.468878333333","25.0162733333333","6500100","板橋區"
"220062","295-UM","2018/08/03 19:49:47","新北市板橋區中山路二段416巷66弄7號","121.482575","25.0185516666667","6500100","板橋區"
"220084","296-UM","2018/08/03 19:49:35","新北市樹林區水源街213號","121.424086666667","24.9873366666667","6500100","板橋區"
"220075","303-R5","2018/08/03 19:49:44","新北市板橋區金華街10巷48弄44-3號","121.458551666667","25.0200733333333","6500100","板橋區"
"220092","307-R5","2018/08/03 19:49:31","新北市板橋區四維路115-3號","121.465411666667","25.0247566666667","6500100","板橋區"
"220098","317-R6","2018/08/03 19:49:45","新北市板橋區四維路269巷94弄2號","121.459503333333","25.0267083333333","6500100","板橋區"
"220064","486-VK","2018/08/03 19:49:41","新北市板橋區中山路一段67號","121.461155","25.0097466666667","6500100","板橋區"
"220088","491-VK","2018/08/03 19:49:40","新北市板橋區仁化街189號","121.478476666667","25.034","6500100","板橋區"
"220035","560-BX","2018/08/03 19:49:31","新北市板橋區金華街117號","121.459253333333","25.0209066666667","6500100","板橋區"
"220055","568-UM","2018/08/03 19:49:45","新北市板橋區國慶路149巷13弄13號","121.460363333333","24.9967","6500100","板橋區"
"220063","609-BX","2018/08/03 19:49:46","新北市板橋區三民路一段3巷1號","121.478835","25.0235633333333","6500100","板橋區"
"220091","637-BX","2018/08/03 19:49:38","新北市板橋區民治街119巷7號","121.47856","25.03069","6500100","板橋區"
"220057","686-BX","2018/08/03 19:49:49","新北市板橋區信義路148號","121.458975","24.991895","6500100","板橋區"
"220077","687-BX","2018/08/03 19:49:35","新北市板橋區僑中一街102巷7弄20號","121.446096666667","25.0130483333333","6500100","板橋區"
"220093","689-BX","2018/08/03 19:49:48","新北市板橋區長江路二段245號","121.468941666667","25.0327216666667","6500100","板橋區"
"220054","741-BX","2018/08/03 19:49:34","新北市板橋區忠孝路忠義巷15弄41號","121.465611666667","25.0045983333333","6500100","板橋區"
"220102","KEA-2699","2018/08/03 19:49:47","新北市板橋區松柏街31-1號","121.475201666667","25.030285","6500100","板橋區"
"220067","829-TW","2018/08/03 19:49:29","新北市板橋區長安街331巷19弄13號","121.47347","25.0122483333333","6500100","板橋區"
"220068","830-TW","2018/08/03 19:49:43","新北市板橋區中山路二段412巷38號","121.48396","25.019475","6500100","板橋區"
"220096","831-TW","2018/08/03 19:49:32","新北市板橋區文化路二段124巷34弄4號","121.471211666667","25.0253033333333","6500100","板橋區"
"220089","833-TW","2018/08/03 19:49:39","新北市板橋區龍泉街95-3號","121.456973333333","25.0245616666667","6500100","板橋區"
"220074","895-R6","2018/08/03 19:49:40","新北市板橋區文化路一段46巷19號","121.460243333333","25.0116383333333","6500100","板橋區"
"220073","985-R7","2018/08/03 19:49:46","新北市板橋區南雅西路二段226號","121.452223333333","25.015575","6500100","板橋區"
"220097","AAC-210","2018/08/03 19:49:37","新北市板橋區文化路一段285巷1弄7號","121.4644","25.0187066666667","6500100","板橋區"
"220070","AAC-253","2018/08/03 19:49:41","新北市板橋區民族路233號","121.469831666667","25.007115","6500100","板橋區"
"235068","KEA-2873","2018/08/03 19:49:18","新北市中和區莊敬路16巷15弄4號","121.500351666667","25.0037283333333","6500300","中和區"
"235061","KEA-2875","2018/08/03 19:49:40","新北市中和區新生街166巷23號","121.482571666667","25.0000816666667","6500300","中和區"
