"lineid","car","time","location","longitude","latitude","cityid","cityname"
"234046","148-BY","2018/08/03 20:09:36","新北市永和區秀朗路二段259號","121.526266666667","24.9991216666667","6500400","永和區"
"234007","207-UY","2018/08/03 20:09:35","新北市永和區仁愛路295號","121.504891666667","25.00912","6500400","永和區"
"234081","298-R6","2018/08/03 20:09:47","新北市永和區國中路37號","121.524615","25.0056283333333","6500400","永和區"
"234064","337-UY","2018/08/03 20:09:46","新北市永和區秀朗路二段43號","121.52157","25.0024233333333","6500400","永和區"
"234086","338-UY","2018/08/03 20:09:38","新北市永和區中正路612號","121.51716","25.00748","6500400","永和區"
"234070","552-UM","2018/08/03 20:09:32","新北市永和區福和路213號","121.51934","25.00759","6500400","永和區"
"234038","553-UM","2018/08/03 20:09:36","新北市永和區環河東路四段26號","121.52865","24.99935","6500400","永和區"
"234017","745-BX","2018/08/03 20:09:39","新北市永和區文化路36號","121.51498","25.0150716666667","6500400","永和區"
"234030","746-BX","2018/08/03 20:09:44","新北市永和區民權路49巷30號","121.521663333333","24.9975016666667","6500400","永和區"
"234054","KEA-2590","2018/08/03 20:09:41","新北市永和區博愛街1號","121.516541666667","25.0158466666667","6500400","永和區"
"234013","KEA-2591","2018/08/03 20:09:43","新北市永和區保生路2號","121.506891666667","25.0071166666667","6500400","永和區"
"234061","AAD-866","2018/08/03 20:09:41","新北市永和區安樂路58巷2號","121.515146666667","24.998015","6500400","永和區"
"234042","862-TW","2018/08/03 20:09:50","新北市永和區雙和街33號","121.508928333333","25.0022616666667","6500400","永和區"
"234050","863-TW","2018/08/03 20:09:49","新北市永和區環河西路二段141號","121.505868333333","25.014195","6500400","永和區"
"234011","9373-KE","2018/08/03 20:09:49","新北市永和區仁愛路352巷122弄13號","121.500736666667","25.0088416666667","6500400","永和區"
"249005","172-UM","2018/08/03 20:09:39","新北市八里區下罟子58-10號","121.387621666667","25.1372833333333","6502300","八里區"
"249001","173-UM","2018/08/03 20:09:37","新北市八里區中華路二段326號","121.403351666667","25.1479316666667","6502300","八里區"
"249004","303-UY","2018/08/03 20:09:43","新北市八里區中山路一段418-3號","121.411183333333","25.1579683333333","6502300","八里區"
"249002","305-UY","2018/08/03 20:09:46","新北市八里區龍米路一段17號","121.457426666667","25.1157033333333","6502300","八里區"
"249003","593-UM","2018/08/03 20:09:49","新北市八里區中山路二段540巷9弄2號","121.396926666667","25.147085","6502300","八里區"
"248016","026-BX","2018/08/03 20:09:44","新北市五股區天乙路60號","121.448153333333","25.1046666666667","6501500","五股區"
"248008","095-VK","2018/08/03 20:09:36","新北市五股區中興路一段1巷27號","121.469783333333","25.0704366666667","6501500","五股區"
"248018","225-UY","2018/08/03 20:09:45","新北市五股區登林路75號","121.428105","25.0700816666667","6501500","五股區"
"248012","247-BX","2018/08/03 20:09:44","新北市五股區六合街108號","121.430765","25.0908916666667","6501500","五股區"
"248014","261-SL","2018/08/03 20:09:39","新北市五股區新城三路45號","121.44855","25.0928733333333","6501500","五股區"
"248010","272-BY","2018/08/03 20:09:50","新北市五股區成泰路一段7巷66號","121.43264","25.067965","6501500","五股區"
"248004","677-BX","2018/08/03 20:09:49","新北市五股區成泰路二段82號","121.437525","25.0823916666667","6501500","五股區"
"248002","678-BX","2018/08/03 20:09:41","新北市五股區成泰路三段369-3號","121.448963333333","25.09602","6501500","五股區"
"234023","9380-KE","2018/08/03 20:09:39","新北市永和區中正路654巷29號","121.517546666667","25.0085983333333","6500400","永和區"
"234077","969-R7","2018/08/03 20:09:49","新北市永和區民光街1號","121.515261666667","24.9964483333333","6500400","永和區"
"234074","AAC-211","2018/08/03 20:09:35","新北市永和區豫溪街169巷2-1號","121.52192","25.010415","6500400","永和區"
"234067","AAC-212","2018/08/03 20:09:41","新北市永和區保平路214巷11弄4號","121.508795","25.006685","6500400","永和區"
"234003","AAC-295","2018/08/03 20:09:33","新北市永和區中正路620號","121.51697","25.0077983333333","6500400","永和區"
"243013","AAD-798","2018/08/03 20:09:49","新北市泰山區明志路三段74巷4號","121.424606666667","25.0418266666667","6501600","泰山區"
"243009","297-R6","2018/08/03 20:09:28","新北市泰山區泰林路二段138號","121.434251666667","25.0597916666667","6501600","泰山區"
"243016","KEA-2801","2018/08/03 20:09:44","新北市泰山區貴陽街13號","121.421558333333","25.0333483333333","6501600","泰山區"
"243015","421-VK","2018/08/03 20:09:34","新北市泰山區明志路一段326號","121.431378333333","25.0591116666667","6501600","泰山區"
"243011","KEA-2215","2018/08/03 20:09:44","新北市新莊區丹鳳街36號","121.421615","25.0295466666667","6501600","泰山區"
"243010","KEA-2216","2018/08/03 20:09:45","新北市泰山區明志路二段136巷3-1號","121.426966666667","25.0510033333333","6501600","泰山區"
"243012","646-TV","2018/08/03 20:09:38","新北市泰山區楓江路46巷17號","121.43576","25.0615716666667","6501600","泰山區"
"243014","680-BX","2018/08/03 20:09:33","新北市泰山區明志路一段4號","121.433533333333","25.066055","6501600","泰山區"
"222003","436-BY","2018/08/03 20:09:44","新北市深坑區埔新街87號","121.619723333333","25.002395","6501800","深坑區"
"222002","659-BX","2018/08/03 20:09:40","新北市深坑區北深路三段180號","121.602156666667","25.0039783333333","6501800","深坑區"
"231041","002-UM","2018/08/03 20:09:47","新北市新店區中正路460號","121.534046666667","24.9794","6500600","新店區"
"231059","046-UY","2018/08/03 20:09:34","新北市新店區安成街25號","121.510091666667","24.9608333333333","6500600","新店區"
"231040","047-UY","2018/08/03 20:09:40","新北市新店區中正路110號","121.543006666667","24.9706183333333","6500600","新店區"
"231044","106-UY","2018/08/03 20:09:39","新北市新店區寶慶街66號","121.54204","24.9869133333333","6500600","新店區"
"231053","108-UY","2018/08/03 20:09:35","新北市新店區新烏路三段286號","121.54981","24.8983216666667","6500600","新店區"
"231048","187-VK","2018/08/03 20:09:46","新北市新店區永華街26號","121.544298333333","24.9757483333333","6500600","新店區"
"231054","KEA-2219","2018/08/03 20:09:41","新北市新店區檳榔路38號","121.541511666667","24.963775","6500600","新店區"
"231057","256-BX","2018/08/03 20:09:33","新北市新店區花園一路一段2號","121.55313","24.9324416666667","6500600","新店區"
"231042","268-BY","2018/08/03 20:09:47","新北市新店區中興路二段89號","121.547085","24.9714133333333","6500600","新店區"
"231051","278-BY","2018/08/03 20:09:32","新北市新店區中央六街6號","121.530258333333","24.974335","6500600","新店區"
"231050","AAD-862","2018/08/03 20:09:30","新北市新店區北新路一段90號","121.541923333333","24.9686983333333","6500600","新店區"
"231058","3713-VJ","2018/08/03 20:09:31","新北市新店區安德街60巷35號","121.510991666667","24.9637183333333","6500600","新店區"
"231056","4715-K9","2018/08/03 20:09:36","新北市新店區中正路275巷5號","121.53749","24.9739616666667","6500600","新店區"
"231067","4772-VM","2018/08/03 20:09:36","新北市新店區安康路一段35號","121.531756666667","24.9607333333333","6500600","新店區"
"231065","512-UM","2018/08/03 20:09:35","新北市新店區安祥路106巷230號","121.473635","24.9598316666667","6500600","新店區"
"231049","513-UM","2018/08/03 20:09:42","新北市新店區北新路二段97巷10弄2號","121.542293333333","24.97458","6500600","新店區"
"231063","616-UM","2018/08/03 20:09:47","新北市新店區車子路1-1號","121.50466","24.957625","6500600","新店區"
"231045","617-UM","2018/08/03 20:09:35","新北市新店區北宜路一段121-2號","121.54044","24.9538133333333","6500600","新店區"
"231061","619-UM","2018/08/03 20:09:38","新北市新店區安興路33-1號","121.51585","24.970485","6500600","新店區"
"231068","718-UY","2018/08/03 20:09:32","新北市新店區中興路二段188號","121.548215","24.97295","6500600","新店區"
"231064","719-UM","2018/08/03 20:02:58","新北市新店區安民街37號","121.515848333333","24.965445","6500600","新店區"
"231062","720-UM","2018/08/03 20:09:45","新北市新店區安康路二段109號","121.512551666667","24.9619866666667","6500600","新店區"
"231060","897-TW","2018/08/03 20:09:43","新北市新店區安康路三段466-2號","121.484018333333","24.9509233333333","6500600","新店區"
"231043","899-TW","2018/08/03 20:09:45","新北市新店區民族路168號","121.537258333333","24.9765166666667","6500600","新店區"
"231055","AKT-0513","2018/08/03 20:09:44","新北市新店區北新路一段297巷28號","121.540628333333","24.968165","6500600","新店區"
"241011","013-R5","2018/08/03 20:09:40","新北市三重區仁愛街59號","121.496383333333","25.0721633333333","6500200","三重區"
"241028","022-UY","2018/08/03 20:09:41","新北市三重區仁化街115號","121.494581666667","25.0577866666667","6500200","三重區"
"241008","059-VK","2018/08/03 20:09:37","新北市三重區永福街197巷23號","121.47862","25.0742666666667","6500200","三重區"
"241022","060-VK","2018/08/03 20:09:44","新北市三重區新北大道一段56號","121.487488333333","25.06146","6500200","三重區"
"241015","062-VK","2018/08/03 20:09:49","新北市三重區福德北路24號","121.50223","25.0648083333333","6500200","三重區"
"241017","063-VK","2018/08/03 20:09:36","新北市三重區大智街116號","121.493076666667","25.0670583333333","6500200","三重區"
"241024","065-VK","2018/08/03 20:09:42","新北市三重區中正北路284號","121.480518333333","25.06861","6500200","三重區"
"241026","066-VK","2018/08/03 20:09:41","新北市三重區福德南路65巷1號","121.502418333333","25.0605116666667","6500200","三重區"
"241003","091-VK","2018/08/03 20:09:38","新北市三重區仁愛街472號","121.489713333333","25.08244","6500200","三重區"
"241031","742-BX","2018/08/03 20:09:46","新北市三重區過圳街9-1號","121.488805","25.05998","6500200","三重區"
"241005","262-UM","2018/08/03 20:09:41","新北市三重區溪尾街332號","121.488206666667","25.08504","6500200","三重區"
"241016","266-UM","2018/08/03 20:09:35","新北市三重區中正北路25巷16號","121.493543333333","25.0629633333333","6500200","三重區"
"241018","268-UM","2018/08/03 20:09:45","新北市三重區正義北路256巷94號","121.494036666667","25.067985","6500200","三重區"
"241032","269-UM","2018/08/03 20:09:42","新北市三重區捷運路65號","121.483465","25.0555516666667","6500200","三重區"
"241013","270-UM","2018/08/03 20:09:37","新北市三重區三和路三段151巷43號","121.493915","25.0743216666667","6500200","三重區"
"241025","271-UM","2018/08/03 20:09:46","新北市三重區中正北路416號","121.475191666667","25.0708416666667","6500200","三重區"
"241007","398-BY","2018/08/03 20:09:37","新北市三重區三和路四段111-9號","121.486415","25.0775133333333","6500200","三重區"
"241035","KEA-2210","2018/08/03 20:09:47","新北市三重區平安街31號","121.498263333333","25.0642083333333","6500200","三重區"
"241001","413-TH","2018/08/03 20:09:38","新北市三重區三和路四段87號","121.489655","25.0758533333333","6500200","三重區"
"241004","475-VK","2018/08/03 20:09:42","新北市三重區自強路四段80號","121.490618333333","25.0789116666667","6500200","三重區"
"241020","478-VK","2018/08/03 20:09:46","新北市三重區三和路三段121號","121.492818333333","25.0731033333333","6500200","三重區"
"241030","480-VK","2018/08/03 20:09:33","新北市三重區成功路145巷35號","121.487746666667","25.0532783333333","6500200","三重區"
"241014","543-UM","2018/08/03 20:09:38","新北市三重區長樂街114號","121.501691666667","25.06954","6500200","三重區"
"241023","545-UM","2018/08/03 20:09:49","新北市三重區頂崁街231號","121.476993333333","25.068405","6500200","三重區"
"241019","KEA-2593","2018/08/03 20:09:41","新北市三重區自強路二段33巷49號","121.49075","25.0698683333333","6500200","三重區"
"241006","AAD-863","2018/08/03 20:09:32","新北市三重區車路頭街139巷14號","121.484286666667","25.076195","6500200","三重區"
"241002","887-TS","2018/08/03 20:09:50","新北市三重區仁忠街55號","121.494848333333","25.0814116666667","6500200","三重區"
"241029","942-UM","2018/08/03 20:09:44","新北市三重區光明路32巷9號","121.491791666667","25.0586183333333","6500200","三重區"
"241033","AAC-255","2018/08/03 20:09:46","新北市三重區光復路一段70號","121.471963333333","25.0493566666667","6500200","三重區"
"235066","003-UY","2018/08/03 20:09:49","新北市中和區保平路231號","121.508033333333","25.0043266666667","6500300","中和區"
"235039","097-UM","2018/08/03 20:09:29","新北市中和區大勇街25巷30號","121.51621","24.9936216666667","6500300","中和區"
"235065","098-UM","2018/08/03 20:09:48","新北市中和區永和路128巷47號","121.497671666667","25.0068483333333","6500300","中和區"
"235040","150-BY","2018/08/03 20:09:31","新北市中和區保健路39巷9號","121.50912","24.9979416666667","6500300","中和區"
"247010","KEA-2869","2018/08/03 20:09:32","新北市蘆洲區信義路132-1號","121.479518333333","25.08288","6501400","蘆洲區"
"235050","4979-A6","2018/08/03 20:09:34","新北市中和區景平路155號","121.513621666667","24.9923433333333","6500300","中和區"
"235069","4980-A6","2018/08/03 20:09:31","新北市中和區景新街132巷6-3號","121.504731666667","24.9982866666667","6500300","中和區"
"235070","558-UM","2018/08/03 20:09:44","新北市中和區中正路434號","121.491323333333","24.9942583333333","6500300","中和區"
"235041","802-TS","2018/08/03 20:09:51","新北市中和區中正路1173號","121.481076666667","25.00981","6500300","中和區"
"235048","896-TW","2018/08/03 20:09:48","新北市中和區中正路305號","121.492808333333","24.9940716666667","6500300","中和區"
"235051","157-BY","2018/08/03 20:09:45","新北市中和區中正路131號","121.499755","24.9936266666667","6500300","中和區"
"235037","AAC-213","2018/08/03 20:09:34","新北市中和區立人街33-3號","121.520958333333","24.9941416666667","6500300","中和區"
"235059","AAC-215","2018/08/03 20:09:31","新北市中和區圓通路367巷13弄26號","121.493031666667","24.98823","6500300","中和區"
"220069","AAD-861","2018/08/03 20:09:35","新北市板橋區大明街25巷2弄23號","121.457516666667","25.00258","6500100","板橋區"
"247024","893-R6","2018/08/03 20:09:34","新北市蘆洲區光榮路100號","121.464513333333","25.088655","6501400","蘆洲區"
"247014","546-UM","2018/08/03 20:09:39","新北市蘆洲區中山二路269號","121.469898333333","25.07946","6501400","蘆洲區"
"247022","500-BY","2018/08/03 20:09:43","新北市蘆洲區三民路171巷5號","121.470871666667","25.087025","6501400","蘆洲區"
"247012","339-TH","2018/08/03 20:09:39","新北市蘆洲區民族路250巷7號","121.479493333333","25.088865","6501400","蘆洲區"
"247004","337-TH","2018/08/03 20:09:31","新北市蘆洲區長安街287號","121.458175","25.084505","6501400","蘆洲區"
"247006","336-TH","2018/08/03 20:09:48","新北市蘆洲區永安南路二段16巷8號","121.467775","25.077205","6501400","蘆洲區"
"247018","057-VK","2018/08/03 20:09:39","新北市蘆洲區民族路314巷23號","121.478036666667","25.0907633333333","6501400","蘆洲區"
"247016","053-VK","2018/08/03 20:09:40","新北市蘆洲區光華路186巷31號","121.46482","25.0833966666667","6501400","蘆洲區"
"247002","002-UY","2018/08/03 20:09:39","新北市蘆洲區永康街58號","121.459223333333","25.08605","6501400","蘆洲區"
"247020","001-UY","2018/08/03 20:09:38","新北市蘆洲區民權路106巷5弄7號","121.47418","25.0891083333333","6501400","蘆洲區"
"224010","AGQ-8101","2018/08/03 20:09:36","新北市瑞芳區輕便路308號","121.843015","25.1085","6501200","瑞芳區"
"224002","639-TC","2018/08/03 20:09:31","新北市瑞芳區大寮路356-1號","121.784861666667","25.1031933333333","6501200","瑞芳區"
"222001","KEA-2212","2018/08/03 20:09:51","新北市深坑區北深路三段216號","121.601123333333","25.0039833333333","6501800","深坑區"
"208002","KEA-2872","2018/08/03 20:09:45","新北市萬里區大鵬里萬里加投241號","121.642343333333","25.2166666666667","6502700","金山區"
"251004","009-UM","2018/08/03 20:09:47","新北市淡水區民族路31巷31號","121.462365","25.1365733333333","6501000","淡水區"
"251006","010-UM","2018/08/03 20:09:39","新北市淡水區北新路141巷29號","121.448191666667","25.17961","6501000","淡水區"
"251001","011-UM","2018/08/03 20:09:41","新北市淡水區中山北路三段16巷28號","121.445198333333","25.1891283333333","6501000","淡水區"
"251002","012-UM","2018/08/03 20:09:49","新北市淡水區中正路334號","121.435746666667","25.1731","6501000","淡水區"
"251008","181-VK","2018/08/03 20:09:33","新北市淡水區沙崙路131巷11號","121.422006666667","25.1830416666667","6501000","淡水區"
"251010","413-VK","2018/08/03 20:09:48","新北市淡水區新市二路二段2號","121.425785","25.1961766666667","6501000","淡水區"
"251012","441-VK","2018/08/03 20:09:36","新北市淡水區淡金路三段256號","121.448998333333","25.2064533333333","6501000","淡水區"
"251007","442-VK","2018/08/03 20:09:45","新北市淡水區淡金路一段69號","121.458181666667","25.1735033333333","6501000","淡水區"
"251005","443-VK","2018/08/03 20:09:30","新北市淡水區忠愛街3-1號","121.457443333333","25.1717166666667","6501000","淡水區"
"251009","575-R6","2018/08/03 20:09:37","新北市淡水區清水街5號","121.445001666667","25.1703233333333","6501000","淡水區"
"251003","673-BX","2018/08/03 20:09:39","新北市淡水區新市一路二段227號","121.443221666667","25.184","6501000","淡水區"
"207003","550-UM","2018/08/03 20:09:32","新北市萬里區大鵬里萬里加投180號","121.642958333333","25.2157666666667","6502800","萬里區"
"207004","225-TW","2018/08/03 20:09:48","新北市萬里區北基里愛三街11號","121.681743333333","25.176635","6502800","萬里區"
"252002","178-VK","2018/08/03 20:09:41","新北市三芝區中正路一段72號","121.503953333333","25.257675","6502100","三芝區"
"252001","292-VK","2018/08/03 20:09:29","新北市三芝區公正街9號","121.499613333333","25.25767","6502100","三芝區"
"237007","153-BY","2018/08/03 20:09:34","新北市鶯歌區中正一路113-1號","121.370418333333","24.958555","6500900","三峽區"
"237011","572-TV","2018/08/03 20:09:42","新北市鶯歌區中正一路113-1號","121.370766666667","24.9586366666667","6500900","三峽區"
"237014","433-BY","2018/08/03 20:09:40","新北市三峽區正義街123號","121.36867","24.9171483333333","6500900","三峽區"
"237006","5529-G3","2018/08/03 20:09:36","新北市三峽區嘉添227-24號","121.370091666667","24.9114766666667","6500900","三峽區"
"237015","649-BX","2018/08/03 20:09:41","新北市三峽區介壽路二段138巷47號","121.395353333333","24.9332816666667","6500900","三峽區"
"237005","AKY-6261","2018/08/03 20:09:47","新北市三峽區三樹路110號","121.378278333333","24.939125","6500900","三峽區"
"236069","105-UM","2018/08/03 20:09:37","新北市土城區中央路三段185號","121.431131666667","24.964985","6501300","土城區"
"236042","107-UM","2018/08/03 20:09:37","新北市土城區學享街36號","121.451801666667","24.9869316666667","6501300","土城區"
"236079","166-UM","2018/08/03 20:09:46","新北市土城區民族街42號","121.418581666667","24.9636316666667","6501300","土城區"
"236030","253-BX","2018/08/03 20:09:40","新北市土城區中央路一段121巷8弄2號","121.44754","24.987965","6501300","土城區"
"236026","269-VK","2018/08/03 20:09:36","新北市土城區裕生路81號","121.446901666667","24.9843266666667","6501300","土城區"
"236014","270-VK","2018/08/03 20:09:48","新北市土城區廣興街36號","121.455311666667","24.9916933333333","6501300","土城區"
"236039","271-VK","2018/08/03 20:09:46","新北市土城區延吉街363巷9號","121.46434","24.9834433333333","6501300","土城區"
"236020","401-BY","2018/08/03 20:09:44","新北市土城區延吉街25號","121.47243","24.9883433333333","6501300","土城區"
"236059","912-UM","2018/08/03 20:09:35","新北市土城區中央路二段219-7號","121.44077","24.9738016666667","6501300","土城區"
"236048","913-UM","2018/08/03 20:09:45","新北市土城區清水路173號","121.459361666667","24.98148","6501300","土城區"
"236055","AAC-216","2018/08/03 20:09:48","新北市土城區中華路一段166號","121.441495","24.9831633333333","6501300","土城區"
"242034","AAC-296","2018/08/03 20:09:48","新北市新莊區中正路318巷6號","121.446331666667","25.03524","6500500","新莊區"
"242058","986-R7","2018/08/03 20:09:37","新北市新莊區八德街87號","121.424511666667","25.02161","6500500","新莊區"
"242027","615-BX","2018/08/03 20:09:29","新北市新莊區幸福路732號","121.448785","25.0491833333333","6500500","新莊區"
"242025","613-BX","2018/08/03 20:09:47","新北市新莊區五權一路12巷25弄19號","121.458536666667","25.064715","6500500","新莊區"
"242041","566-BX","2018/08/03 20:09:46","新北市新莊區壽山路45號","121.414803333333","25.031015","6500500","新莊區"
"242046","497-BY","2018/08/03 20:09:42","新北市新莊區裕民街103巷13號","121.419131666667","25.0228983333333","6500500","新莊區"
"242056","440-UM","2018/08/03 20:09:42","新北市新莊區新莊路649巷13弄16號","121.445688333333","25.0318233333333","6500500","新莊區"
"242037","415-TV","2018/08/03 20:09:42","新北市新莊區建安街61號","121.42817","25.0251533333333","6500500","新莊區"
"242007","413-TV","2018/08/03 20:09:45","新北市新莊區思源路419巷1弄1號","121.459393333333","25.05244","6500500","新莊區"
"242044","400-BY","2018/08/03 20:09:34","新北市新莊區中正路895-20號","121.412551666667","25.0215066666667","6500500","新莊區"
"242023","362-BY","2018/08/03 20:09:41","新北市新莊區化成路608號","121.466193333333","25.054685","6500500","新莊區"
"242060","353-BY","2018/08/03 20:09:41","新北市新莊區瓊林路100巷1號","121.443616666667","25.0265533333333","6500500","新莊區"
"242009","132-UY","2018/08/03 20:09:43","新北市新莊區昌隆街30號","121.45415","25.0507683333333","6500500","新莊區"
"242039","133-UY","2018/08/03 20:09:39","新北市新莊區民安西路107號","121.42689","25.0184466666667","6500500","新莊區"
"242032","135-UY","2018/08/03 20:09:43","新北市新莊區中正路436號","121.440538333333","25.0336966666667","6500500","新莊區"
"242048","172-VK","2018/08/03 20:09:45","新北市新莊區四維路182巷4號","121.422055","25.0219183333333","6500500","新莊區"
"242011","173-VK","2018/08/03 19:48:03","新北市泰山區泰林路一段2號","121.44278","25.0477","6500500","新莊區"
"242017","175-VK","2018/08/03 20:09:31","新北市新莊區中港路338號","121.45214","25.045875","6500500","新莊區"
"242005","176-VK","2018/08/03 20:09:38","新北市新莊區頭興街3巷1號","121.463535","25.053555","6500500","新莊區"
"242013","347-TH","2018/08/03 20:09:45","新北市新莊區幸福路710巷8號","121.449865","25.0496666666667","6500500","新莊區"
"242021","348-TH","2018/08/03 20:09:30","新北市新莊區中興街5號","121.449171666667","25.0359466666667","6500500","新莊區"
"242002","349-TH","2018/08/03 20:09:45","新北市新莊區中正路145號","121.459698333333","25.0383583333333","6500500","新莊區"
"242019","350-TH","2018/08/03 20:09:41","新北市新莊區民樂街66號","121.457931666667","25.042215","6500500","新莊區"
"239002","359-BY","2018/08/03 20:09:46","新北市鶯歌區二甲路12-2號","121.345805","24.934835","6500800","鶯歌區"
"221008","489-VK","2018/08/03 20:09:33","台北市內湖區康樂街149號","121.619323333333","25.0719766666667","6501100","汐止區"
"221036","130-UY","2018/08/03 20:09:48","新北市汐止區新台五路二段102號","121.66253","25.0658916666667","6501100","汐止區"
"221015","131-UY","2018/08/03 20:09:39","新北市汐止區建成路52號","121.663536666667","25.07288","6501100","汐止區"
"221010","269-BY","2018/08/03 20:09:43","新北市汐止區八連路一段253號","121.64047","25.08364","6501100","汐止區"
"221012","278-VK","2018/08/03 20:09:31","新北市汐止區汐平路二段66號","121.69839","25.06107","6501100","汐止區"
"221023","279-VK","2018/08/03 20:09:43","新北市汐止區明峰街324號","121.624961666667","25.0673833333333","6501100","汐止區"
"221032","280-BY","2018/08/03 20:09:49","新北市汐止區弘道街8巷5弄1號","121.61714","25.0479916666667","6501100","汐止區"
"221027","281-BY","2018/08/03 20:09:49","新北市汐止區民生街4巷2號","121.660181666667","25.0687633333333","6501100","汐止區"
"221029","298-VK","2018/08/03 20:09:50","新北市汐止區樟樹一路123巷17號","121.641326666667","25.0645583333333","6501100","汐止區"
"221021","299-VK","2018/08/03 20:09:46","新北市汐止區水源路一段235號","121.654221666667","25.0602283333333","6501100","汐止區"
"221031","353-TW","2018/08/03 20:09:32","新北市汐止區福德二路94-1號","121.632623333333","25.0662433333333","6501100","汐止區"
"221002","129-UY","2018/08/03 20:09:41","新北市汐止區福德二路52號","121.634095","25.0672","6501100","汐止區"
"221035","622-UM","2018/08/03 20:09:49","新北市汐止區長江街79巷16號","121.65791","25.07299","6501100","汐止區"
"221025","623-UM","2018/08/03 20:09:32","新北市汐止區水源路一段241號","121.654208333333","25.0600733333333","6501100","汐止區"
"221038","646-BX","2018/08/03 20:09:45","新北市汐止區忠孝東路510號","121.666848333333","25.07533","6501100","汐止區"
"221033","647-BX","2018/08/03 20:09:41","新北市汐止區東勢街201巷100號","121.633743333333","25.0430033333333","6501100","汐止區"
"221018","753-BX","2018/08/03 20:09:36","新北市汐止區茄福街35巷39號","121.673461666667","25.0661516666667","6501100","汐止區"
"220101","245-BX","2018/08/03 20:09:37","新北市板橋區莒光路165巷32-2號","121.474385","25.0247716666667","6500100","板橋區"
"220103","257-TC","2018/08/03 20:09:42","新北市板橋區雨農路8號","121.462318333333","25.024895","6500100","板橋區"
"220094","285-UM","2018/08/03 20:09:49","新北市板橋區長江路二段313號","121.470948333333","25.0336616666667","6500100","板橋區"
"220083","286-VK","2018/08/03 20:09:34","新北市板橋區僑中二街90巷23號","121.44514","25.0092933333333","6500100","板橋區"
"220081","287-VK","2018/08/03 20:09:37","新北市板橋區僑中一街80巷7弄5號","121.44751","25.0127916666667","6500100","板橋區"
"220061","293-UM","2018/08/03 20:09:50","新北市板橋區民生路二段17號","121.472566666667","25.0161883333333","6500100","板橋區"
"242015","281-VK","2018/08/03 20:09:32","新北市新莊區中平路26巷55號","121.447463333333","25.0435","6500500","新莊區"
"220092","307-R5","2018/08/03 20:09:08","新北市板橋區文化路一段45巷8號","121.460151666667","25.0137","6500100","板橋區"
"220098","317-R6","2018/08/03 20:09:45","新北市板橋區新海路72巷5弄21號","121.46163","25.0227616666667","6500100","板橋區"
"220064","486-VK","2018/08/03 20:09:41","新北市板橋區實踐路147號","121.464238333333","25.00454","6500100","板橋區"
"242054","280-VK","2018/08/03 20:09:45","新北市新莊區西盛街385號","121.428026666667","25.0130466666667","6500500","新莊區"
"220088","491-VK","2018/08/03 20:09:40","新北市板橋區懷德街52號","121.477321666667","25.0325066666667","6500100","板橋區"
"220035","560-BX","2018/08/03 20:09:51","新北市板橋區新生街50號","121.456781666667","25.0210633333333","6500100","板橋區"
"220055","568-UM","2018/08/03 20:09:44","新北市板橋區仁愛路84號","121.460923333333","24.9996633333333","6500100","板橋區"
"220093","689-BX","2018/08/03 20:09:48","新北市板橋區長江路一段138號","121.46056","25.03","6500100","板橋區"
"220102","KEA-2699","2018/08/03 20:09:47","新北市板橋區仁化街76號","121.476051666667","25.0317566666667","6500100","板橋區"
"220067","829-TW","2018/08/03 20:09:49","新北市板橋區中山路一段299號","121.471238333333","25.0145083333333","6500100","板橋區"
"220068","830-TW","2018/08/03 20:09:34","新北市板橋區中山路二段361號","121.479735","25.019105","6500100","板橋區"
"220089","833-TW","2018/08/03 20:09:39","新北市板橋區互助街11號","121.463126666667","25.027565","6500100","板橋區"
"220074","895-R6","2018/08/03 20:09:40","新北市板橋區南雅南路一段1巷1弄11號","121.457236666667","25.0061083333333","6500100","板橋區"
"220097","AAC-210","2018/08/03 20:09:30","新北市板橋區光正街19號","121.462373333333","25.017125","6500100","板橋區"
"220070","AAC-253","2018/08/03 20:09:41","新北市板橋區德興街13號","121.453426666667","24.994385","6500100","板橋區"
"235068","KEA-2873","2018/08/03 20:09:48","新北市中和區福祥路85巷2弄1號","121.49869","25.005775","6500300","中和區"
