"lineid","car","time","location","longitude","latitude","cityid","cityname"
"248005","653-BX","2018/08/04 07:38:43","新北市五股區明德路12巷6號","121.433373333333","25.071785","6501500","五股區"
"232016","291-BY","2018/08/04 07:39:36","新北市坪林區北宜路七段330號","121.696215","24.93477","6502000","坪林區"
"232010","375-UM","2018/08/04 07:39:13","新北市坪林區磨壁潭4號","121.721385","24.9385983333333","6502000","坪林區"
"244005","248-BX","2018/08/04 07:39:23","新北市林口區頂福里91號","121.329068333333","25.0912866666667","6501700","林口區"
"231008","192-VK","2018/08/04 07:39:19","新北市新店區安一路一段1-1號","121.51915","24.9611133333333","6500600","新店區"
"235001","611-BX","2018/08/04 07:39:16","新北市中和區圓通路367巷4號","121.491371666667","24.9893183333333","6500300","中和區"
"226005","5620-A6","2018/08/04 07:39:34","新北市平溪區石底里公園街7號","121.738155","25.02515","6502400","平溪區"
"226007","7418-A5","2018/08/04 07:39:35","新北市平溪區靜安路三段246號","121.77592","25.039985","6502400","平溪區"
"226003","AGD-0702","2018/08/04 07:38:18","新北市平溪區嶺腳里嶺腳寮83-2號","121.750001666667","25.0352516666667","6502400","平溪區"
"223006","022-BY","2018/08/04 07:39:30","新北市石碇區蓬菜寮7-2號","121.653343333333","24.9748616666667","6501900","石碇區"
"223002","KEA-2673","2018/08/04 07:28:01","新北市石碇區烏塗窟1號","121.656275","24.975675","6501900","石碇區"
"223003","205-TH","2018/08/04 07:27:24","新北市石碇區蓬菜寮17號","121.649166666667","24.9720166666667","6501900","石碇區"
"223008","406-TH","2018/08/04 07:39:27","新北市石碇區藤寮坑6-1號","121.704013333333","25.006175","6501900","石碇區"
"223001","592-UM","2018/08/04 07:39:19","新北市石碇區蓬菜寮17號","121.649208333333","24.9720483333333","6501900","石碇區"
"223004","660-BX","2018/08/04 07:39:15","新北市石碇區八分寮47-1號","121.642038333333","25.0135383333333","6501900","石碇區"
"223007","661-BX","2018/08/04 07:39:28","新北市石碇區靜安路一段337號","121.698816666667","25.0146433333333","6501900","石碇區"
"223005","677-TV","2018/08/04 07:39:24","新北市石碇區八分寮47-1號","121.642065","25.013645","6501900","石碇區"
"227006","030-BX","2018/08/04 07:39:32","新北市雙溪區雙溪里太平路41號","121.864726666667","25.0355666666667","6502500","雙溪區"
"252004","249-BX","2018/08/04 07:39:14","新北市三芝區店子里菜公坑103號","121.516478333333","25.206915","6502100","三芝區"
"252007","AAC-283","2018/08/04 07:39:15","新北市三芝區古庄里四棧橋57號","121.483938333333","25.2646466666667","6502100","三芝區"
"237001","159-UY","2018/08/04 07:39:23","新北市三峽區國慶路136號","121.375863333333","24.9396466666667","6500900","三峽區"
"236011","165-UM","2018/08/04 07:39:16","新北市土城區延壽路2號","121.471546666667","24.990275","6501300","土城區"
"236002","339-SR","2018/08/04 07:39:18","新北市土城區龍泉路89-1號","121.446321666667","24.9422433333333","6501300","土城區"
