"lineid","car","time","location","longitude","latitude","cityid","cityname"
"231007","189-VK","2018/11/03 10:59:16","新北市新店區新潭路三段9號","121.508421666667","24.9154183333333","6500600","新店區"
"231008","192-VK","2018/11/03 10:59:05","新北市新店區頂石厝路26號","121.539125","24.9183583333333","6500600","新店區"
"227006","282-VK","2018/11/03 10:58:56","新北市雙溪區魚行里坤溪8號","121.866276666667","25.02132","6502500","雙溪區"
"237001","159-UY","2018/11/03 10:59:05","新北市三峽區中山路459巷163-1號","121.349328333333","24.9335216666667","6500900","三峽區"
"220084","256-TC","2018/11/03 10:59:08","新北市板橋區南雅西路一段60號","121.453713333333","25.0050483333333","6500100","板橋區"
