"lineid","car","time","location","longitude","latitude","cityid","cityname"
"234044","148-BY","2018/11/03 13:39:12","新北市永和區秀朗路二段99號","121.523483333333","25.00178","6500400","永和區"
"234005","207-UY","2018/11/03 13:39:06","新北市永和區永和路二段28號","121.514628333333","25.0104233333333","6500400","永和區"
"234078","298-R6","2018/11/03 13:39:06","新北市永和區國中路104巷8弄11號","121.525141666667","25.0066083333333","6500400","永和區"
"234036","336-UY","2018/11/03 13:39:05","新北市永和區民樂街31巷8弄1號","121.52806","25.0011183333333","6500400","永和區"
"234062","337-UY","2018/11/03 13:39:13","新北市永和區秀朗路二段24巷28弄2號","121.519921666667","25.0018","6500400","永和區"
"234084","338-UY","2018/11/03 13:39:05","新北市永和區永亨路165巷10號","121.526256666667","25.0042133333333","6500400","永和區"
"234068","552-UM","2018/11/03 13:39:15","新北市永和區永和路二段233號","121.515626666667","25.0142433333333","6500400","永和區"
"234015","745-BX","2018/11/03 13:39:07","新北市永和區永和路二段425巷56號","121.514","25.0175166666667","6500400","永和區"
"234028","746-BX","2018/11/03 13:39:16","新北市永和區民權路29巷18號","121.520981666667","24.997985","6500400","永和區"
"234052","KEA-2590","2018/11/03 13:39:05","新北市永和區竹林路39巷22號","121.518976666667","25.014745","6500400","永和區"
"234012","KEA-2591","2018/11/03 13:39:20","新北市永和區永平路230號","121.50892","25.01076","6500400","永和區"
"234060","AAD-866","2018/11/03 13:39:02","新北市永和區中正路293號","121.517491666667","25.00147","6500400","永和區"
"234040","862-TW","2018/11/03 13:39:15","新北市永和區中和路305巷16弄20號","121.507211666667","25.0011316666667","6500400","永和區"
"234048","863-TW","2018/11/03 13:39:20","新北市永和區保安路35號","121.509826666667","25.0161983333333","6500400","永和區"
"234025","9371-KE","2018/11/03 13:39:05","新北市永和區和平街109巷6-1號","121.510656666667","25.0096916666667","6500400","永和區"
"234010","9373-KE","2018/11/03 13:39:18","新北市永和區保福路二段9巷9號","121.51057","25.0108983333333","6500400","永和區"
"248017","225-UY","2018/11/03 13:39:18","新北市五股區民義路二段84號","121.406006666667","25.108925","6501500","五股區"
"234022","9380-KE","2018/11/03 13:39:04","新北市永和區中正路702巷20弄1號","121.516473333333","25.0105966666667","6500400","永和區"
"234076","969-R7","2018/11/03 13:39:18","新北市永和區得和路233-2號","121.520115","25.0001683333333","6500400","永和區"
"234072","AAC-211","2018/11/03 13:39:16","新北市永和區福和路76巷1號","121.522955","25.0083333333333","6500400","永和區"
"234066","AAC-212","2018/11/03 13:39:00","新北市永和區永貞路406巷28號","121.509751666667","25.0079283333333","6500400","永和區"
"234001","AAC-295","2018/11/03 13:39:06","新北市永和區永和路一段122號","121.513928333333","25.0076233333333","6500400","永和區"
"231002","002-UM","2018/11/03 13:39:08","新北市新店區溪園路403號","121.523993333333","24.97814","6500600","新店區"
"231027","0293-UT","2018/11/03 13:39:06","新北市新店區國校路68號","121.538623333333","24.953135","6500600","新店區"
"231028","046-UY","2018/11/03 13:39:03","新北市新店區安和路一段23號","121.516933333333","24.9648266666667","6500600","新店區"
"231001","047-UY","2018/11/03 13:39:08","新北市新店區中正路444號","121.53412","24.9784716666667","6500600","新店區"
"231010","107-UY","2018/11/03 13:39:11","新北市新店區中正路336號","121.53678","24.9749266666667","6500600","新店區"
"231020","108-UY","2018/11/03 13:39:19","新北市新店區永興路88-1號","121.543985","24.9337683333333","6500600","新店區"
"231012","187-VK","2018/11/03 13:39:17","新北市新店區德正街23巷5號","121.54432","24.9720516666667","6500600","新店區"
"231023","KEA-2219","2018/11/03 13:39:10","新北市新店區新店路143號","121.537066666667","24.9548766666667","6500600","新店區"
"231026","256-BX","2018/11/03 13:39:12","新北市新店區中正路135號","121.54184","24.97144","6500600","新店區"
"231003","268-BY","2018/11/03 13:39:01","新北市新店區中正路82號","121.543736666667","24.9704033333333","6500600","新店區"
"231018","278-BY","2018/11/03 13:39:02","新北市新店區百忍街12號","121.53473","24.9756916666667","6500600","新店區"
"231017","AAD-862","2018/11/03 13:39:13","新北市新店區竹林路97巷1號","121.554496666667","24.9502966666667","6500600","新店區"
"231005","355-BY","2018/11/03 13:39:07","新北市新店區中興路三段6號","121.547408333333","24.9775116666667","6500600","新店區"
"231038","3712-VJ","2018/11/03 13:39:04","新北市新店區安華路28-1號","121.519191666667","24.9606733333333","6500600","新店區"
"231037","4716-K9","2018/11/03 13:39:04","新北市新店區薏仁坑路25號","121.496655","24.9598866666667","6500600","新店區"
"231025","4715-K9","2018/11/03 13:38:45","新北市新店區中央六街56號","121.527938333333","24.9757383333333","6500600","新店區"
"231036","512-UM","2018/11/03 13:38:59","新北市新店區安祥路109巷90弄109號","121.476215","24.95712","6500600","新店區"
"231013","513-UM","2018/11/03 13:39:09","新北市新店區中正路454-5號","121.534446666667","24.979085","6500600","新店區"
"231030","619-UM","2018/11/03 13:39:13","新北市新店區安康路一段220號","121.523846666667","24.9635316666667","6500600","新店區"
"231034","641-BX","2018/11/03 13:39:15","新北市新店區黎明路57巷49號","121.50431","24.9483216666667","6500600","新店區"
"231035","719-UM","2018/11/03 13:39:12","新北市新店區安忠路56巷6號","121.51291","24.9594283333333","6500600","新店區"
"231033","720-UM","2018/11/03 13:39:17","新北市新店區安康路一段102號","121.52739","24.9623933333333","6500600","新店區"
"231029","897-TW","2018/11/03 13:39:13","新北市新店區車子路1-1號","121.504851666667","24.9579666666667","6500600","新店區"
"231006","898-TW","2018/11/03 13:39:16","新北市新店區光明街1號","121.53816","24.95901","6500600","新店區"
"231004","899-TW","2018/11/03 13:39:02","新北市新店區北新路二段1號","121.542686666667","24.97129","6500600","新店區"
"231024","AKT-0513","2018/11/03 13:35:18","新北市新店區華興街18號","121.53773","24.9694433333333","6500600","新店區"
"235030","003-UY","2018/11/03 13:39:12","新北市中和區水源路43號","121.504706666667","25.00361","6500300","中和區"
"235028","005-UY","2018/11/03 13:39:13","新北市中和區連城路87號","121.496816666667","25.0002316666667","6500300","中和區"
"235027","006-UY","2018/11/03 13:39:11","新北市中和區連城路403巷2弄2號","121.486168333333","24.9958333333333","6500300","中和區"
"235011","031-BX","2018/11/03 13:39:07","新北市中和區福美路230號","121.499116666667","25.0053683333333","6500300","中和區"
"235020","096-UM","2018/11/03 13:39:12","新北市中和區員山路466巷18號","121.481023333333","25.0064866666667","6500300","中和區"
"235003","097-UM","2018/11/03 13:39:13","新北市中和區景平路278巷16弄4號","121.514123333333","24.9935216666667","6500300","中和區"
"235029","098-UM","2018/11/03 13:39:12","新北市中和區莊敬路33巷13號","121.50025","25.0068433333333","6500300","中和區"
"235004","150-BY","2018/11/03 13:39:15","新北市中和區保健路50巷66號","121.509108333333","24.9952816666667","6500300","中和區"
"235022","151-BY","2018/11/03 13:39:00","新北市中和區圓通路320號","121.486876666667","24.9881166666667","6500300","中和區"
"235019","183-VK","2018/11/03 13:39:15","新北市中和區國光街8巷7號","121.47156","25.0006783333333","6500300","中和區"
"235002","185-VK","2018/11/03 13:39:11","新北市中和區立人街14巷23號","121.519453333333","24.9951766666667","6500300","中和區"
"235013","186-VK","2018/11/03 13:39:03","新北市中和區景安路179-3號","121.505141666667","24.9939416666667","6500300","中和區"
"235031","255-BX","2018/11/03 13:39:16","新北市中和區新生街186巷5弄27號","121.4829","24.99869","6500300","中和區"
"235008","293-VK","2018/11/03 13:39:09","新北市中和區復興路280巷1弄2號","121.502241666667","24.99066","6500300","中和區"
"235036","301-VK","2018/11/03 13:39:17","新北市中和區連城路144巷4弄11號","121.495746666667","24.9989133333333","6500300","中和區"
"235007","352-BY","2018/11/03 13:39:16","新北市中和區景平路123號","121.515435","24.9921","6500300","中和區"
"235006","KEA-2878","2018/11/03 13:39:04","新北市中和區成功路97巷18弄1號","121.526815","24.9916983333333","6500300","中和區"
"235014","4979-A6","2018/11/03 13:39:12","新北市中和區景新街496巷35弄1號","121.513526666667","24.9857016666667","6500300","中和區"
"235033","4980-A6","2018/11/03 13:39:00","新北市中和區連城路89巷9號","121.497325","24.9990016666667","6500300","中和區"
"235034","558-UM","2018/11/03 13:38:59","新北市中和區圓通路46號","121.500751666667","24.997775","6500300","中和區"
"235009","565-BX","2018/11/03 13:39:08","新北市中和區南山路236巷63弄1號","121.503831666667","24.9876566666667","6500300","中和區"
"235018","640-BX","2018/11/03 13:39:07","新北市中和區莒光路114號","121.472453333333","25.002005","6500300","中和區"
"235024","647-TV","2018/11/03 13:39:18","新北市中和區中山路二段618號","121.481478333333","25.00541","6500300","中和區"
"235011","732-UM","2018/11/03 13:39:03","新北市中和區南山路320巷10弄21號","121.506838333333","24.9867033333333","6500300","中和區"
"235035","783-BX","2018/11/03 13:39:08","新北市中和區中山路二段482巷33號","121.490293333333","25.0067333333333","6500300","中和區"
"235026","800-TS","2018/11/03 13:39:17","新北市中和區中山路二段312巷6號","121.495676666667","25.00273","6500300","中和區"
"235021","801-TS","2018/11/03 13:39:06","新北市中和區民安街42巷36號","121.479023333333","25.0013083333333","6500300","中和區"
"235005","802-TS","2018/11/03 13:39:17","新北市中和區中安街76號","121.51224","25.0019616666667","6500300","中和區"
"235016","805-TS","2018/11/03 13:39:17","新北市中和區興南路三段52巷1-3號","121.494103333333","24.9759683333333","6500300","中和區"
"235012","896-TW","2018/11/03 13:39:17","新北市中和區中正路81號","121.500735","24.9935383333333","6500300","中和區"
"235017","900-TW","2018/11/03 13:39:19","新北市中和區莒光路213號","121.469045","24.9946833333333","6500300","中和區"
"235015","157-BY","2018/11/03 13:39:08","新北市中和區華新街143巷106弄33號","121.50693","24.9783216666667","6500300","中和區"
"235001","AAC-213","2018/11/03 13:39:08","新北市中和區景新街383巷50號","121.514475","24.9908833333333","6500300","中和區"
"235023","AAC-215","2018/11/03 13:39:16","新北市中和區中正路525號","121.488041666667","24.9935233333333","6500300","中和區"
"220013","072-UY","2018/11/03 13:39:13","新北市板橋區漢生東路280號","121.470393333333","25.0099666666667","6500100","板橋區"
"247021","001-UY","2018/11/03 13:39:22","新北市五股區中興路三段163號","121.449135","25.0808166666667","6501400","蘆洲區"
"228005","097-TW","2018/11/03 13:39:09","新北市貢寮區美豐里文秀坑8號","121.902535","25.05043","6502600","貢寮區"
"228004","212-TW","2018/11/03 13:38:59","新北市貢寮區龍崗里嵩陽街17號","121.907333333333","25.0082","6502600","貢寮區"
"253003","6232-TK","2018/11/03 13:39:15","新北市石門區內石門17-1號","121.574018333333","25.2754016666667","6502200","石門區"
"253004","6251-TK","2018/11/03 13:39:10","新北市石門區阿里荖63號","121.60786","25.267645","6502200","石門區"
"253002","637-UY","2018/11/03 13:39:18","新北市石門區尖山湖3號","121.565343333333","25.2428416666667","6502200","石門區"
"253001","KEC-0718","2018/11/03 13:39:09","新北市石門區白沙灣別墅5-1號","121.508951666667","25.27812","6502200","石門區"
"207002","749-BX","2018/11/03 13:39:03","新北市萬里區崁腳里崁腳路166號","121.645091666667","25.155915","6502800","萬里區"
"252005","073-UM","2018/11/03 13:39:11","新北市三芝區圓山里木屐寮38-2號","121.531466666667","25.2284733333333","6502100","三芝區"
"207001","662-BX","2018/11/03 13:39:04","新北市萬里區大鵬里萬里加投46-1號","121.641848333333","25.2110666666667","6502800","萬里區"
"237001","159-UY","2018/11/03 13:39:05","新北市樹林區學成路470號","121.37849","24.9448933333333","6500900","三峽區"
"236074","166-UM","2018/11/03 13:39:13","新北市土城區中華路二段141號","121.438976666667","24.9762333333333","6501300","土城區"
"236029","253-BX","2018/11/03 13:39:06","新北市土城區城林路6巷80號","121.43844","24.9796766666667","6501300","土城區"
"236032","271-VK","2018/11/03 13:39:14","新北市土城區城林路6巷80號","121.438506666667","24.9797933333333","6501300","土城區"
"236057","912-UM","2018/11/03 13:39:02","新北市土城區城林路6巷80號","121.438631666667","24.9796766666667","6501300","土城區"
"236060","915-UM","2018/11/03 13:39:14","新北市土城區城林路6巷80號","121.438628333333","24.9796216666667","6501300","土城區"
"221010","269-BY","2018/11/03 13:39:05","新北市汐止區長青路210巷52號","121.614861666667","25.1171266666667","6501100","汐止區"
"221023","279-VK","2018/11/03 13:39:11","新北市汐止區福德一路2巷25號","121.639401666667","25.0706166666667","6501100","汐止區"
"221033","647-BX","2018/11/03 13:39:01","新北市新店區薏仁坑路自強巷6號","121.496875","24.9582783333333","6501100","汐止區"
"220027","145-BY","2018/11/03 13:39:18","新北市板橋區館前西路166-1號","121.45243","25.0086133333333","6500100","板橋區"
"220030","610-BX","2018/11/03 13:39:20","新北市板橋區篤行路二段59號","121.43177","24.9923433333333","6500100","板橋區"
"220004","276-BY","2018/11/03 13:39:04","新北市板橋區四川路二段140巷16弄28號","121.448638333333","24.9943866666667","6500100","板橋區"
"220005","282-UM","2018/11/03 13:39:00","新北市板橋區華東街1-9號","121.448203333333","24.9948066666667","6500100","板橋區"
"220019","283-VK","2018/11/03 13:39:14","新北市板橋區四川路二段14號","121.456016666667","24.9963616666667","6500100","板橋區"
"220043","285-UM","2018/11/03 13:39:20","新北市板橋區民生路二段161巷3號","121.470116666667","25.0197516666667","6500100","板橋區"
"220031","286-VK","2018/11/03 13:39:10","新北市板橋區板城路271號","121.450248333333","24.9978633333333","6500100","板橋區"
"220029","287-VK","2018/11/03 13:39:03","新北市板橋區合安一路49號","121.44722","24.99921","6500100","板橋區"
"220023","303-R5","2018/11/03 13:39:18","新北市板橋區館前西路164號","121.452545","25.00864","6500100","板橋區"
"220010","305-R5","2018/11/03 13:39:03","新北市板橋區民生路二段120號","121.470353333333","25.01975","6500100","板橋區"
"220012","486-VK","2018/11/03 13:39:15","新北市板橋區民生路二段36-1號","121.47214","25.0167916666667","6500100","板橋區"
"220038","487-VK","2018/11/03 13:39:03","新北市板橋區三民路二段257號","121.479093333333","25.01164","6500100","板橋區"
"220104","560-BX","2018/11/03 13:39:09","新北市板橋區南雅西路二段145巷10號","121.4516","25.0119166666667","6500100","板橋區"
"220032","568-UM","2018/11/03 13:39:06","新北市板橋區板城路421號","121.447865","24.9964483333333","6500100","板橋區"
"220034","630-UY","2018/11/03 13:39:13","新北市板橋區南雅西路二段192巷3號","121.452096666667","25.014485","6500100","板橋區"
"220025","687-BX","2018/11/03 13:39:18","新北市板橋區大觀路三段108號","121.432263333333","24.9941666666667","6500100","板橋區"
"220002","741-BX","2018/11/03 13:39:13","新北市板橋區板城路421號","121.448133333333","24.995705","6500100","板橋區"
"220003","827-TW","2018/11/03 13:39:05","新北市板橋區華東街1-9號","121.448198333333","24.9949333333333","6500100","板橋區"
"220022","895-R6","2018/11/03 13:39:05","新北市板橋區南雅南路一段46號","121.45574","25.0060583333333","6500100","板橋區"
"220021","985-R7","2018/11/03 13:39:11","新北市板橋區南雅西路一段7巷5號","121.454523333333","25.0039166666667","6500100","板橋區"
"220018","AAC-253","2018/11/03 13:39:12","新北市板橋區大觀路二段266號","121.449615","24.996845","6500100","板橋區"
"235032","KEA-2873","2018/11/03 13:39:01","新北市中和區中正路211巷36弄4號","121.497226666667","24.9928666666667","6500300","中和區"
"235025","KEA-2875","2018/11/03 13:39:18","新北市中和區民享街30巷4號","121.473666666667","25.003555","6500300","中和區"
