"lineid","car","time","location","longitude","latitude","cityid","cityname"
"234044","148-BY","2018/11/03 13:49:10","新北市永和區永利路322巷29號","121.525395","25.002465","6500400","永和區"
"234005","207-UY","2018/11/03 13:49:06","新北市永和區中和路593號","121.512256666667","25.004055","6500400","永和區"
"234078","298-R6","2018/11/03 13:49:21","新北市永和區永亨路98號","121.522991666667","25.0049566666667","6500400","永和區"
"234036","336-UY","2018/11/03 13:49:05","新北市永和區民樂街59巷5號","121.527965","24.9984383333333","6500400","永和區"
"234062","337-UY","2018/11/03 13:49:03","新北市永和區中正路370號","121.517868333333","25.0009116666667","6500400","永和區"
"234084","338-UY","2018/11/03 13:49:05","新北市永和區永利路179號","121.525776666667","25.0035366666667","6500400","永和區"
"234068","552-UM","2018/11/03 13:49:15","新北市永和區竹林路81號","121.519505","25.0125866666667","6500400","永和區"
"234015","745-BX","2018/11/03 13:49:07","新北市永和區文化路7號","121.51537","25.0150233333333","6500400","永和區"
"234028","746-BX","2018/11/03 13:49:16","新北市永和區民生路47巷7號","121.523245","24.9978533333333","6500400","永和區"
"234052","KEA-2590","2018/11/03 13:49:05","新北市永和區竹林路75巷25弄8號","121.520148333333","25.0144683333333","6500400","永和區"
"234012","KEA-2591","2018/11/03 13:49:00","新北市永和區仁愛路168號","121.510185","25.0127566666667","6500400","永和區"
"234060","AAD-866","2018/11/03 13:49:02","新北市永和區安樂路44號","121.51465","24.9968916666667","6500400","永和區"
"234040","862-TW","2018/11/03 13:49:10","新北市永和區中和路335巷18弄4號","121.50764","25.0002616666667","6500400","永和區"
"234048","863-TW","2018/11/03 13:48:05","新北市永和區保安路73號","121.508761666667","25.0149183333333","6500400","永和區"
"234010","9373-KE","2018/11/03 13:49:17","新北市永和區保安路292號","121.505038333333","25.0117966666667","6500400","永和區"
"248017","225-UY","2018/11/03 13:49:18","新北市五股區民義路二段22巷35-1號","121.424145","25.1009183333333","6501500","五股區"
"234022","9380-KE","2018/11/03 13:49:08","新北市永和區復興街2巷4號","121.515718333333","25.0126716666667","6500400","永和區"
"234076","969-R7","2018/11/03 13:49:18","新北市永和區民族街27巷17號","121.519821666667","24.9995916666667","6500400","永和區"
"234072","AAC-211","2018/11/03 13:49:13","新北市永和區竹林路179巷42號","121.52226","25.0102266666667","6500400","永和區"
"234066","AAC-212","2018/11/03 13:49:00","新北市永和區保平路236巷15弄18號","121.507725","25.0068333333333","6500400","永和區"
"234001","AAC-295","2018/11/03 13:49:06","新北市永和區永和路一段107號","121.51392","25.0080416666667","6500400","永和區"
"231002","002-UM","2018/11/03 13:49:08","新北市新店區溪園路247號","121.525065","24.98305","6500600","新店區"
"231027","0293-UT","2018/11/03 13:49:18","新北市新店區北宜路一段105巷4弄3號","121.539916666667","24.9556533333333","6500600","新店區"
"231028","046-UY","2018/11/03 13:49:17","新北市新店區安和路二段218-1號","121.517993333333","24.97521","6500600","新店區"
"231001","047-UY","2018/11/03 13:49:11","新北市新店區三民路86號","121.534371666667","24.9726733333333","6500600","新店區"
"231010","107-UY","2018/11/03 13:49:11","新北市新店區三民路60巷5號","121.53537","24.97255","6500600","新店區"
"231020","108-UY","2018/11/03 13:49:19","新北市新店區永興路95-3號","121.544501666667","24.932565","6500600","新店區"
"231012","187-VK","2018/11/03 13:49:17","新北市新店區德正街27巷29弄123號","121.54575","24.9729","6500600","新店區"
"231023","KEA-2219","2018/11/03 13:49:10","新北市新店區北宜路一段26號","121.537715","24.957055","6500600","新店區"
"231026","256-BX","2018/11/03 13:49:12","新北市新店區三民路159巷19弄31號","121.532188333333","24.9731333333333","6500600","新店區"
"231003","268-BY","2018/11/03 13:49:21","新北市新店區中興路一段216號","121.543798333333","24.9658716666667","6500600","新店區"
"231018","278-BY","2018/11/03 13:49:02","新北市新店區中正路400巷12號","121.535021666667","24.9779183333333","6500600","新店區"
"231017","AAD-862","2018/11/03 13:49:13","新北市新店區郵政路97號","121.55447","24.9513866666667","6500600","新店區"
"231005","355-BY","2018/11/03 13:49:07","新北市新店區寶中路123號","121.549696666667","24.9794083333333","6500600","新店區"
"231038","3712-VJ","2018/11/03 13:49:04","新北市新店區安華路28-1號","121.519221666667","24.9606183333333","6500600","新店區"
"231037","4716-K9","2018/11/03 13:49:04","新北市新店區安康路三段359巷12弄3號","121.484321666667","24.9497216666667","6500600","新店區"
"231025","4715-K9","2018/11/03 13:49:05","新北市新店區中正路275巷7號","121.537511666667","24.9739116666667","6500600","新店區"
"231036","512-UM","2018/11/03 13:49:19","新北市新店區安祥路118號","121.474693333333","24.9565116666667","6500600","新店區"
"231013","513-UM","2018/11/03 13:49:09","新北市新店區二十張路21號","121.539156666667","24.9821833333333","6500600","新店區"
"231030","619-UM","2018/11/03 13:49:12","新北市新店區安康路一段20號","121.531186666667","24.9610483333333","6500600","新店區"
"231034","641-BX","2018/11/03 13:49:14","新北市新店區達觀路16號","121.503083333333","24.941315","6500600","新店區"
"231035","719-UM","2018/11/03 13:49:12","新北市新店區安忠路38號","121.51312","24.9595716666667","6500600","新店區"
"231033","720-UM","2018/11/03 13:49:18","新北市新店區莒光路44巷21弄11-3號","121.518436666667","24.9521933333333","6500600","新店區"
"231029","897-TW","2018/11/03 13:49:13","新北市新店區安康路二段140號","121.512471666667","24.961775","6500600","新店區"
"231006","898-TW","2018/11/03 13:49:16","新北市新店區北宜路一段171號","121.544578333333","24.9531383333333","6500600","新店區"
"231004","899-TW","2018/11/03 13:49:02","新北市新店區中興路二段252號","121.547418333333","24.9759416666667","6500600","新店區"
"231024","AKT-0513","2018/11/03 13:49:18","新北市新店區新生街12號","121.540098333333","24.96613","6500600","新店區"
"235030","003-UY","2018/11/03 13:49:12","新北市中和區水源路18巷3號","121.504045","25.0031383333333","6500300","中和區"
"235028","005-UY","2018/11/03 13:49:13","新北市中和區泰和街12號","121.499856666667","25.0009633333333","6500300","中和區"
"235027","006-UY","2018/11/03 13:49:11","新北市中和區連城路319巷12號","121.489193333333","24.9951333333333","6500300","中和區"
"235011","031-BX","2018/11/03 13:49:07","新北市中和區中正路426號","121.491405","24.9942783333333","6500300","中和區"
"235020","096-UM","2018/11/03 13:49:12","新北市中和區立德街329號","121.481551666667","25.0104433333333","6500300","中和區"
"235003","097-UM","2018/11/03 13:49:13","新北市中和區大勇街48號","121.517466666667","24.9939416666667","6500300","中和區"
"235029","098-UM","2018/11/03 13:49:10","新北市中和區勝利路35巷11弄1號","121.499591666667","25.0068","6500300","中和區"
"235004","150-BY","2018/11/03 13:49:10","新北市中和區保健路71號","121.51002","24.997065","6500300","中和區"
"235022","151-BY","2018/11/03 13:49:00","新北市中和區連城路506號","121.477391666667","24.9924883333333","6500300","中和區"
"235019","183-VK","2018/11/03 13:49:15","新北市中和區民生街85巷4弄2號","121.468998333333","25.004355","6500300","中和區"
"235002","185-VK","2018/11/03 13:49:11","新北市中和區立人街44號","121.517878333333","24.9940416666667","6500300","中和區"
"235013","186-VK","2018/11/03 13:49:03","新北市中和區景安路132巷16號","121.504201666667","24.994185","6500300","中和區"
"235031","255-BX","2018/11/03 13:49:16","新北市中和區新生街242巷3-1號","121.483326666667","24.99778","6500300","中和區"
"235008","293-VK","2018/11/03 13:49:09","新北市中和區中興街137號","121.500008333333","24.9914183333333","6500300","中和區"
"235036","301-VK","2018/11/03 13:49:17","新北市中和區中山路二段86號","121.503496666667","25.0043283333333","6500300","中和區"
"235007","352-BY","2018/11/03 13:49:16","新北市中和區成功路48號","121.526098333333","24.99286","6500300","中和區"
"235006","KEA-2878","2018/11/03 13:49:17","新北市中和區秀朗路三段70巷52號","121.524973333333","24.994395","6500300","中和區"
"235014","4979-A6","2018/11/03 13:49:06","新北市中和區忠孝街62巷3號","121.51263","24.9836083333333","6500300","中和區"
"235033","4980-A6","2018/11/03 13:49:20","新北市中和區南山路41號","121.502063333333","24.99856","6500300","中和區"
"235034","558-UM","2018/11/03 13:49:19","新北市中和區中和路281-1號","121.505995","24.9996983333333","6500300","中和區"
"235009","565-BX","2018/11/03 13:49:08","新北市中和區捷運路6號","121.510031666667","24.9895066666667","6500300","中和區"
"235018","640-BX","2018/11/03 13:49:20","新北市中和區莒光路129巷2弄5號","121.473085","25.00172","6500300","中和區"
"235024","647-TV","2018/11/03 13:49:18","新北市中和區中山路三段206號","121.47158","25.0065283333333","6500300","中和區"
"235011","732-UM","2018/11/03 13:49:03","新北市中和區興南路二段34巷71號","121.504935","24.985025","6500300","中和區"
"235010","733-UM","2018/11/03 13:49:13","新北市中和區仁愛街36巷46號","121.511386666667","24.9862233333333","6500300","中和區"
"235035","783-BX","2018/11/03 13:49:08","新北市中和區中山路二段482巷11弄3號","121.488403333333","25.00644","6500300","中和區"
"235026","800-TS","2018/11/03 13:49:17","新北市中和區景平路722號","121.496901666667","25.003055","6500300","中和區"
"235021","801-TS","2018/11/03 13:49:06","新北市中和區民安街21號","121.480426666667","25.0006316666667","6500300","中和區"
"235005","802-TS","2018/11/03 13:49:17","新北市中和區永貞路280號","121.513065","25.00404","6500300","中和區"
"235016","805-TS","2018/11/03 13:49:06","新北市中和區興南路二段399巷100號","121.501115","24.9770016666667","6500300","中和區"
"235012","896-TW","2018/11/03 13:49:17","新北市中和區南山路393號","121.506605","24.9902116666667","6500300","中和區"
"235017","900-TW","2018/11/03 13:49:19","新北市中和區華福街33號","121.466115","24.9967883333333","6500300","中和區"
"235015","157-BY","2018/11/03 13:49:21","新北市中和區忠孝街16號","121.51029","24.9827683333333","6500300","中和區"
"235001","AAC-213","2018/11/03 13:49:08","新北市中和區秀朗路三段175巷10號","121.524983333333","24.9913583333333","6500300","中和區"
"235023","AAC-215","2018/11/03 13:49:16","新北市中和區圓通路391-3號","121.489895","24.98924","6500300","中和區"
"220013","072-UY","2018/11/03 13:49:13","新北市板橋區漢生東路280號","121.4704","25.0099666666667","6500100","板橋區"
"220105","075-UY","2018/11/03 13:49:03","新北市板橋區民生路二段161巷9號","121.470263333333","25.01954","6500100","板橋區"
"247005","337-TH","2018/11/03 13:49:12","新北市蘆洲區和平路77號","121.469311666667","25.0789983333333","6501400","蘆洲區"
"247007","336-TH","2018/11/03 13:49:19","新北市蘆洲區集賢路269巷4-1號","121.481396666667","25.083505","6501400","蘆洲區"
"247019","057-VK","2018/11/03 13:49:15","新北市蘆洲區民族路422巷48弄24號","121.474686666667","25.093165","6501400","蘆洲區"
"247003","002-UY","2018/11/03 13:49:16","新北市蘆洲區中原路21巷5號","121.460898333333","25.0825016666667","6501400","蘆洲區"
"247021","001-UY","2018/11/03 13:49:01","新北市蘆洲區中正路516巷38-5號","121.461345","25.0982816666667","6501400","蘆洲區"
"228005","097-TW","2018/11/03 13:49:09","新北市貢寮區美豐里土地公嶺10號","121.890786666667","25.0568683333333","6502600","貢寮區"
"228004","212-TW","2018/11/03 13:48:59","新北市貢寮區龍崗里嵩陽街12號","121.903155","25.0113766666667","6502600","貢寮區"
"253003","6232-TK","2018/11/03 13:49:15","新北市石門區尖子鹿10-2號","121.574423333333","25.28286","6502200","石門區"
"253004","6251-TK","2018/11/03 13:49:10","新北市石門區草埔尾27號","121.604133333333","25.26425","6502200","石門區"
"253002","637-UY","2018/11/03 13:48:58","新北市石門區七股56號","121.55312","25.2558883333333","6502200","石門區"
"253001","KEC-0718","2018/11/03 13:49:09","新北市石門區八甲58-2號","121.522033333333","25.2742716666667","6502200","石門區"
"207002","749-BX","2018/11/03 13:49:03","新北市萬里區崁腳里崁腳路166號","121.645095","25.15592","6502800","萬里區"
"252005","073-UM","2018/11/03 13:49:11","新北市三芝區圓山里二坪頂67號","121.540548333333","25.2325533333333","6502100","三芝區"
"207001","662-BX","2018/11/03 13:49:04","新北市萬里區磺潭里公館崙23號","121.636405","25.21386","6502800","萬里區"
"237001","159-UY","2018/11/03 13:49:05","新北市樹林區中山路三段214號","121.380071666667","24.967875","6500900","三峽區"
"236068","105-UM","2018/11/03 13:49:09","新北市土城區城林路6巷80號","121.43863","24.9796783333333","6501300","土城區"
"236040","KED-0685","2018/11/03 13:49:07","新北市土城區城林路6巷80號","121.43853","24.9797233333333","6501300","土城區"
"236074","166-UM","2018/11/03 13:49:13","新北市土城區永寧路23號","121.430431666667","24.96381","6501300","土城區"
"236029","253-BX","2018/11/03 13:49:06","新北市土城區城林路6巷80號","121.43846","24.9797216666667","6501300","土城區"
"236032","271-VK","2018/11/03 13:49:14","新北市土城區城林路6巷80號","121.438511666667","24.979805","6501300","土城區"
"236057","912-UM","2018/11/03 13:49:02","新北市土城區中華路二段90號","121.438353333333","24.9749533333333","6501300","土城區"
"236045","913-UM","2018/11/03 13:49:18","新北市土城區城林路6巷80號","121.43853","24.9797533333333","6501300","土城區"
"236060","915-UM","2018/11/03 13:49:14","新北市土城區城林路6巷80號","121.438581666667","24.97967","6501300","土城區"
"236054","AAC-216","2018/11/03 13:49:22","新北市土城區城林路6巷80號","121.438773333333","24.97966","6501300","土城區"
"221010","269-BY","2018/11/03 13:49:05","新北市汐止區長青路210巷170號","121.616316666667","25.1133583333333","6501100","汐止區"
"221033","647-BX","2018/11/03 13:49:01","新北市新店區安華路30巷12-1號","121.518036666667","24.95769","6501100","汐止區"
"220027","145-BY","2018/11/03 13:49:18","新北市板橋區民權路186號","121.459256666667","25.013575","6500100","板橋區"
"220028","200-UY","2018/11/03 13:34:04","新北市板橋區大觀路2段435-7號","121.447666666667","24.9956666666667","6500100","板橋區"
"220030","610-BX","2018/11/03 13:49:07","新北市板橋區篤行路三段66號","121.427211666667","24.9854783333333","6500100","板橋區"
"220004","276-BY","2018/11/03 13:49:07","新北市板橋區四川路二段48號","121.453546666667","24.9953116666667","6500100","板橋區"
"220005","282-UM","2018/11/03 13:49:21","新北市板橋區南雅南路二段120-2號","121.45239","24.99992","6500100","板橋區"
"220019","283-VK","2018/11/03 13:49:14","新北市板橋區忠孝路196巷26號","121.465453333333","25.00157","6500100","板橋區"
"220043","285-UM","2018/11/03 13:49:01","新北市板橋區民生路二段120號","121.470925","25.019985","6500100","板橋區"
"220001","285-VK","2018/11/03 13:49:01","新北市板橋區永豐街55巷45-2號","121.472211666667","25.0184083333333","6500100","板橋區"
"220031","286-VK","2018/11/03 13:49:10","新北市板橋區僑中二街114巷2號","121.445778333333","25.0068516666667","6500100","板橋區"
"220029","287-VK","2018/11/03 13:49:03","新北市板橋區光華街12巷1號","121.454203333333","25.011585","6500100","板橋區"
"220039","288-VK","2018/11/03 13:49:15","新北市板橋區民生路二段120號","121.47067","25.0197866666667","6500100","板橋區"
"220009","295-UM","2018/11/03 13:49:13","新北市板橋區縣民大道三段33巷1弄13號","121.473523333333","25.0203383333333","6500100","板橋區"
"220023","303-R5","2018/11/03 13:49:18","新北市板橋區南雅東路89號","121.453258333333","25.00851","6500100","板橋區"
"220010","305-R5","2018/11/03 13:49:03","新北市板橋區觀光街2號","121.47241","25.015335","6500100","板橋區"
"220012","486-VK","2018/11/03 13:49:15","新北市板橋區民生路二段36-1號","121.472188333333","25.0167866666667","6500100","板橋區"
"220038","487-VK","2018/11/03 13:49:03","新北市板橋區三民路一段33號","121.479351666667","25.022905","6500100","板橋區"
"220037","491-VK","2018/11/03 13:48:59","新北市板橋區民生路二段161巷1號","121.469983333333","25.0199733333333","6500100","板橋區"
"220104","560-BX","2018/11/03 13:49:14","新北市板橋區中正路325巷3弄5號","121.453728333333","25.019055","6500100","板橋區"
"220052","561-BX","2018/11/03 13:49:15","新北市板橋區民生路二段120號","121.470308333333","25.019775","6500100","板橋區"
"220032","568-UM","2018/11/03 13:49:06","新北市板橋區大觀路二段148巷51號","121.44169","25.001205","6500100","板橋區"
"220011","609-BX","2018/11/03 13:49:05","新北市板橋區民生路二段15-1號","121.472995","25.0159033333333","6500100","板橋區"
"220034","630-UY","2018/11/03 13:49:13","新北市板橋區大智街71巷7弄3號","121.4532","25.01471","6500100","板橋區"
"220025","687-BX","2018/11/03 13:49:18","新北市板橋區大觀路二段443-2號","121.439423333333","24.99502","6500100","板橋區"
"220002","741-BX","2018/11/03 13:49:13","新北市板橋區館前西路19號","121.458685","25.0069233333333","6500100","板橋區"
"220003","827-TW","2018/11/03 13:49:05","新北市板橋區南雅南路二段1-1號","121.454818333333","25.0037933333333","6500100","板橋區"
"220014","829-TW","2018/11/03 13:49:13","新北市板橋區民生路二段5號","121.472851666667","25.0157983333333","6500100","板橋區"
"220045","831-TW","2018/11/03 13:49:02","新北市板橋區民生路二段120號","121.470348333333","25.0199333333333","6500100","板橋區"
"220022","895-R6","2018/11/03 13:49:05","新北市板橋區府中路32號","121.458403333333","25.0095133333333","6500100","板橋區"
"220021","985-R7","2018/11/03 13:49:11","新北市板橋區府中路53號","121.45855","25.0094433333333","6500100","板橋區"
"220018","AAC-253","2018/11/03 13:49:12","新北市板橋區館前西路17巷2號","121.458793333333","25.0069466666667","6500100","板橋區"
"235032","KEA-2873","2018/11/03 13:49:01","新北市中和區圓通路289號","121.495086666667","24.9926566666667","6500300","中和區"
"235025","KEA-2875","2018/11/03 13:49:18","新北市中和區民享街89巷9弄6號","121.474938333333","25.0020333333333","6500300","中和區"
