"lineid","car","time","location","longitude","latitude","cityid","cityname"
"231046","107-UY","2018/11/03 16:00:20","新北市新店區華城路5-3號","121.529235","24.9583316666667","6500600","新店區"
"231020","108-UY","2018/11/03 16:00:19","新北市新店區新烏路一段8號","121.547286666667","24.9517633333333","6500600","新店區"
"231012","187-VK","2018/11/03 16:00:17","新北市新店區民生路158巷89號","121.526816666667","24.98147","6500600","新店區"
"231003","268-BY","2018/11/03 16:00:20","新北市新店區寶興路40號","121.548818333333","24.9740733333333","6500600","新店區"
"231018","278-BY","2018/11/03 16:00:22","新北市新店區中正路663巷1弄24號","121.532801666667","24.9899316666667","6500600","新店區"
"231017","AAD-862","2018/11/03 16:00:13","新北市新店區中正路284巷2號","121.538425","24.974685","6500600","新店區"
"231038","3712-VJ","2018/11/03 16:00:04","新北市新店區安康路二段320巷15弄2號","121.503771666667","24.9596516666667","6500600","新店區"
"231037","4716-K9","2018/11/03 16:00:03","新北市新店區安康路二段16巷48號","121.516816666667","24.965685","6500600","新店區"
"231013","513-UM","2018/11/03 16:00:09","新北市新店區安康路二段51號","121.514316666667","24.963465","6500600","新店區"
"231030","619-UM","2018/11/03 16:00:12","新北市新店區永平街16巷1號","121.516901666667","24.983665","6500600","新店區"
"231034","641-BX","2018/11/03 15:59:54","新北市新店區富貴街20巷17號","121.493158333333","24.9476633333333","6500600","新店區"
"231035","719-UM","2018/11/03 15:57:17","新北市新店區安和路二段175號","121.518513333333","24.9746133333333","6500600","新店區"
"241011","013-R5","2018/11/03 16:00:05","新北市三重區雙園街1巷17號","121.497023333333","25.068635","6500200","三重區"
"241028","022-UY","2018/11/03 16:00:08","新北市三重區大同南路122巷15號","121.497405","25.05849","6500200","三重區"
"241008","059-VK","2018/11/03 16:00:14","新北市三重區成功路112-4號","121.485538333333","25.0519566666667","6500200","三重區"
"241022","060-VK","2018/11/03 16:00:17","新北市三重區中正北路172-1號","121.483983333333","25.0663883333333","6500200","三重區"
"241015","062-VK","2018/11/03 16:00:21","新北市三重區重新路四段121號","121.484826666667","25.052285","6500200","三重區"
"241017","063-VK","2018/11/03 16:00:05","新北市三重區大仁街46號","121.491523333333","25.0645916666667","6500200","三重區"
"241024","065-VK","2018/11/03 16:00:05","新北市三重區力行路一段38巷6號","121.485915","25.0673616666667","6500200","三重區"
"241026","066-VK","2018/11/03 16:00:13","新北市三重區重新路三段31-1號","121.494085","25.0614033333333","6500200","三重區"
"241002","090-VK","2018/11/03 16:00:18","新北市三重區仁義街33號","121.499743333333","25.0778016666667","6500200","三重區"
"241003","091-VK","2018/11/03 16:00:23","新北市三重區自強路五段114號","121.496891666667","25.08368","6500200","三重區"
"241016","266-UM","2018/11/03 16:00:02","新北市三重區重新路四段121號","121.484876666667","25.052755","6500200","三重區"
"241009","267-UM","2018/11/03 16:00:06","新北市三重區新北大道一段250號","121.47989","25.0613016666667","6500200","三重區"
"241018","268-UM","2018/11/03 16:00:23","新北市三重區中正北路71巷15號","121.491136666667","25.0634183333333","6500200","三重區"
"241013","270-UM","2018/11/03 16:00:13","新北市三重區文化北路248號","121.497268333333","25.0699566666667","6500200","三重區"
"241025","271-UM","2018/11/03 16:00:06","新北市三重區三民街209-1號","121.481628333333","25.0660466666667","6500200","三重區"
"241007","398-BY","2018/11/03 16:00:03","新北市三重區三和路四段143-1號","121.484393333333","25.0783333333333","6500200","三重區"
"241020","478-VK","2018/11/03 16:00:19","新北市三重區車路頭街4巷23號","121.483198333333","25.0702166666667","6500200","三重區"
"241014","543-UM","2018/11/03 16:00:15","新北市三重區重新路四段121號","121.484671666667","25.05215","6500200","三重區"
"241023","545-UM","2018/11/03 16:00:06","新北市三重區中正北路200號","121.482815","25.0671766666667","6500200","三重區"
"241001","547-UM","2018/11/03 16:00:19","新北市三重區忠孝路二段1號","121.487175","25.07153","6500200","三重區"
"241019","KEA-2593","2018/11/03 16:00:17","新北市三重區忠孝路三段2號","121.482013333333","25.067605","6500200","三重區"
"241006","AAD-863","2018/11/03 16:00:06","新北市三重區過圳街7巷32號","121.490228333333","25.0597033333333","6500200","三重區"
"241030","743-BX","2018/11/03 16:00:06","新北市三重區重新路四段121號","121.484735","25.0523633333333","6500200","三重區"
"241004","887-TS","2018/11/03 16:00:02","新北市三重區重新路一段12號","121.50426","25.0636733333333","6500200","三重區"
"241012","941-UM","2018/11/03 16:00:18","新北市三重區文化北路61-4號","121.498541666667","25.066465","6500200","三重區"
"241029","942-UM","2018/11/03 16:00:15","新北市三重區大同南路212巷49號","121.498103333333","25.05671","6500200","三重區"
"241033","AAC-255","2018/11/03 16:00:16","新北市三重區重新路五段440號","121.474791666667","25.047385","6500200","三重區"
"227010","642-TC","2018/11/03 16:00:05","新北市雙溪區三港里雙澳路32-2號","121.87116","25.0502266666667","6502500","雙溪區"
"227002","400-TW","2018/11/03 16:00:08","新北市雙溪區平林里外平林76號","121.841951666667","25.0348666666667","6502500","雙溪區"
"236040","KED-0685","2018/11/03 16:00:07","新北市土城區中央路三段85-4號","121.437941666667","24.968095","6501300","土城區"
"236057","912-UM","2018/11/03 16:00:22","新北市土城區中央路三段92-2號","121.43588","24.9667133333333","6501300","土城區"
"220034","630-UY","2018/11/03 16:00:13","新北市樹林區中山路三段210-2號","121.381391666667","24.965535","6500100","板橋區"
