"lineid","car","time","location","longitude","latitude","cityid","cityname"
"231046","107-UY","2018/11/03 16:08:20","新北市新店區灣潭路2-1號","121.536455","24.95065","6500600","新店區"
"231012","187-VK","2018/11/03 16:08:17","新北市新店區安德街116巷26弄5號","121.50858","24.9619466666667","6500600","新店區"
"231018","278-BY","2018/11/03 16:08:02","新北市新店區中正路680巷33弄1號","121.535085","24.9893783333333","6500600","新店區"
"231034","641-BX","2018/11/03 16:08:14","新北市新店區薏仁坑路2-1號","121.500481666667","24.9577633333333","6500600","新店區"
"231035","719-UM","2018/11/03 16:08:12","新北市新店區柴埕路116號","121.505208333333","24.9600916666667","6500600","新店區"
"241011","013-R5","2018/11/03 16:08:05","新北市三重區正義北路366號","121.493893333333","25.071335","6500200","三重區"
"241028","022-UY","2018/11/03 16:08:08","新北市三重區正義南路111號","121.498208333333","25.05858","6500200","三重區"
"241008","059-VK","2018/11/03 16:08:14","新北市三重區中正北路380巷31號","121.476068333333","25.06869","6500200","三重區"
"241022","060-VK","2018/11/03 16:08:21","新北市三重區新北大道一段42號","121.487933333333","25.0614783333333","6500200","三重區"
"241015","062-VK","2018/11/03 16:08:21","新北市三重區泉州街84巷18號","121.496271666667","25.0540066666667","6500200","三重區"
"241017","063-VK","2018/11/03 16:08:19","新北市三重區民生街80號","121.490511666667","25.0646666666667","6500200","三重區"
"241024","065-VK","2018/11/03 16:08:05","新北市三重區力行路一段38巷21號","121.48577","25.0672066666667","6500200","三重區"
"241026","066-VK","2018/11/03 16:08:13","新北市三重區正義南路29-27號","121.497558333333","25.0612666666667","6500200","三重區"
"241002","090-VK","2018/11/03 16:08:18","新北市三重區仁義街91號","121.499736666667","25.0795316666667","6500200","三重區"
"241003","091-VK","2018/11/03 16:08:03","新北市三重區仁義街220巷8號","121.495051666667","25.08393","6500200","三重區"
"241016","266-UM","2018/11/03 16:08:02","新北市三重區捷運路2號","121.486213333333","25.0563133333333","6500200","三重區"
"241009","267-UM","2018/11/03 16:08:06","新北市三重區力行路二段23號","121.481853333333","25.0724966666667","6500200","三重區"
"241018","268-UM","2018/11/03 16:08:03","新北市三重區明志街91號","121.490641666667","25.0637033333333","6500200","三重區"
"241032","269-UM","2018/11/03 16:08:08","新北市三重區三陽路100巷3弄13號","121.482945","25.0582283333333","6500200","三重區"
"241013","270-UM","2018/11/03 16:08:08","新北市三重區安樂街31號","121.496385","25.0697583333333","6500200","三重區"
"241025","271-UM","2018/11/03 16:08:11","新北市三重區忠孝路三段40巷6-5號","121.481966666667","25.0668133333333","6500200","三重區"
"241007","398-BY","2018/11/03 16:08:23","新北市三重區三和路四段143-1號","121.484395","25.0783283333333","6500200","三重區"
"241020","478-VK","2018/11/03 16:08:19","新北市三重區三張街272號","121.483775","25.071275","6500200","三重區"
"241014","543-UM","2018/11/03 16:08:15","新北市三重區泉州街84巷18號","121.496288333333","25.0540483333333","6500200","三重區"
"241023","545-UM","2018/11/03 16:08:06","新北市三重區力行路一段60號","121.484691666667","25.069015","6500200","三重區"
"241001","547-UM","2018/11/03 16:08:19","新北市三重區自強路四段32-2號","121.48904","25.0770366666667","6500200","三重區"
"241019","KEA-2593","2018/11/03 16:08:17","新北市三重區自強路二段76號","121.488175","25.0701183333333","6500200","三重區"
"241006","AAD-863","2018/11/03 16:08:06","新北市三重區力行路一段221號","121.482796666667","25.0704983333333","6500200","三重區"
"241030","743-BX","2018/11/03 16:08:06","新北市三重區重新路四段121號","121.484901666667","25.05253","6500200","三重區"
"241004","887-TS","2018/11/03 16:08:22","新北市三重區五華街74號","121.493436666667","25.0819533333333","6500200","三重區"
"241012","941-UM","2018/11/03 16:08:14","新北市三重區文化北路132巷14號","121.4979","25.0665683333333","6500200","三重區"
"241029","942-UM","2018/11/03 16:08:15","新北市三重區同安街56號","121.495666666667","25.0566783333333","6500200","三重區"
"241033","AAC-255","2018/11/03 16:08:16","新北市三重區五谷王南街48-1號","121.474065","25.0446683333333","6500200","三重區"
"227010","642-TC","2018/11/03 16:08:05","新北市雙溪區三港里雙澳路57號","121.88012","25.0536133333333","6502500","雙溪區"
"227002","400-TW","2018/11/03 16:08:08","新北市雙溪區上林里內平林34號","121.833876666667","25.0308366666667","6502500","雙溪區"
"251008","181-VK","2018/11/03 16:08:10","新北市淡水區中正路一段33號","121.425981666667","25.1765533333333","6501000","淡水區"
"236057","912-UM","2018/11/03 16:08:22","新北市土城區永平街51號","121.427513333333","24.9591733333333","6501300","土城區"
"220034","630-UY","2018/11/03 16:08:13","新北市樹林區水源街44號","121.425681666667","24.9813083333333","6500100","板橋區"
