"lineid","car","time","location","longitude","latitude","cityid","cityname"
"234026","9371-KE","2018/11/03 17:38:09","新北市永和區豫溪街33號","121.516485","25.0098816666667","6500400","永和區"
"249005","172-UM","2018/11/03 17:38:22","新北市八里區荖阡坑路41-6號","121.402303333333","25.13248","6502300","八里區"
"249001","173-UM","2018/11/03 17:38:22","新北市八里區龍米路二段140巷136號","121.437895","25.1546683333333","6502300","八里區"
"249004","303-UY","2018/11/03 17:38:03","新北市八里區大崁二街30號","121.41794","25.1579333333333","6502300","八里區"
"249002","305-UY","2018/11/03 17:38:06","新北市八里區石壁腳19號","121.441766666667","25.135365","6502300","八里區"
"249003","593-UM","2018/11/03 17:38:22","新北市八里區中山路二段191號","121.404635","25.1500083333333","6502300","八里區"
"248016","026-BX","2018/11/03 17:38:07","新北市五股區中興路二段83巷26-6號","121.459963333333","25.0753183333333","6501500","五股區"
"232011","375-UM","2018/11/03 17:38:09","新北市坪林區北宜路八段105號","121.706176666667","24.9348433333333","6502000","坪林區"
"244023","069-UM","2018/11/03 17:38:22","新北市林口區東明一街132-1號","121.39041","25.0708366666667","6501700","林口區"
"244007","080-UY","2018/11/03 17:38:05","新北市林口區林口路272巷21號","121.386893333333","25.08453","6501700","林口區"
"244019","403-UM","2018/11/03 17:38:14","新北市林口區文化一路一段83巷14弄92號","121.372783333333","25.0716766666667","6501700","林口區"
"244013","KEA-2802","2018/11/03 17:38:10","新北市林口區中正路559號","121.381106666667","25.0769383333333","6501700","林口區"
"244009","410-SL","2018/11/03 17:38:09","新北市林口區民享路226號","121.382893333333","25.0848183333333","6501700","林口區"
"244017","485-VK","2018/11/03 17:38:10","新北市林口區忠孝路371-1號","121.368985","25.07181","6501700","林口區"
"244011","701-TV","2018/11/03 17:38:09","新北市林口區佳林路211號","121.384243333333","25.0771233333333","6501700","林口區"
"244025","837-TS","2018/11/03 17:38:13","新北市林口區忠孝路308巷21號","121.36724","25.0721216666667","6501700","林口區"
"244021","838-TS","2018/11/03 17:38:17","新北市林口區仁愛路一段211巷63號","121.397011666667","25.073665","6501700","林口區"
"231046","107-UY","2018/11/03 17:38:20","新北市新店區直潭路100號","121.530906666667","24.9369333333333","6500600","新店區"
"241017","063-VK","2018/11/03 17:38:05","新北市三重區大同北路18號","121.49541","25.0622583333333","6500200","三重區"
"241024","065-VK","2018/11/03 17:38:13","新北市三重區大勇街11號","121.483446666667","25.0714033333333","6500200","三重區"
"241003","091-VK","2018/11/03 17:38:03","新北市蘆洲區環堤大道288號","121.474911666667","25.0973166666667","6500200","三重區"
"251014","742-BX","2018/11/03 17:37:08","新北市淡水區公埔子10號","121.476148333333","25.2267816666667","6501000","淡水區"
"241005","262-UM","2018/11/03 17:38:20","新北市三重區仁愛街541號","121.486691666667","25.081985","6500200","三重區"
"241016","266-UM","2018/11/03 17:38:22","新北市三重區重新路二段21號","121.497908333333","25.0623766666667","6500200","三重區"
"241007","398-BY","2018/11/03 17:38:23","新北市三重區車路頭街135-1號","121.484235","25.0760183333333","6500200","三重區"
"241014","543-UM","2018/11/03 17:38:15","新北市三重區河邊北街70-3號","121.504446666667","25.0683816666667","6500200","三重區"
"241023","545-UM","2018/11/03 17:38:06","新北市三重區中華路125號","121.483638333333","25.0639733333333","6500200","三重區"
"241019","KEA-2593","2018/11/03 17:38:17","新北市三重區六張街265號","121.486845","25.06814","6500200","三重區"
"241030","743-BX","2018/11/03 17:38:26","新北市三重區光復路二段180號","121.471661666667","25.0625716666667","6500200","三重區"
"241012","941-UM","2018/11/03 17:38:13","新北市三重區河邊北街254號","121.501806666667","25.0761283333333","6500200","三重區"
"241033","AAC-255","2018/11/03 17:38:16","新北市三重區光復路一段74號","121.47204","25.0497866666667","6500200","三重區"
"235064","005-UY","2018/11/03 17:38:06","新北市中和區員山路36巷16-3號","121.485043333333","24.9913516666667","6500300","中和區"
"235065","098-UM","2018/11/03 17:38:10","新北市中和區員山路36巷16-3號","121.485111666667","24.99118","6500300","中和區"
"247012","KEA-2869","2018/11/03 17:38:16","新北市蘆洲區民權路3巷14弄15號","121.47532","25.0857733333333","6501400","蘆洲區"
"247002","893-R6","2018/11/03 17:38:20","新北市蘆洲區永平街62號","121.457401666667","25.0916383333333","6501400","蘆洲區"
"247016","546-UM","2018/11/03 17:38:11","新北市蘆洲區光華路44號","121.468801666667","25.08316","6501400","蘆洲區"
"247024","500-BY","2018/11/03 17:38:10","新北市蘆洲區長樂路125-1號","121.462166666667","25.0879516666667","6501400","蘆洲區"
"247014","339-TH","2018/11/03 17:38:22","新北市蘆洲區中山二路135號","121.471981666667","25.0816633333333","6501400","蘆洲區"
"247006","337-TH","2018/11/03 17:38:14","新北市蘆洲區長安街68巷4號","121.462911666667","25.0803233333333","6501400","蘆洲區"
"247008","336-TH","2018/11/03 17:38:23","新北市蘆洲區民生街127號","121.472696666667","25.0790466666667","6501400","蘆洲區"
"247020","057-VK","2018/11/03 17:38:20","新北市蘆洲區民族路456號","121.47215","25.0918933333333","6501400","蘆洲區"
"247010","056-VK","2018/11/03 17:38:15","新北市蘆洲區集賢路412號","121.479723333333","25.0814283333333","6501400","蘆洲區"
"247018","007-UY","2018/11/03 17:38:23","新北市蘆洲區民權路138-2號","121.473021666667","25.08891","6501400","蘆洲區"
"247004","002-UY","2018/11/03 17:38:17","新北市蘆洲區長安街233巷44號","121.457666666667","25.0821133333333","6501400","蘆洲區"
"247022","001-UY","2018/11/03 17:38:05","新北市蘆洲區三民路277號","121.46788","25.0899116666667","6501400","蘆洲區"
"228003","097-TW","2018/11/03 17:38:16","新北市貢寮區仁理村仁和路11號","121.923161666667","25.0517816666667","6502600","貢寮區"
"228001","212-TW","2018/11/03 17:38:17","新北市貢寮區仁理村仁愛路95-1號","121.927675","25.0554466666667","6502600","貢寮區"
"228002","585-TW","2018/11/03 17:38:05","新北市貢寮區福隆里龜壽谷街26號","121.952546666667","25.009025","6502600","貢寮區"
"224010","AGQ-8101","2018/11/03 17:38:08","新北市瑞芳區岳王路43-1號","121.807248333333","25.111345","6501200","瑞芳區"
"224006","676-BX","2018/11/03 17:38:20","新北市瑞芳區中山路326號","121.796506666667","25.1101516666667","6501200","瑞芳區"
"224008","285-BY","2018/11/03 17:38:08","新北市瑞芳區九芎橋路81號","121.83406","25.0975033333333","6501200","瑞芳區"
"224007","275-VK","2018/11/03 17:18:18","新北市瑞芳區大寮路356-1號","121.784651666667","25.103235","6501200","瑞芳區"
"224009","273-VK","2018/11/03 17:38:09","新北市瑞芳區金光路374號","121.849911666667","25.1109983333333","6501200","瑞芳區"
"224005","271-BY","2018/11/03 17:38:07","新北市瑞芳區海濱路8-6號","121.831678333333","25.126205","6501200","瑞芳區"
"227010","642-TC","2018/11/03 17:38:05","新北市雙溪區三貂里定福路1-2號","121.850688333333","25.06342","6502500","雙溪區"
"208001","761-BX","2018/11/03 17:38:18","新北市金山區磺清路135號","121.639283333333","25.227655","6502700","金山區"
"251009","008-UM","2018/11/03 17:38:18","新北市淡水區中正路32號","121.443845","25.169225","6501000","淡水區"
"251005","010-UM","2018/11/03 17:38:09","新北市淡水區鄧公路33巷13號","121.451966666667","25.1709833333333","6501000","淡水區"
"251002","012-UM","2018/11/03 17:38:22","新北市淡水區文化路16號","121.439891666667","25.1725416666667","6501000","淡水區"
"251013","KEA-2871","2018/11/03 17:38:24","新北市淡水區演戲埔腳12號","121.469835","25.194755","6501000","淡水區"
"251016","179-VK","2018/11/03 17:38:11","新北市淡水區埤島39-15號","121.452751666667","25.1958766666667","6501000","淡水區"
"251008","181-VK","2018/11/03 17:38:10","新北市淡水區八勢路一段48號","121.466303333333","25.1550533333333","6501000","淡水區"
"251015","182-VK","2018/11/03 17:38:19","新北市淡水區樹林口6號","121.47993","25.168435","6501000","淡水區"
"251010","413-VK","2018/11/03 17:38:09","新北市淡水區淡海路280巷16號","121.419798333333","25.1897216666667","6501000","淡水區"
"251012","441-VK","2018/11/03 17:38:02","新北市淡水區北新路200巷8號","121.451786666667","25.1797333333333","6501000","淡水區"
"251007","442-VK","2018/11/03 17:38:05","新北市淡水區民族路35巷3號","121.464593333333","25.1372866666667","6501000","淡水區"
"251004","443-VK","2018/11/03 17:38:10","新北市淡水區中正東路二段88巷37號","121.459273333333","25.1458533333333","6501000","淡水區"
"251001","559-UM","2018/11/03 17:38:23","新北市淡水區民權路92巷35-1號","121.462241666667","25.126695","6501000","淡水區"
"251006","561-UM","2018/11/03 17:38:12","新北市淡水區中山北路一段131號","121.442961666667","25.1771183333333","6501000","淡水區"
"251011","650-BX","2018/11/03 17:38:10","新北市淡水區小坪頂68-2號","121.484636666667","25.1584633333333","6501000","淡水區"
"251003","766-UM","2018/11/03 17:38:12","新北市淡水區重建街222號","121.4414","25.174815","6501000","淡水區"
"207003","550-UM","2018/11/03 17:38:06","新北市萬里區龜吼里漁澳路85號","121.687183333333","25.1960783333333","6502800","萬里區"
"207004","225-TW","2018/11/03 17:38:23","新北市萬里區中幅里中福路26號","121.680698333333","25.166285","6502800","萬里區"
"252002","178-VK","2018/11/03 17:38:09","新北市三芝區智成街88號","121.505198333333","25.25568","6502100","三芝區"
"252001","292-VK","2018/11/03 17:38:14","新北市三芝區淡金路一段87號","121.502276666667","25.2590466666667","6502100","三芝區"
"237013","252-BX","2018/11/03 17:38:13","新北市三峽區介壽路一段9-8號","121.37525","24.9337366666667","6500900","三峽區"
"237012","275-BY","2018/11/03 17:38:10","新北市三峽區中山路459巷163-3號","121.348681666667","24.9328733333333","6500900","三峽區"
"237014","433-BY","2018/11/03 17:38:06","新北市三峽區中山路459巷163-3號","121.348795","24.9330566666667","6500900","三峽區"
"237011","KEA-2596","2018/11/03 17:38:09","新北市三峽區大智路69號","121.360511666667","24.9357483333333","6500900","三峽區"
"237016","649-BX","2018/11/03 17:38:12","新北市三峽區正義街58號","121.369103333333","24.9185266666667","6500900","三峽區"
"237010","706-TV","2018/11/03 17:38:19","新北市三峽區中山路138-1號","121.365145","24.9361883333333","6500900","三峽區"
"236079","166-UM","2018/11/03 17:38:07","新北市土城區城林路6巷80號","121.438678333333","24.9797616666667","6501300","土城區"
"236030","253-BX","2018/11/03 17:38:14","新北市土城區城林路6巷80號","121.43851","24.9796883333333","6501300","土城區"
"236014","270-VK","2018/11/03 17:38:15","新北市土城區城林路6巷80號","121.438478333333","24.979585","6501300","土城區"
"236038","271-VK","2018/11/03 17:38:14","新北市土城區城林路6巷80號","121.438516666667","24.979645","6501300","土城區"
"236063","915-UM","2018/11/03 17:38:13","新北市土城區城林路6巷80號","121.43856","24.9797883333333","6501300","土城區"
"242036","AAC-296","2018/11/03 17:38:19","新北市新莊區建福路59巷45號","121.42857","25.0278416666667","6500500","新莊區"
"242058","986-R7","2018/11/03 17:38:12","新北市新莊區中正路618號","121.423645","25.02934","6500500","新莊區"
"242056","751-BX","2018/11/03 17:38:19","新北市新莊區瓊林路34號","121.4487","25.031025","6500500","新莊區"
"242027","615-BX","2018/11/03 17:38:18","新北市新莊區福壽街101號","121.457993333333","25.0505433333333","6500500","新莊區"
"242025","613-BX","2018/11/03 17:38:11","新北市新莊區思源路157號","121.459573333333","25.0444866666667","6500500","新莊區"
"242029","612-BX","2018/11/03 17:38:14","新北市新莊區復興路一段145號","121.450268333333","25.0433116666667","6500500","新莊區"
"242044","566-BX","2018/11/03 17:38:16","新北市新莊區富國路12號","121.418298333333","25.0264","6500500","新莊區"
"242048","497-BY","2018/11/03 17:38:04","新北市新莊區萬安街135號","121.420545","25.02214","6500500","新莊區"
"242011","442-UM","2018/11/03 17:38:19","新北市新莊區中港路597號","121.451398333333","25.0529016666667","6500500","新莊區"
"242053","441-UM","2018/11/03 17:38:14","新北市新莊區新樹路699巷27號","121.432863333333","25.00155","6500500","新莊區"
"242039","415-TV","2018/11/03 17:38:08","新北市新莊區民安路332號","121.429028333333","25.0220416666667","6500500","新莊區"
"242009","413-TV","2018/11/03 17:38:15","新北市新莊區昌明街14巷1弄2號","121.457358333333","25.0527416666667","6500500","新莊區"
"242046","400-BY","2018/11/03 17:38:07","新北市新莊區福營路97巷2號","121.434108333333","25.032245","6500500","新莊區"
"242023","362-BY","2018/11/03 17:38:19","新北市新莊區公園路129-1號","121.457","25.040665","6500500","新莊區"
"242061","353-BY","2018/11/03 17:38:10","新北市新莊區瓊林南路103巷8弄5號","121.435231666667","25.01166","6500500","新莊區"
"242042","133-UY","2018/11/03 17:38:23","新北市新莊區建國一路49號","121.4344","25.0305733333333","6500500","新莊區"
"242034","135-UY","2018/11/03 17:38:17","新北市新莊區新莊路597號","121.44608","25.03317","6500500","新莊區"
"242051","172-VK","2018/11/03 17:38:14","新北市新莊區西盛街173號","121.428366666667","25.017295","6500500","新莊區"
"242013","173-VK","2018/11/03 17:38:04","新北市新莊區中誠街74號","121.450565","25.0479116666667","6500500","新莊區"
"242019","175-VK","2018/11/03 17:38:12","新北市新莊區中港路178號","121.454941666667","25.0419916666667","6500500","新莊區"
"242007","176-VK","2018/11/03 17:38:17","新北市新莊區福樂街71巷1號","121.457051666667","25.0477783333333","6500500","新莊區"
"242017","346-TH","2018/11/03 17:38:19","新北市新莊區復興路一段149巷21弄16號","121.449576666667","25.0441633333333","6500500","新莊區"
"242031","348-TH","2018/11/03 17:38:12","新北市新莊區新泰路382號","121.444038333333","25.0432633333333","6500500","新莊區"
"242004","349-TH","2018/11/03 17:38:26","新北市新莊區自立街117號","121.45604","25.0456666666667","6500500","新莊區"
"242021","350-TH","2018/11/03 17:38:19","新北市新莊區中華路一段118號","121.452543333333","25.04061","6500500","新莊區"
"238015","755-BX","2018/11/03 17:38:07","新北市樹林區樹德街90-1號","121.420116666667","24.9924283333333","6500700","樹林區"
"238019","599-UM","2018/11/03 17:38:23","新北市樹林區太平路89號","121.419076666667","24.9813816666667","6500700","樹林區"
"238018","571-TV","2018/11/03 17:38:22","新北市樹林區鎮前街72號","121.425585","24.9921683333333","6500700","樹林區"
"238024","5061-A6","2018/11/03 17:38:20","新北市樹林區水源街81號","121.426233333333","24.9791616666667","6500700","樹林區"
"238022","KEA-2213","2018/11/03 17:38:12","新北市樹林區中華路116號","121.41806","24.98065","6500700","樹林區"
"238021","KEA-2539","2018/11/03 17:38:16","新北市樹林區柑園街一段188號","121.395418333333","24.9565566666667","6500700","樹林區"
"238025","303-VK","2018/11/03 17:38:09","新北市樹林區保安街二段179-5號","121.415255","25.0033616666667","6500700","樹林區"
"238017","283-BY","2018/11/03 17:38:15","新北市樹林區三德街4號","121.413065","25.0128916666667","6500700","樹林區"
"238014","282-BY","2018/11/03 17:38:12","新北市樹林區保安街一段336巷14號","121.417863333333","24.999685","6500700","樹林區"
"238026","172-UY","2018/11/03 17:38:21","新北市樹林區新興街3號","121.400228333333","24.9739566666667","6500700","樹林區"
"238016","169-UY","2018/11/03 17:38:05","新北市樹林區育英街65號","121.420596666667","24.9892833333333","6500700","樹林區"
"239007","AAC-297","2018/11/03 17:38:14","新北市鶯歌區永利街22號","121.339291666667","24.9548266666667","6500800","鶯歌區"
"239006","891-R6","2018/11/03 17:38:12","新北市鶯歌區永和街65號","121.33283","24.9676933333333","6500800","鶯歌區"
"239008","527-UM","2018/11/03 17:38:15","新北市鶯歌區大湖路393號","121.33088","24.978985","6500800","鶯歌區"
"239005","526-UM","2018/11/03 17:38:20","新北市鶯歌區鶯桃路二段27號","121.32561","24.972225","6500800","鶯歌區"
"239001","417-VK","2018/11/03 17:38:19","新北市鶯歌區中正三路228號","121.33136","24.9374983333333","6500800","鶯歌區"
"239003","360-BY","2018/11/03 17:38:13","新北市鶯歌區鶯桃路206巷28號","121.337745","24.9597016666667","6500800","鶯歌區"
"239002","359-BY","2018/11/03 17:38:21","新北市鶯歌區南雅路489號","121.34569","24.954055","6500800","鶯歌區"
"239004","193-VK","2018/11/03 17:38:22","新北市鶯歌區三鶯路93號","121.359128333333","24.94388","6500800","鶯歌區"
"221008","489-VK","2018/11/03 17:38:17","新北市汐止區康寧街901號","121.651291666667","25.074985","6501100","汐止區"
"221010","269-BY","2018/11/03 17:38:10","新北市汐止區汐萬路一段418巷37號","121.650741666667","25.0789016666667","6501100","汐止區"
"221023","279-VK","2018/11/03 17:38:20","新北市汐止區汐萬路一段256巷1號","121.651746666667","25.0749216666667","6501100","汐止區"
"221021","299-VK","2018/11/03 17:38:14","新北市汐止區汐萬路一段256巷1號","121.652021666667","25.07484","6501100","汐止區"
"221018","753-BX","2018/11/03 17:38:06","新北市汐止區康寧街901號","121.650978333333","25.075225","6501100","汐止區"
"242002","281-VK","2018/11/03 17:38:08","新北市新莊區新莊路254號","121.452156666667","25.0339833333333","6500500","新莊區"
"242015","280-VK","2018/11/03 17:38:16","新北市新莊區新泰路273號","121.445773333333","25.0403316666667","6500500","新莊區"
