"lineid","car","time","location","longitude","latitude","cityid","cityname"
"234026","9371-KE","2018/11/03 17:48:09","新北市永和區和平街95巷21號","121.511131666667","25.009125","6500400","永和區"
"249005","172-UM","2018/11/03 17:48:22","新北市八里區荖阡坑路34-1號","121.402758333333","25.1297883333333","6502300","八里區"
"249001","173-UM","2018/11/03 17:48:22","新北市八里區龍米路二段96號","121.44579","25.1469966666667","6502300","八里區"
"249004","303-UY","2018/11/03 17:48:23","新北市八里區中華路一段81巷22號","121.419553333333","25.15552","6502300","八里區"
"249002","305-UY","2018/11/03 17:48:06","新北市八里區龍形五街37巷3-1號","121.448673333333","25.132615","6502300","八里區"
"249003","593-UM","2018/11/03 17:48:22","新北市八里區中山路二段119號","121.405445","25.1521216666667","6502300","八里區"
"248016","026-BX","2018/11/03 17:48:07","新北市五股區中興路二段83巷26-6號","121.459993333333","25.0752966666667","6501500","五股區"
"248008","095-VK","2018/11/03 17:48:17","新北市五股區中興路二段37巷28號","121.46017","25.0750683333333","6501500","五股區"
"248002","678-BX","2018/11/03 17:48:10","新北市五股區中興路二段37巷28號","121.460125","25.0749416666667","6501500","五股區"
"232011","375-UM","2018/11/03 17:48:09","新北市坪林區北宜路八段155號","121.707116666667","24.934465","6502000","坪林區"
"244023","069-UM","2018/11/03 17:48:22","新北市林口區東明二街71號","121.389698333333","25.0695033333333","6501700","林口區"
"244007","080-UY","2018/11/03 17:48:05","新北市林口區林口路140號","121.38815","25.08201","6501700","林口區"
"244019","403-UM","2018/11/03 17:48:20","新北市林口區忠孝路542巷6號","121.372833333333","25.0672283333333","6501700","林口區"
"244013","KEA-2802","2018/11/03 17:48:10","新北市林口區中山路267號","121.385306666667","25.079425","6501700","林口區"
"244009","410-SL","2018/11/03 17:48:12","新北市林口區寶林路37號","121.385698333333","25.084145","6501700","林口區"
"244017","485-VK","2018/11/03 17:48:10","新北市林口區文化二路一段260巷7-3號","121.37186","25.0731633333333","6501700","林口區"
"244011","701-TV","2018/11/03 17:48:09","新北市林口區竹林路35號","121.386603333333","25.0776966666667","6501700","林口區"
"244025","837-TS","2018/11/03 17:48:13","新北市林口區文化三路一段179號","121.361981666667","25.069555","6501700","林口區"
"244021","838-TS","2018/11/03 17:48:17","新北市林口區仁愛路一段1巷30號","121.396055","25.0686866666667","6501700","林口區"
"222003","436-BY","2018/11/03 17:48:15","新北市深坑區阿柔洋60-1號","121.608578333333","24.998515","6501800","深坑區"
"231046","107-UY","2018/11/03 17:48:20","新北市新店區下石厝路17號","121.532695","24.9274966666667","6500600","新店區"
"241024","065-VK","2018/11/03 17:48:05","新北市三重區車路頭街62巷25號","121.483583333333","25.0725333333333","6500200","三重區"
"241003","091-VK","2018/11/03 17:48:03","新北市五股區成泰路三段358號","121.451301666667","25.097995","6500200","三重區"
"251014","742-BX","2018/11/03 17:48:08","新北市淡水區公埔子16-6號","121.48103","25.2246016666667","6501000","淡水區"
"241005","262-UM","2018/11/03 17:48:20","新北市三重區三和路四段233號","121.481161666667","25.0800516666667","6500200","三重區"
"241016","266-UM","2018/11/03 17:48:02","新北市三重區新北大道一段7號","121.489681666667","25.0614583333333","6500200","三重區"
"241033","AAC-255","2018/11/03 17:48:16","新北市三重區重新路五段527號","121.471146666667","25.0461766666667","6500200","三重區"
"235064","005-UY","2018/11/03 17:48:06","新北市中和區員山路36巷16-3號","121.485088333333","24.991385","6500300","中和區"
"235063","006-UY","2018/11/03 17:48:21","新北市中和區員山路36巷16-3號","121.484951666667","24.9914016666667","6500300","中和區"
"235065","098-UM","2018/11/03 17:48:10","新北市中和區連城路469巷79弄30號","121.484546666667","24.993715","6500300","中和區"
"235058","151-BY","2018/11/03 17:48:16","新北市中和區員山路36巷16-2號","121.485166666667","24.9916316666667","6500300","中和區"
"247012","KEA-2869","2018/11/03 17:48:16","新北市蘆洲區復興路159號","121.478238333333","25.0889583333333","6501400","蘆洲區"
"247002","893-R6","2018/11/03 17:48:20","新北市蘆洲區永平街32巷21弄35號","121.457886666667","25.092315","6501400","蘆洲區"
"247016","546-UM","2018/11/03 17:48:11","新北市蘆洲區中正路185巷25弄23號","121.467253333333","25.08384","6501400","蘆洲區"
"247024","500-BY","2018/11/03 17:48:10","新北市蘆洲區光榮路68號","121.463136666667","25.0886766666667","6501400","蘆洲區"
"247014","339-TH","2018/11/03 17:48:22","新北市蘆洲區保和街50-1號","121.46949","25.0861883333333","6501400","蘆洲區"
"247006","337-TH","2018/11/03 17:48:14","新北市蘆洲區九芎街115號","121.465541666667","25.0794033333333","6501400","蘆洲區"
"247008","336-TH","2018/11/03 17:48:23","新北市蘆洲區中山一路204號","121.47354","25.0807433333333","6501400","蘆洲區"
"247020","057-VK","2018/11/03 17:48:20","新北市蘆洲區民族路359巷7號","121.472126666667","25.0912433333333","6501400","蘆洲區"
"247010","056-VK","2018/11/03 17:48:15","新北市蘆洲區民族路31-1號","121.477563333333","25.0849233333333","6501400","蘆洲區"
"247018","007-UY","2018/11/03 17:48:23","新北市蘆洲區復興路200號","121.478346666667","25.08902","6501400","蘆洲區"
"247004","002-UY","2018/11/03 17:48:17","新北市蘆洲區中原路12巷25號","121.460696666667","25.08398","6501400","蘆洲區"
"247022","001-UY","2018/11/03 17:48:24","新北市蘆洲區中正路449號","121.462745","25.09425","6501400","蘆洲區"
"228003","097-TW","2018/11/03 17:48:16","新北市貢寮區真理里延平街54-1號","121.92473","25.0571233333333","6502600","貢寮區"
"228001","212-TW","2018/11/03 17:48:17","新北市貢寮區仁理村仁愛路95-1號","121.927638333333","25.05544","6502600","貢寮區"
"228002","585-TW","2018/11/03 17:48:05","新北市貢寮區福隆里外隆林街14號","121.959105","25.00358","6502600","貢寮區"
"224006","676-BX","2018/11/03 17:48:20","新北市瑞芳區傑魚坑路183號","121.78845","25.1083066666667","6501200","瑞芳區"
"224008","285-BY","2018/11/03 17:48:08","新北市瑞芳區明燈路一段18巷1號","121.821855","25.1075933333333","6501200","瑞芳區"
"224007","275-VK","2018/11/03 17:18:18","新北市瑞芳區大寮路356-1號","121.784651666667","25.103235","6501200","瑞芳區"
"224009","273-VK","2018/11/03 17:48:09","新北市瑞芳區新山路147號","121.852053333333","25.108825","6501200","瑞芳區"
"224005","271-BY","2018/11/03 17:48:07","新北市瑞芳區海濱路29號","121.83089","25.12425","6501200","瑞芳區"
"227010","642-TC","2018/11/03 17:48:05","新北市雙溪區三貂里定福路1-2號","121.850738333333","25.06348","6502500","雙溪區"
"253006","032-BX","2018/11/03 17:48:20","新北市石門區中央路6號","121.566633333333","25.291365","6502200","石門區"
"208002","KEA-2872","2018/11/03 17:48:21","新北市金山區磺清路135號","121.639278333333","25.22769","6502700","金山區"
"208001","761-BX","2018/11/03 17:48:18","新北市金山區磺清路135號","121.639311666667","25.2277233333333","6502700","金山區"
"251009","008-UM","2018/11/03 17:48:18","新北市淡水區長興街48號","121.444228333333","25.1717116666667","6501000","淡水區"
"251005","010-UM","2018/11/03 17:48:09","新北市淡水區學府路102巷17號","121.451063333333","25.17195","6501000","淡水區"
"251002","012-UM","2018/11/03 17:48:22","新北市淡水區中山路70-70號","121.443275","25.170605","6501000","淡水區"
"251013","KEA-2871","2018/11/03 17:48:04","新北市淡水區泉洲厝31號","121.479631666667","25.1910366666667","6501000","淡水區"
"251016","179-VK","2018/11/03 17:48:11","新北市淡水區埤島39-15號","121.45274","25.19587","6501000","淡水區"
"251008","181-VK","2018/11/03 17:48:10","新北市淡水區八勢路一段156號","121.468143333333","25.1564266666667","6501000","淡水區"
"251015","182-VK","2018/11/03 17:47:39","新北市淡水區興福寮1-8號","121.4894","25.164855","6501000","淡水區"
"251010","413-VK","2018/11/03 17:48:09","新北市淡水區淡海路280巷33弄34-2號","121.418725","25.18863","6501000","淡水區"
"251012","441-VK","2018/11/03 17:48:22","新北市淡水區北新路一段403號","121.467385","25.182475","6501000","淡水區"
"251007","442-VK","2018/11/03 17:48:05","新北市淡水區民生路16巷32號","121.461818333333","25.13741","6501000","淡水區"
"251004","443-VK","2018/11/03 17:48:10","新北市淡水區民權一街9號","121.459003333333","25.136895","6501000","淡水區"
"251001","559-UM","2018/11/03 17:48:23","新北市淡水區民權路92巷35-1號","121.462176666667","25.126535","6501000","淡水區"
"251006","561-UM","2018/11/03 17:48:12","新北市淡水區大信街1巷16號","121.440175","25.176825","6501000","淡水區"
"251011","650-BX","2018/11/03 17:44:10","新北市淡水區吳(仔)厝65號","121.482903333333","25.1505666666667","6501000","淡水區"
"251003","766-UM","2018/11/03 17:48:12","新北市淡水區大忠街5巷1號","121.443165","25.1764066666667","6501000","淡水區"
"207003","550-UM","2018/11/03 17:48:06","新北市萬里區野柳里東澳路66號","121.692831666667","25.2010066666667","6502800","萬里區"
"207004","225-TW","2018/11/03 17:48:20","新北市萬里區萬里里瑪鋉路119號","121.688866666667","25.177695","6502800","萬里區"
"252002","178-VK","2018/11/03 17:48:04","新北市三芝區智成街69號","121.504425","25.2558583333333","6502100","三芝區"
"252001","292-VK","2018/11/03 17:48:14","新北市三芝區淡金路一段4-2號","121.498813333333","25.2596433333333","6502100","三芝區"
"237009","210-TH","2018/11/03 17:48:22","新北市三峽區大勇路15號","121.367255","24.9368066666667","6500900","三峽區"
"237013","252-BX","2018/11/03 17:48:13","新北市三峽區愛國路38號","121.374541666667","24.9328883333333","6500900","三峽區"
"237012","275-BY","2018/11/03 17:48:10","新北市三峽區民生街47號","121.375558333333","24.9362566666667","6500900","三峽區"
"237014","433-BY","2018/11/03 17:48:06","新北市三峽區文化路120巷3號","121.371008333333","24.9364383333333","6500900","三峽區"
"237006","5529-G3","2018/11/03 17:48:10","新北市三峽區介壽路二段136巷116-2號","121.39229","24.9328316666667","6500900","三峽區"
"237011","KEA-2596","2018/11/03 17:48:09","新北市三峽區大同路168號","121.372743333333","24.9267766666667","6500900","三峽區"
"237016","649-BX","2018/11/03 17:48:12","新北市三峽區白雞149-2號","121.399886666667","24.9050933333333","6500900","三峽區"
"237010","706-TV","2018/11/03 17:48:19","新北市三峽區文化路240號","121.367545","24.93583","6500900","三峽區"
"237005","AKY-6261","2018/11/03 17:48:16","新北市三峽區中山路459巷104號","121.35299","24.93557","6500900","三峽區"
"236070","105-UM","2018/11/03 17:48:10","新北市土城區明德路一段375-1號","121.455078333333","24.978065","6501300","土城區"
"236079","166-UM","2018/11/03 17:48:07","新北市土城區永寧路35號","121.430088333333","24.96212","6501300","土城區"
"236030","253-BX","2018/11/03 17:48:14","新北市土城區城林路6巷80號","121.438553333333","24.979665","6501300","土城區"
"236014","270-VK","2018/11/03 17:48:15","新北市土城區城林路6巷80號","121.438456666667","24.9796366666667","6501300","土城區"
"236038","271-VK","2018/11/03 17:48:14","新北市土城區城林路6巷80號","121.438523333333","24.9796366666667","6501300","土城區"
"236021","401-BY","2018/11/03 17:48:18","新北市土城區城林路6巷80號","121.438736666667","24.9797283333333","6501300","土城區"
"236059","912-UM","2018/11/03 17:48:15","新北市土城區中華路二段129號","121.438885","24.9764833333333","6501300","土城區"
"236063","915-UM","2018/11/03 17:48:13","新北市土城區城林路6巷80號","121.438566666667","24.979715","6501300","土城區"
"242036","AAC-296","2018/11/03 17:48:19","新北市新莊區建福路66號","121.426728333333","25.0269883333333","6500500","新莊區"
"242058","986-R7","2018/11/03 17:48:12","新北市新莊區中正路708號","121.416125","25.0248583333333","6500500","新莊區"
"242056","751-BX","2018/11/03 17:48:19","新北市新莊區瓊林路13-8號","121.448173333333","25.03015","6500500","新莊區"
"242027","615-BX","2018/11/03 17:48:18","新北市新莊區福壽街171號","121.458031666667","25.0538283333333","6500500","新莊區"
"242025","613-BX","2018/11/03 17:48:11","新北市三重區新北大道二段119號","121.466536666667","25.0613366666667","6500500","新莊區"
"242029","612-BX","2018/11/03 17:48:14","新北市新莊區復興路一段31號","121.446361666667","25.0419216666667","6500500","新莊區"
"242044","566-BX","2018/11/03 17:48:16","新北市新莊區富國路71號","121.419913333333","25.02598","6500500","新莊區"
"242048","497-BY","2018/11/03 17:48:24","新北市新莊區萬安街60巷13號","121.420498333333","25.02325","6500500","新莊區"
"242011","442-UM","2018/11/03 17:48:19","新北市新莊區中港路679號","121.450738333333","25.0562383333333","6500500","新莊區"
"242053","441-UM","2018/11/03 17:48:14","新北市新莊區民安西路460巷1號","121.43149","25.0082216666667","6500500","新莊區"
"242039","415-TV","2018/11/03 17:48:08","新北市新莊區富國路204號","121.42489","25.0243","6500500","新莊區"
"242009","413-TV","2018/11/03 17:48:17","新北市新莊區昌明街30巷16號","121.45675","25.0529466666667","6500500","新莊區"
"242046","400-BY","2018/11/03 17:48:07","新北市新莊區建國一路68號","121.434336666667","25.0306383333333","6500500","新莊區"
"242023","362-BY","2018/11/03 17:48:19","新北市新莊區福樂街64號","121.457706666667","25.04625","6500500","新莊區"
"242061","353-BY","2018/11/03 17:48:10","新北市新莊區瓊林南路220號","121.433468333333","25.00567","6500500","新莊區"
"242042","133-UY","2018/11/03 17:48:07","新北市新莊區中正路514巷99號","121.431023333333","25.0343333333333","6500500","新莊區"
"242034","135-UY","2018/11/03 17:48:17","新北市新莊區新莊路662號","121.442425","25.0326916666667","6500500","新莊區"
"242051","172-VK","2018/11/03 17:48:19","新北市新莊區西盛街311巷19號","121.428628333333","25.01528","6500500","新莊區"
"242013","173-VK","2018/11/03 17:48:13","新北市新莊區中誠街142巷13弄10號","121.448296666667","25.048","6500500","新莊區"
"242019","175-VK","2018/11/03 17:48:12","新北市新莊區復興路二段145號","121.457661666667","25.0444183333333","6500500","新莊區"
"242007","176-VK","2018/11/03 17:48:17","新北市新莊區福樂街108巷18號","121.457765","25.0481483333333","6500500","新莊區"
"242017","346-TH","2018/11/03 17:48:19","新北市新莊區永安街19號","121.452053333333","25.0447683333333","6500500","新莊區"
"242031","348-TH","2018/11/03 17:48:19","新北市新莊區新泰路357巷1弄1號","121.442868333333","25.0412483333333","6500500","新莊區"
"242004","349-TH","2018/11/03 17:48:06","新北市新莊區自立街258號","121.459263333333","25.0454916666667","6500500","新莊區"
"242021","350-TH","2018/11/03 17:48:19","新北市新莊區永寧街30巷1號","121.452861666667","25.0390433333333","6500500","新莊區"
"238015","755-BX","2018/11/03 17:48:07","新北市樹林區復興路67號","121.421515","24.9929183333333","6500700","樹林區"
"238023","601-UM","2018/11/03 17:48:19","新北市樹林區福興街10號","121.404101666667","25.0167883333333","6500700","樹林區"
"238019","599-UM","2018/11/03 17:48:23","新北市樹林區太順街17號","121.419565","24.9800916666667","6500700","樹林區"
"238018","571-TV","2018/11/03 17:48:22","新北市樹林區博愛街132號","121.426488333333","24.9913016666667","6500700","樹林區"
"238022","KEA-2213","2018/11/03 17:48:10","新北市樹林區太順街62巷3弄35號","121.416441666667","24.97912","6500700","樹林區"
"238021","KEA-2539","2018/11/03 17:48:16","新北市樹林區柑園街一段23-8號","121.40429","24.9602933333333","6500700","樹林區"
"238025","303-VK","2018/11/03 17:48:09","新北市樹林區中正路576號","121.410993333333","25.0148983333333","6500700","樹林區"
"238017","283-BY","2018/11/03 17:48:15","新北市樹林區三德街64-2號","121.41629","25.0146966666667","6500700","樹林區"
"238014","282-BY","2018/11/03 17:48:12","新北市樹林區保安街一段293號","121.417956666667","24.99723","6500700","樹林區"
"238026","172-UY","2018/11/03 17:48:21","新北市樹林區新興街19巷36弄18號","121.402475","24.9728466666667","6500700","樹林區"
"238016","169-UY","2018/11/03 17:48:14","新北市樹林區文化街45號","121.418101666667","24.9881566666667","6500700","樹林區"
"239007","AAC-297","2018/11/03 17:48:15","新北市鶯歌區尖山埔路229號","121.344825","24.9503083333333","6500800","鶯歌區"
"239006","891-R6","2018/11/03 17:48:08","新北市鶯歌區鶯桃路436巷92弄7號","121.334608333333","24.9674366666667","6500800","鶯歌區"
"239008","527-UM","2018/11/03 17:48:15","新北市鶯歌區大湖路642號","121.333765","24.97562","6500800","鶯歌區"
"239005","526-UM","2018/11/03 17:48:20","新北市鶯歌區鳳吉五街21號","121.327026666667","24.9725633333333","6500800","鶯歌區"
"239001","417-VK","2018/11/03 17:48:19","新北市鶯歌區中正三路446-3號","121.323558333333","24.93454","6500800","鶯歌區"
"239003","360-BY","2018/11/03 17:48:18","新北市鶯歌區永吉街53號","121.335423333333","24.956945","6500800","鶯歌區"
"239002","359-BY","2018/11/03 17:48:21","新北市鶯歌區光明街93號","121.344888333333","24.9558066666667","6500800","鶯歌區"
"239004","193-VK","2018/11/03 17:48:22","新北市鶯歌區文化路136巷48號","121.351193333333","24.9506566666667","6500800","鶯歌區"
"221008","489-VK","2018/11/03 17:48:17","新北市汐止區康寧街901號","121.651251666667","25.0750766666667","6501100","汐止區"
"221036","130-UY","2018/11/03 17:48:16","新北市汐止區汐萬路一段137號","121.653596666667","25.0711716666667","6501100","汐止區"
"221015","131-UY","2018/11/03 17:48:19","新北市汐止區長江街250號","121.662943333333","25.0794116666667","6501100","汐止區"
"221010","269-BY","2018/11/03 17:48:17","新北市汐止區汐萬路二段119號","121.648308333333","25.0838466666667","6501100","汐止區"
"221012","278-VK","2018/11/03 17:48:15","新北市汐止區長江街101-5號","121.658998333333","25.073555","6501100","汐止區"
"221023","279-VK","2018/11/03 17:48:20","新北市汐止區民族一街20號","121.634853333333","25.07102","6501100","汐止區"
"221032","280-BY","2018/11/03 17:48:05","新北市汐止區大同路一段215號","121.633683333333","25.0575783333333","6501100","汐止區"
"221027","281-BY","2018/11/03 17:48:07","新北市汐止區汐萬路一段273號","121.650455","25.0744566666667","6501100","汐止區"
"221021","299-VK","2018/11/03 17:48:14","新北市汐止區水源路一段2號","121.65696","25.0671116666667","6501100","汐止區"
"221031","353-TW","2018/11/03 17:48:10","新北市汐止區中興路78號","121.63499","25.0618333333333","6501100","汐止區"
"221035","622-UM","2018/11/03 17:48:11","新北市汐止區汐萬路一段211巷10號","121.651596666667","25.0720483333333","6501100","汐止區"
"221025","623-UM","2018/11/03 17:48:12","新北市汐止區新台五路一段148號","121.653315","25.0620633333333","6501100","汐止區"
"221038","646-BX","2018/11/03 17:48:17","新北市汐止區汐萬路一段115巷50號","121.652948333333","25.070195","6501100","汐止區"
"221018","753-BX","2018/11/03 17:48:06","新北市汐止區忠孝東路348號","121.665568333333","25.069785","6501100","汐止區"
"242002","281-VK","2018/11/03 17:48:08","新北市新莊區景德路174號","121.450206666667","25.0342233333333","6500500","新莊區"
"242015","280-VK","2018/11/03 17:48:16","新北市新莊區新泰路462號","121.443356666667","25.04483","6500500","新莊區"
