"lineid","car","time","location","longitude","latitude","cityid","cityname"
"234046","148-BY","2018/11/03 19:17:45","新北市永和區得和路376號","121.524616666667","24.9993416666667","6500400","永和區"
"234007","207-UY","2018/11/03 19:17:56","新北市永和區中山路一段331號","121.506023333333","25.0062983333333","6500400","永和區"
"234081","298-R6","2018/11/03 19:17:57","新北市永和區福和路42號","121.523688333333","25.0082866666667","6500400","永和區"
"234038","336-UY","2018/11/03 19:17:45","新北市永和區民樂街70號","121.527433333333","24.9983733333333","6500400","永和區"
"234064","337-UY","2018/11/03 19:17:40","新北市永和區永元路17巷8號","121.521563333333","25.0005466666667","6500400","永和區"
"234086","338-UY","2018/11/03 19:17:54","新北市永和區永利路52號","121.519033333333","25.0052133333333","6500400","永和區"
"234070","552-UM","2018/11/03 19:17:33","新北市永和區豫溪街55號","121.517143333333","25.009865","6500400","永和區"
"234017","745-BX","2018/11/03 19:17:46","新北市永和區文化路144巷31弄6號","121.51248","25.0167583333333","6500400","永和區"
"234030","746-BX","2018/11/03 19:17:58","新北市永和區民生路21號","121.523086666667","24.9989533333333","6500400","永和區"
"234054","KEA-2590","2018/11/03 19:17:51","新北市永和區中興街56號","121.516926666667","25.0116366666667","6500400","永和區"
"234013","KEA-2591","2018/11/03 19:17:48","新北市永和區信義路77號","121.512383333333","25.0132866666667","6500400","永和區"
"234061","AAD-866","2018/11/03 19:17:46","新北市永和區秀朗路一段104號","121.516685","25.0040133333333","6500400","永和區"
"234042","862-TW","2018/11/03 19:17:39","新北市永和區保平路177巷6弄5號","121.509725","25.0046733333333","6500400","永和區"
"234050","863-TW","2018/11/03 19:17:37","新北市永和區仁愛路104巷7弄23號","121.511088333333","25.014075","6500400","永和區"
"234026","9371-KE","2018/11/03 19:17:52","新北市永和區安樂路144巷25號","121.514985","24.9998883333333","6500400","永和區"
"234011","9373-KE","2018/11/03 19:17:39","新北市永和區保福路二段23巷19號","121.510076666667","25.0110916666667","6500400","永和區"
"249005","172-UM","2018/11/03 19:17:42","新北市八里區荖阡坑路2號","121.397931666667","25.1436733333333","6502300","八里區"
"249001","173-UM","2018/11/03 19:17:42","新北市八里區中華路一段333-1號","121.412991666667","25.1542516666667","6502300","八里區"
"249003","593-UM","2018/11/03 19:17:37","新北市八里區中山路二段446號","121.3994","25.1475683333333","6502300","八里區"
"248016","026-BX","2018/11/03 19:17:46","新北市五股區中興路二段37巷26號","121.460613333333","25.0749883333333","6501500","五股區"
"248008","095-VK","2018/11/03 19:17:37","新北市五股區中興路二段57-6號","121.460516666667","25.0754066666667","6501500","五股區"
"248020","225-UY","2018/11/03 19:17:49","新北市五股區凌雲路三段57號","121.42529","25.125015","6501500","五股區"
"248012","247-BX","2018/11/03 19:17:54","新北市五股區中興路四段48巷16號","121.438658333333","25.0834216666667","6501500","五股區"
"248010","272-BY","2018/11/03 19:17:38","新北市五股區水碓二路1號","121.430625","25.0712466666667","6501500","五股區"
"248004","653-BX","2018/11/03 19:17:52","新北市五股區五福路43號","121.433071666667","25.089345","6501500","五股區"
"248002","678-BX","2018/11/03 19:17:50","新北市五股區凌雲路一段158巷6號","121.447835","25.1029983333333","6501500","五股區"
"234023","9380-KE","2018/11/03 19:17:42","新北市永和區竹林路124巷15號","121.519218333333","25.011225","6500400","永和區"
"234077","969-R7","2018/11/03 19:17:44","新北市永和區民族街42號","121.518433333333","24.9988266666667","6500400","永和區"
"234074","AAC-211","2018/11/03 19:17:58","新北市永和區竹林路138號","121.520033333333","25.0110083333333","6500400","永和區"
"234067","AAC-212","2018/11/03 19:17:44","新北市永和區保平路18巷17號","121.511916666667","25.0079683333333","6500400","永和區"
"234003","AAC-295","2018/11/03 19:17:06","新北市永和區永平路152巷4號","121.5115","25.0089383333333","6500400","永和區"
"244023","069-UM","2018/11/03 19:17:42","新北市林口區文林六街62巷6號","121.37191","25.0815066666667","6501700","林口區"
"244019","403-UM","2018/11/03 19:17:54","新北市林口區文化一路二段62號","121.381021666667","25.0776933333333","6501700","林口區"
"244013","KEA-2802","2018/11/03 19:17:49","新北市林口區文化一路一段126號","121.375413333333","25.0724166666667","6501700","林口區"
"244017","485-VK","2018/11/03 19:17:50","新北市林口區公園路84號","121.3694","25.0702733333333","6501700","林口區"
"244011","701-TV","2018/11/03 19:17:49","新北市林口區中正路329號","121.38843","25.0776916666667","6501700","林口區"
"244025","837-TS","2018/11/03 19:17:53","新北市林口區民族路216巷13號","121.369503333333","25.0773483333333","6501700","林口區"
"243013","AAD-798","2018/11/03 19:17:42","新北市泰山區明志路三段201號","121.424036666667","25.0384533333333","6501600","泰山區"
"243009","297-R6","2018/11/03 19:17:48","新北市泰山區明志路一段76號","121.43346","25.0644983333333","6501600","泰山區"
"243016","KEA-2801","2018/11/03 19:17:51","新北市泰山區明志路三段58號","121.424915","25.0422316666667","6501600","泰山區"
"243015","421-VK","2018/11/03 19:17:55","新北市泰山區公園路71號","121.426301666667","25.055415","6501600","泰山區"
"243012","539-UM","2018/11/03 19:17:49","新北市泰山區同義街53號","121.431763333333","25.0559016666667","6501600","泰山區"
"243011","KEA-2215","2018/11/03 19:17:53","新北市泰山區中央路7巷2號","121.42647","25.0432983333333","6501600","泰山區"
"243010","KEA-2216","2018/11/03 19:17:49","新北市泰山區明志路一段494號","121.43026","25.0546816666667","6501600","泰山區"
"243014","680-BX","2018/11/03 19:17:36","新北市泰山區泰林路二段206號","121.433335","25.0614333333333","6501600","泰山區"
"222003","436-BY","2018/11/03 19:17:35","新北市深坑區深南路204號","121.626646666667","25.016065","6501800","深坑區"
"222002","659-BX","2018/11/03 19:17:39","新北市深坑區紅葉街21號","121.632953333333","25.0124016666667","6501800","深坑區"
"231041","002-UM","2018/11/03 19:17:39","新北市新店區溪園路247號","121.525433333333","24.9832866666667","6500600","新店區"
"231059","046-UY","2018/11/03 19:17:47","新北市新店區安和路二段138號","121.519541666667","24.9722","6500600","新店區"
"231040","047-UY","2018/11/03 19:17:57","新北市新店區三民路86號","121.534366666667","24.9727033333333","6500600","新店區"
"231046","107-UY","2018/11/03 19:17:40","新北市新店區華城路5-3號","121.529273333333","24.9578966666667","6500600","新店區"
"231052","108-UY","2018/11/03 19:17:43","新北市新店區屈尺路11號","121.549298333333","24.921835","6500600","新店區"
"231048","187-VK","2018/11/03 19:17:52","新北市新店區中興路二段67巷16號","121.545891666667","24.9712633333333","6500600","新店區"
"231054","KEA-2219","2018/11/03 19:17:40","新北市新店區文中路12號","121.537736666667","24.9569733333333","6500600","新店區"
"231042","268-BY","2018/11/03 19:17:44","新北市新店區中興路一段164號","121.542695","24.9642633333333","6500600","新店區"
"231051","278-BY","2018/11/03 19:17:50","新北市新店區中央路192號","121.530938333333","24.9748183333333","6500600","新店區"
"231050","AAD-862","2018/11/03 19:17:46","新北市新店區竹林路25巷10號","121.552286666667","24.951335","6500600","新店區"
"231044","355-BY","2018/11/03 19:17:43","新北市新店區寶元路一段65號","121.542213333333","24.9857383333333","6500600","新店區"
"231058","3713-VJ","2018/11/03 19:17:46","新北市新店區光明街286巷4號","121.540638333333","24.96376","6500600","新店區"
"231066","4716-K9","2018/11/03 19:17:44","新北市新店區安康路三段359巷12弄2號","121.484546666667","24.9500383333333","6500600","新店區"
"231056","4715-K9","2018/11/03 19:17:44","新北市新店區安康路二段414巷2號","121.495863333333","24.9578016666667","6500600","新店區"
"231067","4772-VM","2018/11/03 19:17:39","新北市新店區安康路一段197號","121.526398333333","24.9628516666667","6500600","新店區"
"231065","512-UM","2018/11/03 19:17:40","新北市新店區安祥路110巷25號","121.473701666667","24.9563266666667","6500600","新店區"
"231049","513-UM","2018/11/03 19:17:48","新北市新店區明德路107號","121.541538333333","24.9792733333333","6500600","新店區"
"231061","619-UM","2018/11/03 19:17:39","新北市新店區安康路一段48號","121.53039","24.9610933333333","6500600","新店區"
"231063","641-BX","2018/11/03 19:17:53","新北市新店區達觀路14巷5-3號","121.503445","24.94296","6500600","新店區"
"231064","719-UM","2018/11/03 19:17:44","新北市新店區安忠路65巷2號","121.511425","24.9577366666667","6500600","新店區"
"231062","720-UM","2018/11/03 19:17:41","新北市新店區安康路一段164-1號","121.52599","24.962985","6500600","新店區"
"231060","897-TW","2018/11/03 19:17:39","新北市新店區安康路二段156號","121.512326666667","24.9608766666667","6500600","新店區"
"231045","898-TW","2018/11/03 19:17:56","新北市新店區北宜路一段276號","121.546181666667","24.95275","6500600","新店區"
"231043","899-TW","2018/11/03 19:17:54","新北市新店區北新路二段107號","121.54295","24.9744116666667","6500600","新店區"
"241022","060-VK","2018/11/03 19:17:48","新北市三重區重陽路二段72號","121.487208333333","25.0641216666667","6500200","三重區"
"241031","061-VK","2018/11/03 19:17:47","新北市三重區重新路四段242-1號","121.485751666667","25.053735","6500200","三重區"
"241017","063-VK","2018/11/03 19:17:45","新北市三重區大同北路213號","121.492013333333","25.0656916666667","6500200","三重區"
"241026","066-VK","2018/11/03 19:17:36","新北市三重區中正南路181號","121.493695","25.0552566666667","6500200","三重區"
"251014","742-BX","2018/11/03 19:17:48","新北市淡水區小中寮19-7號","121.484743333333","25.2295683333333","6501000","淡水區"
"241032","269-UM","2018/11/03 19:17:48","新北市三重區名源街50號","121.482663333333","25.0594016666667","6500200","三重區"
"241025","271-UM","2018/11/03 19:17:45","新北市三重區中正北路404號","121.475393333333","25.0704466666667","6500200","三重區"
"241035","KEA-2210","2018/11/03 19:17:41","新北市三重區信義西街138號","121.495461666667","25.0643016666667","6500200","三重區"
"241020","478-VK","2018/11/03 19:17:54","新北市三重區後竹圍街88號","121.4896","25.072795","6500200","三重區"
"241006","AAD-863","2018/11/03 19:17:54","新北市三重區車路頭街139巷2號","121.483896666667","25.0763366666667","6500200","三重區"
"241029","942-UM","2018/11/03 19:17:55","新北市三重區重安街70-6號","121.491501666667","25.0569566666667","6500200","三重區"
"235066","003-UY","2018/11/03 19:17:51","新北市中和區廣福路81號","121.50215","25.0010716666667","6500300","中和區"
"235064","005-UY","2018/11/03 19:17:46","新北市中和區泰和街2號","121.499905","25.0014016666667","6500300","中和區"
"235063","006-UY","2018/11/03 19:17:41","新北市中和區連勝街121巷3號","121.495165","24.9947033333333","6500300","中和區"
"235056","096-UM","2018/11/03 19:17:37","新北市中和區中山路二段594號","121.482378333333","25.005535","6500300","中和區"
"235039","097-UM","2018/11/03 19:17:42","新北市中和區秀峰街64號","121.520643333333","24.9904616666667","6500300","中和區"
"235065","098-UM","2018/11/03 19:17:50","新北市中和區中山路二段64巷7弄23號","121.502833333333","25.0046166666667","6500300","中和區"
"235040","150-BY","2018/11/03 19:17:22","新北市中和區保健路46巷1號","121.509841666667","24.996995","6500300","中和區"
"235058","151-BY","2018/11/03 19:17:36","新北市中和區連城路477巷6弄38號","121.482285","24.994985","6500300","中和區"
"235055","183-VK","2018/11/03 19:17:41","新北市中和區德光路50號","121.46988","25.00404","6500300","中和區"
"235038","185-VK","2018/11/03 19:17:50","新北市中和區自強路19號","121.5204","24.993205","6500300","中和區"
"235049","186-VK","2018/11/03 19:17:38","新北市中和區景新街237號","121.508178333333","24.99451","6500300","中和區"
"235067","255-BX","2018/11/03 19:17:49","新北市中和區民樂路36號","121.483021666667","25.0011733333333","6500300","中和區"
"235044","293-VK","2018/11/03 19:17:44","新北市中和區中興街230巷11號","121.499675","24.9883216666667","6500300","中和區"
"235072","301-VK","2018/11/03 19:17:42","新北市中和區連城路186號","121.49269","24.9967666666667","6500300","中和區"
"235043","352-BY","2018/11/03 19:17:39","新北市中和區景平路334號","121.511898333333","24.9927683333333","6500300","中和區"
"235042","KEA-2878","2018/11/03 19:17:42","新北市中和區自立路16巷11號","121.52135","24.9935683333333","6500300","中和區"
"235050","4979-A6","2018/11/03 19:17:45","新北市中和區復興路280巷18弄30號","121.50229","24.9921766666667","6500300","中和區"
"235069","4980-A6","2018/11/03 19:17:46","新北市中和區中山路二段181巷5號","121.501111666667","25.001995","6500300","中和區"
"235070","558-UM","2018/11/03 19:17:48","新北市中和區中山路二段228-1號","121.498728333333","25.0027133333333","6500300","中和區"
"235045","565-BX","2018/11/03 19:17:41","新北市中和區景新街423巷35弄19號","121.513845","24.9904366666667","6500300","中和區"
"235054","640-BX","2018/11/03 19:17:41","新北市中和區國光街109巷25號","121.46953","24.999465","6500300","中和區"
"235060","647-TV","2018/11/03 19:17:43","新北市中和區員山路473號","121.480315","25.00474","6500300","中和區"
"235047","732-UM","2018/11/03 19:17:47","新北市中和區和平街38巷8號","121.509358333333","24.990805","6500300","中和區"
"235046","733-UM","2018/11/03 19:17:53","新北市中和區華新街182號","121.507196666667","24.9821666666667","6500300","中和區"
"235071","783-BX","2018/11/03 19:17:51","新北市中和區中正路637巷38號","121.485475","24.99481","6500300","中和區"
"235057","801-TS","2018/11/03 19:17:51","新北市中和區民利街78號","121.478226666667","24.9982083333333","6500300","中和區"
"235041","802-TS","2018/11/03 19:17:40","新北市中和區中和路298號","121.508635","24.9998616666667","6500300","中和區"
"235052","805-TS","2018/11/03 19:17:35","新北市中和區興南路二段142巷17弄17號","121.503235","24.9830283333333","6500300","中和區"
"235048","896-TW","2018/11/03 19:17:48","新北市中和區忠孝街78號","121.512081666667","24.9842916666667","6500300","中和區"
"235053","900-TW","2018/11/03 19:17:42","新北市中和區民德路244號","121.468053333333","24.99734","6500300","中和區"
"235051","157-BY","2018/11/03 19:17:37","新北市中和區和平街7-1號","121.509298333333","24.9902466666667","6500300","中和區"
"235037","AAC-213","2018/11/03 19:17:44","新北市中和區秀朗路三段50巷12弄6號","121.524065","24.995255","6500300","中和區"
"235059","AAC-215","2018/11/03 19:17:37","新北市中和區圓通路367巷2號","121.49114","24.9892533333333","6500300","中和區"
"220065","072-UY","2018/11/03 19:17:37","新北市板橋區國泰街76巷21號","121.467011666667","25.0071466666667","6500100","板橋區"
"220106","075-UY","2018/11/03 19:17:55","新北市板橋區雙十路三段66巷1號","121.470498333333","25.0319033333333","6500100","板橋區"
"220069","AAD-861","2018/11/03 19:17:46","新北市板橋區華興街56-1號","121.457926666667","25.0047416666667","6500100","板橋區"
"226004","312-R5","2018/11/03 19:17:51","新北市平溪區南山里南山坪11-2號","121.76481","25.03248","6502400","平溪區"
"228003","097-TW","2018/11/03 19:17:35","新北市貢寮區和美里和美街22-1號","121.912795","25.082625","6502600","貢寮區"
"228001","212-TW","2018/11/03 19:17:37","新北市貢寮區真理里新港街10號","121.925516666667","25.0544183333333","6502600","貢寮區"
"228002","585-TW","2018/11/03 19:17:45","新北市貢寮區龍門里復興街29-3號","121.927546666667","25.0280733333333","6502600","貢寮區"
"224010","AGQ-8101","2018/11/03 19:17:48","新北市瑞芳區金光路372號","121.849138333333","25.111085","6501200","瑞芳區"
"224008","285-BY","2018/11/03 19:17:48","新北市瑞芳區明燈路三段265號","121.798915","25.1120783333333","6501200","瑞芳區"
"227010","642-TC","2018/11/03 19:17:45","新北市雙溪區新基里新基北街40號","121.86857","25.0380883333333","6502500","雙溪區"
"227002","400-TW","2018/11/03 19:17:47","新北市雙溪區平林里梅竹蹊66-1號","121.86024","25.035815","6502500","雙溪區"
"253006","032-BX","2018/11/03 19:17:40","新北市石門區崁子腳27號","121.535616666667","25.2906466666667","6502200","石門區"
"253005","295-VK","2018/11/03 19:17:41","新北市石門區阿里荖5-4號","121.609698333333","25.2798333333333","6502200","石門區"
"222001","KEA-2212","2018/11/03 19:17:56","新北市深坑區北深路二段43巷8號","121.619406666667","25.0039633333333","6501800","深坑區"
"208002","KEA-2872","2018/11/03 19:17:45","新北市金山區環金路376巷1號","121.631913333333","25.222275","6502700","金山區"
"208003","665-BX","2018/11/03 19:17:54","新北市金山區中山路165號","121.63875","25.2205883333333","6502700","金山區"
"208001","761-BX","2018/11/03 19:17:38","新北市金山區民生路69號","121.640198333333","25.2196833333333","6502700","金山區"
"251009","008-UM","2018/11/03 19:17:37","新北市淡水區清水街81號","121.441258333333","25.1701683333333","6501000","淡水區"
"251005","010-UM","2018/11/03 19:17:49","新北市淡水區水源街一段29號","121.443266666667","25.1724416666667","6501000","淡水區"
"251013","KEA-2871","2018/11/03 19:17:44","新北市淡水區安子內12-1號","121.481485","25.219095","6501000","淡水區"
"251016","179-VK","2018/11/03 19:17:51","新北市淡水區下圭柔山119-51號","121.450718333333","25.2085016666667","6501000","淡水區"
"251015","182-VK","2018/11/03 19:17:39","新北市淡水區南勢埔20-1號","121.481565","25.1787016666667","6501000","淡水區"
"251010","413-VK","2018/11/03 19:17:49","新北市淡水區沙崙路30號","121.421526666667","25.1814633333333","6501000","淡水區"
"251007","442-VK","2018/11/03 19:17:53","新北市淡水區民生路145巷58號","121.468035","25.1387466666667","6501000","淡水區"
"251001","559-UM","2018/11/03 19:17:42","新北市淡水區民權路92巷35-1號","121.462136666667","25.126745","6501000","淡水區"
"251003","766-UM","2018/11/03 19:17:52","新北市淡水區中山北路一段177號","121.443735","25.17778","6501000","淡水區"
"207003","550-UM","2018/11/03 19:17:46","新北市萬里區大鵬里萬里加投79-3號","121.647338333333","25.2123566666667","6502800","萬里區"
"207004","225-TW","2018/11/03 19:17:54","新北市萬里區萬里里成功新村63號","121.688276666667","25.1745783333333","6502800","萬里區"
"252002","178-VK","2018/11/03 19:17:44","新北市三芝區淡金路二段18-1號","121.502701666667","25.2595066666667","6502100","三芝區"
"252001","292-VK","2018/11/03 19:17:54","新北市三芝區長勤街9巷11弄1號","121.501813333333","25.25468","6502100","三芝區"
"237007","153-BY","2018/11/03 19:17:43","新北市三峽區麻園40號","121.36384","24.9207483333333","6500900","三峽區"
"237009","210-TH","2018/11/03 19:17:42","新北市三峽區信義街4號","121.370815","24.935955","6500900","三峽區"
"237013","252-BX","2018/11/03 19:17:53","新北市三峽區大同路39巷7號","121.377148333333","24.9279333333333","6500900","三峽區"
"237012","275-BY","2018/11/03 19:17:50","新北市三峽區三樹路222巷196-38號","121.390118333333","24.9426416666667","6500900","三峽區"
"237008","302-VK","2018/11/03 19:17:47","新北市三峽區永安街183號","121.373158333333","24.9267033333333","6500900","三峽區"
"237014","433-BY","2018/11/03 19:17:46","新北市三峽區中山路275號","121.361891666667","24.9373133333333","6500900","三峽區"
"237006","5529-G3","2018/11/03 19:17:50","新北市三峽區中正路一段160號","121.373071666667","24.928655","6500900","三峽區"
"237011","KEA-2596","2018/11/03 19:17:49","新北市三峽區介壽路一段383-1號","121.387611666667","24.9338716666667","6500900","三峽區"
"237016","649-BX","2018/11/03 19:17:52","新北市三峽區成福路307號","121.429158333333","24.9236033333333","6500900","三峽區"
"237010","706-TV","2018/11/03 19:17:50","新北市三峽區復興路168號","121.3709","24.93835","6500900","三峽區"
"237005","AKY-6261","2018/11/03 19:17:55","新北市三峽區中山路459巷24號","121.357538333333","24.9389783333333","6500900","三峽區"
"236070","105-UM","2018/11/03 19:17:49","新北市土城區學成路67-1號","121.451486666667","24.9880716666667","6501300","土城區"
"236042","KED-0685","2018/11/03 19:17:40","新北市土城區學府路一段239號","121.450353333333","24.9833416666667","6501300","土城區"
"236079","166-UM","2018/11/03 19:17:47","新北市土城區中央路四段307-3號","121.410788333333","24.95154","6501300","土城區"
"236026","269-VK","2018/11/03 19:17:48","新北市土城區中央路二段177巷23號","121.44387","24.9762183333333","6501300","土城區"
"236014","270-VK","2018/11/03 19:17:54","新北市土城區學府路一段23巷23號","121.45776","24.9869166666667","6501300","土城區"
"236021","401-BY","2018/11/03 19:17:38","新北市土城區延峰街16號","121.468681666667","24.9863233333333","6501300","土城區"
"236059","912-UM","2018/11/03 19:17:55","新北市土城區中央路二段223-4號","121.440688333333","24.97348","6501300","土城區"
"236049","913-UM","2018/11/03 19:17:49","新北市土城區明德路一段365-1號","121.453655","24.9790583333333","6501300","土城區"
"236055","AAC-216","2018/11/03 19:17:56","新北市土城區學府路一段276號","121.450163333333","24.9833016666667","6501300","土城區"
"242013","173-VK","2018/11/03 19:17:44","新北市新莊區三和路12-21號","121.442083333333","25.03875","6500500","新莊區"
"242004","349-TH","2018/11/03 19:17:46","新北市新莊區新泰路277巷67號","121.44312","25.0400483333333","6500500","新莊區"
"238015","755-BX","2018/11/03 19:17:49","新北市樹林區光明街38號","121.411983333333","24.9910516666667","6500700","樹林區"
"238023","601-UM","2018/11/03 19:17:39","新北市樹林區三興路27號","121.396466666667","25.0148666666667","6500700","樹林區"
"238019","599-UM","2018/11/03 19:17:43","新北市樹林區東榮街91巷2弄10號","121.415751666667","24.9821783333333","6500700","樹林區"
"238018","571-TV","2018/11/03 19:17:42","新北市樹林區太平路50號","121.419045","24.9824583333333","6500700","樹林區"
"238024","5061-A6","2018/11/03 19:17:44","新北市樹林區福德街20號","121.401065","24.9759666666667","6500700","樹林區"
"238021","KEA-2539","2018/11/03 19:17:46","新北市樹林區柑園街二段203巷19號","121.377106666667","24.9512516666667","6500700","樹林區"
"238025","303-VK","2018/11/03 19:17:52","新北市樹林區中山路二段219號","121.402505","24.9761283333333","6500700","樹林區"
"238017","283-BY","2018/11/03 19:17:34","新北市樹林區光興街86號","121.40838","25.0031933333333","6500700","樹林區"
"238014","282-BY","2018/11/03 19:17:52","新北市樹林區中正路22-1號","121.42773","24.9993816666667","6500700","樹林區"
"238026","172-UY","2018/11/03 19:17:41","新北市樹林區佳園路一段39號","121.393175","24.970725","6500700","樹林區"
"238016","169-UY","2018/11/03 19:17:24","新北市樹林區備前街32號","121.417591666667","24.9860233333333","6500700","樹林區"
"239007","AAC-297","2018/11/03 19:17:54","新北市鶯歌區國華路1-3號","121.343398333333","24.9569066666667","6500800","鶯歌區"
"239006","891-R6","2018/11/03 19:17:48","新北市鶯歌區鶯桃路91巷40弄2號","121.337551666667","24.952395","6500800","鶯歌區"
"239008","527-UM","2018/11/03 19:17:46","新北市鶯歌區大湖路466號","121.339601666667","24.9722166666667","6500800","鶯歌區"
"239005","526-UM","2018/11/03 19:17:38","新北市鶯歌區中湖街25號","121.347478333333","24.972845","6500800","鶯歌區"
"239001","417-VK","2018/11/03 19:17:38","新北市鶯歌區建國路409號","121.337876666667","24.9509666666667","6500800","鶯歌區"
"239003","360-BY","2018/11/03 19:17:33","新北市鶯歌區重慶街18號","121.351668333333","24.9526766666667","6500800","鶯歌區"
"239002","359-BY","2018/11/03 19:17:41","新北市鶯歌區湖山路9號","121.34075","24.97371","6500800","鶯歌區"
"239004","193-VK","2018/11/03 19:17:42","新北市鶯歌區中正三路220號","121.331855","24.9376783333333","6500800","鶯歌區"
"221008","489-VK","2018/11/03 19:17:40","新北市汐止區康寧街336號","121.627706666667","25.0674616666667","6501100","汐止區"
"221036","130-UY","2018/11/03 19:17:36","新北市汐止區康寧街901號","121.651671666667","25.07502","6501100","汐止區"
"221015","131-UY","2018/11/03 19:17:39","新北市汐止區康寧街901號","121.651641666667","25.07495","6501100","汐止區"
"221010","269-BY","2018/11/03 19:17:50","新北市汐止區康寧街901號","121.65157","25.0750133333333","6501100","汐止區"
"221012","278-VK","2018/11/03 19:17:35","新北市汐止區汐萬路一段312號","121.650658333333","25.0754","6501100","汐止區"
"221032","280-BY","2018/11/03 19:17:45","新北市汐止區汐萬路一段256巷3號","121.652958333333","25.0743916666667","6501100","汐止區"
"221027","281-BY","2018/11/03 19:17:46","新北市汐止區康寧街901號","121.651475","25.0750016666667","6501100","汐止區"
"221029","298-VK","2018/11/03 19:17:41","新北市汐止區康寧街901號","121.651548333333","25.074955","6501100","汐止區"
"221021","299-VK","2018/11/03 19:17:54","新北市汐止區康寧街901號","121.651441666667","25.0750466666667","6501100","汐止區"
"221031","353-TW","2018/11/03 19:17:50","新北市汐止區康寧街901號","121.650833333333","25.0752783333333","6501100","汐止區"
"221035","622-UM","2018/11/03 19:17:50","新北市汐止區康寧街901號","121.651096666667","25.0751833333333","6501100","汐止區"
"221025","623-UM","2018/11/03 19:17:52","新北市汐止區康寧街901號","121.651608333333","25.0749433333333","6501100","汐止區"
"221038","646-BX","2018/11/03 19:17:37","新北市汐止區康寧街901號","121.650711666667","25.0752316666667","6501100","汐止區"
"221002","707-TV","2018/11/03 19:17:56","新北市汐止區大同路一段349-1號","121.639291666667","25.059735","6501100","汐止區"
"220079","145-BY","2018/11/03 19:17:54","新北市板橋區民權路202巷17-1號","121.460733333333","25.0166066666667","6500100","板橋區"
"220080","200-UY","2018/11/03 19:17:33","新北市板橋區大觀路二段37巷77號","121.450066666667","25.0025266666667","6500100","板橋區"
"220082","610-BX","2018/11/03 19:17:51","新北市板橋區溪城路79號","121.426676666667","24.9837016666667","6500100","板橋區"
"220101","245-BX","2018/11/03 19:17:56","新北市板橋區雙十路二段47巷8弄6號","121.474645","25.0257716666667","6500100","板橋區"
"220091","267-BY","2018/11/03 19:17:39","新北市板橋區萬板路408號","121.478983333333","25.025365","6500100","板橋區"
"220056","276-BY","2018/11/03 19:17:51","新北市板橋區信義路237號","121.460005","24.991025","6500100","板橋區"
"220072","277-BY","2018/11/03 19:17:57","新北市板橋區金門街337巷8弄2號","121.429596666667","24.9852966666667","6500100","板橋區"
"220057","282-UM","2018/11/03 19:17:54","新北市板橋區五權街30巷2號","121.46462","24.9936","6500100","板橋區"
"220071","283-VK","2018/11/03 19:17:45","新北市板橋區仁愛路73巷12號","121.461046666667","25.0004016666667","6500100","板橋區"
"220094","285-UM","2018/11/03 19:17:40","新北市板橋區光武街110巷46號","121.467148333333","25.0301116666667","6500100","板橋區"
"220053","285-VK","2018/11/03 19:17:49","新北市板橋區富山街14號","121.478426666667","25.0218033333333","6500100","板橋區"
"220083","286-VK","2018/11/03 19:17:50","新北市板橋區大觀路二段174巷166弄2號","121.441928333333","25.003265","6500100","板橋區"
"220081","287-VK","2018/11/03 19:17:45","新北市板橋區南雅西路一段178號","121.452878333333","25.0080216666667","6500100","板橋區"
"220090","288-VK","2018/11/03 19:17:52","新北市板橋區長江路一段106巷13弄35號","121.46137","25.0298016666667","6500100","板橋區"
"220061","295-UM","2018/11/03 19:17:45","新北市板橋區中山路二段318巷17號","121.480411666667","25.0187216666667","6500100","板橋區"
"220075","303-R5","2018/11/03 19:17:48","新北市板橋區南雅西路一段116號","121.452421666667","25.006395","6500100","板橋區"
"220062","305-R5","2018/11/03 19:17:54","新北市板橋區三民路二段居仁巷1弄48-1號","121.481086666667","25.013665","6500100","板橋區"
"220092","307-R5","2018/11/03 19:17:39","新北市板橋區光武街48巷25號","121.46777","25.0268383333333","6500100","板橋區"
"220098","317-R6","2018/11/03 19:17:55","新北市板橋區民有街79號","121.464975","25.0272616666667","6500100","板橋區"
"220064","486-VK","2018/11/03 19:17:45","新北市板橋區中山路一段131號","121.46236","25.0104466666667","6500100","板橋區"
"220089","487-VK","2018/11/03 19:17:51","新北市板橋區文化路二段1號","121.468295","25.0237183333333","6500100","板橋區"
"220088","491-VK","2018/11/03 19:17:52","新北市板橋區雙十路二段108號","121.474458333333","25.0285416666667","6500100","板橋區"
"220035","560-BX","2018/11/03 19:17:55","新北市板橋區中正路360巷6-3號","121.454873333333","25.0237133333333","6500100","板橋區"
"220103","561-BX","2018/11/03 19:17:52","新北市板橋區介壽街22-1號","121.467675","25.01999","6500100","板橋區"
"220084","568-UM","2018/11/03 19:17:44","新北市板橋區溪崑二街73巷14號","121.428328333333","24.9899666666667","6500100","板橋區"
"220063","609-BX","2018/11/03 19:17:49","新北市板橋區三民路一段140號","121.479205","25.0203983333333","6500100","板橋區"
"220086","630-UY","2018/11/03 19:17:53","新北市板橋區中正路216巷79號","121.458176666667","25.01903","6500100","板橋區"
"220077","687-BX","2018/11/03 19:17:54","新北市板橋區大觀路一段28巷44號","121.449836666667","25.0099883333333","6500100","板橋區"
"220093","689-BX","2018/11/03 19:17:39","新北市板橋區文化路一段407號","121.467395","25.02217","6500100","板橋區"
"220054","741-BX","2018/11/03 19:17:37","新北市板橋區重慶路196號","121.462438333333","25.00293","6500100","板橋區"
"220102","KEA-2699","2018/11/03 19:17:43","新北市板橋區田單街49巷1弄35號","121.482363333333","25.0295183333333","6500100","板橋區"
"220055","827-TW","2018/11/03 19:17:52","新北市板橋區實踐路60號","121.463866666667","25.006035","6500100","板橋區"
"220067","829-TW","2018/11/03 19:17:45","新北市板橋區長安街138巷1弄118號","121.474295","25.0103866666667","6500100","板橋區"
"220068","830-TW","2018/11/03 19:17:49","新北市板橋區翠華街6巷10號","121.480735","25.023945","6500100","板橋區"
"220096","831-TW","2018/11/03 19:17:49","新北市板橋區大同街8巷44號","121.47784","25.0260566666667","6500100","板橋區"
"220074","895-R6","2018/11/03 19:17:48","新北市板橋區中正路自強新村78-1號","121.454768333333","25.01271","6500100","板橋區"
"220073","985-R7","2018/11/03 19:17:48","新北市板橋區新生街41號","121.456956666667","25.0210666666667","6500100","板橋區"
"220097","AAC-210","2018/11/03 19:17:57","新北市板橋區幸福路60巷9號","121.460821666667","25.0204733333333","6500100","板橋區"
"220070","AAC-253","2018/11/03 19:17:39","新北市板橋區忠孝路74號","121.461306666667","25.0019666666667","6500100","板橋區"
"235068","KEA-2873","2018/11/03 19:17:32","新北市中和區景平路545巷1弄18號","121.498838333333","24.998755","6500300","中和區"
"235061","KEA-2875","2018/11/03 19:17:43","新北市中和區員山路208號","121.481273333333","25.0007583333333","6500300","中和區"
