"lineid","car","time","location","longitude","latitude","cityid","cityname"
"234046","148-BY","2018/11/03 19:57:45","新北市永和區成功路一段35號","121.527073333333","25.00442","6500400","永和區"
"234007","207-UY","2018/11/03 19:53:16","新北市永和區中山路一段275號","121.50706","25.0071366666667","6500400","永和區"
"234081","298-R6","2018/11/03 19:57:57","新北市永和區林森路107號","121.522991666667","25.0034483333333","6500400","永和區"
"234038","336-UY","2018/11/03 19:57:45","新北市永和區成功路二段185號","121.52663","24.9965816666667","6500400","永和區"
"234064","337-UY","2018/11/03 19:57:40","新北市永和區中正路368巷1弄45號","121.51915","25.00115","6500400","永和區"
"234086","338-UY","2018/11/03 19:57:56","新北市永和區福和路232號","121.518955","25.0075933333333","6500400","永和區"
"234070","552-UM","2018/11/03 19:57:53","新北市永和區國光路6號","121.519816666667","25.0084366666667","6500400","永和區"
"234017","745-BX","2018/11/03 19:57:46","新北市永和區文化路7號","121.515411666667","25.0149283333333","6500400","永和區"
"234030","746-BX","2018/11/03 19:57:45","新北市永和區民生路67巷20號","121.523568333333","24.9970916666667","6500400","永和區"
"234054","KEA-2590","2018/11/03 19:57:41","新北市永和區環河東路一段122號","121.520681666667","25.01556","6500400","永和區"
"234013","KEA-2591","2018/11/03 19:57:48","新北市永和區保生路55號","121.504701666667","25.0106066666667","6500400","永和區"
"234061","AAD-866","2018/11/03 19:57:46","新北市永和區得和路68號","121.516215","24.99985","6500400","永和區"
"234042","862-TW","2018/11/03 19:57:55","新北市永和區中和路421巷3弄21號","121.508511666667","25.0002866666667","6500400","永和區"
"234050","863-TW","2018/11/03 19:57:57","新北市永和區保安路202號","121.507761666667","25.0141316666667","6500400","永和區"
"234026","9371-KE","2018/11/03 19:57:49","新北市永和區水源街33巷1號","121.510778333333","25.0044083333333","6500400","永和區"
"249005","172-UM","2018/11/03 19:57:41","新北市八里區楓林路3-1號","121.382746666667","25.1300416666667","6502300","八里區"
"249001","173-UM","2018/11/03 19:57:41","新北市八里區中華路二段310號","121.403823333333","25.14835","6502300","八里區"
"249004","303-UY","2018/11/03 19:57:53","新北市八里區中山路一段450號","121.410503333333","25.1573566666667","6502300","八里區"
"249002","305-UY","2018/11/03 19:57:46","新北市八里區頂寮一街35-1號","121.450688333333","25.1237133333333","6502300","八里區"
"249003","593-UM","2018/11/03 19:57:37","新北市八里區中華路二段560巷17號","121.398441666667","25.14522","6502300","八里區"
"248016","026-BX","2018/11/03 19:57:48","新北市五股區成泰路三段577巷80弄6號","121.44946","25.1040783333333","6501500","五股區"
"248008","095-VK","2018/11/03 19:57:37","新北市五股區四維路153號","121.467588333333","25.07452","6501500","五股區"
"248020","225-UY","2018/11/03 19:57:49","新北市五股區中直路26號","121.425021666667","25.11294","6501500","五股區"
"248012","247-BX","2018/11/03 19:57:55","新北市五股區民義路一段128號","121.43462","25.0860183333333","6501500","五股區"
"248010","272-BY","2018/11/03 19:57:38","新北市五股區成泰路一段61巷22號","121.433476666667","25.0687866666667","6501500","五股區"
"248004","653-BX","2018/11/03 19:57:52","新北市五股區成泰路一段34巷1號","121.435101666667","25.0680466666667","6501500","五股區"
"248002","678-BX","2018/11/03 19:57:50","新北市五股區成泰路三段472號","121.451798333333","25.10124","6501500","五股區"
"234023","9380-KE","2018/11/03 19:57:55","新北市永和區中正路700號","121.516313333333","25.01001","6500400","永和區"
"234077","969-R7","2018/11/03 19:57:44","新北市永和區民有街23巷1號","121.51682","24.9964066666667","6500400","永和區"
"234074","AAC-211","2018/11/03 19:57:53","新北市永和區竹林路179巷46號","121.522556666667","25.0102616666667","6500400","永和區"
"234067","AAC-212","2018/11/03 19:57:44","新北市永和區保平路236巷24弄1號","121.508025","25.00692","6500400","永和區"
"234003","AAC-295","2018/11/03 19:57:46","新北市永和區永和路二段3號","121.514323333333","25.0097833333333","6500400","永和區"
"243013","AAD-798","2018/11/03 19:44:20","新北市泰山區應化街7號","121.423878333333","25.043705","6501600","泰山區"
"243009","297-R6","2018/11/03 19:57:48","新北市泰山區楓江路16巷7號","121.433931666667","25.0620133333333","6501600","泰山區"
"243016","KEA-2801","2018/11/03 19:57:50","新北市泰山區新北大道六段369號","121.422536666667","25.0327316666667","6501600","泰山區"
"243015","421-VK","2018/11/03 19:57:55","新北市泰山區明志路二段214巷16弄9號","121.426758333333","25.0495366666667","6501600","泰山區"
"243012","539-UM","2018/11/03 19:57:44","新北市泰山區全興路81號","121.433018333333","25.0579766666667","6501600","泰山區"
"243011","KEA-2215","2018/11/03 19:57:44","新北市泰山區明志路三段204巷10弄4號","121.423261666667","25.0386166666667","6501600","泰山區"
"243010","KEA-2216","2018/11/03 19:57:48","新北市泰山區中華街10巷1號","121.427923333333","25.0525533333333","6501600","泰山區"
"243014","680-BX","2018/11/03 19:57:56","新北市泰山區泰林路二段139號","121.434046666667","25.0600266666667","6501600","泰山區"
"222003","436-BY","2018/11/03 19:57:53","新北市深坑區北深路二段2巷1號","121.6213","25.0045266666667","6501800","深坑區"
"222002","659-BX","2018/11/03 19:57:39","新北市深坑區北深路二段55巷12弄12號","121.618638333333","25.003305","6501800","深坑區"
"231041","002-UM","2018/11/03 19:57:45","新北市新店區中正路351號","121.535301666667","24.975935","6500600","新店區"
"231059","046-UY","2018/11/03 19:57:51","新北市新店區安和路二段3-5號","121.518001666667","24.9673716666667","6500600","新店區"
"231040","047-UY","2018/11/03 19:57:52","新北市新店區北新路一段126巷21號","121.542976666667","24.9697016666667","6500600","新店區"
"231052","108-UY","2018/11/03 19:57:43","新北市新店區新烏路三段寶島巷2弄3號","121.552015","24.8986483333333","6500600","新店區"
"231048","187-VK","2018/11/03 19:57:51","新北市新店區中興路二段236巷1號","121.548061666667","24.9756","6500600","新店區"
"231054","KEA-2219","2018/11/03 19:57:40","新北市新店區光明街96巷3號","121.539395","24.9599016666667","6500600","新店區"
"231057","256-BX","2018/11/03 19:57:51","新北市新店區花園二路一段11號","121.555523333333","24.9324783333333","6500600","新店區"
"231042","268-BY","2018/11/03 19:57:44","新北市新店區中興路一段280號","121.545486666667","24.9684066666667","6500600","新店區"
"231051","278-BY","2018/11/03 19:57:50","新北市新店區中央一街21號","121.5284","24.9731233333333","6500600","新店區"
"231050","AAD-862","2018/11/03 19:57:46","新北市新店區北宜路二段423-1號","121.560405","24.9543783333333","6500600","新店區"
"231044","355-BY","2018/11/03 19:57:43","新北市新店區復興路27號","121.53902","24.9866816666667","6500600","新店區"
"231066","4716-K9","2018/11/03 19:57:44","新北市新店區安康路二段380號","121.500501666667","24.95757","6500600","新店區"
"231067","4772-VM","2018/11/03 19:57:38","新北市新店區秀山路11巷24號","121.531475","24.958685","6500600","新店區"
"231065","512-UM","2018/11/03 19:57:40","新北市新店區安祥路109巷108號","121.477295","24.9588016666667","6500600","新店區"
"231049","513-UM","2018/11/03 19:57:48","新北市新店區建國路219號","121.537675","24.9811766666667","6500600","新店區"
"231061","619-UM","2018/11/03 19:57:39","新北市新店區安民街304號","121.517621666667","24.9738483333333","6500600","新店區"
"231063","641-BX","2018/11/03 19:57:53","新北市新店區車子路11號","121.503046666667","24.9520516666667","6500600","新店區"
"231068","718-UY","2018/11/03 19:57:52","新北市新店區安一路一段1-1號","121.519495","24.9613683333333","6500600","新店區"
"231064","719-UM","2018/11/03 19:57:44","新北市新店區安和路二段77號","121.518436666667","24.96877","6500600","新店區"
"231062","720-UM","2018/11/03 19:57:41","新北市新店區華潭街31號","121.52992","24.955295","6500600","新店區"
"231060","897-TW","2018/11/03 19:57:38","新北市新店區安康路二段373號","121.495398333333","24.954685","6500600","新店區"
"231045","898-TW","2018/11/03 19:57:36","新北市新店區北宜路二段353-3號","121.55844","24.9542","6500600","新店區"
"231043","899-TW","2018/11/03 19:57:54","新北市新店區中正路282-11號","121.53849","24.9739683333333","6500600","新店區"
"231055","AKT-0513","2018/11/03 19:57:48","新北市新店區中華路83號","121.539348333333","24.9686216666667","6500600","新店區"
"241011","013-R5","2018/11/03 19:57:43","新北市三重區三和路二段210號","121.498178333333","25.06941","6500200","三重區"
"241028","022-UY","2018/11/03 19:57:48","新北市三重區重新路三段86號","121.493255","25.060695","6500200","三重區"
"241008","059-VK","2018/11/03 19:57:38","新北市三重區永福街181號","121.478888333333","25.07499","6500200","三重區"
"241022","060-VK","2018/11/03 19:57:48","新北市三重區新北大道一段11號","121.48854","25.0605783333333","6500200","三重區"
"241031","061-VK","2018/11/03 19:57:47","新北市三重區重新路四段144巷23號","121.486961666667","25.0551766666667","6500200","三重區"
"241015","062-VK","2018/11/03 19:57:54","新北市三重區三和路二段6-2號","121.50122","25.0668016666667","6500200","三重區"
"241017","063-VK","2018/11/03 19:57:45","新北市三重區重陽路三段61號","121.489813333333","25.0674133333333","6500200","三重區"
"241024","065-VK","2018/11/03 19:57:45","新北市三重區大勇街50號","121.480906666667","25.0714716666667","6500200","三重區"
"241026","066-VK","2018/11/03 19:57:45","新北市三重區重新路一段102號","121.501181666667","25.0631533333333","6500200","三重區"
"241003","091-VK","2018/11/03 19:57:45","新北市三重區仁愛街435號","121.490136666667","25.0821233333333","6500200","三重區"
"251014","742-BX","2018/11/03 19:57:48","新北市淡水區石頭厝3-2號","121.45916","25.2352783333333","6501000","淡水區"
"241005","262-UM","2018/11/03 19:57:40","新北市三重區分子尾街111號","121.488636666667","25.08323","6500200","三重區"
"241016","266-UM","2018/11/03 19:57:51","新北市三重區正義北路36巷2號","121.497138333333","25.063375","6500200","三重區"
"241018","268-UM","2018/11/03 19:57:43","新北市三重區正義北路244巷82號","121.493801666667","25.0675833333333","6500200","三重區"
"241032","269-UM","2018/11/03 19:57:48","新北市三重區朝陽街26巷1弄1號","121.483246666667","25.056455","6500200","三重區"
"241013","270-UM","2018/11/03 19:57:49","新北市三重區三和路三段125巷13號","121.493403333333","25.0734966666667","6500200","三重區"
"241025","271-UM","2018/11/03 19:57:45","新北市三重區頂崁街210巷18號","121.476335","25.0678","6500200","三重區"
"241007","398-BY","2018/11/03 19:57:43","新北市三重區三和路四段145巷115號","121.487261666667","25.0790616666667","6500200","三重區"
"241035","KEA-2210","2018/11/03 19:57:41","新北市三重區大榮街9號","121.498188333333","25.0631916666667","6500200","三重區"
"241020","478-VK","2018/11/03 19:57:54","新北市三重區忠孝路一段101號","121.489568333333","25.0721016666667","6500200","三重區"
"241014","543-UM","2018/11/03 19:57:35","新北市三重區三和路二段30號","121.500146666667","25.06765","6500200","三重區"
"241023","545-UM","2018/11/03 19:57:45","新北市三重區頂崁街172號","121.477513333333","25.0659116666667","6500200","三重區"
"241001","547-UM","2018/11/03 19:57:45","新北市三重區仁愛街283巷25號","121.493863333333","25.0796033333333","6500200","三重區"
"241019","KEA-2593","2018/11/03 19:57:49","新北市三重區重陽路四段40號","121.491478333333","25.0697883333333","6500200","三重區"
"241006","AAD-863","2018/11/03 19:57:53","新北市三重區車路頭街166巷4號","121.48353","25.0765616666667","6500200","三重區"
"241030","743-BX","2018/11/03 19:57:46","新北市三重區成功路187號","121.485681666667","25.0529733333333","6500200","三重區"
"241004","887-TS","2018/11/03 19:57:48","新北市三重區五華街74號","121.49358","25.0820783333333","6500200","三重區"
"241012","941-UM","2018/11/03 19:57:53","新北市三重區仁厚街21號","121.499508333333","25.076195","6500200","三重區"
"241029","942-UM","2018/11/03 19:57:54","新北市三重區重安街1號","121.490018333333","25.05833","6500200","三重區"
"241033","AAC-255","2018/11/03 19:57:54","新北市三重區中興北街49號","121.469495","25.047245","6500200","三重區"
"235066","003-UY","2018/11/03 19:57:51","新北市中和區光華街33號","121.50496","25.00396","6500300","中和區"
"235056","096-UM","2018/11/03 19:57:37","新北市中和區中山路三段170巷35號","121.472483333333","25.0075033333333","6500300","中和區"
"235039","097-UM","2018/11/03 19:57:42","新北市中和區景平路276-1號","121.514","24.9926366666667","6500300","中和區"
"235065","098-UM","2018/11/03 19:57:50","新北市中和區福祥路126號","121.498918333333","25.0067133333333","6500300","中和區"
"235040","150-BY","2018/11/03 19:57:37","新北市中和區保健路10巷3弄1號","121.507763333333","24.9976766666667","6500300","中和區"
"235058","151-BY","2018/11/03 19:57:56","新北市中和區員山路150巷2弄41號","121.48192","24.9974333333333","6500300","中和區"
"235055","183-VK","2018/11/03 19:57:39","新北市中和區民生街12巷2號","121.470713333333","25.0055816666667","6500300","中和區"
"235049","186-VK","2018/11/03 19:57:38","新北市中和區景平路510-1號","121.50368","24.9939683333333","6500300","中和區"
"235067","255-BX","2018/11/03 19:57:49","新北市中和區員山路148巷23弄9號","121.482203333333","24.9976583333333","6500300","中和區"
"235044","293-VK","2018/11/03 19:57:44","新北市中和區板南路187-1號","121.500766666667","24.9927133333333","6500300","中和區"
"235043","352-BY","2018/11/03 19:57:39","新北市中和區興南路二段159巷1號","121.505193333333","24.9832333333333","6500300","中和區"
"235050","4979-A6","2018/11/03 19:57:45","新北市中和區景平路241巷82弄22號","121.50692","24.992215","6500300","中和區"
"235069","4980-A6","2018/11/03 19:57:42","新北市中和區中正路292號","121.494525","24.9940666666667","6500300","中和區"
"235070","558-UM","2018/11/03 19:57:48","新北市中和區錦和路212號","121.490428333333","24.99467","6500300","中和區"
"235054","640-BX","2018/11/03 19:57:41","新北市中和區莒光路78號","121.472326666667","25.0029383333333","6500300","中和區"
"235047","732-UM","2018/11/03 19:57:47","新北市中和區和平街130號","121.50659","24.991705","6500300","中和區"
"235046","733-UM","2018/11/03 19:57:53","新北市中和區興南路一段93巷73號","121.510411666667","24.9866216666667","6500300","中和區"
"235057","801-TS","2018/11/03 19:57:51","新北市中和區民樂路81號","121.484743333333","25.0013116666667","6500300","中和區"
"235052","805-TS","2018/11/03 19:57:55","新北市中和區華新街144巷15號","121.507426666667","24.9832733333333","6500300","中和區"
"235048","896-TW","2018/11/03 19:57:48","新北市中和區興南路一段1號","121.511501666667","24.9912066666667","6500300","中和區"
"235051","157-BY","2018/11/03 19:57:37","新北市中和區中興街233巷10號","121.501531666667","24.989465","6500300","中和區"
"235037","AAC-213","2018/11/03 19:57:44","新北市中和區自立路38-1號","121.522933333333","24.9924333333333","6500300","中和區"
"235059","AAC-215","2018/11/03 19:57:37","新北市中和區圓通路305巷5弄32號","121.49438","24.99031","6500300","中和區"
"220065","072-UY","2018/11/03 19:57:36","新北市板橋區民族路87號","121.46617","25.0086316666667","6500100","板橋區"
"220106","075-UY","2018/11/03 19:57:55","新北市板橋區民治街52巷11號","121.478953333333","25.03286","6500100","板橋區"
"220069","AAD-861","2018/11/03 19:57:55","新北市板橋區大明街25巷2弄17號","121.457613333333","25.00248","6500100","板橋區"
"247002","893-R6","2018/11/03 19:57:53","新北市蘆洲區永樂街31巷9號","121.458101666667","25.08712","6501400","蘆洲區"
"247016","546-UM","2018/11/03 19:57:36","新北市蘆洲區中正路96號","121.470046666667","25.0837766666667","6501400","蘆洲區"
"247024","500-BY","2018/11/03 19:57:42","新北市蘆洲區光榮路120巷8弄25號","121.465451666667","25.0877883333333","6501400","蘆洲區"
"247014","339-TH","2018/11/03 19:57:42","新北市蘆洲區成功路132號","121.47218","25.08266","6501400","蘆洲區"
"247006","337-TH","2018/11/03 19:57:43","新北市蘆洲區九芎街139巷22弄2號","121.466063333333","25.0790133333333","6501400","蘆洲區"
"247008","336-TH","2018/11/03 19:57:43","新北市蘆洲區信義路119巷3號","121.478391666667","25.080355","6501400","蘆洲區"
"247020","057-VK","2018/11/03 19:57:49","新北市蘆洲區民義街48號","121.472113333333","25.0891616666667","6501400","蘆洲區"
"247004","002-UY","2018/11/03 19:57:37","新北市蘆洲區永康街75號","121.455791666667","25.0851833333333","6501400","蘆洲區"
"226004","312-R5","2018/11/03 19:57:51","新北市平溪區十分里十分街250號","121.777823333333","25.0449816666667","6502400","平溪區"
"228003","097-TW","2018/11/03 19:57:56","新北市貢寮區仁理村仁和路214號","121.923673333333","25.053135","6502600","貢寮區"
"224010","AGQ-8101","2018/11/03 19:57:48","新北市瑞芳區基山街217號","121.842345","25.1071216666667","6501200","瑞芳區"
"224002","639-TC","2018/11/03 19:57:45","新北市瑞芳區員山子路3-1號","121.819036666667","25.10478","6501200","瑞芳區"
"227010","642-TC","2018/11/03 19:57:45","新北市雙溪區新基里新基南街25號","121.86625","25.0381433333333","6502500","雙溪區"
"227002","400-TW","2018/11/03 19:57:47","新北市雙溪區雙溪里長安街16號","121.865025","25.03468","6502500","雙溪區"
"222001","KEA-2212","2018/11/03 19:57:56","新北市深坑區北深路三段71號","121.60676","25.001385","6501800","深坑區"
"208002","KEA-2872","2018/11/03 19:57:50","新北市金山區中山路6-2號","121.6419","25.2170983333333","6502700","金山區"
"208003","665-BX","2018/11/03 19:57:55","新北市金山區海興路93號","121.63357","25.2418916666667","6502700","金山區"
"208001","761-BX","2018/11/03 19:57:38","新北市金山區南勢80號","121.626623333333","25.2202833333333","6502700","金山區"
"251009","008-UM","2018/11/03 19:57:57","新北市淡水區英專路19號","121.44545","25.1696866666667","6501000","淡水區"
"251005","010-UM","2018/11/03 19:57:49","新北市淡水區學府路136巷13號","121.451135","25.1728733333333","6501000","淡水區"
"251013","KEA-2871","2018/11/03 19:57:44","新北市淡水區下圭柔山63-7號","121.451753333333","25.206155","6501000","淡水區"
"251016","179-VK","2018/11/03 19:57:51","新北市淡水區番子田16-13號","121.453716666667","25.2317066666667","6501000","淡水區"
"251015","182-VK","2018/11/03 19:57:39","新北市淡水區商工路30號","121.447315","25.188245","6501000","淡水區"
"251010","413-VK","2018/11/03 19:57:49","新北市淡水區崁頂里77號","121.430478333333","25.2030766666667","6501000","淡水區"
"251012","441-VK","2018/11/03 19:57:55","新北市淡水區下圭柔山93-3號","121.436221666667","25.2091516666667","6501000","淡水區"
"251007","442-VK","2018/11/03 19:57:53","新北市淡水區竿蓁一街56號","121.452985","25.1663566666667","6501000","淡水區"
"251004","443-VK","2018/11/03 19:57:43","新北市淡水區民族路56號","121.46171","25.1360316666667","6501000","淡水區"
"251001","559-UM","2018/11/03 19:57:42","新北市淡水區淡金路二段180-1號","121.448376666667","25.183795","6501000","淡水區"
"251006","561-UM","2018/11/03 19:57:51","新北市淡水區水碓街34號","121.444211666667","25.1773033333333","6501000","淡水區"
"251011","650-BX","2018/11/03 19:57:37","新北市淡水區崁頂55-3號","121.442215","25.196675","6501000","淡水區"
"251003","766-UM","2018/11/03 19:57:52","新北市淡水區中山北路二段189巷15弄29號","121.44335","25.18429","6501000","淡水區"
"207003","550-UM","2018/11/03 19:57:46","新北市萬里區大鵬里萬里加投41-2號","121.637825","25.2072783333333","6502800","萬里區"
"207004","225-TW","2018/11/03 19:57:54","新北市萬里區北基里忠二街35號","121.685661666667","25.1757816666667","6502800","萬里區"
"252002","178-VK","2018/11/03 19:57:44","新北市三芝區三民街39巷5號","121.505466666667","25.2576066666667","6502100","三芝區"
"252001","292-VK","2018/11/03 19:57:54","新北市三芝區公正街9號","121.499748333333","25.2574733333333","6502100","三芝區"
"237007","153-BY","2018/11/03 19:57:43","新北市三峽區二鬮路46號","121.362166666667","24.9103683333333","6500900","三峽區"
"237009","210-TH","2018/11/03 19:57:42","新北市三峽區民族街76號","121.369455","24.92993","6500900","三峽區"
"237012","275-BY","2018/11/03 19:57:50","新北市三峽區中華路118號","121.371033333333","24.9275316666667","6500900","三峽區"
"237008","302-VK","2018/11/03 19:57:47","新北市三峽區中正路一段174巷9號","121.371881666667","24.9288683333333","6500900","三峽區"
"237014","433-BY","2018/11/03 19:57:46","新北市三峽區添福11-13號","121.374398333333","24.9074616666667","6500900","三峽區"
"237006","5529-G3","2018/11/03 19:57:50","新北市三峽區正義街27巷1號","121.369768333333","24.9191466666667","6500900","三峽區"
"237016","649-BX","2018/11/03 19:57:52","新北市三峽區介壽路二段138巷45-2號","121.395228333333","24.9331266666667","6500900","三峽區"
"237005","AKY-6261","2018/11/03 19:57:55","新北市三峽區民生街1巷1-7號","121.376988333333","24.93697","6500900","三峽區"
"236070","105-UM","2018/11/03 19:57:49","新北市土城區忠義路86號","121.443561666667","24.9637233333333","6501300","土城區"
"236042","KED-0685","2018/11/03 19:57:40","新北市土城區學府路一段145號","121.453568333333","24.9861616666667","6501300","土城區"
"236079","166-UM","2018/11/03 19:57:47","新北市土城區福安街55巷13號","121.418975","24.9638716666667","6501300","土城區"
"236030","253-BX","2018/11/03 19:57:54","新北市土城區中央路一段250巷2-7號","121.443586666667","24.98493","6501300","土城區"
"236026","269-VK","2018/11/03 19:57:48","新北市土城區員林街63號","121.443943333333","24.9774766666667","6501300","土城區"
"236014","270-VK","2018/11/03 19:57:54","新北市土城區廣福街123號","121.456266666667","24.9929083333333","6501300","土城區"
"236038","271-VK","2018/11/03 19:57:54","新北市土城區國際路156號","121.467756666667","24.9763816666667","6501300","土城區"
"236021","401-BY","2018/11/03 19:57:40","新北市土城區延吉街32號","121.472026666667","24.9872933333333","6501300","土城區"
"236059","912-UM","2018/11/03 19:57:55","新北市土城區中央路一段269-5號","121.44483","24.9849983333333","6501300","土城區"
"236049","913-UM","2018/11/03 19:57:49","新北市土城區金城路三段6號","121.464436666667","24.9859466666667","6501300","土城區"
"236063","915-UM","2018/11/03 19:57:53","新北市土城區金城路三段73巷9弄13號","121.46579","24.98741","6501300","土城區"
"236055","AAC-216","2018/11/03 19:57:56","新北市土城區立德路41號","121.462448333333","24.9878966666667","6501300","土城區"
"242036","AAC-296","2018/11/03 19:57:55","新北市新莊區民安路207巷42號","121.42901","25.025","6500500","新莊區"
"242058","986-R7","2018/11/03 19:57:48","新北市新莊區民安路211號","121.42641","25.0221866666667","6500500","新莊區"
"242056","751-BX","2018/11/03 19:57:39","新北市新莊區中正路347巷15號","121.447318333333","25.0343983333333","6500500","新莊區"
"242025","613-BX","2018/11/03 19:57:55","新北市新莊區五工二路86巷22號","121.460205","25.066965","6500500","新莊區"
"242029","612-BX","2018/11/03 19:57:56","新北市新莊區中榮街152巷47號","121.445581666667","25.05371","6500500","新莊區"
"242048","497-BY","2018/11/03 19:57:55","新北市新莊區富國路111號","121.423495","25.024895","6500500","新莊區"
"242011","442-UM","2018/11/03 19:57:39","新北市新莊區中港路531巷35號","121.449986666667","25.051485","6500500","新莊區"
"242039","415-TV","2018/11/03 19:57:47","新北市新莊區民安路299巷5弄1號","121.429075","25.02275","6500500","新莊區"
"242023","362-BY","2018/11/03 19:57:44","新北市新莊區化成路424號","121.465961666667","25.0510966666667","6500500","新莊區"
"242061","353-BY","2018/11/03 19:57:52","新北市新莊區瓊林路68號","121.445211666667","25.02864","6500500","新莊區"
"242042","133-UY","2018/11/03 19:57:46","新北市新莊區青山路一段28巷23號","121.410283333333","25.0279133333333","6500500","新莊區"
"242034","135-UY","2018/11/03 19:57:57","新北市新莊區建中街79號","121.44728","25.0366233333333","6500500","新莊區"
"242051","172-VK","2018/11/03 19:57:38","新北市新莊區西盛街137號","121.428251666667","25.0185833333333","6500500","新莊區"
"242013","173-VK","2018/11/03 19:57:44","新北市新莊區中港路435號","121.452441666667","25.0479183333333","6500500","新莊區"
"242019","175-VK","2018/11/03 19:57:52","新北市新莊區民生街15巷9號","121.455308333333","25.04256","6500500","新莊區"
"242007","176-VK","2018/11/03 19:57:56","新北市新莊區思源路487號","121.458948333333","25.0562716666667","6500500","新莊區"
"242017","346-TH","2018/11/03 19:57:54","新北市新莊區中華路二段3巷11號","121.453413333333","25.0457283333333","6500500","新莊區"
"242031","348-TH","2018/11/03 19:57:49","新北市新莊區忠孝街103號","121.44368","25.03733","6500500","新莊區"
"242004","349-TH","2018/11/03 19:57:46","新北市新莊區頭前路82號","121.465966666667","25.0525366666667","6500500","新莊區"
"242021","350-TH","2018/11/03 19:57:52","新北市新莊區建中街26號","121.449106666667","25.0374733333333","6500500","新莊區"
"238015","755-BX","2018/11/03 19:57:48","新北市樹林區八德街634號","121.396881666667","24.9694683333333","6500700","樹林區"
"238021","KEA-2539","2018/11/03 19:57:46","新北市樹林區佳園路二段138號","121.389341666667","24.9561033333333","6500700","樹林區"
"238017","283-BY","2018/11/03 19:57:55","新北市樹林區中山路三段210-2號","121.380651666667","24.96688","6500700","樹林區"
"238014","282-BY","2018/11/03 19:57:52","新北市樹林區千歲街46巷3號","121.426346666667","24.996755","6500700","樹林區"
"239006","891-R6","2018/11/03 19:57:48","新北市鶯歌區中正一路405號","121.359341666667","24.9569633333333","6500800","鶯歌區"
"221008","489-VK","2018/11/03 19:57:57","台北市內湖區康樂街71號","121.618505","25.0689066666667","6501100","汐止區"
"221036","130-UY","2018/11/03 19:57:57","新北市汐止區新台五路二段126巷1號","121.663518333333","25.0663283333333","6501100","汐止區"
"221015","131-UY","2018/11/03 19:57:39","新北市汐止區大同路三段41號","121.666828333333","25.07641","6501100","汐止區"
"221010","269-BY","2018/11/03 19:57:49","新北市汐止區連峰街270號","121.644368333333","25.0816133333333","6501100","汐止區"
"221012","278-VK","2018/11/03 19:57:55","新北市汐止區大同路三段212號","121.674915","25.073575","6501100","汐止區"
"221023","279-VK","2018/11/03 19:57:45","新北市汐止區明峰街200-1號","121.627736666667","25.0693616666667","6501100","汐止區"
"221032","280-BY","2018/11/03 19:57:45","新北市汐止區橫科路18巷10號","121.617795","25.0505383333333","6501100","汐止區"
"221027","281-BY","2018/11/03 19:57:46","新北市汐止區中正路73號","121.661636666667","25.069635","6501100","汐止區"
"221029","298-VK","2018/11/03 19:57:41","新北市汐止區樟樹一路139巷24號","121.64109","25.066175","6501100","汐止區"
"221021","299-VK","2018/11/03 19:57:54","新北市汐止區青山路6號","121.655748333333","25.06256","6501100","汐止區"
"221031","353-TW","2018/11/03 19:57:50","新北市汐止區福德一路176巷2號","121.635713333333","25.0663233333333","6501100","汐止區"
"221035","622-UM","2018/11/03 19:57:50","新北市汐止區長江街39巷3號","121.655551666667","25.071545","6501100","汐止區"
"221025","623-UM","2018/11/03 19:57:52","新北市汐止區秀峰路109巷26弄8號","121.66103","25.0634316666667","6501100","汐止區"
"221038","646-BX","2018/11/03 19:57:37","新北市汐止區橋東街41巷7號","121.666536666667","25.0750216666667","6501100","汐止區"
"221033","647-BX","2018/11/03 19:57:54","新北市汐止區東勢街190巷3號","121.633863333333","25.041615","6501100","汐止區"
"221002","707-TV","2018/11/03 19:57:36","新北市汐止區工建路504號","121.633176666667","25.0583066666667","6501100","汐止區"
"221018","753-BX","2018/11/03 19:57:46","新北市汐止區大同路二段621號","121.664355","25.0709183333333","6501100","汐止區"
"220079","145-BY","2018/11/03 19:57:54","新北市板橋區南雅西路二段213號","121.45117","25.0135633333333","6500100","板橋區"
"220080","200-UY","2018/11/03 19:57:40","新北市板橋區大觀路二段169巷24號","121.446441666667","24.999715","6500100","板橋區"
"220082","610-BX","2018/11/03 19:57:54","新北市板橋區篤行路一段48號","121.431821666667","24.993605","6500100","板橋區"
"220101","245-BX","2018/11/03 19:57:38","新北市板橋區莒光路180巷23號","121.473061666667","25.022685","6500100","板橋區"
"220091","267-BY","2018/11/03 19:57:39","新北市板橋區文聖街89巷2號","121.477543333333","25.0300233333333","6500100","板橋區"
"220072","277-BY","2018/11/03 19:57:46","新北市板橋區金門街111-3號","121.43312","24.9920733333333","6500100","板橋區"
"220057","282-UM","2018/11/03 19:57:52","新北市板橋區南雅南路二段43號","121.451363333333","24.9944283333333","6500100","板橋區"
"220071","283-VK","2018/11/03 19:57:52","新北市板橋區和平路174巷27號","121.464733333333","24.9945216666667","6500100","板橋區"
"220094","285-UM","2018/11/03 19:57:47","新北市板橋區陽明街261號","121.462636666667","25.0255866666667","6500100","板橋區"
"220053","285-VK","2018/11/03 19:57:49","新北市板橋區永豐街66號","121.475023333333","25.0199716666667","6500100","板橋區"
"220083","286-VK","2018/11/03 19:57:50","新北市板橋區僑中二街10巷14號","121.44646","25.0110416666667","6500100","板橋區"
"220081","287-VK","2018/11/03 19:57:45","新北市板橋區僑中一街124巷20弄46號","121.44795","25.0138516666667","6500100","板橋區"
"220090","288-VK","2018/11/03 19:57:52","新北市板橋區幸福路32巷2弄47號","121.460685","25.0223833333333","6500100","板橋區"
"220061","295-UM","2018/11/03 19:57:45","新北市板橋區板新路128號","121.470973333333","25.015715","6500100","板橋區"
"242002","281-VK","2018/11/03 19:57:42","新北市新莊區中正路190號","121.44974","25.0355183333333","6500500","新莊區"
"220075","303-R5","2018/11/03 19:57:48","新北市板橋區金華街10巷102號","121.458681666667","25.0204633333333","6500100","板橋區"
"220062","305-R5","2018/11/03 19:57:38","新北市板橋區光復街192巷16弄24號","121.48649","25.01942","6500100","板橋區"
"220092","307-R5","2018/11/03 19:57:39","新北市板橋區互助街74號","121.460746666667","25.026635","6500100","板橋區"
"220098","317-R6","2018/11/03 19:57:35","新北市板橋區漢生西路165巷1號","121.462741666667","25.02333","6500100","板橋區"
"220064","486-VK","2018/11/03 19:57:47","新北市板橋區長安街331巷109號","121.471526666667","25.0124166666667","6500100","板橋區"
"220089","487-VK","2018/11/03 19:57:51","新北市板橋區龍泉街58號","121.457038333333","25.02602","6500100","板橋區"
"242015","280-VK","2018/11/03 19:57:36","新北市新莊區泰順街42號","121.447048333333","25.0428116666667","6500500","新莊區"
"220088","491-VK","2018/11/03 19:57:36","新北市板橋區大同街69號","121.479338333333","25.0280066666667","6500100","板橋區"
"220035","560-BX","2018/11/03 19:57:55","新北市板橋區新生街53巷14號","121.457563333333","25.0215266666667","6500100","板橋區"
"220103","561-BX","2018/11/03 19:57:52","新北市板橋區陽明街29-1號","121.465463333333","25.0219466666667","6500100","板橋區"
"220084","568-UM","2018/11/03 19:57:44","新北市板橋區溪崑二街112巷14號","121.425985","24.9889","6500100","板橋區"
"220063","609-BX","2018/11/03 19:57:41","新北市板橋區中山路二段62-1號","121.474283333333","25.015715","6500100","板橋區"
"220077","687-BX","2018/11/03 19:57:41","新北市板橋區僑中一街124巷19弄2號","121.446103333333","25.0141333333333","6500100","板橋區"
"220093","689-BX","2018/11/03 19:57:39","新北市板橋區長江路三段130號","121.475513333333","25.0345966666667","6500100","板橋區"
"220102","KEA-2699","2018/11/03 19:57:55","新北市板橋區仁化街67號","121.475606666667","25.03179","6500100","板橋區"
"220055","827-TW","2018/11/03 19:57:52","新北市板橋區仁愛路60號","121.459793333333","24.9993816666667","6500100","板橋區"
"220067","829-TW","2018/11/03 19:57:50","新北市板橋區漢生東路193巷71號","121.47246","25.011895","6500100","板橋區"
"220068","830-TW","2018/11/03 19:57:53","新北市板橋區光復街202巷2號","121.485746666667","25.02021","6500100","板橋區"
"220096","831-TW","2018/11/03 19:57:49","新北市板橋區莒光路15巷6號","121.470091666667","25.0251983333333","6500100","板橋區"
"220074","895-R6","2018/11/03 19:57:48","新北市板橋區文化路一段32巷14號","121.459913333333","25.0110916666667","6500100","板橋區"
"220073","985-R7","2018/11/03 19:57:55","新北市板橋區南雅西路二段181號","121.451948333333","25.01273","6500100","板橋區"
"220097","AAC-210","2018/11/03 19:57:57","新北市板橋區光正街45巷2弄14號","121.46118","25.0174016666667","6500100","板橋區"
"220070","AAC-253","2018/11/03 19:57:39","新北市板橋區成都街51號","121.461446666667","25.0049033333333","6500100","板橋區"
"235068","KEA-2873","2018/11/03 19:57:29","新北市中和區景平路736巷3弄12號","121.49769","25.003665","6500300","中和區"
