"lineid","car","time","location","longitude","latitude","cityid","cityname"
"241019","KEA-2593","2018/11/03 22:17:49","新北市五股區中興路三段2巷10號","121.448836666667","25.0813916666667","6500200","三重區"
"251008","181-VK","2018/11/03 22:17:50","新北市淡水區學府路104號","121.449835","25.1717383333333","6501000","淡水區"
"251010","413-VK","2018/11/03 22:17:48","新北市淡水區沙崙路200號","121.424653333333","25.1839266666667","6501000","淡水區"
"251007","442-VK","2018/11/03 22:17:42","新北市淡水區北新路186-3號","121.449591666667","25.1787266666667","6501000","淡水區"
"251004","443-VK","2018/11/03 22:17:51","新北市淡水區民族路72號","121.462156666667","25.13574","6501000","淡水區"
"251011","650-BX","2018/11/03 22:17:57","新北市淡水區水碓街7號","121.443175","25.1771683333333","6501000","淡水區"
