"lineid","car","time","location","longitude","latitude","cityid","cityname"
"234044","148-BY","2018/08/11 12:49:14","新北市永和區秀朗路二段128號","121.524906666667","25.00137","6500400","永和區"
"234005","207-UY","2018/08/11 12:49:11","新北市永和區文化路50號","121.514668333333","25.015135","6500400","永和區"
"234078","298-R6","2018/08/11 12:49:16","新北市永和區永利路132號","121.521728333333","25.00292","6500400","永和區"
"234062","337-UY","2018/08/11 12:49:28","新北市永和區福和路1號","121.526146666667","25.0095783333333","6500400","永和區"
"234084","338-UY","2018/08/11 12:49:22","新北市永和區中正路164號","121.514943333333","24.99665","6500400","永和區"
"234068","552-UM","2018/08/11 12:49:25","新北市永和區竹林路96巷2號","121.519253333333","25.0121333333333","6500400","永和區"
"234036","553-UM","2018/08/11 12:49:30","新北市永和區成功路一段54號","121.52693","25.0039733333333","6500400","永和區"
"234015","745-BX","2018/08/11 12:49:21","新北市永和區永和路二段297號","121.516006666667","25.01607","6500400","永和區"
"234028","746-BX","2018/08/11 12:49:17","新北市永和區得和路321號","121.523403333333","24.9995633333333","6500400","永和區"
"234012","KEA-2591","2018/08/11 12:49:29","新北市永和區仁愛路202巷32號","121.508886666667","25.0130516666667","6500400","永和區"
"234060","AAD-866","2018/08/11 12:49:03","新北市永和區豫溪街217巷29號","121.524216666667","25.010185","6500400","永和區"
"234040","862-TW","2018/08/11 12:49:25","新北市永和區永貞路267號","121.511783333333","25.0048166666667","6500400","永和區"
"234048","863-TW","2018/08/11 12:49:30","新北市永和區福和路1號","121.526503333333","25.00991","6500400","永和區"
"234025","9371-KE","2018/08/11 12:49:29","新北市永和區中正路659號","121.514748333333","25.01019","6500400","永和區"
"248017","225-UY","2018/08/11 12:49:30","新北市五股區中興路二段83巷26-6號","121.46011","25.0752183333333","6501500","五股區"
"234022","9380-KE","2018/08/11 12:49:29","新北市永和區竹林路119巷30弄3號","121.522205","25.0118516666667","6500400","永和區"
"234076","969-R7","2018/08/11 12:49:33","新北市永和區中正路4號","121.512391666667","24.9936616666667","6500400","永和區"
"234066","AAC-212","2018/08/11 12:49:17","新北市永和區中和路625號","121.51296","25.0050166666667","6500400","永和區"
"234001","AAC-295","2018/08/11 12:49:28","新北市永和區中正路653號","121.515036666667","25.010205","6500400","永和區"
"231028","046-UY","2018/08/11 12:49:16","新北市新店區安華路28-1號","121.519546666667","24.96082","6500600","新店區"
"231001","047-UY","2018/08/11 12:49:31","新北市新店區安華路28-1號","121.51922","24.9608866666667","6500600","新店區"
"231005","106-UY","2018/08/11 12:49:22","新北市新店區安華路28-1號","121.519676666667","24.96083","6500600","新店區"
"231010","107-UY","2018/08/11 12:49:29","新北市新店區安一路一段1-1號","121.519451666667","24.961085","6500600","新店區"
"231012","187-VK","2018/08/11 12:49:29","新北市新店區安一路一段1-1號","121.51956","24.9610616666667","6500600","新店區"
"231018","278-BY","2018/08/11 12:49:31","新北市新店區安一路一段1-1號","121.519813333333","24.961195","6500600","新店區"
"231017","AAD-862","2018/08/11 12:49:13","新北市新店區安一路一段1-1號","121.51972","24.9610666666667","6500600","新店區"
"231036","512-UM","2018/08/11 12:49:21","新北市新店區安華路28-1號","121.519288333333","24.9608966666667","6500600","新店區"
"231013","513-UM","2018/08/11 12:49:27","新北市新店區安一路一段1-1號","121.519603333333","24.96112","6500600","新店區"
"231030","619-UM","2018/08/11 12:49:14","新北市新店區安華路28-1號","121.51955","24.960715","6500600","新店區"
"231035","719-UM","2018/08/11 12:49:16","新北市新店區安一路一段1-1號","121.519468333333","24.96126","6500600","新店區"
"231033","720-UM","2018/08/11 12:49:15","新北市新店區安一路一段1-1號","121.519221666667","24.9610516666667","6500600","新店區"
"231029","897-TW","2018/08/11 12:49:15","新北市新店區安華路28-1號","121.51956","24.9607633333333","6500600","新店區"
"231024","AKT-0513","2018/08/11 12:49:21","新北市新店區安華路1-1號","121.519428333333","24.96047","6500600","新店區"
"235027","006-UY","2018/08/11 12:49:33","新北市中和區員山路36巷16-3號","121.485063333333","24.9913166666667","6500300","中和區"
"235029","098-UM","2018/08/11 12:49:32","新北市中和區中正路501號","121.488753333333","24.9942283333333","6500300","中和區"
"235022","151-BY","2018/08/11 12:49:15","新北市中和區員山路36巷16-2號","121.485271666667","24.9918283333333","6500300","中和區"
"235002","185-VK","2018/08/11 12:49:18","新北市中和區中正路637巷60弄61號","121.485496666667","24.9930133333333","6500300","中和區"
"235031","255-BX","2018/08/11 12:49:13","新北市中和區新民街92號","121.481776666667","25.008185","6500300","中和區"
"235035","783-BX","2018/08/11 12:49:18","新北市中和區員山路36巷16-3號","121.485053333333","24.9914866666667","6500300","中和區"
"228005","097-TW","2018/08/11 12:49:29","新北市貢寮區福連里福連街34-1號","121.98868","25.0111016666667","6502600","貢寮區"
"228004","212-TW","2018/08/11 12:49:14","新北市貢寮區吉林里內寮街20-3號","121.888583333333","24.9964716666667","6502600","貢寮區"
"207002","749-BX","2018/08/11 12:49:17","新北市萬里區雙興里二坪路28-1號","121.644591666667","25.1687516666667","6502800","萬里區"
"207001","662-BX","2018/08/11 12:49:29","新北市萬里區萬里里獅頭路22-1號","121.692863333333","25.1781066666667","6502800","萬里區"
"236006","498-BY","2018/08/11 12:49:17","新北市土城區永寧路24-2號","121.42959","24.9611433333333","6501300","土城區"
"221032","280-BY","2018/08/11 12:49:22","新北市汐止區汐萬路一段160號","121.652586666667","25.0715083333333","6501100","汐止區"
"221038","646-BX","2018/08/11 12:49:30","新北市汐止區秀峰路9號","121.659273333333","25.0659066666667","6501100","汐止區"
"235032","KEA-2873","2018/08/11 12:49:30","新北市中和區員山路36巷16-3號","121.485045","24.9912666666667","6500300","中和區"
"235025","KEA-2875","2018/08/11 12:28:28","新北市中和區和城路一段271巷1號","121.485478333333","24.9917633333333","6500300","中和區"
