"lineid","car","time","location","longitude","latitude","cityid","cityname"
"234044","148-BY","2018/08/11 12:59:13","新北市永和區得和路373巷16弄1號","121.525088333333","25.0003283333333","6500400","永和區"
"234005","207-UY","2018/08/11 12:59:11","新北市永和區中山路一段31號","121.513348333333","25.0104466666667","6500400","永和區"
"234078","298-R6","2018/08/11 12:59:16","新北市永和區國中路200號","121.522338333333","25.0061616666667","6500400","永和區"
"234062","337-UY","2018/08/11 12:59:28","新北市永和區秀朗路一段162號","121.518443333333","25.0034583333333","6500400","永和區"
"234084","338-UY","2018/08/11 12:59:21","新北市永和區永寧街131巷2號","121.518038333333","25.00503","6500400","永和區"
"234068","552-UM","2018/08/11 12:59:25","新北市永和區竹林路124巷32號","121.518101666667","25.0115333333333","6500400","永和區"
"234036","553-UM","2018/08/11 12:59:30","新北市永和區成功路二段207號","121.526595","24.99586","6500400","永和區"
"234015","745-BX","2018/08/11 12:59:21","新北市永和區永和路二段297號","121.516023333333","25.016065","6500400","永和區"
"234028","746-BX","2018/08/11 12:59:17","新北市永和區四維街69號","121.525576666667","24.9979666666667","6500400","永和區"
"234052","KEA-2590","2018/08/11 12:59:33","新北市永和區竹林路66巷2號","121.518231666667","25.01339","6500400","永和區"
"234012","KEA-2591","2018/08/11 12:59:29","新北市永和區信義路17巷9弄2號","121.513683333333","25.011505","6500400","永和區"
"234060","AAD-866","2018/08/11 12:59:23","新北市永和區福和路303號","121.516388333333","25.0071866666667","6500400","永和區"
"234040","862-TW","2018/08/11 12:59:25","新北市永和區永貞路271號","121.511755","25.00483","6500400","永和區"
"234048","863-TW","2018/08/11 12:59:10","新北市永和區環河西路一段79號","121.513115","25.0181766666667","6500400","永和區"
"234025","9371-KE","2018/08/11 12:59:29","新北市永和區水源街2巷15號","121.512003333333","25.005665","6500400","永和區"
"234010","9373-KE","2018/08/11 12:59:27","新北市永和區文化路113巷23弄5號","121.513431666667","25.0139716666667","6500400","永和區"
"248017","225-UY","2018/08/11 12:59:30","新北市五股區中興路二段83巷26-6號","121.46004","25.07524","6501500","五股區"
"234022","9380-KE","2018/08/11 12:59:29","新北市永和區竹林路75巷15-2號","121.519733333333","25.013695","6500400","永和區"
"234076","969-R7","2018/08/11 12:59:31","新北市永和區民享街11號","121.515278333333","24.995375","6500400","永和區"
"234066","AAC-212","2018/08/11 12:59:17","新北市永和區自由街69號","121.51348","25.005285","6500400","永和區"
"234001","AAC-295","2018/08/11 12:59:28","新北市永和區永平路29號","121.513141666667","25.00877","6500400","永和區"
"244005","248-BX","2018/08/11 12:59:24","新北市林口區中山路9號","121.396413333333","25.07818","6501700","林口區"
"231002","002-UM","2018/08/11 12:59:14","新北市新店區安華路28-1號","121.519681666667","24.9608966666667","6500600","新店區"
"231028","046-UY","2018/08/11 12:59:16","新北市新店區安華路28-1號","121.519576666667","24.9607833333333","6500600","新店區"
"231001","047-UY","2018/08/11 12:59:31","新北市新店區安華路28-1號","121.519206666667","24.9609216666667","6500600","新店區"
"231005","106-UY","2018/08/11 12:59:22","新北市新店區安華路28-1號","121.51958","24.96077","6500600","新店區"
"231010","107-UY","2018/08/11 12:59:29","新北市新店區安一路一段1-1號","121.51943","24.9611833333333","6500600","新店區"
"231012","187-VK","2018/08/11 12:59:29","新北市新店區安一路一段1-1號","121.519556666667","24.9610933333333","6500600","新店區"
"231023","KEA-2219","2018/08/11 12:59:29","新北市新店區安一路一段1-1號","121.519798333333","24.96125","6500600","新店區"
"231018","278-BY","2018/08/11 12:59:11","新北市新店區安一路一段1-1號","121.5196","24.9611833333333","6500600","新店區"
"231017","AAD-862","2018/08/11 12:59:13","新北市新店區安一路一段1-1號","121.51971","24.961065","6500600","新店區"
"231037","4716-K9","2018/08/11 12:59:15","新北市新店區安一路一段1-1號","121.519336666667","24.9612416666667","6500600","新店區"
"231036","512-UM","2018/08/11 12:59:21","新北市新店區安一路一段1-1號","121.519368333333","24.96118","6500600","新店區"
"231013","513-UM","2018/08/11 12:59:27","新北市新店區安一路一段1-1號","121.519631666667","24.9610733333333","6500600","新店區"
"231030","619-UM","2018/08/11 12:59:14","新北市新店區安華路28-1號","121.519628333333","24.9608766666667","6500600","新店區"
"231034","641-BX","2018/08/11 12:59:21","新北市新店區安華路28-1號","121.51953","24.9605316666667","6500600","新店區"
"231035","719-UM","2018/08/11 12:58:56","新北市新店區安一路一段1-1號","121.519415","24.96142","6500600","新店區"
"231033","720-UM","2018/08/11 12:59:15","新北市新店區安一路一段1-1號","121.519311666667","24.9612016666667","6500600","新店區"
"231029","897-TW","2018/08/11 12:59:15","新北市新店區安華路28-1號","121.51963","24.9608083333333","6500600","新店區"
"231024","AKT-0513","2018/08/11 12:59:21","新北市新店區安華路1-1號","121.519468333333","24.9605016666667","6500600","新店區"
"235028","005-UY","2018/08/11 12:59:15","新北市中和區員山路36巷16-3號","121.485123333333","24.9914266666667","6500300","中和區"
"235027","006-UY","2018/08/11 12:59:13","新北市中和區員山路36巷16-3號","121.48514","24.9912866666667","6500300","中和區"
"235029","098-UM","2018/08/11 12:59:12","新北市中和區橋和路270號","121.495755","25.0065866666667","6500300","中和區"
"235022","151-BY","2018/08/11 12:59:15","新北市中和區圓通路367巷33弄12號","121.49419","24.9848783333333","6500300","中和區"
"235002","185-VK","2018/08/11 12:59:18","新北市中和區成功路105號","121.525961666667","24.991315","6500300","中和區"
"235031","255-BX","2018/08/11 12:59:13","新北市中和區中山路二段550號","121.483853333333","25.0053316666667","6500300","中和區"
"235006","KEA-2878","2018/08/11 12:59:27","新北市中和區圓通路208號","121.495888333333","24.9938783333333","6500300","中和區"
"235018","640-BX","2018/08/11 12:59:10","新北市中和區和城路一段271巷1號","121.48536","24.9919","6500300","中和區"
"235011","732-UM","2018/08/11 12:59:21","新北市中和區錦和路350-1號","121.490523333333","24.99358","6500300","中和區"
"235035","783-BX","2018/08/11 12:59:18","新北市中和區新生街132號","121.483568333333","25.00105","6500300","中和區"
"235023","251-BX","2018/08/11 12:59:30","新北市中和區員山路36巷16-3號","121.484948333333","24.9913833333333","6500300","中和區"
"228005","097-TW","2018/08/11 12:59:28","新北市貢寮區福隆里桂安街11號","121.959578333333","25.0204266666667","6502600","貢寮區"
"228004","212-TW","2018/08/11 12:59:14","新北市貢寮區吉林里內寮街12號","121.887905","24.989895","6502600","貢寮區"
"253003","6232-TK","2018/08/11 12:59:14","新北市石門區石崩山1號","121.564811666667","25.2847366666667","6502200","石門區"
"253004","8270-PC","2018/08/11 12:59:33","新北市石門區中山路62-7號","121.567398333333","25.29021","6502200","石門區"
"207002","749-BX","2018/08/11 12:59:17","新北市萬里區雙興里大坪路37-1號","121.627668333333","25.1705516666667","6502800","萬里區"
"252005","073-UM","2018/08/11 12:59:24","新北市三芝區埔坪里埔頭坑41號","121.504718333333","25.2644416666667","6502100","三芝區"
"207001","662-BX","2018/08/11 12:59:09","新北市萬里區萬里里獅頭路22-1號","121.692885","25.1781366666667","6502800","萬里區"
"236006","498-BY","2018/08/11 12:59:30","新北市土城區亞洲路34號","121.435956666667","24.9742733333333","6501300","土城區"
"221032","280-BY","2018/08/11 12:59:22","新北市汐止區建成路66號","121.663275","25.073085","6501100","汐止區"
"221038","646-BX","2018/08/11 12:59:10","新北市汐止區仁愛路113巷7號","121.662083333333","25.0636816666667","6501100","汐止區"
"220005","686-BX","2018/08/11 12:59:25","新北市板橋區華東街1-9號","121.44825","24.994925","6500100","板橋區"
"235032","KEA-2873","2018/08/11 12:59:30","新北市中和區員山路36巷16-3號","121.484966666667","24.991205","6500300","中和區"
"235025","KEA-2875","2018/08/11 12:59:01","新北市中和區員山路36巷16-2號","121.485245","24.9917183333333","6500300","中和區"
