"lineid","car","time","location","longitude","latitude","cityid","cityname"
"234044","148-BY","2018/08/11 14:09:33","新北市永和區得和路336號","121.523428333333","24.9994966666667","6500400","永和區"
"234005","207-UY","2018/08/11 14:09:31","新北市永和區永貞路376號","121.509835","25.0069733333333","6500400","永和區"
"234078","298-R6","2018/08/11 14:09:16","新北市永和區國中路41號","121.524563333333","25.0056616666667","6500400","永和區"
"234062","337-UY","2018/08/11 14:09:28","新北市永和區永利路156號","121.522626666667","25.0026633333333","6500400","永和區"
"234084","338-UY","2018/08/11 14:09:21","新北市永和區中正路652號","121.516848333333","25.0086133333333","6500400","永和區"
"234068","552-UM","2018/08/11 14:09:25","新北市永和區永貞路10巷1弄1號","121.520605","25.0072316666667","6500400","永和區"
"234036","553-UM","2018/08/11 14:09:31","新北市永和區成功路一段46號","121.526918333333","25.0041783333333","6500400","永和區"
"234015","745-BX","2018/08/11 14:09:21","新北市永和區永和路二段234號","121.515775","25.01428","6500400","永和區"
"234028","746-BX","2018/08/11 14:09:17","新北市永和區民權路49巷5弄6號","121.520621666667","24.9975366666667","6500400","永和區"
"234052","KEA-2590","2018/08/11 14:09:33","新北市永和區博愛街45巷1號","121.5191","25.0158416666667","6500400","永和區"
"234012","KEA-2591","2018/08/11 14:09:29","新北市永和區保生路3號","121.506228333333","25.0073716666667","6500400","永和區"
"234060","AAD-866","2018/08/11 14:09:22","新北市永和區安樂路134號","121.514253333333","25.0000966666667","6500400","永和區"
"234040","862-TW","2018/08/11 14:09:25","新北市永和區雙和街52巷1號","121.508988333333","25.0032966666667","6500400","永和區"
"234048","863-TW","2018/08/11 14:09:30","新北市永和區環河西路二段65號","121.506873333333","25.01533","6500400","永和區"
"234025","9371-KE","2018/08/11 14:09:29","新北市永和區安樂路272巷9弄7號","121.515103333333","25.0045266666667","6500400","永和區"
"234010","9373-KE","2018/08/11 14:09:27","新北市永和區仁愛路352巷122弄9號","121.50058","25.008745","6500400","永和區"
"248017","225-UY","2018/08/11 14:09:29","新北市五股區民義路一段255-3號","121.427018333333","25.0913366666667","6501500","五股區"
"234022","9380-KE","2018/08/11 14:09:29","新北市永和區博愛街32巷27號","121.518786666667","25.0150166666667","6500400","永和區"
"234076","969-R7","2018/08/11 14:09:33","新北市永和區民族街81巷58號","121.520061666667","24.9965183333333","6500400","永和區"
"234072","AAC-211","2018/08/11 14:09:33","新北市永和區竹林路201巷24弄10號","121.522473333333","25.0096433333333","6500400","永和區"
"234066","AAC-212","2018/08/11 14:09:17","新北市永和區保平路236巷15弄1號","121.508523333333","25.0062016666667","6500400","永和區"
"234001","AAC-295","2018/08/11 14:09:28","新北市永和區中正路700號","121.516341666667","25.009885","6500400","永和區"
"231006","001-UM","2018/08/11 14:09:18","新北市新店區北宜路二段126號","121.55685","24.953825","6500600","新店區"
"231002","002-UM","2018/08/11 14:09:34","新北市新店區中正路487號","121.533626666667","24.9821016666667","6500600","新店區"
"231027","0293-UT","2018/08/11 14:09:28","新北市新店區北宜路一段3號","121.538566666667","24.95851","6500600","新店區"
"231028","046-UY","2018/08/11 14:09:20","新北市新店區安和路三段89號","121.517865","24.9840116666667","6500600","新店區"
"231001","047-UY","2018/08/11 14:09:31","新北市新店區中華路38號","121.54001","24.9681283333333","6500600","新店區"
"231005","106-UY","2018/08/11 14:09:21","新北市新店區中興路三段248號","121.543126666667","24.98401","6500600","新店區"
"231010","107-UY","2018/08/11 14:09:29","新北市新店區安康路一段355號","121.519568333333","24.963185","6500600","新店區"
"231020","108-UY","2018/08/11 14:09:26","新北市新店區屈尺路161-3號","121.542256666667","24.92216","6500600","新店區"
"231012","187-VK","2018/08/11 14:09:29","新北市新店區中興路一段216號","121.544028333333","24.9657516666667","6500600","新店區"
"231023","KEA-2219","2018/08/11 14:09:29","新北市新店區文中路45號","121.539626666667","24.956665","6500600","新店區"
"231003","268-BY","2018/08/11 14:09:19","新北市新店區北宜路一段3號","121.538621666667","24.9585616666667","6500600","新店區"
"231018","278-BY","2018/08/11 14:09:31","新北市新店區中央五街82號","121.52659","24.97615","6500600","新店區"
"231017","AAD-862","2018/08/11 14:09:33","新北市新店區中生路171號","121.576948333333","24.9494883333333","6500600","新店區"
"231004","355-BY","2018/08/11 14:09:24","新北市新店區北新路二段119號","121.542868333333","24.97497","6500600","新店區"
"231038","3712-VJ","2018/08/11 14:09:25","新北市新店區溪洲路8巷66號","121.533138333333","24.9624666666667","6500600","新店區"
"231037","4716-K9","2018/08/11 14:09:35","新北市新店區安康路二段341巷48號","121.496721666667","24.9543466666667","6500600","新店區"
"231025","4715-K9","2018/08/11 14:09:31","新北市新店區二十張路131號","121.53599","24.9790816666667","6500600","新店區"
"231036","512-UM","2018/08/11 14:09:21","新北市新店區安祥路109巷6弄25號","121.475403333333","24.957775","6500600","新店區"
"231013","513-UM","2018/08/11 14:09:15","新北市新店區北新路三段105巷11號","121.540713333333","24.98212","6500600","新店區"
"231030","619-UM","2018/08/11 14:09:33","新北市新店區安民街65巷21-2號","121.515376666667","24.9675616666667","6500600","新店區"
"231034","641-BX","2018/08/11 14:09:21","新北市新店區車子路11號","121.503081666667","24.952175","6500600","新店區"
"231035","719-UM","2018/08/11 14:09:16","新北市新店區安和路一段52巷2-1號","121.51769","24.9663066666667","6500600","新店區"
"231033","720-UM","2018/08/11 14:09:15","新北市新店區永業路31巷1號","121.532921666667","24.9554616666667","6500600","新店區"
"231029","897-TW","2018/08/11 14:09:35","新北市新店區安康路二段159巷2號","121.510258333333","24.9593033333333","6500600","新店區"
"231024","AKT-0513","2018/08/11 14:09:21","新北市新店區薏仁坑路6號","121.50015","24.95816","6500600","新店區"
"235030","003-UY","2018/08/11 14:09:30","新北市中和區廣福路12-3號","121.505486666667","25.002685","6500300","中和區"
"235028","005-UY","2018/08/11 14:09:15","新北市中和區連城路29號","121.498608333333","25.0020166666667","6500300","中和區"
"235027","006-UY","2018/08/11 14:09:33","新北市中和區連城路249巷19弄1號","121.493925","24.9962816666667","6500300","中和區"
"235020","096-UM","2018/08/11 14:09:18","新北市中和區員山路531號","121.479723333333","25.0070083333333","6500300","中和區"
"235003","097-UM","2018/08/11 14:09:15","新北市中和區秀峰街119巷4弄2號","121.519855","24.9903383333333","6500300","中和區"
"235029","098-UM","2018/08/11 14:09:12","新北市中和區中山路二段2巷3弄2號","121.504765","25.0061283333333","6500300","中和區"
"235004","150-BY","2018/08/11 14:09:35","新北市中和區保健路44巷12號","121.509086666667","24.9968816666667","6500300","中和區"
"235022","151-BY","2018/08/11 14:09:25","新北市中和區連城路477巷6弄3號","121.48299","24.99504","6500300","中和區"
"235019","183-VK","2018/08/11 14:09:29","新北市中和區德光路63號","121.469765","25.00383","6500300","中和區"
"235002","185-VK","2018/08/11 14:09:18","新北市中和區大仁街10巷27弄6號","121.519263333333","24.9928133333333","6500300","中和區"
"235013","186-VK","2018/08/11 14:09:23","新北市中和區景新街235號","121.508113333333","24.9944933333333","6500300","中和區"
"235031","255-BX","2018/08/11 14:09:12","新北市中和區連城路455號","121.484476666667","24.996165","6500300","中和區"
"235008","293-VK","2018/08/11 14:09:24","新北市中和區中興街202巷2號","121.499461666667","24.990025","6500300","中和區"
"235036","301-VK","2018/08/11 14:09:22","新北市中和區中山路二段265號","121.497208333333","25.0021333333333","6500300","中和區"
"235007","352-BY","2018/08/11 14:09:19","新北市中和區景平路71-3號","121.519231666667","24.9915733333333","6500300","中和區"
"235006","KEA-2878","2018/08/11 14:09:27","新北市中和區立人街5號","121.521838333333","24.993735","6500300","中和區"
"247009","KEA-2869","2018/08/11 14:09:25","新北市蘆洲區民族路72號","121.477525","25.0847883333333","6501400","蘆洲區"
"235014","4979-A6","2018/08/11 14:09:20","新北市中和區復興路73-7號","121.5037","24.98981","6500300","中和區"
"235033","4980-A6","2018/08/11 14:09:27","新北市中和區福美路269號","121.498158333333","25.0051033333333","6500300","中和區"
"235034","558-UM","2018/08/11 14:09:25","新北市中和區中和路51號","121.500336666667","25.0012633333333","6500300","中和區"
"235009","565-BX","2018/08/11 14:09:23","新北市中和區景新街467巷35弄23號","121.513505","24.9886466666667","6500300","中和區"
"235018","640-BX","2018/08/11 14:09:30","新北市中和區民德路101號","121.468921666667","25.0008983333333","6500300","中和區"
"235024","647-TV","2018/08/11 14:09:20","新北市中和區中山路三段111號","121.474813333333","25.005975","6500300","中和區"
"235011","732-UM","2018/08/11 14:09:21","新北市中和區南山路320巷1號","121.50779","24.9865083333333","6500300","中和區"
"235010","733-UM","2018/08/11 14:09:26","新北市中和區興南路二段31巷19號","121.508116666667","24.985135","6500300","中和區"
"235035","783-BX","2018/08/11 14:09:18","新北市中和區中正路908號","121.483551666667","25.0071","6500300","中和區"
"235026","800-TS","2018/08/11 14:09:26","新北市中和區中山路二段355號","121.490035","25.0036666666667","6500300","中和區"
"235021","801-TS","2018/08/11 14:09:31","新北市中和區員山路154號","121.481421666667","24.999385","6500300","中和區"
"235005","802-TS","2018/08/11 14:09:18","新北市中和區中安街175號","121.511","25.0001066666667","6500300","中和區"
"235016","805-TS","2018/08/11 14:09:34","新北市中和區興南路二段142巷19弄38號","121.502563333333","24.9834566666667","6500300","中和區"
"235012","896-TW","2018/08/11 14:09:20","新北市中和區工專路131號","121.508335","24.9791383333333","6500300","中和區"
"235017","900-TW","2018/08/11 14:09:28","新北市中和區民德路258號","121.467781666667","24.997","6500300","中和區"
"235015","157-BY","2018/08/11 14:09:23","新北市中和區興南路一段86號","121.51004","24.9893433333333","6500300","中和區"
"235001","AAC-213","2018/08/11 14:09:26","新北市中和區秀朗路三段60巷9號","121.525793333333","24.9950666666667","6500300","中和區"
"220105","013-TV","2018/08/11 14:09:23","新北市板橋區雙十路三段9號","121.4715","25.0300583333333","6500100","板橋區"
"220003","015-TV","2018/08/11 14:09:18","新北市板橋區區運路69號","121.46705","25.0108266666667","6500100","板橋區"
"220034","073-UY","2018/08/11 14:09:34","新北市板橋區中正路236巷56號","121.457618333333","25.0192866666667","6500100","板橋區"
"220017","AAD-861","2018/08/11 14:09:24","新北市板橋區四川路一段104號","121.459658333333","25.0046683333333","6500100","板橋區"
"247023","893-R6","2018/08/11 14:09:17","新北市蘆洲區光榮路96號","121.463801666667","25.0891216666667","6501400","蘆洲區"
"247013","546-UM","2018/08/11 14:09:28","新北市蘆洲區三民路153號","121.471498333333","25.08667","6501400","蘆洲區"
"247021","500-BY","2018/08/11 14:09:17","新北市蘆洲區三民路173號","121.471018333333","25.0872066666667","6501400","蘆洲區"
"247011","339-TH","2018/08/11 14:09:27","新北市蘆洲區信義路272號","121.478041666667","25.0870233333333","6501400","蘆洲區"
"247003","337-TH","2018/08/11 14:09:22","新北市蘆洲區長安街108巷14號","121.461808333333","25.0820933333333","6501400","蘆洲區"
"247005","336-TH","2018/08/11 14:09:01","新北市蘆洲區和平路97巷13號","121.467656666667","25.0785866666667","6501400","蘆洲區"
"247017","057-VK","2018/08/11 14:09:26","新北市蘆洲區復興路111-6號","121.476463333333","25.0882816666667","6501400","蘆洲區"
"247007","056-VK","2018/08/11 14:09:31","新北市蘆洲區中山一路285號","121.47197","25.079565","6501400","蘆洲區"
"247015","007-UY","2018/08/11 14:09:17","新北市蘆洲區光華路46巷34號","121.46794","25.0841866666667","6501400","蘆洲區"
"247001","002-UY","2018/08/11 14:09:26","新北市蘆洲區永樂街38巷67弄24號","121.457643333333","25.0912","6501400","蘆洲區"
"247019","001-UY","2018/08/11 14:09:16","新北市蘆洲區民族路426巷64號","121.472636666667","25.0940033333333","6501400","蘆洲區"
"235023","251-BX","2018/08/11 14:09:30","新北市中和區圓通路294巷1號","121.488943333333","24.9895766666667","6500300","中和區"
"228005","097-TW","2018/08/11 14:09:28","新北市雙溪區三港里雙澳路100號","121.888555","25.0562083333333","6502600","貢寮區"
"228004","212-TW","2018/08/11 14:09:34","新北市貢寮區雙玉里德心街9號","121.918631666667","25.0158316666667","6502600","貢寮區"
"253003","6232-TK","2018/08/11 14:09:34","新北市石門區內石門62號","121.577958333333","25.2658633333333","6502200","石門區"
"253001","6251-TK","2018/08/11 14:09:16","新北市石門區八甲27-1號","121.52839","25.27777","6502200","石門區"
"253002","637-UY","2018/08/11 14:09:16","新北市石門區大丘田51號","121.550173333333","25.2715816666667","6502200","石門區"
"253004","8270-PC","2018/08/11 14:09:33","新北市石門區內阿里磅2-1號","121.59155","25.2543283333333","6502200","石門區"
"207002","749-BX","2018/08/11 14:09:17","新北市萬里區溪底里瑞泉路9號","121.604985","25.1437166666667","6502800","萬里區"
"252005","073-UM","2018/08/11 14:09:24","新北市三芝區橫山里橫山56-6號","121.535543333333","25.2491683333333","6502100","三芝區"
"207001","662-BX","2018/08/11 14:09:29","新北市萬里區磺潭里清水18號","121.637913333333","25.1977083333333","6502800","萬里區"
"236068","105-UM","2018/08/11 14:09:20","新北市土城區明德路一段233號","121.462856666667","24.9783416666667","6501300","土城區"
"236040","107-UM","2018/08/11 14:09:24","新北市土城區中華路一段263號","121.440281666667","24.9803816666667","6501300","土城區"
"236074","166-UM","2018/08/11 14:09:27","新北市土城區永寧路32巷10弄47號","121.428921666667","24.961265","6501300","土城區"
"236029","253-BX","2018/08/11 14:09:24","新北市土城區興城路75號","121.440073333333","24.9707816666667","6501300","土城區"
"236024","269-VK","2018/08/11 14:09:17","新北市土城區承天路18號","121.439511666667","24.9634933333333","6501300","土城區"
"236013","270-VK","2018/08/11 14:09:21","新北市土城區學府路一段225號","121.451251666667","24.9842483333333","6501300","土城區"
"236032","271-VK","2018/08/11 14:09:24","新北市土城區青雲路451巷3號","121.459175","24.974715","6501300","土城區"
"236017","401-BY","2018/08/11 14:09:20","新北市土城區中華路二段2號","121.439706666667","24.9794666666667","6501300","土城區"
"236006","498-BY","2018/08/11 14:09:16","新北市土城區日新街47-1號","121.442856666667","24.9887316666667","6501300","土城區"
"236057","912-UM","2018/08/11 14:09:25","新北市土城區中央路四段133-1號","121.416015","24.9574033333333","6501300","土城區"
"236045","913-UM","2018/08/11 14:08:58","新北市土城區明德路一段365-1號","121.453568333333","24.9790416666667","6501300","土城區"
"236060","915-UM","2018/08/11 14:09:25","新北市土城區金城路二段200號","121.454876666667","24.9818133333333","6501300","土城區"
"236054","AAC-216","2018/08/11 14:09:16","新北市土城區城林路6巷80號","121.438206666667","24.9797333333333","6501300","土城區"
"221038","646-BX","2018/08/11 14:09:30","新北市林口區太平里180號","121.367006666667","25.135065","6501100","汐止區"
"220027","145-BY","2018/08/11 14:09:31","新北市板橋區民權路260巷7號","121.45837","25.0154233333333","6500100","板橋區"
"220028","200-UY","2018/08/11 14:09:26","新北市板橋區大觀路二段3巷16號","121.447725","25.0036","6500100","板橋區"
"220030","610-BX","2018/08/11 14:09:16","新北市板橋區溪崑二街108號","121.426525","24.98873","6500100","板橋區"
"220050","245-BX","2018/08/11 14:09:27","新北市板橋區萬板路15號","121.470651666667","25.0209733333333","6500100","板橋區"
"220040","267-BY","2018/08/11 14:09:13","新北市板橋區縣民大道三段247巷14號","121.481756666667","25.026345","6500100","板橋區"
"220004","276-BY","2018/08/11 14:09:23","新北市板橋區信義路74巷4弄1號","121.456923333333","24.9930166666667","6500100","板橋區"
"220020","277-BY","2018/08/11 14:09:24","新北市板橋區金門街260巷2-2號","121.429898333333","24.986885","6500100","板橋區"
"220043","285-UM","2018/08/11 14:09:27","新北市板橋區光武街134號","121.465505","25.0300016666667","6500100","板橋區"
"220001","285-VK","2018/08/11 14:09:21","新北市板橋區懷仁街35巷7號","121.47695","25.0197316666667","6500100","板橋區"
"220031","286-VK","2018/08/11 14:09:28","新北市板橋區大觀路二段174巷176弄15號","121.442925","25.0031683333333","6500100","板橋區"
"220029","287-VK","2018/08/11 14:09:29","新北市板橋區南雅西路二段156巷2號","121.45182","25.0133233333333","6500100","板橋區"
"220039","288-VK","2018/08/11 14:09:25","新北市板橋區裕民街52號","121.461546666667","25.0287083333333","6500100","板橋區"
"220009","293-UM","2018/08/11 14:09:30","新北市板橋區中山路二段318巷27弄2號","121.480555","25.0184033333333","6500100","板橋區"
"220010","295-UM","2018/08/11 14:09:30","新北市板橋區三民路二段居仁巷1弄39號","121.48043","25.0136716666667","6500100","板橋區"
"220032","296-UM","2018/08/11 14:09:17","新北市板橋區溪崑二街56巷6號","121.427671666667","24.9908516666667","6500100","板橋區"
"220023","303-R5","2018/08/11 14:09:35","新北市板橋區西門街55巷1號","121.454091666667","25.0101316666667","6500100","板橋區"
"220041","307-R5","2018/08/11 14:09:21","新北市板橋區文化路二段225巷60弄10號","121.469253333333","25.0287383333333","6500100","板橋區"
"220047","317-R6","2018/08/11 14:09:23","新北市板橋區自由路51巷14弄1號","121.464773333333","25.023565","6500100","板橋區"
"220013","461-BY","2018/08/11 14:09:24","新北市板橋區民族路221-1號","121.469756666667","25.0074133333333","6500100","板橋區"
"220012","486-VK","2018/08/11 14:09:16","新北市板橋區板新路103號","121.472735","25.0139883333333","6500100","板橋區"
"220037","491-VK","2018/08/11 14:09:25","新北市板橋區文化路二段182巷3弄21號","121.471876666667","25.02789","6500100","板橋區"
"220104","560-BX","2018/08/11 14:09:26","新北市板橋區瑞安街31巷2號","121.455666666667","25.0226733333333","6500100","板橋區"
"220052","561-BX","2018/08/11 14:09:25","新北市板橋區介壽街84巷56號","121.468745","25.01829","6500100","板橋區"
"220019","568-UM","2018/08/11 14:09:30","新北市板橋區重慶路269巷31-3號","121.464278333333","24.9992883333333","6500100","板橋區"
"220011","609-BX","2018/08/11 14:09:32","新北市板橋區三民路二段167號","121.47916","25.01456","6500100","板橋區"
"220002","630-UY","2018/08/11 14:09:27","新北市板橋區重慶路89巷12號","121.46303","25.00651","6500100","板橋區"
"220005","686-BX","2018/08/11 14:09:27","新北市板橋區重慶路290號","121.463541666667","24.9989416666667","6500100","板橋區"
"220025","687-BX","2018/08/11 14:09:30","新北市板橋區龍興街11號","121.442721666667","24.9996083333333","6500100","板橋區"
"220042","689-BX","2018/08/11 14:09:32","新北市板橋區民生路三段66-3號","121.46665","25.025645","6500100","板橋區"
"220051","KEA-2699","2018/08/11 14:09:23","新北市板橋區田單街51號","121.48266","25.0279633333333","6500100","板橋區"
"220014","829-TW","2018/08/11 14:09:23","新北市板橋區中山路二段90巷43弄18-2號","121.477001666667","25.0151366666667","6500100","板橋區"
"220016","830-TW","2018/08/11 14:09:28","新北市板橋區翠華街6巷59號","121.481296666667","25.0249483333333","6500100","板橋區"
"220045","831-TW","2018/08/11 14:09:30","新北市板橋區大同街8巷31號","121.477488333333","25.0259416666667","6500100","板橋區"
"220038","833-TW","2018/08/11 14:09:31","新北市板橋區文化路二段389號","121.473578333333","25.0315066666667","6500100","板橋區"
"220022","895-R6","2018/08/11 14:09:23","新北市板橋區西門街59號","121.454483333333","25.0091933333333","6500100","板橋區"
"220021","985-R7","2018/08/11 14:09:30","新北市板橋區中正路251號","121.455818333333","25.01832","6500100","板橋區"
"220046","AAC-210","2018/08/11 14:09:15","新北市板橋區中正路250巷130號","121.460505","25.0200966666667","6500100","板橋區"
"220018","AAC-253","2018/08/11 14:09:24","新北市板橋區忠孝路92號","121.461761666667","25.002045","6500100","板橋區"
"235032","KEA-2873","2018/08/11 14:09:30","新北市中和區圓通路158巷5弄1號","121.497883333333","24.9963216666667","6500300","中和區"
"235025","KEA-2875","2018/08/11 14:09:31","新北市中和區連城路456巷9號","121.47859","24.9951883333333","6500300","中和區"
