"lineid","car","time","location","longitude","latitude","cityid","cityname"
"248017","225-UY","2018/08/11 15:09:10","新北市五股區登林路118-1號","121.41743","25.0745983333333","6501500","五股區"
"231006","001-UM","2018/08/11 15:09:34","新北市新店區新坡一街2號","121.548238333333","24.960655","6500600","新店區"
"231002","002-UM","2018/08/11 15:09:14","新北市新店區中正路698號","121.53406","24.9906083333333","6500600","新店區"
"231028","046-UY","2018/08/11 15:09:15","新北市新店區僑信路110號","121.500141666667","24.9469883333333","6500600","新店區"
"231001","047-UY","2018/08/11 15:09:31","新北市新店區中正路137號","121.541738333333","24.9714183333333","6500600","新店區"
"231005","106-UY","2018/08/11 15:09:21","新北市新店區北新路三段126號","121.541671666667","24.981745","6500600","新店區"
"231020","108-UY","2018/08/11 15:09:25","新北市新店區永福路54-2號","121.558146666667","24.9286966666667","6500600","新店區"
"231012","187-VK","2018/08/11 15:09:29","新北市新店區寶元路一段65號","121.54224","24.9858133333333","6500600","新店區"
"231023","KEA-2219","2018/08/11 15:09:29","新北市新店區檳榔路109號","121.544443333333","24.96161","6500600","新店區"
"231026","256-BX","2018/08/11 15:09:33","新北市新店區建安街17號","121.539708333333","24.9754466666667","6500600","新店區"
"231003","268-BY","2018/08/11 15:09:19","新北市新店區寶橋路132號","121.547495","24.9762916666667","6500600","新店區"
"231018","278-BY","2018/08/11 15:09:31","新北市新店區中央七街125號","121.525043333333","24.9780916666667","6500600","新店區"
"231017","AAD-862","2018/08/11 15:04:33","新北市新店區明山路29號","121.564941666667","24.9567666666667","6500600","新店區"
"231004","355-BY","2018/08/11 15:09:24","新北市新店區建國路21號","121.540071666667","24.9738183333333","6500600","新店區"
"231038","3712-VJ","2018/08/11 15:09:25","新北市新店區安華路28-1號","121.519735","24.9608883333333","6500600","新店區"
"231037","4716-K9","2018/08/11 15:09:15","新北市新店區安民街341-1號","121.516695","24.974855","6500600","新店區"
"231025","4715-K9","2018/08/11 15:09:31","新北市新店區二十張路46巷37弄21-5號","121.535386666667","24.98131","6500600","新店區"
"231036","512-UM","2018/08/11 15:09:21","新北市新店區安祥路104巷27號","121.481916666667","24.96328","6500600","新店區"
"231030","619-UM","2018/08/11 15:09:33","新北市新店區安民街341-1號","121.516851666667","24.97486","6500600","新店區"
"231034","641-BX","2018/08/11 15:09:21","新北市新店區玫瑰路4-2號","121.493698333333","24.9513083333333","6500600","新店區"
"231039","718-UY","2018/08/11 15:09:31","新北市新店區寶安街4巷1號","121.542281666667","24.9810833333333","6500600","新店區"
"231035","719-UM","2018/08/11 15:09:16","新北市新店區永安街34巷12號","121.517976666667","24.9859683333333","6500600","新店區"
"231033","720-UM","2018/08/11 15:09:35","新北市新店區安泰路144號","121.487758333333","24.9392066666667","6500600","新店區"
"231029","897-TW","2018/08/11 15:09:15","新北市新店區安康路三段716號","121.473938333333","24.942055","6500600","新店區"
"231024","AKT-0513","2018/08/11 15:09:20","新北市新店區北新路一段297巷27號","121.540613333333","24.9681283333333","6500600","新店區"
"241013","270-UM","2018/08/11 15:09:17","新北市三重區重新路四段121號","121.484853333333","25.0525666666667","6500200","三重區"
"235030","003-UY","2018/08/11 15:09:30","新北市中和區保平路300號","121.507843333333","25.0045016666667","6500300","中和區"
"235004","150-BY","2018/08/11 15:09:34","新北市中和區景安路6號","121.507738333333","24.9989666666667","6500300","中和區"
"235019","183-VK","2018/08/11 15:09:29","新北市中和區民安街23號","121.480338333333","25.0005616666667","6500300","中和區"
"235007","352-BY","2018/08/11 15:09:19","新北市中和區興南路二段159巷12號","121.505163333333","24.9832166666667","6500300","中和區"
"235014","4979-A6","2018/08/11 15:09:25","新北市中和區景平路336號","121.511821666667","24.9929566666667","6500300","中和區"
"235033","4980-A6","2018/08/11 15:09:27","新北市中和區圓通路207號","121.496986666667","24.9944316666667","6500300","中和區"
"235034","558-UM","2018/08/11 15:09:24","新北市中和區中正路296號","121.494446666667","24.9940866666667","6500300","中和區"
"235018","640-BX","2018/08/11 15:09:30","新北市中和區員山路325-5號","121.481161666667","25.0011133333333","6500300","中和區"
"235026","800-TS","2018/08/11 15:09:26","新北市中和區永和路191巷9號","121.491313333333","25.0067816666667","6500300","中和區"
"235012","896-TW","2018/08/11 15:09:19","新北市中和區興南路一段162號","121.508165","24.9866783333333","6500300","中和區"
"235001","AAC-213","2018/08/11 15:09:26","新北市中和區自強路60號","121.52018","24.9945","6500300","中和區"
"220003","015-TV","2018/08/11 15:09:18","新北市板橋區仁愛路86巷18號","121.461108333333","24.9988166666667","6500100","板橋區"
"220034","073-UY","2018/08/11 15:09:14","新北市樹林區八德街435號","121.406156666667","24.9694466666667","6500100","板橋區"
"235023","251-BX","2018/08/11 15:09:30","新北市中和區圓通路367巷13弄81號","121.493663333333","24.98765","6500300","中和區"
"228004","212-TW","2018/08/11 15:09:14","新北市貢寮區雙玉里田寮洋街16-2號","121.921993333333","25.0251866666667","6502600","貢寮區"
"253003","6232-TK","2018/08/11 15:09:34","新北市石門區尖子鹿103-1號","121.579486666667","25.2944983333333","6502200","石門區"
"253001","6251-TK","2018/08/11 15:09:16","新北市石門區小坑9號","121.594413333333","25.28837","6502200","石門區"
"253002","637-UY","2018/08/11 15:04:56","新北市石門區尖子鹿76號","121.571423333333","25.2968583333333","6502200","石門區"
"253004","8270-PC","2018/08/11 15:09:15","新北市石門區小坑26-1號","121.594726666667","25.2766383333333","6502200","石門區"
"207002","749-BX","2018/08/11 15:09:17","新北市萬里區崁腳里內中福路73-1號","121.65507","25.1665416666667","6502800","萬里區"
"207001","662-BX","2018/08/11 15:09:29","新北市萬里區雙興里麗水路3-1號","121.65322","25.1798416666667","6502800","萬里區"
"236068","105-UM","2018/08/11 15:09:20","新北市土城區學成路158號","121.44816","24.9892933333333","6501300","土城區"
"236040","107-UM","2018/08/11 15:09:29","新北市土城區裕民路256巷4弄2號","121.454053333333","24.9824683333333","6501300","土城區"
"236074","166-UM","2018/08/11 15:09:27","新北市土城區大暖坑11-3號","121.41938","24.954935","6501300","土城區"
"236029","253-BX","2018/08/11 15:09:24","新北市土城區福祥街63號","121.440976666667","24.9804583333333","6501300","土城區"
"236024","269-VK","2018/08/11 15:09:17","新北市土城區中正路1號","121.44205","24.9750316666667","6501300","土城區"
"236013","270-VK","2018/08/11 15:09:01","新北市土城區學府路一段99巷10號","121.456848333333","24.98676","6501300","土城區"
"236032","271-VK","2018/08/11 15:09:24","新北市土城區明德路一段169號","121.464433333333","24.97939","6501300","土城區"
"236017","401-BY","2018/08/11 15:09:20","新北市土城區峰廷街3號","121.469273333333","24.9874766666667","6501300","土城區"
"236057","912-UM","2018/08/11 15:09:25","新北市土城區金城路一段72號","121.443753333333","24.972595","6501300","土城區"
"236045","913-UM","2018/08/11 15:09:31","新北市土城區清水路282號","121.462196666667","24.9835983333333","6501300","土城區"
"236054","AAC-216","2018/08/11 15:09:16","新北市土城區學府路一段276號","121.450251666667","24.983275","6501300","土城區"
"220050","245-BX","2018/08/11 15:09:27","新北市板橋區雙十路二段47巷8弄14號","121.47443","25.0259166666667","6500100","板橋區"
"220031","286-VK","2018/08/11 15:09:28","新北市板橋區僑中二街90巷7號","121.445928333333","25.0091833333333","6500100","板橋區"
"220029","287-VK","2018/08/11 15:09:29","新北市板橋區僑中一街86號","121.44727","25.011645","6500100","板橋區"
"220009","293-UM","2018/08/11 15:09:30","新北市板橋區忠孝路41-1號","121.461278333333","25.0021","6500100","板橋區"
"220041","307-R5","2018/08/11 15:09:20","新北市板橋區文化路一段81巷6號","121.460818333333","25.014165","6500100","板橋區"
"220012","486-VK","2018/08/11 15:09:16","新北市板橋區漢生東路193巷25號","121.47105","25.0122383333333","6500100","板橋區"
"220037","491-VK","2018/08/11 15:09:14","新北市板橋區懷德街127巷23弄9號","121.479346666667","25.03159","6500100","板橋區"
"220052","561-BX","2018/08/11 15:09:24","新北市板橋區新海路2號","121.462971666667","25.0207416666667","6500100","板橋區"
"220011","609-BX","2018/08/11 15:09:32","新北市板橋區中山路二段268號","121.479076666667","25.0185016666667","6500100","板橋區"
"220002","630-UY","2018/08/11 15:09:29","新北市板橋區實踐路93巷19號","121.464891666667","25.00545","6500100","板橋區"
"220025","687-BX","2018/08/11 15:09:30","新北市板橋區大觀路一段28巷1弄104號","121.451746666667","25.0058433333333","6500100","板橋區"
"220042","689-BX","2018/08/11 15:09:32","新北市板橋區長江路二段8號","121.46468","25.0313283333333","6500100","板橋區"
"220051","KEA-2699","2018/08/11 15:09:22","新北市板橋區文聖街70號","121.477191666667","25.0303866666667","6500100","板橋區"
"220014","829-TW","2018/08/11 15:09:23","新北市板橋區板新路164號","121.470141666667","25.01576","6500100","板橋區"
"220016","830-TW","2018/08/11 15:09:28","新北市板橋區光復街230號","121.484791666667","25.0213266666667","6500100","板橋區"
"220038","833-TW","2018/08/11 15:09:27","新北市板橋區互助街66號","121.461053333333","25.0266883333333","6500100","板橋區"
"220046","AAC-210","2018/08/11 15:09:14","新北市板橋區民權路202巷22號","121.461118333333","25.016635","6500100","板橋區"
"220018","AAC-253","2018/08/11 15:09:24","新北市板橋區德興街13號","121.453426666667","24.99439","6500100","板橋區"
