"lineid","car","time","location","longitude","latitude","cityid","cityname"
"231046","107-UY","2018/08/11 15:49:25","新北市新店區安一路一段1-1號","121.519598333333","24.96114","6500600","新店區"
"231020","108-UY","2018/08/11 15:49:25","新北市新店區永興路102-4號","121.545761666667","24.930275","6500600","新店區"
"231012","187-VK","2018/08/11 15:49:29","新北市新店區文化路24號","121.543636666667","24.9798716666667","6500600","新店區"
"231023","KEA-2219","2018/08/11 15:49:29","新北市新店區北新路一段193號","121.540278333333","24.9647683333333","6500600","新店區"
"231026","256-BX","2018/08/11 15:49:33","新北市新店區民生路14號","121.532493333333","24.9862","6500600","新店區"
"231003","268-BY","2018/08/11 15:49:19","新北市新店區寶興路60巷3號","121.549878333333","24.9718333333333","6500600","新店區"
"231018","278-BY","2018/08/11 15:49:30","新北市新店區中正路663巷7弄15號","121.532911666667","24.9900566666667","6500600","新店區"
"231017","AAD-862","2018/08/11 15:49:33","新北市新店區中華路117巷6弄2號","121.537783333333","24.9687966666667","6500600","新店區"
"231038","3712-VJ","2018/08/11 15:49:25","新北市新店區安德街173號","121.508736666667","24.958995","6500600","新店區"
"231037","4716-K9","2018/08/11 15:49:34","新北市新店區安民街365巷1弄8號","121.516471666667","24.9752283333333","6500600","新店區"
"231013","513-UM","2018/08/11 15:49:34","新北市新店區華潭街6號","121.529998333333","24.9514583333333","6500600","新店區"
"231030","619-UM","2018/08/11 15:49:30","新北市新店區永安街42號","121.518178333333","24.986715","6500600","新店區"
"231034","641-BX","2018/08/11 15:49:00","新北市新店區吉祥街15巷1號","121.497698333333","24.9455866666667","6500600","新店區"
"231039","718-UY","2018/08/11 15:49:31","新北市新店區碧潭路121號","121.53533","24.9589616666667","6500600","新店區"
"231035","719-UM","2018/08/11 15:49:16","新北市新店區安興路81號","121.515513333333","24.9754583333333","6500600","新店區"
"231033","720-UM","2018/08/11 15:49:35","新北市新店區雙城路45巷1號","121.492391666667","24.9482283333333","6500600","新店區"
"241011","013-R5","2018/08/11 15:49:26","新北市三重區三和路二段228號","121.497553333333","25.0696566666667","6500200","三重區"
"241028","022-UY","2018/08/11 15:49:19","新北市三重區中正南路55號","121.493996666667","25.0595333333333","6500200","三重區"
"241008","059-VK","2018/08/11 15:49:20","新北市三重區重新路四段121號","121.485015","25.052455","6500200","三重區"
"241015","062-VK","2018/08/11 15:49:24","新北市三重區重新路四段121號","121.485053333333","25.052255","6500200","三重區"
"241017","063-VK","2018/08/11 15:49:21","新北市三重區大仁街1號","121.491586666667","25.06362","6500200","三重區"
"241024","065-VK","2018/08/11 15:49:30","新北市三重區名源街47巷12號","121.480438333333","25.0599216666667","6500200","三重區"
"241026","066-VK","2018/08/11 15:49:25","新北市三重區重新路四段121號","121.48472","25.051885","6500200","三重區"
"241002","090-VK","2018/08/11 15:49:20","新北市三重區長元街105號","121.504583333333","25.0670883333333","6500200","三重區"
"241003","091-VK","2018/08/11 15:49:19","新北市三重區環河北路353號","121.501901666667","25.07752","6500200","三重區"
"241005","265-UM","2018/08/11 15:49:27","新北市三重區長元街105號","121.504618333333","25.06671","6500200","三重區"
"241016","266-UM","2018/08/11 15:49:21","新北市三重區重新路四段121號","121.485083333333","25.0523816666667","6500200","三重區"
"241018","268-UM","2018/08/11 15:49:29","新北市三重區重新路四段121號","121.484913333333","25.0520816666667","6500200","三重區"
"241032","269-UM","2018/08/11 15:49:28","新北市三重區三陽路100巷3弄13號","121.483036666667","25.0581333333333","6500200","三重區"
"241013","270-UM","2018/08/11 15:49:17","新北市三重區六張街28號","121.495288333333","25.0705483333333","6500200","三重區"
"241025","271-UM","2018/08/11 15:49:30","新北市三重區新北大道一段250號","121.479853333333","25.0613383333333","6500200","三重區"
"241007","398-BY","2018/08/11 15:49:13","新北市三重區名源街47巷12號","121.480531666667","25.059775","6500200","三重區"
"241004","413-TH","2018/08/11 15:49:31","新北市三重區重新路四段121號","121.484791666667","25.0525116666667","6500200","三重區"
"241020","478-VK","2018/08/11 15:49:23","新北市三重區忠孝路二段63號","121.484981666667","25.0705883333333","6500200","三重區"
"241030","480-VK","2018/08/11 15:49:28","新北市三重區重新路四段121號","121.48494","25.0523916666667","6500200","三重區"
"241014","543-UM","2018/08/11 15:49:35","新北市三重區重新路四段121號","121.485086666667","25.0523666666667","6500200","三重區"
"241001","547-UM","2018/08/11 15:49:26","新北市三重區重新路四段121號","121.4848","25.05214","6500200","三重區"
"241019","KEA-2593","2018/08/11 15:49:22","新北市三重區重新路四段121號","121.484533333333","25.0521716666667","6500200","三重區"
"241006","AAD-863","2018/08/11 15:49:27","新北市三重區重新路四段2號","121.489473333333","25.05847","6500200","三重區"
"241012","941-UM","2018/08/11 15:49:23","新北市三重區文化北路132巷1號","121.498421666667","25.066865","6500200","三重區"
"241029","942-UM","2018/08/11 15:49:20","新北市三重區大同南路246號","121.496943333333","25.0557466666667","6500200","三重區"
"241033","AAC-255","2018/08/11 15:49:20","新北市三重區興德路82號","121.474168333333","25.053035","6500200","三重區"
"227002","642-TC","2018/08/11 15:49:17","新北市雙溪區平林里外平林44號","121.852923333333","25.03634","6502500","雙溪區"
"227010","400-TW","2018/08/11 15:49:19","新北市雙溪區牡丹里中正路56號","121.865678333333","25.0406616666667","6502500","雙溪區"
"236068","105-UM","2018/08/11 15:49:20","新北市土城區金安街8號","121.421201666667","24.96434","6501300","土城區"
"236074","166-UM","2018/08/11 15:49:27","新北市土城區中央路四段323號","121.410506666667","24.951105","6501300","土城區"
"236024","269-VK","2018/08/11 15:49:26","新北市土城區中央路一段249巷23號","121.446203333333","24.98552","6501300","土城區"
"236057","912-UM","2018/08/11 15:49:25","新北市土城區中央路二段144號","121.442011666667","24.977235","6501300","土城區"
"236045","913-UM","2018/08/11 15:49:18","新北市土城區清水路217號","121.460688333333","24.982115","6501300","土城區"
"220025","687-BX","2018/08/11 15:49:30","新北市板橋區大觀路三段50巷47號","121.432585","24.9956366666667","6500100","板橋區"
