"lineid","car","time","location","longitude","latitude","cityid","cityname"
"249005","172-UM","2018/08/11 16:49:34","新北市八里區大堀湖2-3號","121.422241666667","25.1537133333333","6502300","八里區"
"249004","303-UY","2018/08/11 16:49:21","新北市八里區博物館路201號","121.404976666667","25.1562983333333","6502300","八里區"
"249003","593-UM","2018/08/11 16:49:33","新北市八里區中山路二段283號","121.401575","25.14866","6502300","八里區"
"231046","107-UY","2018/08/11 16:49:25","新北市新店區灣潭路29-3號","121.539943333333","24.9387366666667","6500600","新店區"
"241011","013-R5","2018/08/11 16:49:27","新北市三重區仁愛街53巷143號","121.499621666667","25.0726733333333","6500200","三重區"
"241028","022-UY","2018/08/11 16:49:30","新北市三重區正義南路69號","121.498175","25.0600766666667","6500200","三重區"
"241008","059-VK","2018/08/11 16:49:20","新北市三重區永安北路一段17巷26號","121.47761","25.0751483333333","6500200","三重區"
"241022","060-VK","2018/08/11 16:49:28","新北市三重區貴陽街72號","121.484066666667","25.063495","6500200","三重區"
"241031","061-VK","2018/08/11 16:49:31","新北市三重區過圳街42-1號","121.488258333333","25.0598966666667","6500200","三重區"
"241015","062-VK","2018/08/11 16:49:24","新北市三重區文化北路43巷10號","121.499206666667","25.0655083333333","6500200","三重區"
"241017","063-VK","2018/08/11 16:49:21","新北市三重區國隆路2巷8號","121.49327","25.0633183333333","6500200","三重區"
"241024","065-VK","2018/08/11 16:49:30","新北市三重區中正北路319號","121.473866666667","25.0720233333333","6500200","三重區"
"241026","066-VK","2018/08/11 16:49:25","新北市三重區文化南路8-4號","121.500473333333","25.0620916666667","6500200","三重區"
"241002","090-VK","2018/08/11 16:49:20","新北市三重區仁義街143巷2號","121.497318333333","25.0807333333333","6500200","三重區"
"241003","091-VK","2018/08/11 16:49:19","新北市三重區五華街135號","121.491025","25.0844433333333","6500200","三重區"
"241005","265-UM","2018/08/11 16:49:27","新北市三重區仁華街80巷24號","121.48431","25.08385","6500200","三重區"
"241016","266-UM","2018/08/11 16:49:21","新北市三重區大同北路135巷36號","121.493616666667","25.0648833333333","6500200","三重區"
"241009","267-UM","2018/08/11 16:49:28","新北市三重區三和路四段203巷254號","121.487273333333","25.0809466666667","6500200","三重區"
"241018","268-UM","2018/08/11 16:49:29","新北市三重區安樂街80號","121.494871666667","25.0693616666667","6500200","三重區"
"241032","269-UM","2018/08/11 16:49:27","新北市三重區重陽路一段120巷31號","121.485336666667","25.0602116666667","6500200","三重區"
"241013","270-UM","2018/08/11 16:49:17","新北市三重區仁壽街95號","121.498261666667","25.0737116666667","6500200","三重區"
"241025","271-UM","2018/08/11 16:49:30","新北市三重區中正北路510號","121.472428333333","25.0717183333333","6500200","三重區"
"241007","398-BY","2018/08/11 16:49:33","新北市三重區三和路四段177-1號","121.48277","25.07895","6500200","三重區"
"241004","413-TH","2018/08/11 16:49:31","新北市三重區仁愛街397巷6號","121.49129","25.081095","6500200","三重區"
"241020","478-VK","2018/08/11 16:49:23","新北市三重區後竹圍街173-1號","121.485986666667","25.0718333333333","6500200","三重區"
"241030","480-VK","2018/08/11 16:49:28","新北市三重區新興路2巷1號","121.49251","25.0528033333333","6500200","三重區"
"241014","543-UM","2018/08/11 16:49:14","新北市三重區長榮路75號","121.502561666667","25.069145","6500200","三重區"
"241023","545-UM","2018/08/11 16:49:34","新北市三重區中華路76巷33號","121.482226666667","25.062795","6500200","三重區"
"241001","547-UM","2018/08/11 16:49:26","新北市三重區仁政街47號","121.493046666667","25.0769233333333","6500200","三重區"
"241019","KEA-2593","2018/08/11 16:49:30","新北市三重區三張街149巷8號","121.486635","25.0699266666667","6500200","三重區"
"241006","AAD-863","2018/08/11 16:49:18","新北市三重區力行路二段184號","121.483291666667","25.077345","6500200","三重區"
"241012","941-UM","2018/08/11 16:49:23","新北市三重區仁興街11巷60號","121.501128333333","25.0745533333333","6500200","三重區"
"241029","942-UM","2018/08/11 16:49:20","新北市三重區新興路31巷8號","121.492321666667","25.0540133333333","6500200","三重區"
"241033","AAC-255","2018/08/11 16:49:20","新北市三重區新北大道二段139巷8號","121.466288333333","25.060915","6500200","三重區"
"235046","733-UM","2018/08/11 16:26:55","新北市中和區員山路36巷13號","121.484201666667","24.9908483333333","6500300","中和區"
"247024","893-R6","2018/08/11 16:49:16","新北市蘆洲區長興路202號","121.460553333333","25.087495","6501400","蘆洲區"
"247004","337-TH","2018/08/11 16:49:18","新北市蘆洲區長榮路106號","121.461815","25.084015","6501400","蘆洲區"
"247008","056-VK","2018/08/11 16:49:34","新北市蘆洲區中山二路45巷28號","121.474206666667","25.08133","6501400","蘆洲區"
"247020","001-UY","2018/08/11 16:49:29","新北市蘆洲區中正路520巷9號","121.46224","25.0994716666667","6501400","蘆洲區"
"228003","097-TW","2018/08/11 16:49:37","新北市貢寮區貢寮里朝陽街1-2號","121.912365","25.02131","6502600","貢寮區"
"228002","663-BX","2018/08/11 16:49:24","新北市貢寮區貢寮里長泰路28號","121.899965","25.0240416666667","6502600","貢寮區"
"224006","676-BX","2018/08/11 16:49:24","新北市瑞芳區大寮路356-1號","121.784701666667","25.10309","6501200","瑞芳區"
"224008","285-BY","2018/08/11 16:49:24","新北市瑞芳區傑魚坑路163號","121.789821666667","25.1095266666667","6501200","瑞芳區"
"224007","275-VK","2018/08/11 16:49:18","新北市瑞芳區中央路48巷56號","121.760753333333","25.1034016666667","6501200","瑞芳區"
"224009","273-VK","2018/08/11 16:49:24","新北市瑞芳區明燈路一段267號","121.816486666667","25.1086616666667","6501200","瑞芳區"
"224005","271-BY","2018/08/11 16:49:21","新北市瑞芳區洞頂路157號","121.861325","25.122795","6501200","瑞芳區"
"227002","642-TC","2018/08/11 16:49:17","新北市雙溪區外柑里外柑腳71號","121.8071","25.0176283333333","6502500","雙溪區"
"227010","400-TW","2018/08/11 16:49:19","新北市雙溪區牡丹里五分10號","121.866596666667","25.0471066666667","6502500","雙溪區"
"251013","KEA-2871","2018/08/11 16:49:27","新北市淡水區泉洲厝32號","121.489255","25.1926","6501000","淡水區"
"251016","179-VK","2018/08/11 16:49:34","新北市淡水區商工路398號","121.473375","25.1847466666667","6501000","淡水區"
"251014","180-VK","2018/08/11 16:49:23","新北市淡水區淡金路四段476號","121.452431666667","25.2239116666667","6501000","淡水區"
"251015","181-VK","2018/08/11 16:49:35","新北市淡水區忠愛街5-1號","121.460738333333","25.1715933333333","6501000","淡水區"
"251010","413-VK","2018/08/11 16:49:35","新北市淡水區中正路二段31號","121.419453333333","25.1815","6501000","淡水區"
"251012","441-VK","2018/08/11 16:49:19","新北市淡水區中正路二段31號","121.419681666667","25.1815566666667","6501000","淡水區"
"251008","442-VK","2018/08/11 16:49:27","新北市淡水區樹梅坑45號","121.47465","25.1445316666667","6501000","淡水區"
"251004","443-VK","2018/08/11 16:49:36","新北市淡水區中正路二段31號","121.41931","25.1817683333333","6501000","淡水區"
"251007","577-R6","2018/08/11 16:49:27","新北市淡水區中正路251-1號","121.433643333333","25.174385","6501000","淡水區"
"252002","178-VK","2018/08/11 16:49:18","新北市三芝區忠孝街68號","121.505851666667","25.2569816666667","6502100","三芝區"
"252001","292-VK","2018/08/11 16:49:28","新北市三芝區埔坪里埔頭坑107號","121.504735","25.2617016666667","6502100","三芝區"
"242053","415-TV","2018/08/11 16:49:15","新北市新莊區新泰路357巷3弄57號","121.442125","25.039345","6500500","新莊區"
"242023","362-BY","2018/08/11 16:49:27","新北市新莊區三和路12-21號","121.442196666667","25.0386916666667","6500500","新莊區"
"242017","175-VK","2018/08/11 16:49:24","新北市新莊區三和路12-21號","121.442036666667","25.03876","6500500","新莊區"
"242015","347-TH","2018/08/11 16:49:29","新北市新莊區三和路12-18號","121.44209","25.0376033333333","6500500","新莊區"
"242021","348-TH","2018/08/11 16:49:27","新北市新莊區新泰路357巷3弄57號","121.442171666667","25.0394733333333","6500500","新莊區"
"238020","268-VK","2018/08/11 16:49:34","新北市樹林區中山路三段125號","121.398991666667","24.9742666666667","6500700","樹林區"
"239007","AAC-297","2018/08/11 16:49:26","新北市鶯歌區二甲路13-16號","121.344973333333","24.9352183333333","6500800","鶯歌區"
"239005","526-UM","2018/08/11 16:49:28","桃園市龜山區兔坑里大湖頂45號","121.376713333333","24.9854266666667","6500800","鶯歌區"
"242013","281-VK","2018/08/11 16:49:22","新北市新莊區三和路12-18號","121.442063333333","25.0376083333333","6500500","新莊區"
