"lineid","car","time","location","longitude","latitude","cityid","cityname"
"249005","172-UM","2018/08/11 17:09:34","新北市八里區華富山6-5號","121.420828333333","25.141775","6502300","八里區"
"249001","173-UM","2018/08/11 17:09:31","新北市八里區中華路二段305-2號","121.402501666667","25.14712","6502300","八里區"
"249004","303-UY","2018/08/11 17:09:36","新北市八里區忠孝路343號","121.417453333333","25.1612983333333","6502300","八里區"
"249002","305-UY","2018/08/11 17:09:34","新北市八里區龍米路二段147巷7號","121.441111666667","25.1503766666667","6502300","八里區"
"249003","593-UM","2018/08/11 17:09:33","新北市八里區中山路二段411號","121.397365","25.1463216666667","6502300","八里區"
"244017","069-UM","2018/08/11 17:09:32","新北市林口區粉寮69號","121.405041666667","25.0908016666667","6501700","林口區"
"244007","080-UY","2018/08/11 17:09:27","新北市林口區菁埔37-11號","121.376436666667","25.0971966666667","6501700","林口區"
"244019","403-UM","2018/08/11 17:09:27","新北市林口區四維路156號","121.380531666667","25.07554","6501700","林口區"
"244023","483-VK","2018/08/11 17:09:16","新北市林口區仁愛路一段647號","121.388473333333","25.0766266666667","6501700","林口區"
"244025","837-TS","2018/08/11 17:09:22","新北市林口區中山路37號","121.394981666667","25.0784166666667","6501700","林口區"
"244021","838-TS","2018/08/11 17:09:20","新北市林口區粉寮路二段88巷22-1號","121.406155","25.088485","6501700","林口區"
"231046","107-UY","2018/08/11 17:09:25","新北市新店區直潭路92號","121.530933333333","24.9375933333333","6500600","新店區"
"241011","013-R5","2018/08/11 17:09:26","新北市三重區龍門路166號","121.4989","25.0731266666667","6500200","三重區"
"241028","022-UY","2018/08/11 17:09:19","新北市三重區重新路三段81號","121.492053333333","25.060345","6500200","三重區"
"241008","059-VK","2018/08/11 17:09:20","新北市三重區力行路二段136巷17弄2號","121.481588333333","25.07554","6500200","三重區"
"241022","060-VK","2018/08/11 17:09:28","新北市三重區重陽路二段24巷10號","121.486156666667","25.0627266666667","6500200","三重區"
"241031","061-VK","2018/08/11 17:09:31","新北市三重區重陽路一段113巷1弄1號","121.487426666667","25.0598566666667","6500200","三重區"
"241015","062-VK","2018/08/11 17:09:24","新北市三重區長生街16號","121.49928","25.0663633333333","6500200","三重區"
"241017","063-VK","2018/08/11 17:09:21","新北市三重區大仁街5號","121.491741666667","25.0637466666667","6500200","三重區"
"241024","065-VK","2018/08/11 17:09:30","新北市三重區後竹圍街295號","121.478913333333","25.0700266666667","6500200","三重區"
"241026","066-VK","2018/08/11 17:09:25","新北市三重區重新路一段121號","121.500321666667","25.0631733333333","6500200","三重區"
"241002","090-VK","2018/08/11 17:09:20","新北市三重區五華街35巷78號","121.49614","25.081995","6500200","三重區"
"241003","091-VK","2018/08/11 17:09:19","新北市三重區富福街100號","121.49313","25.0853816666667","6500200","三重區"
"241005","265-UM","2018/08/11 17:09:27","新北市三重區仁愛街664號","121.482428333333","25.0804916666667","6500200","三重區"
"241016","266-UM","2018/08/11 17:09:21","新北市三重區大仁街58號","121.492211666667","25.0649466666667","6500200","三重區"
"241009","267-UM","2018/08/11 17:09:28","新北市三重區三和路四段211-18號","121.482321666667","25.0799133333333","6500200","三重區"
"241018","268-UM","2018/08/11 17:09:29","新北市三重區六張街115號","121.49208","25.06971","6500200","三重區"
"241032","269-UM","2018/08/11 17:09:27","新北市三重區三陽路13巷10號","121.485955","25.0595666666667","6500200","三重區"
"241013","270-UM","2018/08/11 17:09:37","新北市三重區仁愛街88號","121.495491666667","25.0739033333333","6500200","三重區"
"241025","271-UM","2018/08/11 17:09:30","新北市三重區中正北路560巷89號","121.4712","25.0682566666667","6500200","三重區"
"241007","398-BY","2018/08/11 17:09:33","新北市三重區三和路四段145巷97號","121.486871666667","25.0787533333333","6500200","三重區"
"241004","413-TH","2018/08/11 17:09:31","新北市三重區五華街65號","121.49277","25.08266","6500200","三重區"
"241020","478-VK","2018/08/11 17:09:27","新北市三重區自強路三段55號","121.486941666667","25.07316","6500200","三重區"
"241030","480-VK","2018/08/11 17:09:28","新北市三重區集成路24號","121.488746666667","25.0523316666667","6500200","三重區"
"241014","543-UM","2018/08/11 17:09:34","新北市三重區龍濱路128號","121.50173","25.071665","6500200","三重區"
"241023","545-UM","2018/08/11 17:09:34","新北市三重區忠孝路三段84巷1號","121.480181666667","25.0645883333333","6500200","三重區"
"241001","547-UM","2018/08/11 17:09:26","新北市三重區仁愛街269巷43號","121.4942","25.0793533333333","6500200","三重區"
"241019","KEA-2593","2018/08/11 17:09:21","新北市三重區自強路二段74巷37號","121.487405","25.0695433333333","6500200","三重區"
"241006","AAD-863","2018/08/11 17:09:38","新北市三重區三和路四段264巷2弄11號","121.485223333333","25.0768233333333","6500200","三重區"
"241012","941-UM","2018/08/11 17:09:23","新北市三重區仁興街19號","121.499926666667","25.07446","6500200","三重區"
"241029","942-UM","2018/08/11 17:09:20","新北市三重區重新路三段150號","121.490778333333","25.0593016666667","6500200","三重區"
"241033","AAC-255","2018/08/11 17:09:19","新北市三重區中興北街271號","121.469091666667","25.0606183333333","6500200","三重區"
"247010","KEA-2869","2018/08/11 17:09:27","新北市蘆洲區民族路20號","121.476003333333","25.08414","6501400","蘆洲區"
"247024","893-R6","2018/08/11 17:09:16","新北市蘆洲區長興路52-1號","121.463443333333","25.08373","6501400","蘆洲區"
"247014","546-UM","2018/08/11 17:09:27","新北市蘆洲區中央路37巷15-3號","121.473511666667","25.0827683333333","6501400","蘆洲區"
"247022","500-BY","2018/08/11 17:09:22","新北市蘆洲區三民路226號","121.468593333333","25.0893883333333","6501400","蘆洲區"
"247012","339-TH","2018/08/11 17:09:18","新北市蘆洲區信義路349號","121.477701666667","25.08732","6501400","蘆洲區"
"247004","337-TH","2018/08/11 17:09:18","新北市蘆洲區長安街140號","121.460128333333","25.0821066666667","6501400","蘆洲區"
"247006","336-TH","2018/08/11 17:09:21","新北市蘆洲區長安街102巷63號","121.46268","25.0820033333333","6501400","蘆洲區"
"247018","057-VK","2018/08/11 17:09:31","新北市蘆洲區復興路87巷6號","121.476385","25.0876833333333","6501400","蘆洲區"
"247008","056-VK","2018/08/11 17:09:34","新北市蘆洲區信義路30巷70號","121.474788333333","25.0777633333333","6501400","蘆洲區"
"247016","007-UY","2018/08/11 17:09:31","新北市蘆洲區光華路73巷23號","121.46851","25.0822083333333","6501400","蘆洲區"
"247002","002-UY","2018/08/11 17:09:36","新北市蘆洲區永樂街106號","121.455971666667","25.08886","6501400","蘆洲區"
"247020","001-UY","2018/08/11 17:09:29","新北市蘆洲區民族路422巷116號","121.472556666667","25.0941416666667","6501400","蘆洲區"
"228003","097-TW","2018/08/11 17:09:17","新北市貢寮區福隆里東興街31-1號","121.952236666667","25.0206066666667","6502600","貢寮區"
"228001","212-TW","2018/08/11 17:09:34","新北市貢寮區仁理村研海街45號","121.926766666667","25.0398566666667","6502600","貢寮區"
"228002","663-BX","2018/08/11 17:09:24","新北市貢寮區龍崗里泮宮路51-1號","121.908101666667","25.016665","6502600","貢寮區"
"224006","676-BX","2018/08/11 17:09:24","新北市瑞芳區大寮路49巷4號","121.781988333333","25.09744","6501200","瑞芳區"
"224008","285-BY","2018/08/11 17:09:32","新北市瑞芳區侯硐路111-1號","121.83092","25.0896516666667","6501200","瑞芳區"
"224009","273-VK","2018/08/11 17:09:24","新北市瑞芳區輕便路28號","121.843746666667","25.1104166666667","6501200","瑞芳區"
"224005","271-BY","2018/08/11 17:09:21","新北市瑞芳區鼻頭路231號","121.913741666667","25.1240733333333","6501200","瑞芳區"
"227002","642-TC","2018/08/11 17:09:17","新北市雙溪區外柑里田寮5號","121.805953333333","25.0165266666667","6502500","雙溪區"
"227010","400-TW","2018/08/11 17:09:19","新北市雙溪區三貂里子崙坑1-6號","121.849881666667","25.0574633333333","6502500","雙溪區"
"251009","008-UM","2018/08/11 17:09:19","新北市淡水區三民街20號","121.438981666667","25.1717016666667","6501000","淡水區"
"251005","010-UM","2018/08/11 17:09:33","新北市淡水區學府路88號","121.44913","25.170955","6501000","淡水區"
"251013","KEA-2871","2018/08/11 17:09:27","新北市淡水區大埤頭3號","121.486435","25.1950966666667","6501000","淡水區"
"251016","179-VK","2018/08/11 17:09:34","新北市淡水區社厝坑3-6號","121.474815","25.1881216666667","6501000","淡水區"
"251014","180-VK","2018/08/11 17:09:23","新北市淡水區公埔子2-1號","121.462293333333","25.226065","6501000","淡水區"
"251015","181-VK","2018/08/11 17:09:35","新北市淡水區樹林口42-3號","121.470416666667","25.1686733333333","6501000","淡水區"
"251010","413-VK","2018/08/11 17:09:35","新北市淡水區新市五路二段75號","121.4313","25.1983233333333","6501000","淡水區"
"251012","441-VK","2018/08/11 17:09:19","新北市淡水區中山北路一段158號","121.444285","25.177905","6501000","淡水區"
"251008","442-VK","2018/08/11 17:09:27","新北市淡水區民生路169號","121.469426666667","25.1420583333333","6501000","淡水區"
"251004","443-VK","2018/08/11 17:09:36","新北市淡水區中正東路二段68號","121.459195","25.1544033333333","6501000","淡水區"
"251006","561-UM","2018/08/11 17:09:38","新北市淡水區真理街6號","121.438416666667","25.1745583333333","6501000","淡水區"
"251007","577-R6","2018/08/11 17:09:30","新北市淡水區民權路99-5號","121.460156666667","25.1378016666667","6501000","淡水區"
"252002","178-VK","2018/08/11 17:09:18","新北市三芝區忠孝街1-13號","121.505423333333","25.2541816666667","6502100","三芝區"
"252001","292-VK","2018/08/11 17:09:29","新北市三芝區埔頭里埔頭37號","121.498511666667","25.26028","6502100","三芝區"
"237011","KEA-2596","2018/08/11 17:09:28","新北市三峽區中山路459巷163-3號","121.348606666667","24.932995","6500900","三峽區"
"242058","986-R7","2018/08/11 17:09:35","新北市新莊區新泰路255巷83號","121.442441666667","25.0392666666667","6500500","新莊區"
"242025","705-TV","2018/08/11 17:09:19","新北市新莊區新泰路255巷83號","121.442371666667","25.039035","6500500","新莊區"
"242027","615-BX","2018/08/11 17:09:28","新北市新莊區新泰路255巷83號","121.442263333333","25.038795","6500500","新莊區"
"242042","566-BX","2018/08/11 17:09:20","新北市新莊區新泰路357巷3弄57號","121.442118333333","25.0392216666667","6500500","新莊區"
"242046","497-BY","2018/08/11 17:09:22","新北市新莊區三和路12-21號","121.442175","25.03788","6500500","新莊區"
"242036","442-UM","2018/08/11 17:09:28","新北市新莊區三和路12-17號","121.442123333333","25.037495","6500500","新莊區"
"242051","441-UM","2018/08/11 17:09:28","新北市新莊區新樹路12號","121.439966666667","25.03178","6500500","新莊區"
"242056","440-UM","2018/08/11 17:09:16","新北市新莊區新泰路357巷3弄57號","121.442125","25.03924","6500500","新莊區"
"242053","415-TV","2018/08/11 17:09:15","新北市泰山區磚雅厝3號","121.44209","25.0416116666667","6500500","新莊區"
"242007","413-TV","2018/08/11 17:09:25","新北市新莊區新泰路357巷3弄57號","121.441933333333","25.0395183333333","6500500","新莊區"
"242044","400-BY","2018/08/11 17:09:34","新北市新莊區新泰路357巷3弄45號","121.442035","25.0402016666667","6500500","新莊區"
"242023","362-BY","2018/08/11 17:09:27","新北市新莊區新泰路255巷83號","121.44233","25.0386383333333","6500500","新莊區"
"242061","353-BY","2018/08/11 17:09:33","新北市新莊區新樹路13號","121.4407","25.0329733333333","6500500","新莊區"
"242039","133-UY","2018/08/11 17:09:28","新北市新莊區三和路12-9號","121.442268333333","25.0366716666667","6500500","新莊區"
"242031","135-UY","2018/08/11 17:09:35","新北市新莊區三和路12-21號","121.442026666667","25.03879","6500500","新莊區"
"242048","172-VK","2018/08/11 17:09:18","新北市新莊區中正路513-1號","121.440095","25.03357","6500500","新莊區"
"242017","175-VK","2018/08/11 17:09:24","新北市新莊區三和路12-21號","121.441991666667","25.038755","6500500","新莊區"
"242004","176-VK","2018/08/11 17:09:24","新北市新莊區新泰路255巷83號","121.442068333333","25.0388316666667","6500500","新莊區"
"242015","347-TH","2018/08/11 17:09:29","新北市新莊區三和路12-16號","121.441971666667","25.0374466666667","6500500","新莊區"
"242021","348-TH","2018/08/11 17:09:27","新北市新莊區三和路12-21號","121.442163333333","25.038175","6500500","新莊區"
"242002","349-TH","2018/08/11 17:09:18","新北市新莊區三和路12-16號","121.442188333333","25.037415","6500500","新莊區"
"238023","601-UM","2018/08/11 17:09:19","新北市樹林區保安街一段225號","121.420376666667","24.99642","6500700","樹林區"
"238019","599-UM","2018/08/11 17:09:22","新北市樹林區太平路273巷23號","121.421185","24.9763283333333","6500700","樹林區"
"238018","571-TV","2018/08/11 17:09:33","新北市樹林區水源街213號","121.423936666667","24.987085","6500700","樹林區"
"238024","5061-A6","2018/08/11 17:09:16","新北市樹林區博愛街194號","121.42493","24.989625","6500700","樹林區"
"238022","KEA-2213","2018/08/11 17:09:29","新北市樹林區忠孝街31號","121.423723333333","24.9821716666667","6500700","樹林區"
"238025","303-VK","2018/08/11 17:09:23","新北市樹林區中山路一段404號","121.418193333333","24.9853883333333","6500700","樹林區"
"238017","283-BY","2018/08/11 17:09:27","新北市樹林區保安街一段292號","121.419195","24.997235","6500700","樹林區"
"238014","282-BY","2018/08/11 17:09:21","新北市樹林區大安路630號","121.411066666667","24.9825083333333","6500700","樹林區"
"238020","268-VK","2018/08/11 17:09:34","新北市樹林區千歲街101號","121.428526666667","25.0008816666667","6500700","樹林區"
"238026","172-UY","2018/08/11 17:09:19","新北市樹林區東大街146號","121.409846666667","24.9762066666667","6500700","樹林區"
"238016","169-UY","2018/08/11 17:09:22","新北市樹林區大安路622號","121.411343333333","24.9827833333333","6500700","樹林區"
"239007","AAC-297","2018/08/11 17:09:26","新北市鶯歌區信義街46號","121.353296666667","24.9553566666667","6500800","鶯歌區"
"239006","891-R6","2018/08/11 17:09:26","新北市鶯歌區八德路2巷17號","121.336973333333","24.9473033333333","6500800","鶯歌區"
"239008","527-UM","2018/08/11 17:09:33","新北市鶯歌區尖山路57-3號","121.350206666667","24.9497733333333","6500800","鶯歌區"
"239005","526-UM","2018/08/11 17:09:28","新北市鶯歌區鶯桃路311號","121.333878333333","24.9607733333333","6500800","鶯歌區"
"239001","417-VK","2018/08/11 17:09:17","新北市鶯歌區尖山路140巷12弄4號","121.346298333333","24.9495366666667","6500800","鶯歌區"
"239003","360-BY","2018/08/11 17:09:23","新北市鶯歌區八德路16號","121.330575","24.9554816666667","6500800","鶯歌區"
"239002","359-BY","2018/08/11 17:09:30","新北市鶯歌區建國路236號","121.348158333333","24.9534833333333","6500800","鶯歌區"
"239004","193-VK","2018/08/11 17:09:22","新北市鶯歌區文化路324巷1號","121.352013333333","24.94537","6500800","鶯歌區"
"242013","281-VK","2018/08/11 17:09:22","新北市新莊區三和路12-19號","121.441991666667","25.03769","6500500","新莊區"
