"lineid","car","time","location","longitude","latitude","cityid","cityname"
"234026","9371-KE","2018/08/11 17:59:25","新北市永和區永和路一段45-1號","121.512795","25.0062883333333","6500400","永和區"
"249005","172-UM","2018/08/11 17:59:34","新北市八里區荖阡坑路16-8號","121.399296666667","25.138935","6502300","八里區"
"249001","173-UM","2018/08/11 17:59:31","新北市八里區龍米路二段37號","121.448386666667","25.14006","6502300","八里區"
"249004","303-UY","2018/08/11 17:59:22","新北市八里區中山路一段2號","121.423426666667","25.1589566666667","6502300","八里區"
"249002","305-UY","2018/08/11 17:59:34","新北市八里區龍米路一段430號","121.451015","25.13383","6502300","八里區"
"249003","593-UM","2018/08/11 17:59:33","新北市八里區中華路二段201號","121.405641666667","25.149695","6502300","八里區"
"248008","095-VK","2018/08/11 17:59:32","新北市五股區中興路二段83巷26-6號","121.460061666667","25.0751383333333","6501500","五股區"
"248020","225-UY","2018/08/11 17:59:23","新北市五股區中興路二段83巷26-6號","121.459905","25.0751766666667","6501500","五股區"
"248004","677-BX","2018/08/11 17:59:16","新北市五股區中興路二段163號","121.457658333333","25.0775516666667","6501500","五股區"
"248002","678-BX","2018/08/11 17:59:22","新北市五股區中興路二段83巷26-6號","121.459966666667","25.07493","6501500","五股區"
"232011","375-UM","2018/08/11 17:59:23","新北市坪林區水柳腳39號","121.70969","24.93516","6502000","坪林區"
"244017","069-UM","2018/08/11 17:59:32","新北市林口區文化二路一段335-9號","121.369938333333","25.0741533333333","6501700","林口區"
"244007","080-UY","2018/08/11 17:59:27","新北市林口區竹林路77號","121.388335","25.0792966666667","6501700","林口區"
"244019","403-UM","2018/08/11 17:59:27","新北市林口區文化一路一段124號","121.37487","25.072225","6501700","林口區"
"244013","KEA-2802","2018/08/11 17:59:25","新北市林口區中山路51號","121.39438","25.0784933333333","6501700","林口區"
"244009","410-SL","2018/08/11 17:59:28","新北市林口區佳林路56巷33號","121.385213333333","25.0809533333333","6501700","林口區"
"244023","483-VK","2018/08/11 17:59:36","新北市林口區東湖路93巷102號","121.385491666667","25.0704366666667","6501700","林口區"
"244011","657-BX","2018/08/11 17:59:25","新北市林口區中正路180號","121.391908333333","25.0774666666667","6501700","林口區"
"244025","837-TS","2018/08/11 17:59:22","新北市林口區惠民街56號","121.357353333333","25.0678516666667","6501700","林口區"
"244021","838-TS","2018/08/11 17:59:00","新北市林口區新寮38號","121.400955","25.0658633333333","6501700","林口區"
"243013","AAD-798","2018/08/11 17:59:22","新北市泰山區黎明路26號","121.421025","25.0605016666667","6501600","泰山區"
"222003","436-BY","2018/08/11 17:59:21","新北市深坑區炮子崙24號","121.605188333333","24.9877266666667","6501800","深坑區"
"222002","659-BX","2018/08/11 17:59:22","新北市深坑區文化街110號","121.61618","25.0018833333333","6501800","深坑區"
"231046","107-UY","2018/08/11 17:59:25","新北市新店區下石厝路31號","121.532771666667","24.9331916666667","6500600","新店區"
"231054","KEA-2219","2018/08/11 17:59:19","新北市新店區安一路一段1-1號","121.519793333333","24.9611616666667","6500600","新店區"
"231058","3713-VJ","2018/08/11 17:59:32","新北市新店區安華路3號","121.519023333333","24.9604866666667","6500600","新店區"
"231055","AKT-0513","2018/08/11 17:59:27","新北市新店區安華路28-1號","121.519463333333","24.9606333333333","6500600","新店區"
"241024","065-VK","2018/08/11 17:59:30","新北市三重區中正北路193巷35弄65號","121.478578333333","25.071345","6500200","三重區"
"241016","266-UM","2018/08/11 17:59:21","新北市五股區凌雲路三段24巷9號","121.43625","25.10694","6500200","三重區"
"241006","AAD-863","2018/08/11 17:59:18","新北市五股區成泰路三段452號","121.45211","25.099605","6500200","三重區"
"241033","AAC-255","2018/08/11 17:59:19","新北市三重區光復路一段55號","121.472113333333","25.04902","6500200","三重區"
"235064","005-UY","2018/08/11 17:59:19","新北市中和區員山路36巷16-3號","121.485086666667","24.9914183333333","6500300","中和區"
"235063","006-UY","2018/08/11 17:59:23","新北市中和區員山路36巷16-3號","121.485125","24.9913016666667","6500300","中和區"
"235065","098-UM","2018/08/11 17:59:25","新北市中和區橋和路328號","121.49812","25.0074866666667","6500300","中和區"
"235058","151-BY","2018/08/11 17:59:27","新北市中和區圓通路367巷18-5號","121.491905","24.988535","6500300","中和區"
"235038","185-VK","2018/08/11 17:59:34","新北市中和區中正路169號","121.498001666667","24.9937166666667","6500300","中和區"
"235054","640-BX","2018/08/11 17:59:30","新北市中和區員山路77巷11弄8號","121.480085","24.9936383333333","6500300","中和區"
"235057","801-TS","2018/08/11 17:59:29","新北市中和區員山路36巷16-2號","121.48532","24.991405","6500300","中和區"
"235051","157-BY","2018/08/11 17:59:19","新北市中和區員山路36巷12號","121.484011666667","24.9908533333333","6500300","中和區"
"235037","AAC-213","2018/08/11 17:59:31","新北市中和區錦和路350-1號","121.490386666667","24.993535","6500300","中和區"
"247024","893-R6","2018/08/11 17:59:36","新北市蘆洲區長榮路52號","121.462815","25.0831616666667","6501400","蘆洲區"
"247014","546-UM","2018/08/11 17:59:27","新北市蘆洲區忠孝路108號","121.471371666667","25.0863683333333","6501400","蘆洲區"
"247012","339-TH","2018/08/11 17:59:38","新北市蘆洲區民族路196號","121.479961666667","25.08724","6501400","蘆洲區"
"247006","336-TH","2018/08/11 17:59:21","新北市蘆洲區中華街24號","121.462838333333","25.08136","6501400","蘆洲區"
"247018","057-VK","2018/08/11 17:59:31","新北市蘆洲區復興路228號","121.479176666667","25.0893516666667","6501400","蘆洲區"
"247016","007-UY","2018/08/11 17:59:31","新北市蘆洲區中正路185巷62號","121.46661","25.0849683333333","6501400","蘆洲區"
"247002","002-UY","2018/08/11 17:59:36","新北市蘆洲區永平街32巷57弄13-1號","121.459315","25.0929316666667","6501400","蘆洲區"
"247020","001-UY","2018/08/11 17:59:29","新北市蘆洲區民權路121巷16弄1號","121.471261666667","25.0892033333333","6501400","蘆洲區"
"226004","312-R5","2018/08/11 17:59:29","新北市平溪區菁桐里菁桐街1號","121.72754","25.0235","6502400","平溪區"
"228003","097-TW","2018/08/11 17:59:37","新北市貢寮區真理里美艷山街6-2號","121.928866666667","25.06075","6502600","貢寮區"
"228001","212-TW","2018/08/11 17:59:34","新北市貢寮區仁理村仁愛路106巷36號","121.929456666667","25.054375","6502600","貢寮區"
"228002","663-BX","2018/08/11 17:59:24","新北市貢寮區福隆里桂安街17號","121.967268333333","25.0231516666667","6502600","貢寮區"
"224010","AGQ-8101","2018/08/11 17:59:29","新北市瑞芳區汽車路89號","121.843643333333","25.1098266666667","6501200","瑞芳區"
"224006","676-BX","2018/08/11 17:59:24","新北市瑞芳區大寮路356-1號","121.784841666667","25.1032433333333","6501200","瑞芳區"
"224002","639-TC","2018/08/11 17:59:35","新北市瑞芳區三爪子坑路32巷3號","121.810306666667","25.1059683333333","6501200","瑞芳區"
"224008","285-BY","2018/08/11 17:59:26","新北市瑞芳區明燈路一段45巷105號","121.82214","25.1040016666667","6501200","瑞芳區"
"224007","275-VK","2018/08/11 17:59:18","新北市瑞芳區大寮路14號","121.784465","25.0995583333333","6501200","瑞芳區"
"224009","273-VK","2018/08/11 17:59:24","新北市瑞芳區金光路308號","121.851326666667","25.107705","6501200","瑞芳區"
"224005","271-BY","2018/08/11 17:59:20","新北市瑞芳區建基路一段50巷51號","121.81793","25.1280966666667","6501200","瑞芳區"
"227002","642-TC","2018/08/11 17:59:37","新北市雙溪區共和里東榮街29號","121.866175","25.03358","6502500","雙溪區"
"253005","032-BX","2018/08/11 17:59:36","新北市石門區中山路62-11號","121.567531666667","25.2896516666667","6502200","石門區"
"253006","295-VK","2018/08/11 17:59:22","新北市石門區大丘田45-2號","121.549823333333","25.2748216666667","6502200","石門區"
"222001","KEA-2212","2018/08/11 17:59:30","新北市深坑區北深路三段34號","121.609095","25.0010733333333","6501800","深坑區"
"208003","665-BX","2018/08/11 17:59:31","新北市金山區磺港里磺港路306號","121.643905","25.227195","6502700","金山區"
"208001","761-BX","2018/08/11 17:59:32","新北市金山區磺港里磺港路248號","121.643845","25.2250283333333","6502700","金山區"
"251009","008-UM","2018/08/11 17:59:19","新北市淡水區大智街27號","121.442361666667","25.1746066666667","6501000","淡水區"
"251005","010-UM","2018/08/11 17:59:33","新北市淡水區英專路135號","121.4465","25.172695","6501000","淡水區"
"251001","011-UM","2018/08/11 17:59:27","新北市淡水區民權路94巷1號","121.46306","25.1247833333333","6501000","淡水區"
"251002","012-UM","2018/08/11 17:59:37","新北市淡水區中正東路8號","121.44805","25.16653","6501000","淡水區"
"251013","KEA-2871","2018/08/11 17:59:27","新北市淡水區泉洲厝30號","121.479675","25.1909933333333","6501000","淡水區"
"251016","179-VK","2018/08/11 17:59:34","新北市淡水區埤島30號","121.448436666667","25.197805","6501000","淡水區"
"251014","180-VK","2018/08/11 17:59:23","新北市淡水區公埔子16-6號","121.480483333333","25.22417","6501000","淡水區"
"251015","181-VK","2018/08/11 17:59:15","新北市淡水區興福寮32-2號","121.490681666667","25.163315","6501000","淡水區"
"251010","413-VK","2018/08/11 17:59:35","新北市淡水區中正路一段87巷1號","121.42182","25.1791883333333","6501000","淡水區"
"251012","441-VK","2018/08/11 17:59:19","新北市淡水區北新路三段38巷7號","121.484513333333","25.18703","6501000","淡水區"
"251008","442-VK","2018/08/11 17:59:29","新北市淡水區八勢一街32巷8號","121.461295","25.1561533333333","6501000","淡水區"
"251004","443-VK","2018/08/11 17:59:25","新北市淡水區民權路99-5號","121.45988","25.1378866666667","6501000","淡水區"
"251006","561-UM","2018/08/11 17:59:18","新北市淡水區新生街15號","121.43889","25.173175","6501000","淡水區"
"251007","577-R6","2018/08/11 17:59:30","新北市淡水區中正東路二段143巷2弄1號","121.460775","25.147385","6501000","淡水區"
"251011","650-BX","2018/08/11 17:59:28","新北市淡水區三空泉9-2號","121.474145","25.1634733333333","6501000","淡水區"
"251003","673-BX","2018/08/11 17:59:35","新北市淡水區大忠街47號","121.444686666667","25.1764866666667","6501000","淡水區"
"207003","550-UM","2018/08/11 17:59:17","新北市萬里區港東路野柳風景區攤販66號","121.691311666667","25.205855","6502800","萬里區"
"207004","225-TW","2018/08/11 17:59:19","新北市萬里區中幅里中福路48號","121.683368333333","25.1741083333333","6502800","萬里區"
"252002","178-VK","2018/08/11 17:59:18","新北市三芝區中山路二段47巷11號","121.502673333333","25.255075","6502100","三芝區"
"252001","292-VK","2018/08/11 17:59:28","新北市三芝區中興街二段2號","121.4984","25.2565933333333","6502100","三芝區"
"237007","153-BY","2018/08/11 17:59:33","新北市三峽區中正路二段154號","121.36614","24.9163316666667","6500900","三峽區"
"237009","210-TH","2018/08/11 17:59:29","新北市三峽區中山路106巷16-3號","121.366086666667","24.93654","6500900","三峽區"
"237013","252-BX","2018/08/11 17:59:22","新北市三峽區長泰街102號","121.376005","24.9332183333333","6500900","三峽區"
"237012","275-BY","2018/08/11 17:59:23","新北市三峽區民生街17號","121.376213333333","24.9366516666667","6500900","三峽區"
"237008","302-VK","2018/08/11 17:59:26","新北市三峽區白雞38-19號","121.373555","24.9115716666667","6500900","三峽區"
"237014","433-BY","2018/08/11 17:59:25","新北市三峽區和平街77號","121.370111666667","24.937275","6500900","三峽區"
"237006","5529-G3","2018/08/11 17:59:31","新北市三峽區介壽路二段136巷108-1號","121.39217","24.9330666666667","6500900","三峽區"
"237011","KEA-2596","2018/08/11 17:59:28","新北市三峽區光明路48號","121.374716666667","24.9296483333333","6500900","三峽區"
"237016","649-BX","2018/08/11 17:59:27","新北市三峽區紫微路105號","121.409985","24.91247","6500900","三峽區"
"237010","706-TV","2018/08/11 17:59:35","新北市三峽區民權街162號","121.368011666667","24.93057","6500900","三峽區"
"237005","AKY-6261","2018/08/11 17:59:17","新北市三峽區和平街89巷10號","121.36986","24.9375566666667","6500900","三峽區"
"236070","105-UM","2018/08/11 17:59:36","新北市土城區青雲路472號","121.462406666667","24.9666683333333","6501300","土城區"
"236042","107-UM","2018/08/11 17:59:30","新北市土城區城林路6巷80號","121.438513333333","24.9797483333333","6501300","土城區"
"236079","166-UM","2018/08/11 17:59:27","新北市土城區永寧路32巷10弄25號","121.428845","24.9611116666667","6501300","土城區"
"236030","253-BX","2018/08/11 17:59:34","新北市土城區城林路6巷80號","121.438656666667","24.979645","6501300","土城區"
"236026","269-VK","2018/08/11 17:59:29","新北市土城區城林路6巷80號","121.43848","24.9796316666667","6501300","土城區"
"236014","270-VK","2018/08/11 17:59:23","新北市土城區城林路6巷80號","121.438503333333","24.9795933333333","6501300","土城區"
"236038","271-VK","2018/08/11 17:59:35","新北市土城區城林路6巷80號","121.438411666667","24.9797783333333","6501300","土城區"
"236021","401-BY","2018/08/11 17:59:34","新北市土城區城林路6巷80號","121.438493333333","24.9797416666667","6501300","土城區"
"236059","912-UM","2018/08/11 17:59:27","新北市土城區中央路三段244巷5號","121.427838333333","24.96433","6501300","土城區"
"236049","913-UM","2018/08/11 17:59:36","新北市土城區城林路6巷80號","121.438418333333","24.9796416666667","6501300","土城區"
"236063","915-UM","2018/08/11 17:59:25","新北市土城區城林路6巷80號","121.438566666667","24.9796","6501300","土城區"
"236055","AAC-216","2018/08/11 17:59:17","新北市土城區福仁街50巷1號","121.439658333333","24.97511","6501300","土城區"
"242034","AAC-296","2018/08/11 17:59:32","新北市新莊區中正路421巷7號","121.444698333333","25.0339016666667","6500500","新莊區"
"242058","986-R7","2018/08/11 17:59:35","新北市新莊區新北大道七段239號","121.412981666667","25.0297083333333","6500500","新莊區"
"242025","705-TV","2018/08/11 17:59:36","新北市新莊區五權一路3-9號","121.457623333333","25.0657416666667","6500500","新莊區"
"242027","615-BX","2018/08/11 17:59:28","新北市新莊區思源路448號","121.459941666667","25.0534633333333","6500500","新莊區"
"242042","566-BX","2018/08/11 17:59:19","新北市新莊區丹鳳街36號","121.421625","25.0295483333333","6500500","新莊區"
"242046","497-BY","2018/08/11 17:59:22","新北市新莊區福營路231號","121.429955","25.0300166666667","6500500","新莊區"
"242036","442-UM","2018/08/11 17:59:28","新北市新莊區建福路40號","121.426436666667","25.0280383333333","6500500","新莊區"
"242051","441-UM","2018/08/11 17:59:28","新北市新莊區西盛街153巷6號","121.428668333333","25.01802","6500500","新莊區"
"242056","440-UM","2018/08/11 17:59:36","新北市新莊區豐年街124巷18號","121.44547","25.02988","6500500","新莊區"
"242053","415-TV","2018/08/11 17:59:35","新北市新莊區民安西路411號","121.430593333333","25.0088","6500500","新莊區"
"242007","413-TV","2018/08/11 17:59:25","新北市新莊區自信街36號","121.454496666667","25.0482666666667","6500500","新莊區"
"242044","400-BY","2018/08/11 17:59:36","新北市新莊區雙鳳路103號","121.41424","25.02785","6500500","新莊區"
"242023","362-BY","2018/08/11 17:59:27","新北市新莊區幸福路540號","121.455411666667","25.049325","6500500","新莊區"
"242061","353-BY","2018/08/11 17:59:33","新北市新莊區新樹路359-1號","121.432946666667","25.0182333333333","6500500","新莊區"
"242009","132-UY","2018/08/11 17:59:39","新北市新莊區中華路二段258巷25號","121.453153333333","25.05423","6500500","新莊區"
"242039","133-UY","2018/08/11 17:59:34","新北市新莊區民安西路24巷19號","121.426098333333","25.0207266666667","6500500","新莊區"
"242031","135-UY","2018/08/11 17:59:35","新北市新莊區新泰路321巷3弄8號","121.444463333333","25.0411283333333","6500500","新莊區"
"242048","172-VK","2018/08/11 17:59:33","新北市新莊區萬安街73號","121.421368333333","25.02386","6500500","新莊區"
"242011","173-VK","2018/08/11 17:59:24","新北市新莊區中港路632號","121.451058333333","25.0552966666667","6500500","新莊區"
"242017","175-VK","2018/08/11 17:59:40","新北市新莊區永樂街76號","121.45079","25.0450883333333","6500500","新莊區"
"242004","176-VK","2018/08/11 17:59:24","新北市新莊區福樂街71巷13號","121.456765","25.0474166666667","6500500","新莊區"
"242015","347-TH","2018/08/11 17:59:31","新北市新莊區中平路87巷4號","121.444528333333","25.0458633333333","6500500","新莊區"
"242021","348-TH","2018/08/11 17:59:30","新北市新莊區中正路160號","121.45151","25.03606","6500500","新莊區"
"242002","349-TH","2018/08/11 17:59:39","新北市新莊區大觀街42巷5號","121.454253333333","25.0358066666667","6500500","新莊區"
"242019","350-TH","2018/08/11 17:59:17","新北市新莊區明中街30號","121.457226666667","25.039395","6500500","新莊區"
"238015","755-BX","2018/08/11 17:59:17","新北市樹林區啟智街80巷24號","121.418505","24.9925483333333","6500700","樹林區"
"238023","601-UM","2018/08/11 17:59:33","新北市樹林區福興街31號","121.404346666667","25.0156083333333","6500700","樹林區"
"238019","599-UM","2018/08/11 17:59:22","新北市樹林區水源街32巷53號","121.425445","24.9802216666667","6500700","樹林區"
"238018","571-TV","2018/08/11 17:59:33","新北市樹林區樹新路227號","121.431153333333","25.000585","6500700","樹林區"
"238024","5061-A6","2018/08/11 17:59:36","新北市樹林區東佳路20-1號","121.406948333333","24.9808533333333","6500700","樹林區"
"238022","KEA-2213","2018/08/11 17:59:29","新北市樹林區太元街55號","121.418825","24.9790466666667","6500700","樹林區"
"238021","KEA-2539","2018/08/11 17:59:17","新北市樹林區柑園街一段132巷12號","121.399315","24.9584666666667","6500700","樹林區"
"238025","303-VK","2018/08/11 17:59:23","新北市樹林區三俊街45號","121.412651666667","25.0156483333333","6500700","樹林區"
"238017","283-BY","2018/08/11 17:59:27","新北市樹林區中正路845號","121.409051666667","25.0176883333333","6500700","樹林區"
"238014","282-BY","2018/08/11 17:59:21","新北市樹林區中正路45巷10號","121.426545","24.9992116666667","6500700","樹林區"
"238020","268-VK","2018/08/11 17:59:34","新北市樹林區三俊街65巷40弄20號","121.41435","25.0176216666667","6500700","樹林區"
"238026","172-UY","2018/08/11 17:59:19","新北市樹林區育德街38-8號","121.39006","24.9694833333333","6500700","樹林區"
"238016","169-UY","2018/08/11 17:59:30","新北市樹林區育英街135巷5弄8號","121.419478333333","24.988515","6500700","樹林區"
"239007","AAC-297","2018/08/11 17:59:26","新北市鶯歌區尖山埔路189號","121.345563333333","24.9506466666667","6500800","鶯歌區"
"239006","891-R6","2018/08/11 17:59:26","新北市鶯歌區鶯桃路381巷2弄17號","121.332901666667","24.9639033333333","6500800","鶯歌區"
"239008","527-UM","2018/08/11 17:59:32","新北市鶯歌區國際一路6號","121.335851666667","24.97687","6500800","鶯歌區"
"239005","526-UM","2018/08/11 17:59:28","新北市鶯歌區鶯桃路668巷74-1號","121.330336666667","24.972075","6500800","鶯歌區"
"239001","417-VK","2018/08/11 17:59:17","新北市鶯歌區中正二路192號","121.339443333333","24.9431683333333","6500800","鶯歌區"
"239003","360-BY","2018/08/11 17:59:23","新北市鶯歌區鶯桃路336號","121.333911666667","24.9622933333333","6500800","鶯歌區"
"239002","359-BY","2018/08/11 17:59:30","新北市鶯歌區育才街49號","121.348291666667","24.955015","6500800","鶯歌區"
"239004","193-VK","2018/08/11 17:59:22","新北市鶯歌區尖山路101巷7弄2號","121.348181666667","24.94873","6500800","鶯歌區"
"221036","130-UY","2018/08/11 17:59:34","新北市汐止區大同路三段62巷1號","121.667616666667","25.077035","6501100","汐止區"
"221015","131-UY","2018/08/11 17:59:31","新北市汐止區長江街309-1號","121.666236666667","25.0815466666667","6501100","汐止區"
"221010","269-BY","2018/08/11 17:59:24","新北市汐止區汐萬路二段245巷7號","121.64571","25.0876483333333","6501100","汐止區"
"221012","278-VK","2018/08/11 17:59:30","新北市汐止區長興街二段50巷1號","121.674115","25.081715","6501100","汐止區"
"221023","279-VK","2018/08/11 17:59:32","新北市汐止區民族五街57號","121.628571666667","25.0706816666667","6501100","汐止區"
"221032","280-BY","2018/08/11 17:59:31","新北市汐止區橫科路73巷10號","121.61953","25.0510083333333","6501100","汐止區"
"221027","281-BY","2018/08/11 17:59:35","新北市汐止區大同路二段389號","121.657778333333","25.0672516666667","6501100","汐止區"
"221008","297-VK","2018/08/11 17:59:35","新北市汐止區明峰街37號","121.633776666667","25.071315","6501100","汐止區"
"221029","298-VK","2018/08/11 17:59:34","新北市汐止區樟樹二路251巷35號","121.64046","25.0673833333333","6501100","汐止區"
"221021","299-VK","2018/08/11 17:59:22","新北市汐止區水源路一段56號","121.657258333333","25.0655083333333","6501100","汐止區"
"221031","353-TW","2018/08/11 17:59:19","新北市汐止區中興路163號","121.631016666667","25.066225","6501100","汐止區"
"221002","129-UY","2018/08/11 17:59:35","新北市汐止區中興路31號","121.634828333333","25.0618366666667","6501100","汐止區"
"221035","622-UM","2018/08/11 17:59:19","新北市汐止區新江北路30巷22弄5號","121.651605","25.0698716666667","6501100","汐止區"
"221025","623-UM","2018/08/11 17:59:35","新北市汐止區仁愛路39號","121.659526666667","25.0634216666667","6501100","汐止區"
"221038","646-BX","2018/08/11 17:59:25","新北市汐止區連興街128巷7弄9號","121.653641666667","25.0612666666667","6501100","汐止區"
"221033","647-BX","2018/08/11 17:59:37","新北市汐止區合順街39巷2號","121.620738333333","25.0432233333333","6501100","汐止區"
"221018","753-BX","2018/08/11 17:59:39","新北市汐止區招商街1號","121.666393333333","25.069095","6501100","汐止區"
"242013","281-VK","2018/08/11 17:59:22","新北市新莊區中和街113號","121.446915","25.0484233333333","6500500","新莊區"
"235061","KEA-2875","2018/08/11 17:59:07","新北市中和區員山路36巷16-2號","121.485183333333","24.9918816666667","6500300","中和區"
