"lineid","car","time","location","longitude","latitude","cityid","cityname"
"234046","148-BY","2018/08/11 18:39:32","新北市永和區秀朗路二段66巷9號","121.52263","25.001375","6500400","永和區"
"234007","207-UY","2018/08/11 18:39:30","新北市永和區環河西路二段185號","121.502383333333","25.0112933333333","6500400","永和區"
"234081","298-R6","2018/08/11 18:39:32","新北市永和區林森路77號","121.523963333333","25.0039733333333","6500400","永和區"
"234086","338-UY","2018/08/11 18:39:36","新北市永和區中正路26號","121.512738333333","24.9941116666667","6500400","永和區"
"234038","553-UM","2018/08/11 18:39:33","新北市永和區福和路1號","121.526523333333","25.0099816666667","6500400","永和區"
"234017","745-BX","2018/08/11 18:39:31","新北市永和區福和路1號","121.526328333333","25.00961","6500400","永和區"
"234030","746-BX","2018/08/11 18:39:30","新北市永和區成功路一段89號","121.526878333333","25.00287","6500400","永和區"
"234013","KEA-2591","2018/08/11 18:39:23","新北市永和區保福路二段88巷28號","121.511985","25.013625","6500400","永和區"
"234061","AAD-866","2018/08/11 18:39:29","新北市永和區福和路1號","121.52623","25.009445","6500400","永和區"
"234050","863-TW","2018/08/11 18:39:28","新北市永和區福和路1號","121.526508333333","25.009995","6500400","永和區"
"234026","9371-KE","2018/08/11 18:39:25","新北市永和區永貞路379號","121.508191666667","25.008535","6500400","永和區"
"234011","9373-KE","2018/08/11 18:39:25","新北市永和區文化路9巷22弄26號","121.514681666667","25.0145983333333","6500400","永和區"
"249005","172-UM","2018/08/11 18:39:34","新北市八里區中華路三段210號","121.388185","25.1255216666667","6502300","八里區"
"249001","173-UM","2018/08/11 18:39:31","新北市八里區龍米路一段386巷1號","121.451623333333","25.13202","6502300","八里區"
"249004","303-UY","2018/08/11 18:39:21","新北市八里區中山路一段58號","121.421855","25.1591133333333","6502300","八里區"
"248016","026-BX","2018/08/11 18:39:21","新北市五股區凌雲路一段149巷42號","121.44854","25.100955","6501500","五股區"
"248008","095-VK","2018/08/11 18:39:31","新北市五股區中興路一段151巷34號","121.465195","25.0726716666667","6501500","五股區"
"248020","225-UY","2018/08/11 18:38:43","新北市五股區孝義路87號","121.444781666667","25.1199283333333","6501500","五股區"
"248012","247-BX","2018/08/11 18:39:22","新北市五股區成泰路三段2巷1-20號","121.441226666667","25.086635","6501500","五股區"
"248014","261-SL","2018/08/11 18:39:38","新北市五股區蓬萊路24號","121.434151666667","25.07982","6501500","五股區"
"248010","272-BY","2018/08/11 18:39:32","新北市五股區水碓一路92號","121.431801666667","25.0736266666667","6501500","五股區"
"248004","677-BX","2018/08/11 18:39:35","新北市五股區民義路一段216-2號","121.429998333333","25.089495","6501500","五股區"
"248002","678-BX","2018/08/11 18:39:22","新北市五股區西雲路220號","121.448171666667","25.0960983333333","6501500","五股區"
"234023","9380-KE","2018/08/11 18:39:26","新北市永和區福和路76巷5弄14號","121.522321666667","25.00835","6500400","永和區"
"234077","969-R7","2018/08/11 18:39:25","新北市永和區中正路372號","121.517651666667","25.00099","6500400","永和區"
"234067","AAC-212","2018/08/11 18:39:36","新北市永和區福和路8巷1號","121.524836666667","25.0087733333333","6500400","永和區"
"234003","AAC-295","2018/08/11 18:39:37","新北市永和區福和路1號","121.525873333333","25.0092316666667","6500400","永和區"
"244017","069-UM","2018/08/11 18:39:32","新北市林口區文化二路一段86號","121.366341666667","25.0696533333333","6501700","林口區"
"244007","080-UY","2018/08/11 18:39:27","新北市林口區後湖2-5號","121.389321666667","25.0973966666667","6501700","林口區"
"244019","403-UM","2018/08/11 18:39:27","新北市林口區麗園二街23巷88號","121.380578333333","25.070225","6501700","林口區"
"244013","KEA-2802","2018/08/11 18:39:26","新北市林口區中正路514巷33弄2號","121.38233","25.0782816666667","6501700","林口區"
"244009","410-SL","2018/08/11 18:39:28","新北市林口區竹林路278巷2號","121.390426666667","25.0817116666667","6501700","林口區"
"244023","483-VK","2018/08/11 18:39:36","新北市林口區文化一路二段92號","121.38168","25.0786433333333","6501700","林口區"
"244011","657-BX","2018/08/11 18:39:25","新北市林口區興林路17巷5弄2號","121.39054","25.0770116666667","6501700","林口區"
"244025","837-TS","2018/08/11 18:39:22","新北市林口區南勢六街248-1號","121.355998333333","25.0748833333333","6501700","林口區"
"244021","838-TS","2018/08/11 18:39:20","新北市林口區自強二街16號","121.39778","25.078155","6501700","林口區"
"243013","AAD-798","2018/08/11 18:22:50","新北市泰山區明志路三段206巷3號","121.423291666667","25.0379166666667","6501600","泰山區"
"243016","KEA-2801","2018/08/11 18:39:31","新北市泰山區泰林路二段596號","121.42191","25.0635383333333","6501600","泰山區"
"243015","421-VK","2018/08/11 18:39:20","新北市泰山區黎明路25號","121.42188","25.0607033333333","6501600","泰山區"
"243012","646-TV","2018/08/11 18:39:14","新北市泰山區泰林路二段73巷29號","121.434411666667","25.0578416666667","6501600","泰山區"
"222003","436-BY","2018/08/11 18:39:21","新北市深坑區翠谷街37巷1號","121.626523333333","25.0093133333333","6501800","深坑區"
"222002","659-BX","2018/08/11 18:39:22","新北市深坑區文山路一段62巷10號","121.621695","25.00098","6501800","深坑區"
"231045","001-UM","2018/08/11 18:39:21","新北市新店區安華路28-1號","121.519588333333","24.9606816666667","6500600","新店區"
"231041","002-UM","2018/08/11 18:39:32","新北市新店區安華路28-1號","121.519613333333","24.9607816666667","6500600","新店區"
"231059","046-UY","2018/08/11 18:39:25","新北市新店區安華路28-1號","121.519556666667","24.9608566666667","6500600","新店區"
"231040","047-UY","2018/08/11 18:39:32","新北市新店區安一路一段1-1號","121.518946666667","24.961055","6500600","新店區"
"231044","106-UY","2018/08/11 18:39:29","新北市新店區中正路84號","121.543601666667","24.9703333333333","6500600","新店區"
"231046","107-UY","2018/08/11 18:39:25","新北市新店區直潭二街1號","121.535521666667","24.94316","6500600","新店區"
"231052","108-UY","2018/08/11 18:39:32","新北市新店區永興路10號","121.545525","24.94021","6500600","新店區"
"231048","187-VK","2018/08/11 18:39:29","新北市新店區安一路一段1-1號","121.519641666667","24.96158","6500600","新店區"
"231054","KEA-2219","2018/08/11 18:39:19","新北市新店區安一路一段1-1號","121.519921666667","24.9611616666667","6500600","新店區"
"231057","256-BX","2018/08/11 18:39:38","新北市新店區新烏路一段215號","121.549278333333","24.93139","6500600","新店區"
"231042","268-BY","2018/08/11 18:39:20","新北市新店區安華路1-1號","121.519361666667","24.96029","6500600","新店區"
"231051","278-BY","2018/08/11 18:39:37","新北市新店區中央四街5號","121.53006","24.9738416666667","6500600","新店區"
"231050","AAD-862","2018/08/11 18:39:35","新北市新店區安一路一段1-1號","121.519868333333","24.961175","6500600","新店區"
"231043","355-BY","2018/08/11 18:39:28","新北市新店區安華路28-1號","121.519","24.9606366666667","6500600","新店區"
"231058","3713-VJ","2018/08/11 18:39:32","新北市新店區北宜路一段127巷9號","121.540981666667","24.9535966666667","6500600","新店區"
"231066","4716-K9","2018/08/11 18:39:34","新北市新店區安華路28-1號","121.519706666667","24.9610083333333","6500600","新店區"
"231056","4715-K9","2018/08/11 18:39:36","新北市新店區建國路132號","121.539085","24.978795","6500600","新店區"
"231067","4772-VM","2018/08/11 18:39:20","新北市新店區安華路1-1號","121.519068333333","24.9605133333333","6500600","新店區"
"231065","512-UM","2018/08/11 18:39:17","新北市新店區安一路一段1-1號","121.519168333333","24.9613733333333","6500600","新店區"
"231049","513-UM","2018/08/11 18:39:24","新北市新店區安一路一段1-1號","121.519703333333","24.9611133333333","6500600","新店區"
"231061","619-UM","2018/08/11 18:39:25","新北市新店區安華路28-1號","121.519373333333","24.9607583333333","6500600","新店區"
"231063","641-BX","2018/08/11 18:39:28","新北市新店區安華路1-1號","121.519526666667","24.9604433333333","6500600","新店區"
"231064","719-UM","2018/08/11 18:39:36","新北市新店區安一路一段1-1號","121.519431666667","24.9610983333333","6500600","新店區"
"231062","720-UM","2018/08/11 18:39:25","新北市新店區安一路一段1-1號","121.519075","24.9610333333333","6500600","新店區"
"231060","897-TW","2018/08/11 18:39:28","新北市新店區安華路28-1號","121.519473333333","24.96061","6500600","新店區"
"231055","AKT-0513","2018/08/11 18:39:27","新北市新店區北新路一段271巷35號","121.53948","24.966975","6500600","新店區"
"241006","AAD-863","2018/08/11 18:39:38","新北市三重區車路頭街139巷14號","121.484415","25.0761916666667","6500200","三重區"
"235066","003-UY","2018/08/11 18:39:14","新北市中和區水源路39號","121.504646666667","25.003555","6500300","中和區"
"235064","005-UY","2018/08/11 18:39:19","新北市中和區連城路139巷17號","121.496201666667","24.9983","6500300","中和區"
"235063","006-UY","2018/08/11 18:39:23","新北市中和區連城路347巷4弄24號","121.487241666667","24.9956166666667","6500300","中和區"
"235056","096-UM","2018/08/11 18:39:20","新北市中和區員山路611巷1號","121.477855","25.011315","6500300","中和區"
"235039","097-UM","2018/08/11 18:39:29","新北市中和區宜安路2號","121.513728333333","24.99559","6500300","中和區"
"235065","098-UM","2018/08/11 18:39:25","新北市中和區莊敬路49巷27號","121.501548333333","25.0061783333333","6500300","中和區"
"235040","150-BY","2018/08/11 18:39:29","新北市中和區保健路78號","121.511723333333","24.9963783333333","6500300","中和區"
"235058","151-BY","2018/08/11 18:39:27","新北市中和區員山路105號","121.48087","24.9944633333333","6500300","中和區"
"235055","183-VK","2018/08/11 18:39:22","新北市板橋區民族路276巷3弄13號","121.470078333333","25.0062833333333","6500300","中和區"
"235038","185-VK","2018/08/11 18:39:34","新北市中和區大勇街110號","121.518125","24.994925","6500300","中和區"
"235049","186-VK","2018/08/11 18:39:36","新北市中和區明義街34號","121.503865","24.9952166666667","6500300","中和區"
"235067","255-BX","2018/08/11 18:39:33","新北市中和區新生街7-1號","121.483166666667","25.0045683333333","6500300","中和區"
"235044","293-VK","2018/08/11 18:39:23","新北市中和區復興路280巷5號","121.5022","24.9909533333333","6500300","中和區"
"235072","301-VK","2018/08/11 18:39:34","新北市中和區中山路二段172號","121.501075","25.0029516666667","6500300","中和區"
"235043","352-BY","2018/08/11 18:39:34","新北市中和區景平路155號","121.513276666667","24.99242","6500300","中和區"
"235042","KEA-2878","2018/08/11 18:39:24","新北市中和區成功路101巷5號","121.526491666667","24.9917233333333","6500300","中和區"
"235050","4979-A6","2018/08/11 18:39:32","新北市中和區景新街496巷28弄47號","121.512571666667","24.9859","6500300","中和區"
"235069","4980-A6","2018/08/11 18:39:36","新北市中和區連城路67號","121.497661666667","25.0012433333333","6500300","中和區"
"235045","565-BX","2018/08/11 18:39:28","新北市中和區南山路236巷63弄1號","121.503818333333","24.9875916666667","6500300","中和區"
"235054","640-BX","2018/08/11 18:39:30","新北市中和區民享街54巷7號","121.47362","25.0023766666667","6500300","中和區"
"235060","647-TV","2018/08/11 18:39:24","新北市中和區中山路三段13號","121.479656666667","25.0059216666667","6500300","中和區"
"235047","732-UM","2018/08/11 18:39:28","新北市中和區南山路320巷10弄1號","121.50693","24.9865366666667","6500300","中和區"
"235046","733-UM","2018/08/11 18:39:24","新北市中和區忠孝街101巷1號","121.51186","24.9860933333333","6500300","中和區"
"235071","783-BX","2018/08/11 18:39:25","新北市中和區員山路36巷16-2號","121.48531","24.9911966666667","6500300","中和區"
"235062","800-TS","2018/08/11 18:39:32","新北市中和區景平路726-2號","121.496675","25.0034766666667","6500300","中和區"
"235057","801-TS","2018/08/11 18:39:29","新北市中和區員山路327巷8號","121.480911666667","25.001175","6500300","中和區"
"235041","802-TS","2018/08/11 18:39:26","新北市中和區中安街178巷3弄5-2號","121.510945","24.998995","6500300","中和區"
"235052","805-TS","2018/08/11 18:39:31","新北市中和區興南路三段42-3號","121.495616666667","24.97707","6500300","中和區"
"235048","896-TW","2018/08/11 18:39:29","新北市中和區南山路188號","121.505901666667","24.9906166666667","6500300","中和區"
"235053","900-TW","2018/08/11 18:39:36","新北市中和區民享街469-1號","121.469828333333","24.9922066666667","6500300","中和區"
"235051","157-BY","2018/08/11 18:39:01","新北市中和區華新街143巷41號","121.50643","24.980455","6500300","中和區"
"235037","AAC-213","2018/08/11 18:39:31","新北市中和區景德街26號","121.518456666667","24.991345","6500300","中和區"
"220055","015-TV","2018/08/11 18:39:33","新北市板橋區華東街262號","121.45263","25.0013066666667","6500100","板橋區"
"220086","073-UY","2018/08/11 18:39:34","新北市板橋區南雅西路二段194號","121.451788333333","25.014505","6500100","板橋區"
"247016","007-UY","2018/08/11 18:39:31","新北市林口區太平里180號","121.368293333333","25.13439","6501400","蘆洲區"
"226004","312-R5","2018/08/11 18:39:31","新北市平溪區平溪里三坑路2號","121.737791666667","25.02792","6502400","平溪區"
"235059","251-BX","2018/08/11 18:39:24","新北市中和區錦和路354巷15號","121.489711666667","24.9915516666667","6500300","中和區"
"228003","097-TW","2018/08/11 18:39:37","新北市貢寮區和美里龍洞街38-1號","121.91585","25.1116233333333","6502600","貢寮區"
"228001","212-TW","2018/08/11 18:39:34","新北市貢寮區仁理村研海街12-1號","121.923791666667","25.0516733333333","6502600","貢寮區"
"228002","663-BX","2018/08/11 18:39:24","新北市貢寮區福隆里東興街31-1號","121.952341666667","25.0206333333333","6502600","貢寮區"
"224010","AGQ-8101","2018/08/11 18:39:29","新北市瑞芳區崙頂路49號","121.844493333333","25.107365","6501200","瑞芳區"
"224006","676-BX","2018/08/11 18:39:24","新北市瑞芳區明燈路三段130號","121.804548333333","25.1084166666667","6501200","瑞芳區"
"224002","639-TC","2018/08/11 18:39:34","新北市瑞芳區明燈路二段56號","121.809965","25.10745","6501200","瑞芳區"
"224008","285-BY","2018/08/11 18:39:24","新北市瑞芳區瑞芳街43號","121.806461666667","25.1094633333333","6501200","瑞芳區"
"224007","275-VK","2018/08/11 18:39:36","新北市瑞芳區大埔路235號","121.762453333333","25.101165","6501200","瑞芳區"
"224009","273-VK","2018/08/11 18:39:24","新北市瑞芳區祈堂路40號","121.858815","25.1103733333333","6501200","瑞芳區"
"224005","271-BY","2018/08/11 18:39:20","新北市瑞芳區永龍新村64號","121.8185","25.1188816666667","6501200","瑞芳區"
"227002","642-TC","2018/08/11 18:39:37","新北市雙溪區魚行里坤溪3-5號","121.876146666667","25.0208583333333","6502500","雙溪區"
"227010","400-TW","2018/08/11 18:39:19","新北市雙溪區牡丹里下坑11號","121.850993333333","25.0561733333333","6502500","雙溪區"
"253005","032-BX","2018/08/11 18:39:36","新北市石門區石門街41號","121.566388333333","25.2904416666667","6502200","石門區"
"253006","295-VK","2018/08/11 18:39:22","新北市石門區崁子腳28-5號","121.538661666667","25.2895433333333","6502200","石門區"
"222001","KEA-2212","2018/08/11 18:39:30","新北市深坑區北深路一段82號","121.636305","25.01075","6501800","深坑區"
"208002","KEA-2872","2018/08/11 18:39:39","新北市金山區環金路59號","121.638595","25.2174216666667","6502700","金山區"
"208003","665-BX","2018/08/11 18:39:31","新北市金山區中山路315號","121.635636666667","25.2237816666667","6502700","金山區"
"208001","761-BX","2018/08/11 18:39:32","新北市金山區文化三路7號","121.63522","25.22486","6502700","金山區"
"251001","011-UM","2018/08/11 18:39:27","新北市淡水區自強路415巷2號","121.465493333333","25.1342033333333","6501000","淡水區"
"251002","012-UM","2018/08/11 18:39:37","新北市淡水區中正東路一段3巷14弄1號","121.450851666667","25.164105","6501000","淡水區"
"251013","KEA-2871","2018/08/11 18:39:27","新北市淡水區椿子林4號","121.486293333333","25.2039183333333","6501000","淡水區"
"251016","179-VK","2018/08/11 18:39:34","新北市淡水區下圭柔山76-13號","121.444635","25.2054816666667","6501000","淡水區"
"251014","180-VK","2018/08/11 18:39:23","新北市淡水區崙頂12-8號","121.495563333333","25.2172133333333","6501000","淡水區"
"251015","181-VK","2018/08/11 18:39:35","新北市淡水區興福寮66巷22號","121.486473333333","25.1621916666667","6501000","淡水區"
"251010","413-VK","2018/08/11 18:39:35","新北市淡水區沙崙路126號","121.423441666667","25.1829716666667","6501000","淡水區"
"251012","441-VK","2018/08/11 18:39:19","新北市淡水區北新路180號","121.449056666667","25.1785616666667","6501000","淡水區"
"251008","442-VK","2018/08/11 18:39:27","新北市淡水區北投子69-1號","121.454006666667","25.1817933333333","6501000","淡水區"
"251004","443-VK","2018/08/11 18:39:25","新北市淡水區大同路2號","121.461571666667","25.1407983333333","6501000","淡水區"
"251006","561-UM","2018/08/11 18:39:38","新北市淡水區崁頂36-7號","121.438776666667","25.1931316666667","6501000","淡水區"
"251007","577-R6","2018/08/11 18:39:30","新北市淡水區中正東路二段143巷2弄1號","121.460753333333","25.147455","6501000","淡水區"
"251011","650-BX","2018/08/11 18:39:28","新北市淡水區平遠街4號","121.447966666667","25.167735","6501000","淡水區"
"251003","673-BX","2018/08/11 18:39:35","新北市淡水區北新路69巷26號","121.446788333333","25.180085","6501000","淡水區"
"207003","550-UM","2018/08/11 18:39:37","新北市萬里區野柳里八斗60-1號","121.672576666667","25.2012166666667","6502800","萬里區"
"207004","225-TW","2018/08/11 18:39:19","新北市萬里區萬里里獅頭路7號","121.692018333333","25.1783566666667","6502800","萬里區"
"252002","178-VK","2018/08/11 18:39:18","新北市三芝區民生街64巷6號","121.503565","25.2552433333333","6502100","三芝區"
"252003","249-BX","2018/08/11 18:39:34","新北市三芝區後厝里土地公坑54-18號","121.46541","25.249395","6502100","三芝區"
"252001","292-VK","2018/08/11 18:39:28","新北市三芝區中興街二段260號","121.50188","25.2528166666667","6502100","三芝區"
"237007","153-BY","2018/08/11 18:39:33","新北市三峽區中正路二段546號","121.360196666667","24.9061983333333","6500900","三峽區"
"237009","210-TH","2018/08/11 18:39:29","新北市三峽區弘園街37號","121.367068333333","24.9277133333333","6500900","三峽區"
"237013","252-BX","2018/08/11 18:39:22","新北市三峽區光明路69巷25號","121.376625","24.9292283333333","6500900","三峽區"
"237012","275-BY","2018/08/11 18:39:23","新北市三峽區三樹路340號","121.383963333333","24.9432966666667","6500900","三峽區"
"237008","302-VK","2018/08/11 18:39:26","新北市三峽區白雞47號","121.383103333333","24.912315","6500900","三峽區"
"237014","433-BY","2018/08/11 18:39:25","新北市三峽區復興路480巷51-1號","121.360536666667","24.9404283333333","6500900","三峽區"
"237006","5529-G3","2018/08/11 18:39:31","新北市三峽區溪東路315巷104號","121.412183333333","24.9315316666667","6500900","三峽區"
"237011","KEA-2596","2018/08/11 18:39:28","新北市三峽區溪東路215號","121.406091666667","24.9328583333333","6500900","三峽區"
"237016","649-BX","2018/08/11 18:39:27","新北市三峽區竹崙路83號","121.43227","24.9191116666667","6500900","三峽區"
"237010","706-TV","2018/08/11 18:39:35","新北市三峽區復興路485號","121.361386666667","24.938435","6500900","三峽區"
"237005","AKY-6261","2018/08/11 18:39:37","新北市三峽區復興路3號","121.37433","24.9360283333333","6500900","三峽區"
"236070","105-UM","2018/08/11 18:39:35","新北市土城區永豐路153巷1號","121.467328333333","24.9818283333333","6501300","土城區"
"236042","107-UM","2018/08/11 18:39:30","新北市土城區裕民路55巷17號","121.44932","24.9887266666667","6501300","土城區"
"236079","166-UM","2018/08/11 18:39:37","新北市土城區中央路三段93號","121.437401666667","24.96766","6501300","土城區"
"236030","253-BX","2018/08/11 18:39:34","新北市土城區福仁街62號","121.439461666667","24.9744966666667","6501300","土城區"
"236026","269-VK","2018/08/11 18:39:39","新北市土城區忠義路53-2號","121.440535","24.9685366666667","6501300","土城區"
"236014","270-VK","2018/08/11 18:39:23","新北市土城區清水路207巷15號","121.459838333333","24.9823416666667","6501300","土城區"
"236038","271-VK","2018/08/11 18:39:35","新北市土城區青雲路411巷13弄1號","121.459603333333","24.9759033333333","6501300","土城區"
"236021","401-BY","2018/08/11 18:39:34","新北市土城區永豐路12號","121.465686666667","24.9845416666667","6501300","土城區"
"236079","752-BX","2018/08/11 18:39:36","新北市土城區中央路三段281巷23弄19號","121.426343333333","24.96157","6501300","土城區"
"236059","912-UM","2018/08/11 18:39:27","新北市土城區中央路三段231-3號","121.42864","24.964205","6501300","土城區"
"236049","913-UM","2018/08/11 18:39:36","新北市土城區明德路一段69巷1號","121.465455","24.98401","6501300","土城區"
"236063","915-UM","2018/08/11 18:39:25","新北市土城區延和路177巷9號","121.469845","24.9906583333333","6501300","土城區"
"236055","AAC-216","2018/08/11 18:39:19","新北市土城區裕民路42號","121.448216666667","24.9883133333333","6501300","土城區"
"242042","566-BX","2018/08/11 18:39:19","新北市新莊區天祥街122號","121.414565","25.0297883333333","6500500","新莊區"
"242053","415-TV","2018/08/11 18:39:35","新北市新莊區樹新路120巷51號","121.43011","24.995805","6500500","新莊區"
"242031","135-UY","2018/08/11 18:39:35","新北市新莊區新泰路500號","121.441911666667","25.046115","6500500","新莊區"
"242002","349-TH","2018/08/11 18:39:18","新北市新莊區環河路636-7號","121.437431666667","25.01172","6500500","新莊區"
"238015","755-BX","2018/08/11 18:36:10","新北市樹林區備內街121號","121.405896666667","24.98938","6500700","樹林區"
"238023","601-UM","2018/08/11 18:39:39","新北市樹林區三福街114號","121.406425","25.0163166666667","6500700","樹林區"
"238019","599-UM","2018/08/11 18:39:22","新北市樹林區中山路二段121號","121.408596666667","24.9800383333333","6500700","樹林區"
"238018","571-TV","2018/08/11 18:39:33","新北市樹林區鎮前街78號","121.42547","24.99206","6500700","樹林區"
"238024","5061-A6","2018/08/11 18:39:36","新北市樹林區太順街49巷5號","121.41814","24.9789","6500700","樹林區"
"238022","KEA-2213","2018/08/11 18:39:31","新北市樹林區中華路379巷5號","121.412805","24.9793316666667","6500700","樹林區"
"238025","303-VK","2018/08/11 18:39:22","新北市樹林區中山路三段22號","121.395613333333","24.9729583333333","6500700","樹林區"
"238017","283-BY","2018/08/11 18:39:27","新北市樹林區光興街50號","121.409858333333","25.0027183333333","6500700","樹林區"
"238014","282-BY","2018/08/11 18:39:21","新北市樹林區大安路111巷4號","121.423065","24.9974966666667","6500700","樹林區"
"238020","268-VK","2018/08/11 18:39:33","新北市樹林區俊英街280號","121.423813333333","25.01309","6500700","樹林區"
"238026","172-UY","2018/08/11 18:39:19","新北市樹林區信和街2巷1號","121.389678333333","24.9709983333333","6500700","樹林區"
"238016","169-UY","2018/08/11 18:39:22","新北市樹林區文化街26號","121.419416666667","24.9876416666667","6500700","樹林區"
"239007","AAC-297","2018/08/11 18:39:26","新北市鶯歌區中正一路建德巷38號","121.364456666667","24.957825","6500800","鶯歌區"
"239006","891-R6","2018/08/11 18:39:26","新北市鶯歌區鶯桃路296巷70號","121.336593333333","24.9616516666667","6500800","鶯歌區"
"239008","527-UM","2018/08/11 18:39:35","新北市鶯歌區晨曦街5號","121.337225","24.9765583333333","6500800","鶯歌區"
"239005","526-UM","2018/08/11 18:39:28","新北市鶯歌區鳳吉三街15號","121.32668","24.9734","6500800","鶯歌區"
"239001","417-VK","2018/08/11 18:39:37","新北市鶯歌區尖山埔路128號","121.343883333333","24.9499233333333","6500800","鶯歌區"
"239003","360-BY","2018/08/11 18:39:23","新北市鶯歌區永和街57號","121.332725","24.9676133333333","6500800","鶯歌區"
"239002","359-BY","2018/08/11 18:39:30","新北市鶯歌區中正一路213號","121.353715","24.9570766666667","6500800","鶯歌區"
"239004","193-VK","2018/08/11 18:39:22","新北市鶯歌區中正三路194巷40號","121.331045","24.94114","6500800","鶯歌區"
"221036","130-UY","2018/08/11 18:39:34","新北市汐止區忠孝東路321號","121.664645","25.069605","6501100","汐止區"
"221015","131-UY","2018/08/11 18:39:31","新北市汐止區吉祥街12巷23號","121.66881","25.08065","6501100","汐止區"
"221010","269-BY","2018/08/11 18:39:24","新北市汐止區汐萬路三段217巷3號","121.643495","25.1026116666667","6501100","汐止區"
"221012","278-VK","2018/08/11 18:39:20","新北市汐止區長江街213號","121.661508333333","25.077685","6501100","汐止區"
"221023","279-VK","2018/08/11 18:39:32","新北市汐止區康寧街901號","121.651288333333","25.0750466666667","6501100","汐止區"
"221032","280-BY","2018/08/11 18:39:31","新北市汐止區民權街二段79號","121.619146666667","25.0479616666667","6501100","汐止區"
"221027","281-BY","2018/08/11 18:39:35","新北市汐止區汐萬路一段256巷3號","121.653218333333","25.0744066666667","6501100","汐止區"
"221008","297-VK","2018/08/11 18:39:35","新北市汐止區康寧街901號","121.651376666667","25.0750216666667","6501100","汐止區"
"221029","298-VK","2018/08/11 18:39:34","新北市汐止區樟樹一路142號","121.642243333333","25.0650266666667","6501100","汐止區"
"221021","299-VK","2018/08/11 18:39:22","新北市汐止區復興路72號","121.657173333333","25.0621166666667","6501100","汐止區"
"221031","353-TW","2018/08/11 18:39:19","新北市汐止區福德一路270號","121.632181666667","25.063965","6501100","汐止區"
"221002","129-UY","2018/08/11 18:39:37","新北市汐止區中興路20號","121.637053333333","25.0594616666667","6501100","汐止區"
"221035","622-UM","2018/08/11 18:39:18","新北市汐止區禮門街1號","121.656765","25.06723","6501100","汐止區"
"221025","623-UM","2018/08/11 18:39:35","新北市汐止區仁愛路121巷9號","121.662648333333","25.06428","6501100","汐止區"
"221038","646-BX","2018/08/11 18:39:24","新北市汐止區汐萬路一段312號","121.650653333333","25.0753766666667","6501100","汐止區"
"221033","647-BX","2018/08/11 18:39:18","新北市汐止區南勢街3號","121.62707","25.0373883333333","6501100","汐止區"
"221018","753-BX","2018/08/11 18:39:29","新北市汐止區茄興街13號","121.673531666667","25.0672733333333","6501100","汐止區"
"220079","145-BY","2018/08/11 18:39:30","新北市板橋區館前西路275號","121.452693333333","25.0084933333333","6500100","板橋區"
"220080","200-UY","2018/08/11 18:39:21","新北市板橋區大觀路二段265巷76弄28號","121.44137","24.9967766666667","6500100","板橋區"
"220082","610-BX","2018/08/11 18:39:34","新北市板橋區篤行路二段73號","121.431753333333","24.9919583333333","6500100","板橋區"
"220056","276-BY","2018/08/11 18:39:31","新北市板橋區華東街1-10號","121.448806666667","24.9946766666667","6500100","板橋區"
"220072","277-BY","2018/08/11 18:39:20","新北市板橋區大觀路三段52號","121.432458333333","24.996055","6500100","板橋區"
"220094","285-UM","2018/08/11 18:39:26","新北市板橋區民生路二段161巷1號","121.470035","25.01979","6500100","板橋區"
"220083","286-VK","2018/08/11 18:39:37","新北市板橋區大觀路二段109巷2號","121.446336666667","25.00152","6500100","板橋區"
"220081","287-VK","2018/08/11 18:39:32","新北市板橋區大觀路一段47號","121.448113333333","25.007795","6500100","板橋區"
"220062","295-UM","2018/08/11 18:39:25","新北市板橋區民生路二段120號","121.47036","25.0198116666667","6500100","板橋區"
"220084","296-UM","2018/08/11 18:39:28","新北市板橋區大觀路二段120號","121.443713333333","24.999305","6500100","板橋區"
"220075","303-R5","2018/08/11 18:39:34","新北市板橋區華東街260號","121.452576666667","25.0014883333333","6500100","板橋區"
"220065","461-BY","2018/08/11 18:39:18","新北市板橋區館前東路122號","121.463798333333","25.0077233333333","6500100","板橋區"
"220064","486-VK","2018/08/11 18:39:39","新北市板橋區南雅南路一段1巷42號","121.457561666667","25.0063266666667","6500100","板橋區"
"220035","560-BX","2018/08/11 18:39:25","新北市板橋區南雅西路二段145巷10號","121.45159","25.0119016666667","6500100","板橋區"
"220071","568-UM","2018/08/11 18:39:19","新北市板橋區四川路二段237號","121.451095","24.9939933333333","6500100","板橋區"
"220063","609-BX","2018/08/11 18:39:28","新北市板橋區民生路二段188號","121.470145","25.02023","6500100","板橋區"
"220054","630-UY","2018/08/11 18:39:19","新北市板橋區華東街1-8號","121.447845","24.9947933333333","6500100","板橋區"
"220057","686-BX","2018/08/11 18:39:31","新北市板橋區華東街1-9號","121.448196666667","24.9949116666667","6500100","板橋區"
"220077","687-BX","2018/08/11 18:39:32","新北市板橋區大觀路二段174巷118號","121.441171666667","25.00195","6500100","板橋區"
"220067","829-TW","2018/08/11 18:39:19","新北市板橋區民生路二段120號","121.470558333333","25.0195333333333","6500100","板橋區"
"220068","830-TW","2018/08/11 18:36:17","新北市板橋區民生路二段161巷1號","121.470133333333","25.0199966666667","6500100","板橋區"
"220074","895-R6","2018/08/11 18:39:33","新北市板橋區南雅南路二段1-1號","121.454715","25.003595","6500100","板橋區"
"220073","985-R7","2018/08/11 18:39:21","新北市板橋區南雅南路二段11-14號","121.455011666667","25.0018033333333","6500100","板橋區"
"220070","AAC-253","2018/08/11 18:39:29","新北市板橋區華東街11號","121.451438333333","24.9984633333333","6500100","板橋區"
"235068","KEA-2873","2018/08/11 18:39:29","新北市中和區中正路211巷8號","121.496981666667","24.993275","6500300","中和區"
"235061","KEA-2875","2018/08/11 18:39:28","新北市中和區民享街32巷2號","121.474021666667","25.0033266666667","6500300","中和區"
