"lineid","car","time","location","longitude","latitude","cityid","cityname"
"234046","148-BY","2018/08/11 19:09:32","新北市永和區得和路373巷31弄12號","121.524408333333","25.00048","6500400","永和區"
"234007","207-UY","2018/08/11 19:09:30","新北市永和區中山路一段269號","121.50724","25.0073083333333","6500400","永和區"
"234081","298-R6","2018/08/11 19:09:32","新北市永和區福和路57巷14弄1號","121.522796666667","25.0068316666667","6500400","永和區"
"234064","337-UY","2018/08/11 19:09:34","新北市永和區秀朗路二段48號","121.521606666667","25.0022","6500400","永和區"
"234086","338-UY","2018/08/11 19:09:26","新北市永和區永貞路47-1號","121.519633333333","25.00455","6500400","永和區"
"234070","552-UM","2018/08/11 19:09:22","新北市永和區豫溪街137巷1弄15號","121.518916666667","25.01042","6500400","永和區"
"234038","553-UM","2018/08/11 19:09:38","新北市永和區民樂街71巷1號","121.527401666667","24.997525","6500400","永和區"
"234017","745-BX","2018/08/11 19:09:31","新北市永和區忠孝街27號","121.513998333333","25.0155516666667","6500400","永和區"
"234030","746-BX","2018/08/11 19:09:30","新北市永和區四維街121號","121.52306","24.9983566666667","6500400","永和區"
"234054","KEA-2590","2018/08/11 19:09:25","新北市永和區竹林路72巷2號","121.518991666667","25.0128733333333","6500400","永和區"
"234013","KEA-2591","2018/08/11 19:09:23","新北市永和區中山路一段93號","121.51154","25.0106533333333","6500400","永和區"
"234061","AAD-866","2018/08/11 19:09:34","新北市永和區安樂路306-8號","121.514558333333","25.0053733333333","6500400","永和區"
"234042","862-TW","2018/08/11 19:09:39","新北市永和區永貞路334號","121.51119","25.0055","6500400","永和區"
"234050","863-TW","2018/08/11 19:09:40","新北市永和區文化路135巷12號","121.51069","25.0155633333333","6500400","永和區"
"234026","9371-KE","2018/08/11 19:09:25","新北市永和區安樂路272巷9弄7號","121.515093333333","25.0045733333333","6500400","永和區"
"234011","9373-KE","2018/08/11 19:09:25","新北市永和區信義路43巷17號","121.512253333333","25.0119683333333","6500400","永和區"
"249005","172-UM","2018/08/11 19:09:34","新北市八里區中華路三段65號","121.394741666667","25.140955","6502300","八里區"
"249001","173-UM","2018/08/11 19:09:30","新北市八里區龍米路二段209號","121.431625","25.158495","6502300","八里區"
"249003","593-UM","2018/08/11 19:09:29","新北市八里區博物館路10-1號","121.415001666667","25.1641583333333","6502300","八里區"
"248016","026-BX","2018/08/11 19:09:21","新北市五股區成泰路三段543巷54號","121.449575","25.1030516666667","6501500","五股區"
"248006","077-UY","2018/08/11 19:09:38","新北市五股區四維路102號","121.467636666667","25.0734833333333","6501500","五股區"
"248008","095-VK","2018/08/11 19:09:31","新北市五股區中興路二段37巷24號","121.460625","25.075005","6501500","五股區"
"248020","225-UY","2018/08/11 19:09:23","新北市五股區凌雲路三段57號","121.425205","25.1250116666667","6501500","五股區"
"248012","247-BX","2018/08/11 19:09:22","新北市五股區中興路四段48巷16號","121.438638333333","25.083405","6501500","五股區"
"248010","272-BY","2018/08/11 19:09:32","新北市五股區水碓二路1號","121.43058","25.0712616666667","6501500","五股區"
"248004","677-BX","2018/08/11 19:09:35","新北市五股區五福路7號","121.434223333333","25.0878316666667","6501500","五股區"
"248002","678-BX","2018/08/11 19:09:21","新北市五股區凌雲路一段158巷6號","121.448023333333","25.102705","6501500","五股區"
"234023","9380-KE","2018/08/11 19:09:26","新北市永和區中興街10巷1號","121.515675","25.0118133333333","6500400","永和區"
"234077","969-R7","2018/08/11 19:09:39","新北市永和區民族街6號","121.518658333333","24.9995466666667","6500400","永和區"
"234074","AAC-211","2018/08/11 19:09:39","新北市永和區竹林路222號","121.520746666667","25.0080966666667","6500400","永和區"
"234067","AAC-212","2018/08/11 19:09:36","新北市永和區永和路一段112-1號","121.513476666667","25.007315","6500400","永和區"
"234003","AAC-295","2018/08/11 19:09:37","新北市永和區中山路一段102-1號","121.511041666667","25.010575","6500400","永和區"
"244017","069-UM","2018/08/11 19:09:32","新北市林口區公園路94號","121.369586666667","25.07053","6501700","林口區"
"244019","403-UM","2018/08/11 19:09:34","新北市林口區文化二路一段551號","121.374751666667","25.0768516666667","6501700","林口區"
"244013","KEA-2802","2018/08/11 19:09:32","新北市林口區麗園一街2巷1號","121.375535","25.071945","6501700","林口區"
"244023","483-VK","2018/08/11 19:09:36","新北市林口區文林六街62巷16號","121.371975","25.081645","6501700","林口區"
"244011","657-BX","2018/08/11 19:09:25","新北市林口區中正路296巷1-1號","121.38847","25.0779116666667","6501700","林口區"
"244025","837-TS","2018/08/11 19:09:22","新北市林口區文化北路一段542巷8號","121.368398333333","25.0794116666667","6501700","林口區"
"243013","AAD-798","2018/08/11 19:09:31","新北市泰山區漢口街14號","121.423558333333","25.0365566666667","6501600","泰山區"
"243009","297-R6","2018/08/11 19:09:37","新北市泰山區楓江路25巷9號","121.43446","25.0635783333333","6501600","泰山區"
"243016","KEA-2801","2018/08/11 19:09:37","新北市泰山區明志路二段325號","121.425748333333","25.045025","6501600","泰山區"
"243015","421-VK","2018/08/11 19:09:20","新北市泰山區明志路一段435號","121.430761666667","25.056435","6501600","泰山區"
"243011","KEA-2215","2018/08/11 19:09:22","新北市泰山區明志路二段324號","121.426006666667","25.0459466666667","6501600","泰山區"
"243010","KEA-2216","2018/08/11 19:09:34","新北市泰山區明志路一段479號","121.430753333333","25.0554816666667","6501600","泰山區"
"243012","646-TV","2018/08/11 19:09:34","新北市泰山區辭修路36巷8弄1號","121.42789","25.0585216666667","6501600","泰山區"
"243014","680-BX","2018/08/11 19:09:40","新北市泰山區泰林路二段462號","121.425973333333","25.0642933333333","6501600","泰山區"
"222003","436-BY","2018/08/11 19:09:21","新北市深坑區深南路162號","121.626088333333","25.014975","6501800","深坑區"
"222002","659-BX","2018/08/11 19:09:22","新北市深坑區北深路一段234號","121.630086666667","25.0088216666667","6501800","深坑區"
"231045","001-UM","2018/08/11 19:09:21","新北市新店區北宜路一段182號","121.540898333333","24.952855","6500600","新店區"
"231041","002-UM","2018/08/11 19:09:32","新北市新店區溪園路405號","121.524065","24.9781966666667","6500600","新店區"
"231059","046-UY","2018/08/11 19:09:26","新北市新店區安和路一段23號","121.516983333333","24.9648383333333","6500600","新店區"
"231040","047-UY","2018/08/11 19:09:32","新北市新店區三民路98-4號","121.533941666667","24.973375","6500600","新店區"
"231044","106-UY","2018/08/11 19:09:29","新北市新店區中興路三段186號","121.544031666667","24.9814716666667","6500600","新店區"
"231046","107-UY","2018/08/11 19:09:25","新北市新店區永業路81巷1弄1-1號","121.529365","24.9493633333333","6500600","新店區"
"231052","108-UY","2018/08/11 19:09:32","新北市新店區屈尺路168號","121.545143333333","24.9236016666667","6500600","新店區"
"231048","187-VK","2018/08/11 19:09:29","新北市新店區德正街27巷29弄145號","121.545666666667","24.9734616666667","6500600","新店區"
"231054","KEA-2219","2018/08/11 19:09:19","新北市新店區新店路119號","121.537163333333","24.9540766666667","6500600","新店區"
"231042","268-BY","2018/08/11 19:09:20","新北市新店區中興路一段171號","121.54279","24.9644283333333","6500600","新店區"
"231051","278-BY","2018/08/11 19:09:17","新北市新店區中正路382巷25號","121.535568333333","24.9784666666667","6500600","新店區"
"231050","AAD-862","2018/08/11 19:09:35","新北市新店區竹林路28號","121.551496666667","24.9515","6500600","新店區"
"231043","355-BY","2018/08/11 19:09:28","新北市新店區寶橋路56號","121.546103333333","24.975345","6500600","新店區"
"231058","3713-VJ","2018/08/11 19:09:32","新北市新店區光明街224巷14號","121.540718333333","24.962575","6500600","新店區"
"231066","4716-K9","2018/08/11 19:09:34","新北市新店區安康路二段341巷1號","121.497","24.955365","6500600","新店區"
"231056","4715-K9","2018/08/11 19:09:36","新北市新店區中正路485號","121.53382","24.9817966666667","6500600","新店區"
"231067","4772-VM","2018/08/11 19:09:40","新北市新店區安康路一段126號","121.526813333333","24.9627533333333","6500600","新店區"
"231065","512-UM","2018/08/11 19:09:37","新北市新店區安祥路111號","121.475623333333","24.95691","6500600","新店區"
"231049","513-UM","2018/08/11 19:09:31","新北市新店區二十張路25巷3號","121.539035","24.98213","6500600","新店區"
"231061","619-UM","2018/08/11 19:09:25","新北市新店區安康路一段186號","121.524861666667","24.9633766666667","6500600","新店區"
"231063","641-BX","2018/08/11 19:09:28","新北市新店區車子路121號","121.505225","24.9501216666667","6500600","新店區"
"231064","719-UM","2018/08/11 19:09:36","新北市新店區安忠路56巷2號","121.51281","24.9591966666667","6500600","新店區"
"231062","720-UM","2018/08/11 19:09:25","新北市新店區安平路20-4號","121.524716666667","24.9664416666667","6500600","新店區"
"231060","897-TW","2018/08/11 19:09:28","新北市新店區安康路二段203號","121.509058333333","24.9589466666667","6500600","新店區"
"241026","066-VK","2018/08/11 19:09:29","新北市三重區泉州街72號","121.494838333333","25.0548233333333","6500200","三重區"
"241035","KEA-2210","2018/08/11 19:09:36","新北市三重區信義西街138號","121.495451666667","25.0643183333333","6500200","三重區"
"241020","478-VK","2018/08/11 19:09:22","新北市三重區後竹圍街133號","121.487421666667","25.0723466666667","6500200","三重區"
"241006","AAD-863","2018/08/11 19:09:38","新北市三重區車路頭街135-1號","121.48431","25.0761383333333","6500200","三重區"
"241029","942-UM","2018/08/11 19:09:38","新北市三重區中正南路195-1號","121.493178333333","25.0549366666667","6500200","三重區"
"235066","003-UY","2018/08/11 19:09:34","新北市中和區廣福路12-5號","121.505335","25.0027383333333","6500300","中和區"
"235064","005-UY","2018/08/11 19:09:39","新北市中和區泰和街30巷17號","121.499046666667","25.0009883333333","6500300","中和區"
"235063","006-UY","2018/08/11 19:09:23","新北市中和區連城路249巷5號","121.493676666667","24.9967566666667","6500300","中和區"
"235056","096-UM","2018/08/11 19:09:20","新北市中和區員山路520號","121.478871666667","25.0096316666667","6500300","中和區"
"235039","097-UM","2018/08/11 19:09:29","新北市中和區景平路64巷13弄16號","121.521935","24.991435","6500300","中和區"
"235065","098-UM","2018/08/11 19:09:25","新北市中和區莊敬路33號","121.500875","25.0049033333333","6500300","中和區"
"235040","150-BY","2018/08/11 19:09:29","新北市中和區宜安路54號","121.512116666667","24.9966","6500300","中和區"
"235058","151-BY","2018/08/11 19:09:27","新北市中和區連城路523巷11弄10號","121.481878333333","24.99415","6500300","中和區"
"235055","183-VK","2018/08/11 19:09:22","新北市中和區德光路79號","121.469385","25.0035483333333","6500300","中和區"
"235038","185-VK","2018/08/11 19:09:34","新北市中和區大仁街10巷27弄4號","121.519231666667","24.9926633333333","6500300","中和區"
"235049","186-VK","2018/08/11 19:09:36","新北市中和區景新街176號","121.506221666667","24.996315","6500300","中和區"
"235067","255-BX","2018/08/11 19:09:33","新北市中和區新生街166巷2號","121.483505","25.0002383333333","6500300","中和區"
"235044","293-VK","2018/08/11 19:09:23","新北市中和區中興街222-4號","121.500578333333","24.9895633333333","6500300","中和區"
"235072","301-VK","2018/08/11 19:09:34","新北市中和區永和路68號","121.498456666667","25.0047583333333","6500300","中和區"
"235043","352-BY","2018/08/11 19:09:33","新北市中和區景平路120號","121.519323333333","24.99177","6500300","中和區"
"235042","KEA-2878","2018/08/11 19:09:24","新北市中和區自強路15巷22號","121.521218333333","24.9935583333333","6500300","中和區"
"235050","4979-A6","2018/08/11 19:09:31","新北市中和區復興路262-1號","121.503293333333","24.9903333333333","6500300","中和區"
"235069","4980-A6","2018/08/11 19:09:36","新北市中和區中山路二段181巷24號","121.501078333333","25.0018733333333","6500300","中和區"
"235070","558-UM","2018/08/11 19:09:28","新北市中和區中和路119號","121.5016","25.0001133333333","6500300","中和區"
"235045","565-BX","2018/08/11 19:09:28","新北市中和區景新街449號","121.513245","24.9886","6500300","中和區"
"235054","640-BX","2018/08/11 19:09:30","新北市中和區國光街109巷2弄1號","121.469678333333","25.0004533333333","6500300","中和區"
"235060","647-TV","2018/08/11 19:09:24","新北市中和區中山路三段118號","121.475621666667","25.00612","6500300","中和區"
"235047","732-UM","2018/08/11 19:09:28","新北市中和區興南路二段2號","121.507855","24.986295","6500300","中和區"
"235046","733-UM","2018/08/11 19:09:24","新北市中和區忠孝街1巷45號","121.508543333333","24.98399","6500300","中和區"
"235071","783-BX","2018/08/11 19:09:25","新北市中和區連城路334號","121.483146666667","24.9958383333333","6500300","中和區"
"235062","800-TS","2018/08/11 19:09:32","新北市中和區中山路二段466號","121.488458333333","25.004565","6500300","中和區"
"235057","801-TS","2018/08/11 19:09:29","新北市中和區民利街86號","121.47799","24.9981283333333","6500300","中和區"
"235041","802-TS","2018/08/11 19:09:32","新北市永和區中和路327號","121.507308333333","24.9997266666667","6500300","中和區"
"235052","805-TS","2018/08/11 19:09:31","新北市中和區興南路二段142巷31弄63號","121.501598333333","24.9835583333333","6500300","中和區"
"235048","896-TW","2018/08/11 19:09:28","新北市中和區忠孝街2-6號","121.509121666667","24.98299","6500300","中和區"
"235053","900-TW","2018/08/11 19:09:36","新北市中和區華福街63號","121.466863333333","24.9966033333333","6500300","中和區"
"235051","157-BY","2018/08/11 19:09:38","新北市中和區仁愛街36巷22號","121.510923333333","24.98721","6500300","中和區"
"235037","AAC-213","2018/08/11 19:09:31","新北市中和區秀朗路三段60巷24號","121.525466666667","24.9950016666667","6500300","中和區"
"220106","013-TV","2018/08/11 19:09:21","新北市板橋區文化路二段319號","121.47227","25.0298333333333","6500100","板橋區"
"220055","015-TV","2018/08/11 19:09:33","新北市板橋區新民街4巷21號","121.465335","25.00991","6500100","板橋區"
"220086","073-UY","2018/08/11 19:09:28","新北市板橋區幸福路70巷1號","121.460641666667","25.0200566666667","6500100","板橋區"
"220069","AAD-861","2018/08/11 19:09:34","新北市板橋區華興街73-1號","121.456978333333","25.0051116666667","6500100","板橋區"
"226004","312-R5","2018/08/11 19:09:29","新北市平溪區十分里十分街96-2號","121.776683333333","25.0426233333333","6502400","平溪區"
"235059","251-BX","2018/08/11 19:09:24","新北市中和區圓通路294巷17-5號","121.4887","24.990375","6500300","中和區"
"228003","097-TW","2018/08/11 19:09:37","新北市貢寮區和美里和美街40-2號","121.913115","25.0907133333333","6502600","貢寮區"
"228001","212-TW","2018/08/11 19:09:34","新北市貢寮區真理里新港街10號","121.925518333333","25.0543583333333","6502600","貢寮區"
"228002","663-BX","2018/08/11 19:09:24","新北市貢寮區福隆里福隆街32-1號","121.945121666667","25.0173816666667","6502600","貢寮區"
"224010","AGQ-8101","2018/08/11 19:05:09","新北市瑞芳區基山街6-3號","121.845403333333","25.1092283333333","6501200","瑞芳區"
"224006","676-BX","2018/08/11 19:09:24","新北市瑞芳區中山路203號","121.801393333333","25.1066516666667","6501200","瑞芳區"
"224008","285-BY","2018/08/11 19:09:24","新北市瑞芳區瑞芳街92號","121.80208","25.1100883333333","6501200","瑞芳區"
"224009","273-VK","2018/08/11 19:09:38","新北市瑞芳區洞頂路101號","121.861455","25.119005","6501200","瑞芳區"
"227002","642-TC","2018/08/11 19:09:37","新北市雙溪區平林里外平林9-5號","121.859115","25.038025","6502500","雙溪區"
"227010","400-TW","2018/08/11 19:09:39","新北市雙溪區牡丹里中正路46-5號","121.865058333333","25.03905","6502500","雙溪區"
"253005","032-BX","2018/08/11 19:09:36","新北市石門區阿里荖41-1號","121.605768333333","25.2806383333333","6502200","石門區"
"253006","295-VK","2018/08/11 19:09:26","新北市石門區崁子腳58-18號","121.531238333333","25.287335","6502200","石門區"
"222001","KEA-2212","2018/08/11 19:09:30","新北市深坑區北深路一段300號","121.62422","25.0057766666667","6501800","深坑區"
"208002","KEA-2872","2018/08/11 19:09:39","新北市金山區仁愛路67巷22號","121.634231666667","25.2209116666667","6502700","金山區"
"208003","665-BX","2018/08/11 19:09:31","新北市金山區中正路135號","121.632426666667","25.2215166666667","6502700","金山區"
"208001","761-BX","2018/08/11 19:09:32","新北市金山區溫泉路2巷4號","121.640335","25.22179","6502700","金山區"
"251009","008-UM","2018/08/11 19:09:39","新北市淡水區重建街61號","121.43985","25.1718183333333","6501000","淡水區"
"251005","010-UM","2018/08/11 19:09:33","新北市淡水區中山路135號","121.441113333333","25.1714516666667","6501000","淡水區"
"251001","011-UM","2018/08/11 19:09:27","新北市淡水區自強路201巷39號","121.462161666667","25.1268183333333","6501000","淡水區"
"251002","012-UM","2018/08/11 19:09:37","新北市淡水區中山路93-1號","121.442245","25.17043","6501000","淡水區"
"251013","KEA-2871","2018/08/11 19:09:27","新北市淡水區安子內12號","121.48101","25.2193966666667","6501000","淡水區"
"251016","179-VK","2018/08/11 19:09:34","新北市淡水區淡金路三段317號","121.449093333333","25.20586","6501000","淡水區"
"251014","180-VK","2018/08/11 19:09:23","新北市淡水區小中寮19-1號","121.484128333333","25.22927","6501000","淡水區"
"251015","181-VK","2018/08/11 19:09:35","新北市淡水區埔子頂11號","121.483636666667","25.1732616666667","6501000","淡水區"
"251010","413-VK","2018/08/11 19:09:35","新北市淡水區中正路一段156巷1號","121.421166666667","25.1801333333333","6501000","淡水區"
"251007","577-R6","2018/08/11 19:09:30","新北市淡水區民生路145巷58號","121.467976666667","25.1387333333333","6501000","淡水區"
"251011","650-BX","2018/08/11 19:07:53","新北市淡水區中正東路二段143巷2弄1號","121.460731666667","25.1473916666667","6501000","淡水區"
"251003","673-BX","2018/08/11 19:09:35","新北市淡水區中山北路一段88號","121.442406666667","25.17619","6501000","淡水區"
"207003","550-UM","2018/08/11 19:09:37","新北市萬里區大鵬里萬里加投18-3號","121.649688333333","25.2085066666667","6502800","萬里區"
"207004","225-TW","2018/08/11 19:09:19","新北市萬里區萬里里瑪鋉下街46-1號","121.691495","25.1792833333333","6502800","萬里區"
"252002","178-VK","2018/08/11 19:09:18","新北市三芝區埔坪里埔頭坑81號","121.509875","25.25378","6502100","三芝區"
"252003","249-BX","2018/08/11 19:09:34","新北市三芝區錫板里南勢崗6號","121.479575","25.26197","6502100","三芝區"
"252001","292-VK","2018/08/11 19:09:28","新北市三芝區長勤街84號","121.50017","25.255065","6502100","三芝區"
"237007","153-BY","2018/08/11 19:09:33","新北市三峽區中正路二段42巷84號","121.364381666667","24.9204966666667","6500900","三峽區"
"237009","210-TH","2018/08/11 19:09:29","新北市三峽區文化路212號","121.368915","24.9359883333333","6500900","三峽區"
"237013","252-BX","2018/08/11 19:09:22","新北市三峽區光明路69巷25號","121.376735","24.92925","6500900","三峽區"
"237012","275-BY","2018/08/11 19:09:22","新北市三峽區三樹路222巷236弄8-3號","121.391371666667","24.9430333333333","6500900","三峽區"
"237008","302-VK","2018/08/11 19:09:26","新北市三峽區大同路93號","121.374728333333","24.9271","6500900","三峽區"
"237014","433-BY","2018/08/11 19:09:25","新北市三峽區中山路257巷1號","121.362481666667","24.9372616666667","6500900","三峽區"
"237006","5529-G3","2018/08/11 19:09:31","新北市三峽區溪東路84號","121.402111666667","24.9343716666667","6500900","三峽區"
"237011","KEA-2596","2018/08/11 19:09:28","新北市三峽區介壽路二段25號","121.390003333333","24.9349233333333","6500900","三峽區"
"237016","649-BX","2018/08/11 19:09:27","新北市三峽區安坑34-1號","121.449205","24.9284133333333","6500900","三峽區"
"237010","706-TV","2018/08/11 19:09:34","新北市三峽區國光街36號","121.37484","24.9376883333333","6500900","三峽區"
"237005","AKY-6261","2018/08/11 19:09:37","新北市三峽區中山路459巷137號","121.350186666667","24.9338366666667","6500900","三峽區"
"236070","105-UM","2018/08/11 19:09:35","新北市土城區裕生路84巷2號","121.447303333333","24.9853933333333","6501300","土城區"
"236026","269-VK","2018/08/11 19:09:29","新北市土城區中正路56巷2號","121.443796666667","24.9753466666667","6501300","土城區"
"236014","270-VK","2018/08/11 19:09:23","新北市土城區學府路一段75巷16弄1號","121.457313333333","24.98755","6501300","土城區"
"236021","401-BY","2018/08/11 19:09:34","新北市土城區延峰街28號","121.469298333333","24.98531","6501300","土城區"
"236079","752-BX","2018/08/11 19:09:36","新北市土城區中央路四段69號","121.417546666667","24.95789","6501300","土城區"
"236059","912-UM","2018/08/11 19:09:27","新北市土城區金城路一段131號","121.444801666667","24.973725","6501300","土城區"
"236049","913-UM","2018/08/11 19:09:36","新北市土城區明德路一段365-1號","121.45364","24.9790783333333","6501300","土城區"
"236055","AAC-216","2018/08/11 19:09:37","新北市土城區學府路一段276號","121.450113333333","24.9831583333333","6501300","土城區"
"238015","755-BX","2018/08/11 19:09:33","新北市樹林區光明街52號","121.412396666667","24.9914116666667","6500700","樹林區"
"238023","601-UM","2018/08/11 19:09:39","新北市樹林區三興路58號","121.394025","25.0144666666667","6500700","樹林區"
"238019","599-UM","2018/08/11 19:09:22","新北市樹林區東榮街91巷2弄12號","121.415623333333","24.982315","6500700","樹林區"
"238018","571-TV","2018/08/11 19:09:35","新北市樹林區太元街2巷13號","121.416878333333","24.9808383333333","6500700","樹林區"
"238024","5061-A6","2018/08/11 19:09:36","新北市樹林區味王街14號","121.403081666667","24.9759833333333","6500700","樹林區"
"238022","KEA-2213","2018/08/11 19:09:29","新北市樹林區中山路二段151巷6弄16號","121.406095","24.9781383333333","6500700","樹林區"
"238021","KEA-2539","2018/08/11 19:09:25","新北市樹林區柑園街二段441號","121.363748333333","24.9464733333333","6500700","樹林區"
"238025","303-VK","2018/08/11 19:09:22","新北市樹林區中山路三段125-3號","121.396843333333","24.9733333333333","6500700","樹林區"
"238017","283-BY","2018/08/11 19:08:27","新北市樹林區光興街376巷1號","121.406248333333","25.00573","6500700","樹林區"
"238014","282-BY","2018/08/11 19:09:41","新北市樹林區中正路23號","121.427423333333","24.99909","6500700","樹林區"
"238020","268-VK","2018/08/11 19:09:33","新北市樹林區俊英街133巷23號","121.4231","25.01096","6500700","樹林區"
"238026","172-UY","2018/08/11 19:09:19","新北市樹林區佳園路二段82號","121.390458333333","24.9590633333333","6500700","樹林區"
"238016","169-UY","2018/08/11 19:09:22","新北市樹林區中山路一段306巷51弄26號","121.417678333333","24.9859666666667","6500700","樹林區"
"239007","AAC-297","2018/08/11 19:05:26","新北市鶯歌區中山路138巷40號","121.351383333333","24.9598533333333","6500800","鶯歌區"
"239006","891-R6","2018/08/11 19:09:26","新北市鶯歌區建國路512巷54號","121.339273333333","24.951195","6500800","鶯歌區"
"239008","527-UM","2018/08/11 19:09:32","新北市鶯歌區大湖路560號","121.33693","24.9732516666667","6500800","鶯歌區"
"239005","526-UM","2018/08/11 19:09:28","新北市鶯歌區永和街249號","121.336803333333","24.972195","6500800","鶯歌區"
"239001","417-VK","2018/08/11 19:09:37","新北市鶯歌區鶯桃路95巷9號","121.3387","24.953675","6500800","鶯歌區"
"239003","360-BY","2018/08/11 19:09:23","新北市鶯歌區中正二路185號","121.34151","24.94793","6500800","鶯歌區"
"239002","359-BY","2018/08/11 19:09:30","新北市鶯歌區國際二路6巷3號","121.33843","24.9736366666667","6500800","鶯歌區"
"239004","193-VK","2018/08/11 19:09:22","新北市鶯歌區二甲路97-5號","121.332666666667","24.9322166666667","6500800","鶯歌區"
"221036","130-UY","2018/08/11 19:09:34","新北市汐止區康寧街901號","121.65102","25.075175","6501100","汐止區"
"221015","131-UY","2018/08/11 19:09:31","新北市汐止區汐萬路一段256巷1號","121.651696666667","25.0748666666667","6501100","汐止區"
"221010","269-BY","2018/08/11 19:09:24","新北市汐止區康寧街901號","121.651405","25.0750783333333","6501100","汐止區"
"221012","278-VK","2018/08/11 19:09:20","新北市汐止區康寧街901號","121.650803333333","25.0752033333333","6501100","汐止區"
"221023","279-VK","2018/08/11 19:09:32","新北市汐止區康寧街901號","121.650975","25.07518","6501100","汐止區"
"221027","281-BY","2018/08/11 19:09:35","新北市汐止區康寧街901號","121.651346666667","25.0749333333333","6501100","汐止區"
"221008","297-VK","2018/08/11 19:09:35","新北市汐止區康寧街489號","121.632466666667","25.0684716666667","6501100","汐止區"
"221029","298-VK","2018/08/11 19:09:34","新北市汐止區康寧街901號","121.650963333333","25.0751816666667","6501100","汐止區"
"221021","299-VK","2018/08/11 19:09:22","新北市汐止區康寧街901號","121.651496666667","25.07498","6501100","汐止區"
"221031","353-TW","2018/08/11 19:09:39","新北市汐止區福德一路1-1號","121.639945","25.0720033333333","6501100","汐止區"
"221002","129-UY","2018/08/11 19:09:35","新北市汐止區大同路一段89-3號","121.62513","25.0543883333333","6501100","汐止區"
"221025","623-UM","2018/08/11 19:09:35","新北市汐止區康寧街901號","121.651636666667","25.0749183333333","6501100","汐止區"
"221038","646-BX","2018/08/11 19:09:24","新北市汐止區康寧街901號","121.65073","25.0753633333333","6501100","汐止區"
"221033","647-BX","2018/08/11 19:09:37","新北市汐止區南勢街1巷1號","121.627038333333","25.0374183333333","6501100","汐止區"
"220079","145-BY","2018/08/11 19:09:30","新北市板橋區民權路302巷1弄1號","121.457291666667","25.0163216666667","6500100","板橋區"
"220080","200-UY","2018/08/11 19:09:41","新北市板橋區大觀路二段1巷2號","121.448246666667","25.0038183333333","6500100","板橋區"
"220082","610-BX","2018/08/11 19:09:34","新北市板橋區溪崑二街63號","121.428081666667","24.9903766666667","6500100","板橋區"
"220101","245-BX","2018/08/11 19:09:24","新北市板橋區民生路二段161巷3號","121.469985","25.019705","6500100","板橋區"
"220091","267-BY","2018/08/11 19:09:29","新北市板橋區縣民大道247巷41號","121.482081666667","25.0269816666667","6500100","板橋區"
"220056","276-BY","2018/08/11 19:09:36","新北市板橋區信義路74巷2弄1號","121.45706","24.9931316666667","6500100","板橋區"
"220072","277-BY","2018/08/11 19:09:20","新北市板橋區金門街260巷7號","121.42971","24.9868633333333","6500100","板橋區"
"220094","285-UM","2018/08/11 19:09:26","新北市板橋區光武街154號","121.465168333333","25.0305516666667","6500100","板橋區"
"220053","285-VK","2018/08/11 19:09:31","新北市板橋區懷仁街35巷2弄2號","121.476736666667","25.019545","6500100","板橋區"
"220083","286-VK","2018/08/11 19:09:37","新北市板橋區龍興街99巷17號","121.443253333333","25.00296","6500100","板橋區"
"220081","287-VK","2018/08/11 19:09:32","新北市板橋區南雅西路二段156巷55號","121.45241","25.0126583333333","6500100","板橋區"
"220090","288-VK","2018/08/11 19:09:33","新北市板橋區裕民街54號","121.461491666667","25.0286733333333","6500100","板橋區"
"220061","293-UM","2018/08/11 19:09:32","新北市板橋區中山路二段267號","121.477665","25.0179066666667","6500100","板橋區"
"220062","295-UM","2018/08/11 19:09:25","新北市板橋區三民路二段245巷69弄1號","121.481081666667","25.0128416666667","6500100","板橋區"
"220084","296-UM","2018/08/11 19:09:28","新北市板橋區溪崑二街56巷3號","121.427965","24.99128","6500100","板橋區"
"220075","303-R5","2018/08/11 19:09:34","新北市板橋區南雅南路一段3巷25-9號","121.456676666667","25.0058666666667","6500100","板橋區"
"220092","307-R5","2018/08/11 19:06:57","新北市板橋區文化路二段225巷16號","121.470271666667","25.0285083333333","6500100","板橋區"
"220098","317-R6","2018/08/11 19:09:35","新北市板橋區四維路103巷9號","121.465045","25.0242616666667","6500100","板橋區"
"220065","461-BY","2018/08/11 19:09:38","新北市板橋區民族路151巷57號","121.469355","25.0084666666667","6500100","板橋區"
"220064","486-VK","2018/08/11 19:09:27","新北市板橋區長安街236-3號","121.475263333333","25.0125733333333","6500100","板橋區"
"220088","491-VK","2018/08/11 19:09:38","新北市板橋區文化路二段182巷1弄2號","121.470885","25.0273266666667","6500100","板橋區"
"220035","560-BX","2018/08/11 19:09:25","新北市板橋區中正路379巷1弄5-1號","121.453908333333","25.02138","6500100","板橋區"
"220103","561-BX","2018/08/11 19:09:23","新北市板橋區介壽街84巷48號","121.46879","25.0183483333333","6500100","板橋區"
"220071","568-UM","2018/08/11 19:09:39","新北市板橋區重慶路295巷7號","121.464153333333","24.9992283333333","6500100","板橋區"
"220063","609-BX","2018/08/11 19:09:39","新北市板橋區三民路二段133號","121.479163333333","25.0153683333333","6500100","板橋區"
"220054","630-UY","2018/08/11 19:09:39","新北市板橋區重慶路71-4號","121.462128333333","25.006895","6500100","板橋區"
"220057","686-BX","2018/08/11 19:09:31","新北市板橋區重慶路325號","121.463938333333","24.9984066666667","6500100","板橋區"
"220077","687-BX","2018/08/11 19:09:32","新北市板橋區大觀路一段35巷1號","121.449528333333","25.0084416666667","6500100","板橋區"
"220093","689-BX","2018/08/11 19:09:24","新北市板橋區民生路三段173號","121.465618333333","25.0271666666667","6500100","板橋區"
"220102","KEA-2699","2018/08/11 19:09:29","新北市板橋區田單街51號","121.48261","25.0279116666667","6500100","板橋區"
"220067","829-TW","2018/08/11 19:09:20","新北市板橋區三民路二段正隆巷44號","121.476925","25.013835","6500100","板橋區"
"220068","830-TW","2018/08/11 19:09:37","新北市板橋區中山路二段443巷72號","121.481015","25.02208","6500100","板橋區"
"220096","831-TW","2018/08/11 19:09:36","新北市板橋區雙十路二段33巷22號","121.475868333333","25.025465","6500100","板橋區"
"220089","833-TW","2018/08/11 19:09:34","新北市板橋區文化路二段367號","121.47305","25.030865","6500100","板橋區"
"220074","895-R6","2018/08/11 19:09:33","新北市板橋區中正路自強新村44號","121.45493","25.013775","6500100","板橋區"
"220073","985-R7","2018/08/11 19:09:21","新北市板橋區中正路191號","121.456311666667","25.0169616666667","6500100","板橋區"
"220097","AAC-210","2018/08/11 19:09:25","新北市板橋區英士路192-1號","121.458541666667","25.023085","6500100","板橋區"
"220070","AAC-253","2018/08/11 19:09:29","新北市板橋區忠孝路58號","121.461181666667","25.0019866666667","6500100","板橋區"
"235068","KEA-2873","2018/08/11 19:09:29","新北市中和區圓通路158巷1弄9號","121.497258333333","24.9960166666667","6500300","中和區"
"235061","KEA-2875","2018/08/11 19:09:37","新北市中和區員山路314巷5號","121.48188","25.0028466666667","6500300","中和區"
