"lineid","car","time","location","longitude","latitude","cityid","cityname"
"234046","148-BY","2018/08/11 19:49:32","新北市永和區永利路125號","121.5241","25.0028766666667","6500400","永和區"
"234007","207-UY","2018/08/11 19:49:30","新北市中和區中和路206號","121.505555","24.99965","6500400","永和區"
"234081","298-R6","2018/08/11 19:49:32","新北市永和區國中路2號","121.524236666667","25.0042716666667","6500400","永和區"
"234064","337-UY","2018/08/11 19:49:34","新北市永和區中正路368巷27號","121.518536666667","25.000815","6500400","永和區"
"234086","338-UY","2018/08/11 19:49:31","新北市永和區福和路239號","121.51841","25.0075","6500400","永和區"
"234070","552-UM","2018/08/11 19:49:22","新北市永和區竹林路81號","121.519555","25.01248","6500400","永和區"
"234038","553-UM","2018/08/11 19:49:39","新北市永和區成功路二段100號","121.526378333333","24.9982016666667","6500400","永和區"
"234017","745-BX","2018/08/11 19:49:31","新北市永和區永和路二段299號","121.516018333333","25.0160983333333","6500400","永和區"
"234030","746-BX","2018/08/11 19:49:30","新北市永和區民生路67巷34號","121.52443","24.9973166666667","6500400","永和區"
"234054","KEA-2590","2018/08/11 19:49:25","新北市永和區竹林路39巷28弄21號","121.519863333333","25.0144266666667","6500400","永和區"
"234013","KEA-2591","2018/08/11 19:49:23","新北市永和區永平路306號","121.507211666667","25.0124216666667","6500400","永和區"
"234061","AAD-866","2018/08/11 19:49:29","新北市永和區中正路184號","121.515208333333","24.9968716666667","6500400","永和區"
"234042","862-TW","2018/08/11 19:49:25","新北市永和區中和路389巷17號","121.508085","25.0011616666667","6500400","永和區"
"234050","863-TW","2018/08/11 19:49:28","新北市永和區保安路79號","121.508638333333","25.0148233333333","6500400","永和區"
"234026","9371-KE","2018/08/11 19:49:25","新北市永和區雙和街25巷5號","121.50895","25.001895","6500400","永和區"
"234011","9373-KE","2018/08/11 19:49:25","新北市永和區仁愛路352巷92弄2號","121.501243333333","25.0079616666667","6500400","永和區"
"249004","303-UY","2018/08/11 19:49:32","新北市八里區觀海大道271號","121.41453","25.1614866666667","6502300","八里區"
"249002","305-UY","2018/08/11 19:49:34","新北市八里區頂寮五街26號","121.451205","25.12613","6502300","八里區"
"249003","593-UM","2018/08/11 19:49:29","新北市八里區中華路二段560巷21號","121.39825","25.1453233333333","6502300","八里區"
"248016","026-BX","2018/08/11 19:49:38","新北市五股區成泰路三段601巷17-1號","121.451761666667","25.1033033333333","6501500","五股區"
"248008","095-VK","2018/08/11 19:49:31","新北市五股區四維路173號","121.467776666667","25.075095","6501500","五股區"
"248020","225-UY","2018/08/11 19:49:23","新北市五股區中直路38號","121.419878333333","25.1152166666667","6501500","五股區"
"248012","247-BX","2018/08/11 19:49:22","新北市五股區蓬萊路24號","121.433891666667","25.0798916666667","6501500","五股區"
"248014","261-SL","2018/08/11 19:49:25","新北市五股區五福路42巷37號","121.434928333333","25.0901783333333","6501500","五股區"
"248010","272-BY","2018/08/11 19:49:32","新北市五股區登林路76-5號","121.43051","25.0696033333333","6501500","五股區"
"248004","677-BX","2018/08/11 19:49:35","新北市五股區成泰路一段167號","121.435181666667","25.0745066666667","6501500","五股區"
"248002","678-BX","2018/08/11 19:49:21","新北市五股區成泰路四段15-6號","121.453328333333","25.10689","6501500","五股區"
"234077","969-R7","2018/08/11 19:49:24","新北市永和區民治街97巷7號","121.516865","24.998095","6500400","永和區"
"234074","AAC-211","2018/08/11 19:49:19","新北市永和區竹林路213巷38號","121.522846666667","25.00905","6500400","永和區"
"234067","AAC-212","2018/08/11 19:49:36","新北市永和區中山路一段170號","121.509323333333","25.0091583333333","6500400","永和區"
"234003","AAC-295","2018/08/11 19:49:37","新北市永和區福和路305號","121.516328333333","25.007295","6500400","永和區"
"244013","KEA-2802","2018/08/11 19:49:25","新北市八里區中華路三段101號","121.393106666667","25.1387083333333","6501700","林口區"
"243013","AAD-798","2018/08/11 19:40:24","新北市泰山區明志路三段6巷16號","121.423873333333","25.0436883333333","6501600","泰山區"
"243009","297-R6","2018/08/11 19:49:37","新北市泰山區美寧街73號","121.431068333333","25.064725","6501600","泰山區"
"243016","KEA-2801","2018/08/11 19:49:31","新北市泰山區新北大道七段93號","121.417921666667","25.032","6501600","泰山區"
"243015","421-VK","2018/08/11 19:49:40","新北市泰山區明志路二段235號","121.427325","25.0482","6501600","泰山區"
"243011","KEA-2215","2018/08/11 19:49:22","新北市泰山區明志路三段204巷10弄16號","121.423038333333","25.0387133333333","6501600","泰山區"
"243010","KEA-2216","2018/08/11 19:49:34","新北市泰山區民生路33號","121.430868333333","25.05227","6501600","泰山區"
"243012","646-TV","2018/08/11 19:49:34","新北市泰山區全興路18巷29號","121.431865","25.05834","6501600","泰山區"
"243014","680-BX","2018/08/11 19:49:39","新北市泰山區泰林路二段33-8號","121.435186666667","25.0565433333333","6501600","泰山區"
"222003","436-BY","2018/08/11 19:49:21","新北市深坑區深南路51號","121.621118333333","25.0097566666667","6501800","深坑區"
"222002","659-BX","2018/08/11 19:49:23","新北市深坑區北深路二段2巷3號","121.621688333333","25.00466","6501800","深坑區"
"231045","001-UM","2018/08/11 19:49:21","新北市新店區中生路66號","121.564596666667","24.9526833333333","6500600","新店區"
"231041","002-UM","2018/08/11 19:49:31","新北市新店區中央路137號","121.530228333333","24.973705","6500600","新店區"
"231059","046-UY","2018/08/11 19:49:24","新北市新店區安和路二段227號","121.517253333333","24.9760533333333","6500600","新店區"
"231040","047-UY","2018/08/11 19:49:32","新北市新店區中正路75巷71號","121.543228333333","24.96878","6500600","新店區"
"231044","106-UY","2018/08/11 19:49:29","新北市新店區復興路121號","121.534243333333","24.98802","6500600","新店區"
"231046","107-UY","2018/08/11 19:49:25","新北市新店區福園街10巷1號","121.532695","24.9727833333333","6500600","新店區"
"231052","108-UY","2018/08/11 19:49:32","新北市新店區新烏路三段266號","121.550228333333","24.9001533333333","6500600","新店區"
"231048","187-VK","2018/08/11 19:49:29","新北市新店區寶興路61巷1號","121.550815","24.9720116666667","6500600","新店區"
"231054","KEA-2219","2018/08/11 19:49:39","新北市新店區光明街79號","121.538931666667","24.9607133333333","6500600","新店區"
"231057","256-BX","2018/08/11 19:49:40","新北市新店區花園二路三段21-3號","121.556881666667","24.9315833333333","6500600","新店區"
"231042","268-BY","2018/08/11 19:49:40","新北市新店區中興路一段269號","121.544996666667","24.9680383333333","6500600","新店區"
"231051","278-BY","2018/08/11 19:49:37","新北市新店區中央三街7號","121.529466666667","24.9734416666667","6500600","新店區"
"231050","AAD-862","2018/08/11 19:49:37","新北市新店區郵政路4巷7號","121.556996666667","24.95139","6500600","新店區"
"231043","355-BY","2018/08/11 19:49:28","新北市新店區中正路282號","121.53853","24.97383","6500600","新店區"
"231066","4716-K9","2018/08/11 19:49:42","新北市新店區安康路二段341巷4號","121.496773333333","24.9549683333333","6500600","新店區"
"231056","4715-K9","2018/08/11 19:49:36","新北市新店區民權路72號","121.538185","24.9831683333333","6500600","新店區"
"231067","4772-VM","2018/08/11 19:49:40","新北市新店區精忠路10-1號","121.53267","24.959045","6500600","新店區"
"231065","512-UM","2018/08/11 19:49:37","新北市新店區安祥路109巷123號","121.476533333333","24.95783","6500600","新店區"
"231049","513-UM","2018/08/11 19:49:24","新北市新店區民權路127巷3號","121.535246666667","24.98187","6500600","新店區"
"231061","619-UM","2018/08/11 19:49:25","新北市新店區安民街199號","121.517035","24.97189","6500600","新店區"
"231063","641-BX","2018/08/11 19:49:28","新北市新店區車子路11號","121.503018333333","24.9519483333333","6500600","新店區"
"231068","718-UY","2018/08/11 19:49:24","新北市新店區安一路一段1-1號","121.519511666667","24.9610833333333","6500600","新店區"
"231064","719-UM","2018/08/11 19:49:36","新北市新店區安和路二段113巷1弄2號","121.51825","24.97021","6500600","新店區"
"231062","720-UM","2018/08/11 19:49:25","新北市新店區永業路69號","121.530788333333","24.95125","6500600","新店區"
"231060","897-TW","2018/08/11 19:49:28","新北市新店區安康路二段225號","121.508563333333","24.9586833333333","6500600","新店區"
"231055","AKT-0513","2018/08/11 19:49:27","新北市新店區力行路96號","121.538058333333","24.9668066666667","6500600","新店區"
"241011","013-R5","2018/08/11 19:49:26","新北市三重區介壽路39巷6號","121.499061666667","25.0700966666667","6500200","三重區"
"241028","022-UY","2018/08/11 19:49:19","新北市三重區中正南路133號","121.493938333333","25.0569466666667","6500200","三重區"
"241008","059-VK","2018/08/11 19:49:26","新北市三重區永福街96號","121.478748333333","25.0759733333333","6500200","三重區"
"241022","060-VK","2018/08/11 19:49:32","新北市三重區過圳街3號","121.48938","25.0584616666667","6500200","三重區"
"241031","061-VK","2018/08/11 19:49:31","新北市三重區重新路四段242-2號","121.486043333333","25.053575","6500200","三重區"
"241015","062-VK","2018/08/11 19:49:31","新北市三重區重新路一段1號","121.50382","25.0642566666667","6500200","三重區"
"241017","063-VK","2018/08/11 19:49:41","新北市三重區重陽路三段27巷1號","121.489696666667","25.0665483333333","6500200","三重區"
"241026","066-VK","2018/08/11 19:49:29","新北市三重區文化南路42號","121.50043","25.060215","6500200","三重區"
"241003","091-VK","2018/08/11 19:49:32","新北市三重區仁愛街445巷65號","121.49157","25.0834033333333","6500200","三重區"
"241016","266-UM","2018/08/11 19:49:21","新北市三重區正德街53號","121.495723333333","25.0630416666667","6500200","三重區"
"241009","267-UM","2018/08/11 19:49:28","新北市三重區三和路四段398號","121.48152","25.0791733333333","6500200","三重區"
"241018","268-UM","2018/08/11 19:49:33","新北市三重區雙園街57巷32號","121.494466666667","25.0683766666667","6500200","三重區"
"241032","269-UM","2018/08/11 19:49:27","新北市三重區重陽路一段44巷58號","121.484591666667","25.0577116666667","6500200","三重區"
"241013","270-UM","2018/08/11 19:49:37","新北市三重區仁愛街112巷14號","121.494736666667","25.0739116666667","6500200","三重區"
"241025","271-UM","2018/08/11 19:49:23","新北市三重區忠孝路三段52號","121.480696666667","25.0656366666667","6500200","三重區"
"241007","398-BY","2018/08/11 19:49:33","新北市三重區三和路四段133-1號","121.484746666667","25.0779516666667","6500200","三重區"
"241035","KEA-2210","2018/08/11 19:49:35","新北市三重區文化北路8號","121.499355","25.0635366666667","6500200","三重區"
"241020","478-VK","2018/08/11 19:49:22","新北市三重區三和路四段20巷16-2號","121.490485","25.0733266666667","6500200","三重區"
"241030","480-VK","2018/08/11 19:49:28","新北市三重區環河南路254巷46號","121.489576666667","25.0513133333333","6500200","三重區"
"241014","543-UM","2018/08/11 19:49:34","新北市三重區三和路二段37-8號","121.501403333333","25.06748","6500200","三重區"
"241023","545-UM","2018/08/11 19:49:33","新北市三重區頂崁街166號","121.477626666667","25.065855","6500200","三重區"
"241001","547-UM","2018/08/11 19:49:28","新北市三重區仁愛街327巷9號","121.492668333333","25.079735","6500200","三重區"
"241019","KEA-2593","2018/08/11 19:49:41","新北市三重區自強路二段67巷17號","121.489405","25.0702166666667","6500200","三重區"
"241006","AAD-863","2018/08/11 19:49:38","新北市三重區力行路二段84號","121.481611666667","25.073965","6500200","三重區"
"241012","941-UM","2018/08/11 19:49:23","新北市三重區仁興街22號","121.499368333333","25.075165","6500200","三重區"
"241029","942-UM","2018/08/11 19:49:38","新北市三重區重安街14號","121.490351666667","25.0582366666667","6500200","三重區"
"241033","AAC-255","2018/08/11 19:49:22","新北市三重區中興南街66號","121.470653333333","25.0439466666667","6500200","三重區"
"235066","003-UY","2018/08/11 19:49:34","新北市中和區南工路26號","121.505618333333","25.000815","6500300","中和區"
"235064","005-UY","2018/08/11 19:49:38","新北市中和區圓通路29號","121.501156666667","24.9978116666667","6500300","中和區"
"235056","096-UM","2018/08/11 19:49:20","新北市中和區中山路三段136巷10弄15號","121.474023333333","25.0075133333333","6500300","中和區"
"235039","097-UM","2018/08/11 19:49:29","新北市中和區大勇街27巷3號","121.517143333333","24.9935583333333","6500300","中和區"
"235065","098-UM","2018/08/11 19:49:25","新北市中和區中山路二段189號","121.5003","25.0026516666667","6500300","中和區"
"235040","150-BY","2018/08/11 19:49:29","新北市中和區安平路38號","121.509675","24.9949266666667","6500300","中和區"
"235058","151-BY","2018/08/11 19:49:33","新北市中和區員山路150巷2弄21號","121.481705","24.9978266666667","6500300","中和區"
"235055","183-VK","2018/08/11 19:49:22","新北市中和區中山路三段203號","121.472183333333","25.0063633333333","6500300","中和區"
"235038","185-VK","2018/08/11 19:49:34","新北市中和區自立路6號","121.52243","24.9965566666667","6500300","中和區"
"235049","186-VK","2018/08/11 19:49:36","新北市中和區中興街28號","121.500991666667","24.9948016666667","6500300","中和區"
"235067","255-BX","2018/08/11 19:49:33","新北市中和區新生街220巷3號","121.483323333333","24.998455","6500300","中和區"
"235044","293-VK","2018/08/11 19:49:23","新北市中和區南山路257號","121.503891666667","24.992805","6500300","中和區"
"235072","301-VK","2018/08/11 19:49:34","新北市中和區景平路999巷12號","121.494993333333","25.0063916666667","6500300","中和區"
"235043","352-BY","2018/08/11 19:49:33","新北市中和區興南路二段159巷12號","121.505196666667","24.983065","6500300","中和區"
"235042","KEA-2878","2018/08/11 19:49:24","新北市中和區宜安路167號","121.50868","24.9990816666667","6500300","中和區"
"235050","4979-A6","2018/08/11 19:49:31","新北市中和區和平街164巷2號","121.505985","24.9923183333333","6500300","中和區"
"235069","4980-A6","2018/08/11 19:49:36","新北市中和區南山路37巷3弄1號","121.502748333333","24.9987983333333","6500300","中和區"
"235070","558-UM","2018/08/11 19:49:28","新北市中和區景平路497號","121.499781666667","24.9983333333333","6500300","中和區"
"235054","640-BX","2018/08/11 19:49:30","新北市中和區莒光路175-2號","121.472705","24.9995683333333","6500300","中和區"
"235060","647-TV","2018/08/11 19:49:24","新北市中和區員山路352號","121.481178333333","25.0036133333333","6500300","中和區"
"235047","732-UM","2018/08/11 19:49:28","新北市中和區和平街3號","121.509885","24.9899916666667","6500300","中和區"
"235046","733-UM","2018/08/11 19:49:23","新北市中和區仁愛街34號","121.510903333333","24.9883933333333","6500300","中和區"
"235041","802-TS","2018/08/11 19:49:26","新北市中和區永貞路239巷17號","121.512568333333","25.003085","6500300","中和區"
"235052","805-TS","2018/08/11 19:49:31","新北市中和區華新街30巷13號","121.507216666667","24.984235","6500300","中和區"
"235048","896-TW","2018/08/11 19:49:28","新北市中和區興南路一段147號","121.508745","24.98726","6500300","中和區"
"235053","900-TW","2018/08/11 19:49:36","新北市中和區國光街171巷6號","121.467575","25.0013716666667","6500300","中和區"
"235051","157-BY","2018/08/11 19:49:38","新北市中和區中興街127號","121.500016666667","24.9917","6500300","中和區"
"235037","AAC-213","2018/08/11 19:49:31","新北市中和區自立路193號","121.524383333333","24.9912916666667","6500300","中和區"
"220106","013-TV","2018/08/11 19:49:36","新北市板橋區文化路二段608巷60號","121.48","25.034345","6500100","板橋區"
"220055","015-TV","2018/08/11 19:49:33","新北市板橋區國慶路149巷4弄18-3號","121.46195","24.997045","6500100","板橋區"
"220086","073-UY","2018/08/11 19:49:28","新北市板橋區南雅西路二段7巷27號","121.451935","25.009445","6500100","板橋區"
"220069","AAD-861","2018/08/11 19:49:34","新北市板橋區稚暉街2巷46號","121.45517","25.0028883333333","6500100","板橋區"
"247014","546-UM","2018/08/11 19:49:39","新北市蘆洲區復興路30號","121.472211666667","25.0851616666667","6501400","蘆洲區"
"247004","337-TH","2018/08/11 19:49:32","新北市蘆洲區中原路23號","121.460368333333","25.0827416666667","6501400","蘆洲區"
"247006","336-TH","2018/08/11 19:49:30","新北市蘆洲區永安南路二段26號","121.46723","25.0770633333333","6501400","蘆洲區"
"247008","056-VK","2018/08/11 19:49:27","新北市蘆洲區信義路97號","121.477958333333","25.0799183333333","6501400","蘆洲區"
"247002","002-UY","2018/08/11 19:49:15","新北市蘆洲區永平街27號","121.458763333333","25.09081","6501400","蘆洲區"
"226004","312-R5","2018/08/11 19:49:29","新北市平溪區南山里南山坪5號","121.761711666667","25.03281","6502400","平溪區"
"235059","251-BX","2018/08/11 19:49:24","新北市中和區圓通路305巷29弄2號","121.49505","24.9891033333333","6500300","中和區"
"228003","097-TW","2018/08/11 19:49:37","新北市貢寮區真理里美艷山街3-1號","121.92585","25.05964","6502600","貢寮區"
"228001","212-TW","2018/08/11 19:49:34","新北市貢寮區真理里大澳街10巷48號","121.925605","25.0564016666667","6502600","貢寮區"
"224010","AGQ-8101","2018/08/11 19:49:29","新北市瑞芳區基山街130號","121.843735","25.1082816666667","6501200","瑞芳區"
"224002","639-TC","2018/08/11 19:49:34","新北市瑞芳區三爪子坑路303-2號","121.818328333333","25.1056016666667","6501200","瑞芳區"
"227002","642-TC","2018/08/11 19:49:37","新北市雙溪區雙溪里內挖路47號","121.863235","25.036745","6502500","雙溪區"
"227010","400-TW","2018/08/11 19:49:39","新北市雙溪區新基里中華路88號","121.86598","25.0389533333333","6502500","雙溪區"
"222001","KEA-2212","2018/08/11 19:49:10","新北市深坑區北深路三段69號","121.60638","25.0013966666667","6501800","深坑區"
"208002","KEA-2872","2018/08/11 19:49:38","新北市金山區八德街12號","121.634953333333","25.2236233333333","6502700","金山區"
"208003","665-BX","2018/08/11 19:49:31","新北市金山區清泉里清水路36號","121.629875","25.231155","6502700","金山區"
"208001","761-BX","2018/08/11 19:49:32","新北市金山區重和里六股林口25號","121.603323333333","25.2191866666667","6502700","金山區"
"251009","008-UM","2018/08/11 19:49:19","新北市淡水區中正路38-1號","121.44374","25.1692566666667","6501000","淡水區"
"251005","010-UM","2018/08/11 19:49:33","新北市淡水區中山路56號","121.443898333333","25.1703833333333","6501000","淡水區"
"251001","011-UM","2018/08/11 19:49:27","新北市淡水區坪頂路27號","121.456323333333","25.1622716666667","6501000","淡水區"
"251013","KEA-2871","2018/08/11 19:49:27","新北市淡水區頂田寮17號","121.461616666667","25.2141966666667","6501000","淡水區"
"251016","179-VK","2018/08/11 19:49:33","新北市淡水區三塊厝2-1號","121.454653333333","25.2095233333333","6501000","淡水區"
"251014","180-VK","2018/08/11 19:49:23","新北市淡水區番社前1-2號","121.46917","25.23698","6501000","淡水區"
"251015","181-VK","2018/08/11 19:49:35","新北市淡水區北新路三段73號","121.485138333333","25.1877383333333","6501000","淡水區"
"251010","413-VK","2018/08/11 19:49:35","新北市淡水區崁頂78-5號","121.429408333333","25.207145","6501000","淡水區"
"251012","441-VK","2018/08/11 19:49:39","新北市淡水區淡金路三段70巷3號","121.448376666667","25.2010833333333","6501000","淡水區"
"251008","442-VK","2018/08/11 19:49:27","新北市淡水區中正路二段24巷2-1號","121.426786666667","25.1769283333333","6501000","淡水區"
"251006","561-UM","2018/08/11 19:49:38","新北市淡水區水碓街15號","121.44348","25.17694","6501000","淡水區"
"251007","577-R6","2018/08/11 19:49:30","新北市淡水區中正東路一段3巷30號","121.45213","25.16561","6501000","淡水區"
"251011","650-BX","2018/08/11 19:49:22","新北市淡水區中山北路三段163號","121.445371666667","25.1966416666667","6501000","淡水區"
"251003","673-BX","2018/08/11 19:49:35","新北市淡水區崁頂131號","121.431648333333","25.2052666666667","6501000","淡水區"
"207003","550-UM","2018/08/11 19:49:39","新北市萬里區磺潭里公館崙5號","121.642031666667","25.214405","6502800","萬里區"
"207004","225-TW","2018/08/11 19:49:39","新北市萬里區萬里里瑪鋉路238號","121.689173333333","25.1803733333333","6502800","萬里區"
"252002","178-VK","2018/08/11 19:49:38","新北市三芝區三民街27巷7號","121.504745","25.2584083333333","6502100","三芝區"
"252001","292-VK","2018/08/11 19:49:28","新北市三芝區公正街66號","121.499845","25.2574616666667","6502100","三芝區"
"237004","KEA-2597","2018/08/11 19:49:32","新北市三峽區插角67-5號","121.405958333333","24.8711533333333","6500900","三峽區"
"237007","153-BY","2018/08/11 19:49:33","新北市三峽區二鬮路136巷43號","121.35802","24.908765","6500900","三峽區"
"237009","210-TH","2018/08/11 19:49:29","新北市三峽區清水街437號","121.368501666667","24.9254916666667","6500900","三峽區"
"237013","252-BX","2018/08/11 19:49:22","新北市三峽區介壽路二段140號","121.394118333333","24.935935","6500900","三峽區"
"237012","275-BY","2018/08/11 19:49:22","新北市三峽區中華路5-1號","121.374563333333","24.9327383333333","6500900","三峽區"
"237008","302-VK","2018/08/11 19:49:26","新北市三峽區大同路147巷9號","121.371205","24.9263866666667","6500900","三峽區"
"237014","433-BY","2018/08/11 19:49:25","新北市三峽區添福2-7號","121.37106","24.9079716666667","6500900","三峽區"
"237006","5529-G3","2018/08/11 19:49:31","新北市三峽區中正路一段330-10號","121.369891666667","24.9245716666667","6500900","三峽區"
"237016","649-BX","2018/08/11 19:49:27","新北市三峽區介壽路二段138巷1弄5號","121.396195","24.9340116666667","6500900","三峽區"
"237005","AKY-6261","2018/08/11 19:49:37","新北市三峽區長泰街59-1號","121.377018333333","24.932945","6500900","三峽區"
"236070","105-UM","2018/08/11 19:49:35","新北市土城區水源街19號","121.441103333333","24.9752283333333","6501300","土城區"
"236042","107-UM","2018/08/11 19:49:30","新北市土城區裕民路233巷5號","121.454911666667","24.983435","6501300","土城區"
"236030","253-BX","2018/08/11 19:49:33","新北市土城區中央路一段294號","121.443388333333","24.9823583333333","6501300","土城區"
"236026","269-VK","2018/08/11 19:49:28","新北市土城區中央路二段61巷22號","121.443238333333","24.9787916666667","6501300","土城區"
"236038","271-VK","2018/08/11 19:49:35","新北市土城區國際路158巷2號","121.468481666667","24.9764716666667","6501300","土城區"
"236021","401-BY","2018/08/11 19:49:34","新北市土城區延吉街137巷8號","121.470945","24.9857433333333","6501300","土城區"
"236079","752-BX","2018/08/11 19:49:40","新北市土城區中州路27巷76號","121.412651666667","24.95645","6501300","土城區"
"236059","912-UM","2018/08/11 19:49:27","新北市土城區中央路一段245-1號","121.445338333333","24.9860016666667","6501300","土城區"
"236049","913-UM","2018/08/11 19:49:36","新北市土城區青雲路220號","121.458965","24.9812566666667","6501300","土城區"
"236063","915-UM","2018/08/11 19:49:32","新北市土城區金城路三段149巷4弄14號","121.468443333333","24.9892483333333","6501300","土城區"
"236055","AAC-216","2018/08/11 19:49:37","新北市土城區延和路148號","121.467816666667","24.9902116666667","6501300","土城區"
"242034","AAC-296","2018/08/11 19:49:31","新北市新莊區仁愛街54巷12號","121.445023333333","25.037105","6500500","新莊區"
"242058","986-R7","2018/08/11 19:49:35","新北市新莊區民安路262號","121.427378333333","25.0213383333333","6500500","新莊區"
"242046","497-BY","2018/08/11 19:47:55","新北市新莊區龍安路249巷1號","121.41905","25.02068","6500500","新莊區"
"242036","442-UM","2018/08/11 19:49:32","新北市新莊區民安路207巷30弄28號","121.428283333333","25.0241483333333","6500500","新莊區"
"242007","413-TV","2018/08/11 19:49:40","新北市新莊區思源路593巷3號","121.459248333333","25.0596216666667","6500500","新莊區"
"242023","362-BY","2018/08/11 19:49:38","新北市新莊區化成路292號","121.465745","25.0479083333333","6500500","新莊區"
"242061","353-BY","2018/08/11 19:49:26","新北市新莊區瓊林路89-32號","121.443471666667","25.02631","6500500","新莊區"
"242039","133-UY","2018/08/11 19:49:27","新北市新莊區民安路299巷51號","121.429565","25.0237266666667","6500500","新莊區"
"242031","135-UY","2018/08/11 19:49:35","新北市新莊區忠孝街32號","121.444023333333","25.035565","6500500","新莊區"
"242011","173-VK","2018/08/11 19:49:04","新北市新莊區中原路297號","121.447681666667","25.0544166666667","6500500","新莊區"
"242017","175-VK","2018/08/11 19:49:28","新北市新莊區中港路287號","121.452836666667","25.0439583333333","6500500","新莊區"
"242004","176-VK","2018/08/11 19:49:32","新北市新莊區化成路63巷105號","121.461638333333","25.0458616666667","6500500","新莊區"
"242021","348-TH","2018/08/11 19:49:26","新北市新莊區新泰路99號","121.449093333333","25.0348866666667","6500500","新莊區"
"238015","755-BX","2018/08/11 19:49:33","新北市樹林區中山路二段230號","121.408901666667","24.9801783333333","6500700","樹林區"
"238023","601-UM","2018/08/11 19:49:39","新北市樹林區光武街62號","121.417448333333","25.0073266666667","6500700","樹林區"
"238021","KEA-2539","2018/08/11 19:49:37","新北市樹林區佳園路三段181巷97號","121.391585","24.9483633333333","6500700","樹林區"
"238025","303-VK","2018/08/11 19:49:22","新北市樹林區中山路三段67-5號","121.400571666667","24.975035","6500700","樹林區"
"239002","359-BY","2018/08/11 19:49:30","新北市樹林區中山路三段210-2號","121.381491666667","24.96551","6500800","鶯歌區"
"221036","130-UY","2018/08/11 19:49:34","新北市汐止區汐萬路一段160號","121.652548333333","25.0715733333333","6501100","汐止區"
"221015","131-UY","2018/08/11 19:49:30","新北市汐止區大同路二段527號","121.661763333333","25.0690466666667","6501100","汐止區"
"221010","269-BY","2018/08/11 19:49:24","新北市汐止區連峰街128號","121.646153333333","25.0790466666667","6501100","汐止區"
"221012","278-VK","2018/08/11 19:49:20","新北市汐止區大同路三段380號","121.6813","25.0714916666667","6501100","汐止區"
"221023","279-VK","2018/08/11 19:49:32","新北市汐止區明峰街185號","121.628315","25.069805","6501100","汐止區"
"221032","280-BY","2018/08/11 19:49:31","新北市汐止區橫科路403巷18號","121.625021666667","25.0475566666667","6501100","汐止區"
"221027","281-BY","2018/08/11 19:49:35","新北市汐止區南昌街2巷15號","121.66273","25.0688766666667","6501100","汐止區"
"221008","297-VK","2018/08/11 19:49:35","新北市汐止區康寧街83巷34號","121.620798333333","25.0674","6501100","汐止區"
"221029","298-VK","2018/08/11 19:49:34","新北市汐止區康寧街901號","121.651168333333","25.07505","6501100","汐止區"
"221021","299-VK","2018/08/11 19:49:22","新北市汐止區新興路78號","121.65756","25.0617633333333","6501100","汐止區"
"221031","353-TW","2018/08/11 19:49:39","新北市汐止區福德二路54巷2弄1號","121.633796666667","25.0673783333333","6501100","汐止區"
"221035","622-UM","2018/08/11 19:49:38","新北市汐止區長江街11號","121.654726666667","25.0713616666667","6501100","汐止區"
"221025","623-UM","2018/08/11 19:49:35","新北市汐止區秀峰路81巷42號","121.661536666667","25.064705","6501100","汐止區"
"221038","646-BX","2018/08/11 19:49:24","新北市汐止區忠孝東路428號","121.66605","25.0720016666667","6501100","汐止區"
"221033","647-BX","2018/08/11 19:48:18","新北市汐止區東勢街60號","121.63228","25.039415","6501100","汐止區"
"220079","145-BY","2018/08/11 19:49:30","新北市板橋區大仁街31號","121.455281666667","25.01671","6500100","板橋區"
"220080","200-UY","2018/08/11 19:49:28","新北市板橋區大觀路二段69巷9號","121.44702","25.0022683333333","6500100","板橋區"
"220082","610-BX","2018/08/11 19:49:40","新北市板橋區存德街9號","121.430006666667","24.99193","6500100","板橋區"
"220101","245-BX","2018/08/11 19:49:27","新北市板橋區縣民大道三段103巷10號","121.47603","25.02285","6500100","板橋區"
"220091","267-BY","2018/08/11 19:49:29","新北市板橋區民治街83號","121.479665","25.0322583333333","6500100","板橋區"
"220056","276-BY","2018/08/11 19:49:31","新北市板橋區四川路二段99巷2弄2-3號","121.452718333333","24.99444","6500100","板橋區"
"220072","277-BY","2018/08/11 19:49:20","新北市板橋區篤行路二段77巷16號","121.432606666667","24.9916916666667","6500100","板橋區"
"220094","285-UM","2018/08/11 19:49:26","新北市板橋區長江路一段108號","121.45971","25.0295633333333","6500100","板橋區"
"220053","285-VK","2018/08/11 19:49:42","新北市板橋區中山路二段90巷35號","121.475855","25.0153783333333","6500100","板橋區"
"220083","286-VK","2018/08/11 19:49:37","新北市板橋區龍興街63巷35號","121.442041666667","25.0016233333333","6500100","板橋區"
"220081","287-VK","2018/08/11 19:49:32","新北市板橋區大觀路一段29巷4弄2號","121.450193333333","25.0078283333333","6500100","板橋區"
"220090","288-VK","2018/08/11 19:49:33","新北市板橋區龍泉街54巷7弄1號","121.45678","25.0265583333333","6500100","板橋區"
"220061","293-UM","2018/08/11 19:49:32","新北市板橋區板新路202號","121.469033333333","25.0160533333333","6500100","板橋區"
"220062","295-UM","2018/08/11 19:49:25","新北市板橋區光復街33巷13弄6號","121.482126666667","25.0192333333333","6500100","板橋區"
"220084","296-UM","2018/08/11 19:49:28","新北市板橋區滿平街2巷10號","121.425321666667","24.9894483333333","6500100","板橋區"
"242013","281-VK","2018/08/11 19:49:35","新北市新莊區中泰街25號","121.451025","25.0469383333333","6500500","新莊區"
"220075","303-R5","2018/08/11 19:49:34","新北市板橋區金華街10巷54號","121.457121666667","25.020055","6500100","板橋區"
"220092","307-R5","2018/08/11 19:49:37","新北市板橋區四維路137巷1弄13-1號","121.465053333333","25.0246666666667","6500100","板橋區"
"220098","317-R6","2018/08/11 19:49:38","新北市板橋區四維路269巷94弄2號","121.459473333333","25.0267133333333","6500100","板橋區"
"220065","461-BY","2018/08/11 19:49:38","新北市板橋區區運路9號","121.465328333333","25.0096633333333","6500100","板橋區"
"220064","486-VK","2018/08/11 19:49:39","新北市板橋區實踐路108號","121.46419","25.0045433333333","6500100","板橋區"
"220088","491-VK","2018/08/11 19:49:41","新北市板橋區文聖街130號","121.478016666667","25.0284716666667","6500100","板橋區"
"220035","560-BX","2018/08/11 19:49:25","新北市板橋區幸福路70巷32號","121.460101666667","25.0210266666667","6500100","板橋區"
"220103","561-BX","2018/08/11 19:49:24","新北市板橋區陽明街29巷1弄24號","121.464045","25.0221383333333","6500100","板橋區"
"220071","568-UM","2018/08/11 19:49:19","新北市板橋區五權街30巷24弄3號","121.463871666667","24.9933216666667","6500100","板橋區"
"220063","609-BX","2018/08/11 19:49:32","新北市板橋區三民路一段48號","121.479255","25.0226466666667","6500100","板橋區"
"220054","630-UY","2018/08/11 19:49:30","新北市板橋區忠孝路忠義巷15弄45號","121.465521666667","25.0046466666667","6500100","板橋區"
"220057","686-BX","2018/08/11 19:49:31","新北市板橋區廣權路2號","121.460205","24.9908333333333","6500100","板橋區"
"220077","687-BX","2018/08/11 19:49:32","新北市板橋區僑中一街124巷11弄2號","121.446018333333","25.0130816666667","6500100","板橋區"
"220093","689-BX","2018/08/11 19:49:21","新北市板橋區長江路三段27號","121.472393333333","25.033745","6500100","板橋區"
"220102","KEA-2699","2018/08/11 19:49:29","新北市板橋區松柏街50巷3號","121.475766666667","25.030235","6500100","板橋區"
"220067","829-TW","2018/08/11 19:49:40","新北市板橋區長安街138巷1弄1號","121.472911666667","25.00963","6500100","板橋區"
"220068","830-TW","2018/08/11 19:49:37","新北市板橋區中山路二段412巷5號","121.48325","25.02075","6500100","板橋區"
"220096","831-TW","2018/08/11 19:49:35","新北市板橋區莒光路39巷22號","121.471208333333","25.0251816666667","6500100","板橋區"
"220089","833-TW","2018/08/11 19:49:33","新北市板橋區龍泉街82巷11-4號","121.45592","25.0254916666667","6500100","板橋區"
"220074","895-R6","2018/08/11 19:49:33","新北市板橋區府中路29-1號","121.458685","25.0082483333333","6500100","板橋區"
"220073","985-R7","2018/08/11 19:49:21","新北市板橋區大仁街37號","121.455133333333","25.0166333333333","6500100","板橋區"
"220097","AAC-210","2018/08/11 19:49:25","新北市板橋區文化路一段285巷20號","121.463886666667","25.0194483333333","6500100","板橋區"
"220070","AAC-253","2018/08/11 19:49:29","新北市板橋區民族路83-1號","121.465766666667","25.0085816666667","6500100","板橋區"
"235068","KEA-2873","2018/08/11 19:49:29","新北市中和區莊敬路16巷2號","121.499945","25.0041433333333","6500300","中和區"
