"lineid","car","time","location","longitude","latitude","cityid","cityname"
"249004","303-UY","2018/08/11 20:49:32","新北市八里區中山路一段63號","121.418311666667","25.1594516666667","6502300","八里區"
"234077","969-R7","2018/08/11 20:49:24","新北市八里區荖阡坑路32號","121.403535","25.1276716666667","6500400","永和區"
"234074","AAC-211","2018/08/11 20:49:19","新北市永和區竹林路75巷4弄34號","121.521576666667","25.0141883333333","6500400","永和區"
"244018","403-UM","2018/08/11 20:49:27","新北市林口區粉寮69號","121.405021666667","25.0908466666667","6501700","林口區"
"243011","KEA-2215","2018/08/11 20:49:22","新北市泰山區泰林路二段599巷1-1號","121.421325","25.0634133333333","6501600","泰山區"
"222003","436-BY","2018/08/11 20:49:41","新北市深坑區阿柔洋40號","121.61033","24.9984716666667","6501800","深坑區"
"222002","659-BX","2018/08/11 20:49:22","新北市深坑區北深路三段93巷57號","121.604116666667","25.00053","6501800","深坑區"
"231045","001-UM","2018/08/11 20:49:41","新北市新店區環河路14號","121.537786666667","24.9615816666667","6500600","新店區"
"231059","046-UY","2018/08/11 20:49:24","新北市新店區僑愛三路6號","121.499603333333","24.9447216666667","6500600","新店區"
"231040","047-UY","2018/08/11 20:49:32","新北市新店區中正路253號","121.538945","24.9735083333333","6500600","新店區"
"231044","106-UY","2018/08/11 20:49:29","新北市新店區中正路384號","121.5347","24.9770016666667","6500600","新店區"
"231052","108-UY","2018/08/11 20:49:32","新北市新店區新烏路二段9-1號","121.545196666667","24.9291616666667","6500600","新店區"
"231048","187-VK","2018/08/11 20:49:29","新北市新店區寶元路二段1巷2號","121.55068","24.9841283333333","6500600","新店區"
"231054","KEA-2219","2018/08/11 20:49:38","新北市新店區北新路一段96巷23號","121.542985","24.9686","6500600","新店區"
"231057","256-BX","2018/08/11 20:49:33","新北市新店區新烏路一段93號","121.545915","24.9413866666667","6500600","新店區"
"231042","268-BY","2018/08/11 20:49:19","新北市新店區寶高路120巷1號","121.554633333333","24.976055","6500600","新店區"
"231051","278-BY","2018/08/11 20:49:37","新北市新店區民生路156巷41號","121.528066666667","24.9814616666667","6500600","新店區"
"231050","AAD-862","2018/08/11 20:49:35","新北市新店區中正路247巷45號","121.538208333333","24.9719116666667","6500600","新店區"
"231043","355-BY","2018/08/11 20:49:28","新北市新店區建國路78號","121.540565","24.9765783333333","6500600","新店區"
"231058","3713-VJ","2018/08/11 20:49:32","新北市新店區溪園路395號","121.523548333333","24.9774","6500600","新店區"
"231066","4716-K9","2018/08/11 20:49:34","新北市新店區安民街365巷1弄10號","121.51647","24.9750316666667","6500600","新店區"
"231067","4772-VM","2018/08/11 20:49:40","新北市新店區安華路28-1號","121.519855","24.9608533333333","6500600","新店區"
"231065","512-UM","2018/08/11 20:49:38","新北市新店區安祥路104巷6弄5號","121.481603333333","24.9628983333333","6500600","新店區"
"231049","513-UM","2018/08/11 20:49:24","新北市新店區華潭街1巷92號","121.529468333333","24.95052","6500600","新店區"
"231061","619-UM","2018/08/11 20:49:25","新北市新店區新和街96號","121.520811666667","24.9860166666667","6500600","新店區"
"231063","641-BX","2018/08/11 20:49:28","新北市新店區富貴街11巷34號","121.494903333333","24.9484183333333","6500600","新店區"
"231068","718-UY","2018/08/11 20:49:28","新北市新店區中興路三段220巷19號","121.544968333333","24.9832933333333","6500600","新店區"
"231064","719-UM","2018/08/11 20:49:16","新北市新店區安民街365巷3號","121.516273333333","24.9756533333333","6500600","新店區"
"231062","720-UM","2018/08/11 20:49:25","新北市新店區和成街18巷41號","121.488626666667","24.9463066666667","6500600","新店區"
"231060","897-TW","2018/08/11 20:49:28","新北市新店區安康路三段561巷2弄2號","121.476173333333","24.944285","6500600","新店區"
"241011","013-R5","2018/08/11 20:49:26","新北市三重區龍濱路207號","121.502041666667","25.071725","6500200","三重區"
"241028","022-UY","2018/08/11 20:49:39","新北市三重區中正南路46號","121.493925","25.059995","6500200","三重區"
"241008","059-VK","2018/08/11 20:49:26","新北市三重區永福街72巷11號","121.479381666667","25.0768216666667","6500200","三重區"
"241022","060-VK","2018/08/11 20:49:32","新北市三重區中正北路20巷12號","121.487971666667","25.0624616666667","6500200","三重區"
"241031","061-VK","2018/08/11 20:49:31","新北市三重區重陽路一段113巷2弄2號","121.4875","25.0598733333333","6500200","三重區"
"241015","062-VK","2018/08/11 20:49:31","新北市三重區自強路一段6號","121.498926666667","25.06829","6500200","三重區"
"241017","063-VK","2018/08/11 20:49:41","新北市三重區自強路一段272號","121.492158333333","25.0677316666667","6500200","三重區"
"241024","065-VK","2018/08/11 20:49:28","新北市三重區大勇街51號","121.481286666667","25.071945","6500200","三重區"
"241026","066-VK","2018/08/11 20:49:29","新北市三重區和平街1號","121.500115","25.062295","6500200","三重區"
"241002","090-VK","2018/08/11 20:49:20","新北市三重區仁義街157巷89號","121.49905","25.0819483333333","6500200","三重區"
"241005","265-UM","2018/08/11 20:49:27","新北市三重區五華街141巷27號","121.492186666667","25.0855066666667","6500200","三重區"
"241016","266-UM","2018/08/11 20:49:41","新北市三重區自強路一段220號","121.494051666667","25.0666266666667","6500200","三重區"
"241009","267-UM","2018/08/11 20:49:28","新北市三重區三和路四段197號","121.482058333333","25.0792366666667","6500200","三重區"
"241018","268-UM","2018/08/11 20:49:36","新北市三重區正義北路258號","121.495966666667","25.06868","6500200","三重區"
"241032","269-UM","2018/08/11 20:49:27","新北市三重區重陽路一段120巷37號","121.485008333333","25.0603183333333","6500200","三重區"
"241013","270-UM","2018/08/11 20:49:37","新北市三重區仁賢街12-1號","121.495695","25.0748333333333","6500200","三重區"
"241025","271-UM","2018/08/11 20:49:23","新北市三重區貴陽街21號","121.484323333333","25.061895","6500200","三重區"
"241007","398-BY","2018/08/11 20:49:33","新北市三重區慈愛街1號","121.48467","25.07843","6500200","三重區"
"241035","KEA-2210","2018/08/11 20:49:35","新北市三重區三和路三段8號","121.497183333333","25.0700533333333","6500200","三重區"
"241004","413-TH","2018/08/11 20:49:36","新北市三重區分子尾街36-1號","121.489453333333","25.0810683333333","6500200","三重區"
"241020","478-VK","2018/08/11 20:49:22","新北市三重區忠孝路一段70號","121.489583333333","25.0720366666667","6500200","三重區"
"241030","480-VK","2018/08/11 20:49:27","新北市三重區昌隆街26號","121.492023333333","25.0522283333333","6500200","三重區"
"241014","543-UM","2018/08/11 20:49:34","新北市三重區萬全街77號","121.50153","25.07034","6500200","三重區"
"241023","545-UM","2018/08/11 20:49:33","新北市三重區忠孝路三段84巷1號","121.480283333333","25.0645516666667","6500200","三重區"
"241001","547-UM","2018/08/11 20:49:28","新北市三重區自強路三段78號","121.48705","25.0743333333333","6500200","三重區"
"241019","KEA-2593","2018/08/11 20:49:21","新北市三重區三張街75號","121.49013","25.0705283333333","6500200","三重區"
"241006","AAD-863","2018/08/11 20:49:38","新北市三重區車路頭街139巷12號","121.484216666667","25.076255","6500200","三重區"
"241012","941-UM","2018/08/11 20:49:43","新北市三重區龍門路274巷45號","121.501193333333","25.07561","6500200","三重區"
"241029","942-UM","2018/08/11 20:49:38","新北市三重區重安街14號","121.490305","25.05816","6500200","三重區"
"241033","AAC-255","2018/08/11 20:49:22","新北市三重區光復路二段1號","121.472191666667","25.0533833333333","6500200","三重區"
"247010","KEA-2869","2018/08/11 20:49:27","新北市蘆洲區鷺江街70號","121.477005","25.0837233333333","6501400","蘆洲區"
"247024","893-R6","2018/08/11 20:49:32","新北市蘆洲區長樂路136號","121.462118333333","25.0901316666667","6501400","蘆洲區"
"247014","546-UM","2018/08/11 20:49:39","新北市蘆洲區三民路95號","121.473833333333","25.0849483333333","6501400","蘆洲區"
"247022","500-BY","2018/08/11 20:49:36","新北市蘆洲區中正路185巷48號","121.467153333333","25.08515","6501400","蘆洲區"
"247012","339-TH","2018/08/11 20:49:43","新北市蘆洲區集賢路224巷21號","121.481701666667","25.0869116666667","6501400","蘆洲區"
"247004","337-TH","2018/08/11 20:49:32","新北市蘆洲區長安街97號","121.461688333333","25.0807183333333","6501400","蘆洲區"
"247006","336-TH","2018/08/11 20:49:30","新北市蘆洲區永安南路二段16巷8號","121.467766666667","25.0771883333333","6501400","蘆洲區"
"247016","007-UY","2018/08/11 20:49:39","新北市蘆洲區中正路71號","121.470453333333","25.0827683333333","6501400","蘆洲區"
"247002","002-UY","2018/08/11 20:49:35","新北市蘆洲區永康街116號","121.458256666667","25.0854283333333","6501400","蘆洲區"
"247020","001-UY","2018/08/11 20:49:23","新北市蘆洲區仁愛街66號","121.471516666667","25.093875","6501400","蘆洲區"
"222001","KEA-2212","2018/08/11 20:49:30","新北市深坑區北深路三段133號","121.603943333333","25.0022833333333","6501800","深坑區"
"251009","008-UM","2018/08/11 20:49:39","新北市淡水區民權路187巷17號","121.460265","25.1333316666667","6501000","淡水區"
"251001","011-UM","2018/08/11 20:49:27","新北市淡水區淡金路一段69號","121.458801666667","25.1731016666667","6501000","淡水區"
"251002","012-UM","2018/08/11 20:49:37","新北市淡水區中正東路6號","121.447025","25.1670933333333","6501000","淡水區"
"251013","KEA-2871","2018/08/11 20:49:27","新北市淡水區下圭柔山28巷23號","121.458066666667","25.20382","6501000","淡水區"
"251016","179-VK","2018/08/11 20:49:33","新北市淡水區淡金路四段463號","121.451863333333","25.22352","6501000","淡水區"
"251014","180-VK","2018/08/11 20:49:22","新北市淡水區公埔子32-8號","121.461695","25.2323533333333","6501000","淡水區"
"251015","181-VK","2018/08/11 20:49:35","新北市淡水區淡金路四段542巷17號","121.452761666667","25.2270566666667","6501000","淡水區"
"251010","413-VK","2018/08/11 20:49:34","新北市淡水區沙崙路145號","121.423301666667","25.1831816666667","6501000","淡水區"
"251012","441-VK","2018/08/11 20:49:39","新北市淡水區淡金路四段526-5號","121.45204","25.2263033333333","6501000","淡水區"
"251007","577-R6","2018/08/11 20:49:30","新北市淡水區鄧公路29巷26號","121.452821666667","25.1702966666667","6501000","淡水區"
"251011","650-BX","2018/08/11 20:49:22","新北市淡水區新民街一段21號","121.432496666667","25.1846683333333","6501000","淡水區"
"251003","673-BX","2018/08/11 20:49:35","新北市淡水區中山北路一段247巷96號","121.442203333333","25.1793966666667","6501000","淡水區"
"252002","178-VK","2018/08/11 20:49:38","新北市三芝區淡金路二段91號","121.504103333333","25.2608133333333","6502100","三芝區"
"236079","752-BX","2018/08/11 20:49:36","新北市樹林區中山路三段210-2號","121.381635","24.9654733333333","6501300","土城區"
"242034","AAC-296","2018/08/11 20:49:35","新北市新莊區中正路371號","121.446375","25.034755","6500500","新莊區"
"242027","615-BX","2018/08/11 20:49:23","新北市新莊區環河路48-5號","121.43657","25.0091866666667","6500500","新莊區"
"242042","566-BX","2018/08/11 20:49:36","新北市新莊區天祥街33號","121.41716","25.0285233333333","6500500","新莊區"
"242036","442-UM","2018/08/11 20:49:32","新北市新莊區中正路455-2號","121.442583333333","25.0340233333333","6500500","新莊區"
"242051","441-UM","2018/08/11 20:49:28","新北市新莊區民安東路124號","121.430623333333","25.0206933333333","6500500","新莊區"
"242053","415-TV","2018/08/11 20:48:26","新北市新莊區西盛街324巷30號","121.42683","25.01482","6500500","新莊區"
"242023","362-BY","2018/08/11 20:49:38","新北市新莊區瓊林南路61-87號","121.43948","25.0178383333333","6500500","新莊區"
"242009","132-UY","2018/08/11 20:49:34","新北市新莊區幸福路505號","121.456083333333","25.04928","6500500","新莊區"
"242039","133-UY","2018/08/11 20:49:27","新北市新莊區環河路462號","121.440215","25.019595","6500500","新莊區"
"242031","135-UY","2018/08/11 20:49:35","新北市新莊區中正路508巷5弄2號","121.435055","25.033845","6500500","新莊區"
"242048","172-VK","2018/08/11 20:49:38","新北市新莊區中正路473-1號","121.442048333333","25.032935","6500500","新莊區"
"242002","349-TH","2018/08/11 20:49:38","新北市新莊區中港路五守新村16巷2號","121.454733333333","25.0388666666667","6500500","新莊區"
"238025","303-VK","2018/08/11 20:33:11","新北市樹林區育德街78號","121.387496666667","24.96839","6500700","樹林區"
"221027","281-BY","2018/08/11 20:49:35","新北市汐止區汐萬路一段81號","121.654656666667","25.0700866666667","6501100","汐止區"
"221002","129-UY","2018/08/11 20:49:35","新北市汐止區福德二路169號","121.63083","25.0650283333333","6501100","汐止區"
"221035","622-UM","2018/08/11 20:49:38","新北市汐止區汐萬路一段256巷3號","121.65234","25.07461","6501100","汐止區"
"221033","647-BX","2018/08/11 20:49:37","新北市汐止區合順街18巷8弄5號","121.62039","25.041885","6501100","汐止區"
"221018","753-BX","2018/08/11 20:49:38","新北市汐止區大同路二段613號","121.664178333333","25.0707283333333","6501100","汐止區"
"220070","AAC-253","2018/08/11 20:49:29","新北市八里區中山路三段382號","121.368581666667","25.136115","6500100","板橋區"
