"lineid","car","time","location","longitude","latitude","cityid","cityname"
"234077","969-R7","2018/08/11 21:09:24","新北市八里區中山路三段409號","121.368698333333","25.1347166666667","6500400","永和區"
"244018","403-UM","2018/08/11 20:52:56","新北市林口區粉寮69號","121.405016666667","25.0908616666667","6501700","林口區"
"243006","680-BX","2018/08/11 21:06:19","新北市泰山區黎明路25號","121.422098333333","25.060735","6501600","泰山區"
"231059","046-UY","2018/08/11 21:09:24","新北市新店區僑仁路2號","121.499523333333","24.9514566666667","6500600","新店區"
"231040","047-UY","2018/08/11 21:09:32","新北市新店區北新路一段351號","121.541935","24.9694433333333","6500600","新店區"
"231048","187-VK","2018/08/11 21:09:29","新北市新店區文化路45號","121.544671666667","24.9809883333333","6500600","新店區"
"231054","KEA-2219","2018/08/11 21:09:38","新北市新店區大新街7巷23號","121.544225","24.96786","6500600","新店區"
"231042","268-BY","2018/08/11 21:09:39","新北市新店區寶興路60巷4號","121.549806666667","24.9718716666667","6500600","新店區"
"231051","278-BY","2018/08/11 21:09:37","新北市新店區中正路700巷26號","121.535511666667","24.9910783333333","6500600","新店區"
"231050","AAD-862","2018/08/11 21:09:35","新北市新店區中華路147號","121.538223333333","24.9704733333333","6500600","新店區"
"231066","4716-K9","2018/08/11 21:09:34","新北市新店區薏仁坑路自強巷6號","121.496588333333","24.9583816666667","6500600","新店區"
"231067","4772-VM","2018/08/11 21:09:20","新北市新店區安德街173號","121.508686666667","24.9589383333333","6500600","新店區"
"231065","512-UM","2018/08/11 21:09:37","新北市新店區安祥路69巷41弄70號","121.482385","24.9616016666667","6500600","新店區"
"231061","619-UM","2018/08/11 21:09:25","新北市新店區永安街50號","121.518343333333","24.9867666666667","6500600","新店區"
"231063","641-BX","2018/08/11 21:09:28","新北市新店區玫瑰路61巷1號","121.495916666667","24.9453866666667","6500600","新店區"
"231064","719-UM","2018/08/11 21:08:56","新北市新店區薏仁坑路自強巷1號","121.497575","24.9574583333333","6500600","新店區"
"231060","897-TW","2018/08/11 21:09:28","新北市新店區薏仁坑路自強巷6號","121.49672","24.9584616666667","6500600","新店區"
"241011","013-R5","2018/08/11 21:09:41","新北市三重區龍濱路126號","121.501785","25.0715433333333","6500200","三重區"
"241028","022-UY","2018/08/11 21:09:39","新北市三重區正義南路47號","121.498161666667","25.0606833333333","6500200","三重區"
"241008","059-VK","2018/08/11 21:09:38","新北市三重區自強路1段71-1號","121.497381666667","25.066915","6500200","三重區"
"241022","060-VK","2018/08/11 21:09:32","新北市三重區中正北路64巷21號","121.486045","25.06385","6500200","三重區"
"241031","061-VK","2018/08/11 21:09:31","新北市三重區重新路五段428號","121.475226666667","25.04752","6500200","三重區"
"241015","062-VK","2018/08/11 21:09:36","新北市三重區長元街96-3號","121.50264","25.0666166666667","6500200","三重區"
"241017","063-VK","2018/08/11 21:09:21","新北市三重區國隆路31號","121.492335","25.0644066666667","6500200","三重區"
"241024","065-VK","2018/08/11 21:09:28","新北市三重區國道路一段58巷20號","121.481303333333","25.07202","6500200","三重區"
"241026","066-VK","2018/08/11 21:09:34","新北市三重區光興街1號","121.500258333333","25.0603033333333","6500200","三重區"
"241002","090-VK","2018/08/11 21:09:40","新北市三重區五華街11號","121.494946666667","25.0802916666667","6500200","三重區"
"241003","091-VK","2018/08/11 21:09:32","新北市三重區仁義街224號","121.494946666667","25.0846633333333","6500200","三重區"
"241005","265-UM","2018/08/11 21:09:27","新北市三重區三信路11號","121.488223333333","25.0861966666667","6500200","三重區"
"241016","266-UM","2018/08/11 21:09:41","新北市三重區信義西街138號","121.495741666667","25.064615","6500200","三重區"
"241009","267-UM","2018/08/11 21:09:28","新北市三重區忠孝路二段124號","121.483081666667","25.06881","6500200","三重區"
"241018","268-UM","2018/08/11 21:09:33","新北市三重區正義北路332號","121.494391666667","25.0706566666667","6500200","三重區"
"241032","269-UM","2018/08/11 21:09:27","新北市三重區頂崁街99號","121.47703","25.0615666666667","6500200","三重區"
"241013","270-UM","2018/08/11 21:09:37","新北市三重區仁賢街12-1號","121.495685","25.0748816666667","6500200","三重區"
"241025","271-UM","2018/08/11 21:09:23","新北市三重區中正北路208巷10弄6號","121.48248","25.066875","6500200","三重區"
"241007","398-BY","2018/08/11 21:09:33","新北市三重區三和路四段145巷81號","121.486431666667","25.0786516666667","6500200","三重區"
"241004","413-TH","2018/08/11 21:09:36","新北市三重區仁愛街423-1號","121.490475","25.0814833333333","6500200","三重區"
"241020","478-VK","2018/08/11 21:09:22","新北市三重區忠孝路二段31號","121.486023333333","25.071095","6500200","三重區"
"241030","480-VK","2018/08/11 21:09:27","新北市三重區五谷王北街20巷15弄1號","121.47509","25.048455","6500200","三重區"
"241014","543-UM","2018/08/11 21:09:34","新北市三重區三和路二段37-9號","121.501291666667","25.067685","6500200","三重區"
"241023","545-UM","2018/08/11 21:09:33","新北市三重區忠孝路三段84巷63號","121.482306666667","25.063695","6500200","三重區"
"241001","547-UM","2018/08/11 21:09:28","新北市三重區溪尾街56號","121.490461666667","25.0775633333333","6500200","三重區"
"241019","KEA-2593","2018/08/11 21:09:21","新北市三重區自強路二段74巷13號","121.488136666667","25.06996","6500200","三重區"
"241006","AAD-863","2018/08/11 21:09:37","新北市三重區中正北路2號","121.489263333333","25.0631333333333","6500200","三重區"
"241012","941-UM","2018/08/11 21:09:43","新北市三重區仁信街27號","121.501275","25.0755666666667","6500200","三重區"
"241029","942-UM","2018/08/11 21:09:37","新北市三重區正義南路111號","121.498128333333","25.0586066666667","6500200","三重區"
"241033","AAC-255","2018/08/11 21:09:22","新北市三重區新北大道二段65號","121.469335","25.0612783333333","6500200","三重區"
"247010","KEA-2869","2018/08/11 21:09:26","新北市蘆洲區鷺江街71號","121.477128333333","25.083035","6501400","蘆洲區"
"247024","893-R6","2018/08/11 21:09:32","新北市蘆洲區長興路50巷1號","121.463761666667","25.0837616666667","6501400","蘆洲區"
"247014","546-UM","2018/08/11 21:09:39","新北市蘆洲區中央路155號","121.472673333333","25.0847216666667","6501400","蘆洲區"
"247022","500-BY","2018/08/11 21:09:35","新北市蘆洲區中正路263巷2號","121.467336666667","25.0873716666667","6501400","蘆洲區"
"247012","339-TH","2018/08/11 21:09:38","新北市蘆洲區民族路31-6號","121.477306666667","25.0849233333333","6501400","蘆洲區"
"247004","337-TH","2018/08/11 21:09:32","新北市蘆洲區永安南路二段282-1號","121.457765","25.0811983333333","6501400","蘆洲區"
"247006","336-TH","2018/08/11 21:09:30","新北市蘆洲區九芎街15巷8號","121.468013333333","25.0779966666667","6501400","蘆洲區"
"247018","057-VK","2018/08/11 21:09:24","新北市蘆洲區民族路408巷6號","121.474788333333","25.0917883333333","6501400","蘆洲區"
"247008","056-VK","2018/08/11 21:09:21","新北市蘆洲區民生街45號","121.475043333333","25.0787516666667","6501400","蘆洲區"
"247016","007-UY","2018/08/11 21:09:31","新北市蘆洲區中正路185巷69號","121.465088333333","25.08363","6501400","蘆洲區"
"247002","002-UY","2018/08/11 21:09:35","新北市蘆洲區永平街12號","121.45935","25.0905516666667","6501400","蘆洲區"
"247020","001-UY","2018/08/11 21:09:23","新北市蘆洲區民族路371號","121.471241666667","25.091285","6501400","蘆洲區"
"251009","008-UM","2018/08/11 21:09:39","新北市淡水區民族路112巷40號","121.46197","25.134405","6501000","淡水區"
"251005","010-UM","2018/08/11 21:09:33","新北市淡水區博愛街22號","121.446148333333","25.1697116666667","6501000","淡水區"
"251001","011-UM","2018/08/11 21:09:27","新北市淡水區新市一路三段101巷16弄3號","121.446446666667","25.1837883333333","6501000","淡水區"
"251002","012-UM","2018/08/11 21:09:37","新北市淡水區水源街一段158號","121.448466666667","25.1713433333333","6501000","淡水區"
"251013","KEA-2871","2018/08/11 21:09:27","新北市淡水區番子厝11號","121.461858333333","25.2017566666667","6501000","淡水區"
"251016","179-VK","2018/08/11 21:09:33","新北市淡水區前洲子28號","121.440986666667","25.2192666666667","6501000","淡水區"
"251014","180-VK","2018/08/11 21:09:22","新北市淡水區六塊厝1-3號","121.451273333333","25.242575","6501000","淡水區"
"251015","181-VK","2018/08/11 21:09:34","新北市淡水區淡金路四段542巷85號","121.455603333333","25.2262183333333","6501000","淡水區"
"251010","413-VK","2018/08/11 21:09:34","新北市淡水區中正路一段63巷9號","121.422523333333","25.1770966666667","6501000","淡水區"
"251012","441-VK","2018/08/11 21:09:39","新北市淡水區六塊厝17號","121.454895","25.2404933333333","6501000","淡水區"
"251007","577-R6","2018/08/11 21:09:30","新北市淡水區學府路96號","121.449663333333","25.17154","6501000","淡水區"
"251011","650-BX","2018/08/11 21:09:42","新北市淡水區新民街120巷45弄24號","121.437755","25.1798266666667","6501000","淡水區"
"251003","673-BX","2018/08/11 21:09:35","新北市淡水區新春街95-1號","121.439498333333","25.182675","6501000","淡水區"
"242051","441-UM","2018/08/11 21:09:28","新北市樹林區八德街828-3號","121.393241666667","24.9686516666667","6500500","新莊區"
"221010","269-BY","2018/08/11 21:09:23","新北市汐止區汐萬路一段256巷3號","121.652151666667","25.074735","6501100","汐止區"
"220070","AAC-253","2018/08/11 21:09:29","新北市林口區太平里180號","121.368346666667","25.1344133333333","6500100","板橋區"
