"lineid","car","time","location","longitude","latitude","cityid","cityname"
"234077","969-R7","2018/08/11 21:28:05","新北市八里區荖阡坑路34-2號","121.400785","25.130805","6500400","永和區"
"243001","297-R6","2018/08/11 21:09:55","新北市泰山區黎明路33號","121.421563333333","25.0604816666667","6501600","泰山區"
"243006","680-BX","2018/08/11 21:06:19","新北市泰山區黎明路25號","121.422098333333","25.060735","6501600","泰山區"
"231063","641-BX","2018/08/11 21:29:28","新北市新店區如意街76號","121.494951666667","24.9469216666667","6500600","新店區"
"241017","063-VK","2018/08/11 21:29:41","新北市三重區中正北路25巷2號","121.49324","25.0627016666667","6500200","三重區"
"241024","065-VK","2018/08/11 21:29:28","新北市三重區中正北路145巷8弄2號","121.484076666667","25.0678466666667","6500200","三重區"
"241026","066-VK","2018/08/11 21:29:29","新北市三重區同安街113號","121.494273333333","25.0564","6500200","三重區"
"241005","265-UM","2018/08/11 21:29:27","新北市三重區仁華街85號","121.48574","25.0829683333333","6500200","三重區"
"241016","266-UM","2018/08/11 21:29:41","新北市三重區正義北路109號","121.497085","25.0656483333333","6500200","三重區"
"241025","271-UM","2018/08/11 21:29:23","新北市新莊區五工一路85號","121.461886666667","25.067565","6500200","三重區"
"241007","398-BY","2018/08/11 21:29:33","新北市三重區正義北路124號","121.496876666667","25.0655016666667","6500200","三重區"
"241006","AAD-863","2018/08/11 21:28:17","新北市五股區中直路13-7號","121.423955","25.1108233333333","6500200","三重區"
"247010","KEA-2869","2018/08/11 21:29:27","新北市五股區四維路185巷52號","121.463205","25.0777383333333","6501400","蘆洲區"
"247012","339-TH","2018/08/11 21:29:38","新北市蘆洲區永平街62號","121.454535","25.0936766666667","6501400","蘆洲區"
"247006","336-TH","2018/08/11 21:29:30","新北市蘆洲區中原路85號","121.458043333333","25.0817316666667","6501400","蘆洲區"
"247016","007-UY","2018/08/11 21:28:31","新北市五股區中直路21號","121.421178333333","25.112025","6501400","蘆洲區"
"251009","008-UM","2018/08/11 21:29:38","新北市淡水區民族路33巷16-3號","121.463471666667","25.136035","6501000","淡水區"
"251005","010-UM","2018/08/11 21:29:33","新北市淡水區水源街一段34巷8號","121.443215","25.171865","6501000","淡水區"
"251001","011-UM","2018/08/11 21:29:27","新北市淡水區新市二路三段18號","121.433156666667","25.19365","6501000","淡水區"
"251013","KEA-2871","2018/08/11 21:29:27","新北市淡水區埤島50號","121.460105","25.1981233333333","6501000","淡水區"
"251016","179-VK","2018/08/11 21:29:33","新北市淡水區前洲子11號","121.441056666667","25.2193933333333","6501000","淡水區"
"251014","180-VK","2018/08/11 21:29:22","新北市淡水區六塊厝2-5號","121.448738333333","25.2404883333333","6501000","淡水區"
"251015","181-VK","2018/08/11 21:29:34","新北市淡水區淡金路四段542巷17號","121.452918333333","25.2270916666667","6501000","淡水區"
"251010","413-VK","2018/08/11 21:29:34","新北市淡水區沙崙路25巷21號","121.420558333333","25.1824583333333","6501000","淡水區"
"251012","441-VK","2018/08/11 21:29:39","新北市淡水區石頭埔8號","121.452485","25.2346916666667","6501000","淡水區"
"251008","442-VK","2018/08/11 21:29:33","新北市淡水區水源街二段142號","121.453911666667","25.1748666666667","6501000","淡水區"
"251004","443-VK","2018/08/11 21:29:34","新北市淡水區民族路8號","121.460533333333","25.1368316666667","6501000","淡水區"
"251006","561-UM","2018/08/11 21:29:38","新北市淡水區公明街29號","121.443026666667","25.169045","6501000","淡水區"
"251007","577-R6","2018/08/11 21:29:30","新北市淡水區水源街二段194號","121.456866666667","25.176065","6501000","淡水區"
"251011","650-BX","2018/08/11 21:29:42","新北市淡水區新民街180-6號","121.436653333333","25.1789416666667","6501000","淡水區"
"251003","673-BX","2018/08/11 21:29:35","新北市淡水區崁頂15-5號","121.438983333333","25.1858816666667","6501000","淡水區"
"242051","441-UM","2018/08/11 21:29:28","新北市樹林區八德街435號","121.40611","24.9694133333333","6500500","新莊區"
"221010","269-BY","2018/08/11 21:20:16","新北市汐止區汐萬路一段256巷1號","121.652048333333","25.0747016666667","6501100","汐止區"
"220070","AAC-253","2018/08/11 21:29:29","新北市五股區新城三路45號","121.44872","25.093305","6500100","板橋區"
