"lineid","car","time","location","longitude","latitude","cityid","cityname"
"248005","653-BX","2018/04/02 07:19:34","新北市五股區明德路12巷3號","121.433323333333","25.07177","6501500","五股區"
"232001","290-BY","2018/04/02 07:19:29","新北市坪林區桶盤嶼10-1號","121.706593333333","24.9584616666667","6502000","坪林區"
"232012","291-BY","2018/04/02 07:19:23","新北市坪林區仁里13號","121.686596666667","24.92892","6502000","坪林區"
"232010","375-UM","2018/04/02 07:19:16","新北市坪林區水聳淒坑24號","121.719166666667","24.924785","6502000","坪林區"
"232017","705-BZ","2018/04/02 07:19:16","新北市坪林區九芎坑3號","121.724445","24.9656616666667","6502000","坪林區"
"232005","758-BX","2018/04/02 07:19:31","新北市坪林區魚堀39-2號","121.699736666667","24.9319716666667","6502000","坪林區"
"244001","248-BX","2018/04/02 07:19:18","新北市林口區頂福里71-33號","121.356556666667","25.0792733333333","6501700","林口區"
"222005","289-BY","2018/04/02 07:19:20","新北市深坑區文化街39巷13號","121.618926666667","25.0010316666667","6501800","深坑區"
"235001","611-BX","2018/04/02 07:19:28","新北市中和區圓通路367巷4號","121.491383333333","24.9892166666667","6500300","中和區"
"226005","5620-A6","2018/04/02 07:18:38","新北市平溪區菁桐里二坑路1號","121.721211666667","25.0242083333333","6502400","平溪區"
"226001","7418-A5","2018/04/02 07:19:15","新北市平溪區望古里灰3號","121.757685","25.030045","6502400","平溪區"
"226003","AGD-0702","2018/04/02 07:19:20","新北市平溪區嶺腳里嶺腳寮59號","121.747863333333","25.0312466666667","6502400","平溪區"
"223006","022-BY","2018/04/02 07:19:21","新北市石碇區新興坑31號","121.64989","25.0138566666667","6501900","石碇區"
"223001","205-TH","2018/04/02 07:16:08","新北市石碇區烏塗窟8號","121.6558","24.9751816666667","6501900","石碇區"
"223008","406-TH","2018/04/02 07:19:27","新北市石碇區番子坑26號","121.67752","25.0018166666667","6501900","石碇區"
"223001","592-UM","2018/04/02 07:19:24","新北市石碇區烏塗窟23號","121.657038333333","24.97511","6501900","石碇區"
"223004","660-BX","2018/04/02 07:19:19","新北市石碇區新興坑4-1號","121.653903333333","25.016675","6501900","石碇區"
"223007","661-BX","2018/04/02 07:19:18","新北市石碇區蚯蚓坑19-7號","121.69215","25.0035666666667","6501900","石碇區"
"223005","677-TV","2018/04/02 07:19:25","新北市石碇區新興坑3號","121.654328333333","25.0166166666667","6501900","石碇區"
"227005","282-VK","2018/04/02 07:19:21","新北市雙溪區新基里自強路5號","121.8663","25.0390633333333","6502500","雙溪區"
"252006","073-UM","2018/04/02 07:19:32","新北市三芝區錫板里海尾25號","121.484305","25.25561","6502100","三芝區"
"252004","249-BX","2018/04/02 07:19:21","新北市三芝區福德里大湖9-1號","121.50508","25.2226883333333","6502100","三芝區"
"237001","159-UY","2018/04/02 07:19:22","新北市三峽區中山路459巷90-1號","121.354731666667","24.936085","6500900","三峽區"
"236007","165-UM","2018/04/02 07:19:34","新北市土城區中央路一段31號","121.448205","24.99071","6501300","土城區"
"236001","339-SR","2018/04/02 07:19:22","新北市土城區忠義路68號","121.445788333333","24.9663066666667","6501300","土城區"
"242052","751-BX","2018/04/02 07:19:25","新北市新莊區新泰路357巷3弄57號","121.442023333333","25.0392183333333","6500500","新莊區"
"242057","705-TV","2018/04/02 07:19:27","新北市新莊區新泰路357巷3弄57號","121.442198333333","25.0393016666667","6500500","新莊區"
"242022","362-BY","2018/04/02 07:19:25","新北市新莊區新泰路255巷83號","121.442345","25.0386683333333","6500500","新莊區"
"242016","175-VK","2018/04/02 07:19:25","新北市新莊區三和路12-21號","121.441908333333","25.0385833333333","6500500","新莊區"
"220064","282-UM","2018/04/02 07:19:34","新北市板橋區國光路51號","121.458125","25.01795","6500100","板橋區"
