"lineid","car","time","location","longitude","latitude","cityid","cityname"
"248005","653-BX","2018/04/02 07:39:34","新北市五股區明德路10號","121.433386666667","25.07177","6501500","五股區"
"232001","290-BY","2018/04/02 07:39:29","新北市坪林區上坑子口1-2號","121.698306666667","24.95601","6502000","坪林區"
"232012","291-BY","2018/04/02 07:39:23","新北市坪林區金瓜寮16-2號","121.682505","24.9168833333333","6502000","坪林區"
"232010","375-UM","2018/04/02 07:39:36","新北市坪林區苦苓腳2號","121.714108333333","24.9363783333333","6502000","坪林區"
"232017","705-BZ","2018/04/02 07:39:36","新北市平溪區東勢里芊蓁坑29號","121.732385","24.9757516666667","6502000","坪林區"
"232005","758-BX","2018/04/02 07:39:31","新北市坪林區魚堀35-1號","121.6988","24.9292583333333","6502000","坪林區"
"244001","248-BX","2018/04/02 07:39:18","新北市林口區頂福里8鄰70-2號","121.330606666667","25.10042","6501700","林口區"
"222005","289-BY","2018/04/02 07:19:46","新北市深坑區文化街39巷13號","121.619108333333","25.0011316666667","6501800","深坑區"
"231007","189-VK","2018/04/02 07:39:32","新北市新店區安華路28-1號","121.519715","24.9614583333333","6500600","新店區"
"235001","611-BX","2018/04/02 07:39:28","新北市中和區圓通路367巷6號","121.491466666667","24.9892633333333","6500300","中和區"
"226005","5620-A6","2018/04/02 07:39:18","新北市平溪區石底里公園街7號","121.738125","25.0251783333333","6502400","平溪區"
"226001","7418-A5","2018/04/02 07:23:15","新北市平溪區望古里灰4-2號","121.763303333333","25.02941","6502400","平溪區"
"226003","AGD-0702","2018/04/02 07:35:20","新北市平溪區嶺腳里嶺腳寮83-2號","121.750303333333","25.0349716666667","6502400","平溪區"
"223006","022-BY","2018/04/02 07:39:21","新北市石碇區番子坑20號","121.674073333333","25.001265","6501900","石碇區"
"223001","205-TH","2018/04/02 07:39:36","新北市石碇區蓬菜寮17號","121.649011666667","24.9714183333333","6501900","石碇區"
"223008","406-TH","2018/04/02 07:32:19","新北市石碇區靜安路一段337號","121.698786666667","25.0146866666667","6501900","石碇區"
"223001","592-UM","2018/04/02 07:39:24","新北市石碇區蓬菜寮16號","121.649318333333","24.9726033333333","6501900","石碇區"
"223004","660-BX","2018/04/02 07:39:19","新北市石碇區八分寮49-1號","121.64272","25.0143266666667","6501900","石碇區"
"223005","677-TV","2018/04/02 07:39:25","新北市石碇區八分寮47-1號","121.64248","25.0138833333333","6501900","石碇區"
"227005","282-VK","2018/04/02 07:39:21","新北市雙溪區雙溪里太平路54號","121.864751666667","25.0355","6502500","雙溪區"
"252006","073-UM","2018/04/02 07:39:32","新北市三芝區古庄里古庄81-3號","121.48891","25.2692283333333","6502100","三芝區"
"252004","249-BX","2018/04/02 07:39:21","新北市三芝區店子里菜公坑76-1號","121.509425","25.2057316666667","6502100","三芝區"
"237001","159-UY","2018/04/02 07:39:22","新北市三峽區國慶路136號","121.375871666667","24.9396633333333","6500900","三峽區"
"236007","165-UM","2018/04/02 07:39:34","新北市土城區金城路三段267號","121.47212","24.9905716666667","6501300","土城區"
"236001","339-SR","2018/04/02 07:39:22","新北市土城區南天母路137-10號","121.44856","24.9538866666667","6501300","土城區"
"242028","986-R7","2018/04/02 07:39:34","新北市新莊區新泰路357巷3弄57號","121.442311666667","25.0393866666667","6500500","新莊區"
"242052","751-BX","2018/04/02 07:39:25","新北市新莊區新樹路67巷5號","121.442146666667","25.0303716666667","6500500","新莊區"
"242057","705-TV","2018/04/02 07:39:27","新北市新莊區中正路334巷7號","121.445443333333","25.0352216666667","6500500","新莊區"
"242026","615-BX","2018/04/02 07:39:25","新北市新莊區新泰路255巷83號","121.442266666667","25.03883","6500500","新莊區"
"242040","566-BX","2018/04/02 07:39:17","新北市新莊區新泰路357巷3弄57號","121.442091666667","25.0391466666667","6500500","新莊區"
"242045","497-BY","2018/04/02 07:39:22","新北市新莊區新泰路357巷3號","121.441988333333","25.0415433333333","6500500","新莊區"
"242049","441-UM","2018/04/02 07:39:29","新北市新莊區中正路384號","121.441948333333","25.0344966666667","6500500","新莊區"
"242035","415-TV","2018/04/02 07:39:22","新北市新莊區新泰路357巷3弄57號","121.442078333333","25.0392616666667","6500500","新莊區"
"242006","413-TV","2018/04/02 07:39:27","新北市新莊區新泰路357巷3弄57號","121.44176","25.039365","6500500","新莊區"
"242043","400-BY","2018/04/02 07:39:21","新北市新莊區中正路531-1號","121.439228333333","25.0333816666667","6500500","新莊區"
"242022","362-BY","2018/04/02 07:39:25","新北市新莊區新泰路255巷83號","121.442278333333","25.0387266666667","6500500","新莊區"
"242059","353-BY","2018/04/02 07:39:29","新北市新莊區新泰路255巷83號","121.442255","25.0387383333333","6500500","新莊區"
"242038","133-UY","2018/04/02 07:39:35","新北市新莊區新泰路255巷83號","121.442095","25.03892","6500500","新莊區"
"242030","135-UY","2018/04/02 07:39:26","新北市新莊區三和路12-21號","121.44205","25.038785","6500500","新莊區"
"242047","172-VK","2018/04/02 07:39:22","新北市新莊區中正路480號","121.43853","25.0332883333333","6500500","新莊區"
"242016","175-VK","2018/04/02 07:39:25","新北市新莊區三和路12-21號","121.442023333333","25.03864","6500500","新莊區"
"242003","176-VK","2018/04/02 07:39:24","新北市新莊區新泰路357巷3弄57號","121.442135","25.0392183333333","6500500","新莊區"
"242001","349-TH","2018/04/02 07:39:29","新北市新莊區三和路12-16號","121.441966666667","25.0374283333333","6500500","新莊區"
"242012","351-TH","2018/04/02 07:39:28","新北市新莊區新泰路357巷3弄57號","121.441813333333","25.0394816666667","6500500","新莊區"
"220064","282-UM","2018/04/02 07:39:33","新北市板橋區中正路170號","121.456451666667","25.0170383333333","6500100","板橋區"
"242018","280-VK","2018/04/02 07:39:20","新北市新莊區三和路12-21號","121.44201","25.03826","6500500","新莊區"
