"lineid","car","time","location","longitude","latitude","cityid","cityname"
"248005","653-BX","2018/04/02 07:48:54","新北市五股區明德路12巷6號","121.433415","25.07186","6501500","五股區"
"232001","290-BY","2018/04/02 07:48:49","新北市坪林區上坑子口23號","121.702536666667","24.9515133333333","6502000","坪林區"
"232012","291-BY","2018/04/02 07:49:03","新北市坪林區金瓜寮19-2號","121.680843333333","24.9138866666667","6502000","坪林區"
"232010","375-UM","2018/04/02 07:48:56","新北市坪林區磨壁潭4號","121.721203333333","24.9386583333333","6502000","坪林區"
"232017","705-BZ","2018/04/02 07:48:36","新北市坪林區乾溪2-2號","121.741198333333","24.97692","6502000","坪林區"
"232005","758-BX","2018/04/02 07:48:51","新北市坪林區魚堀49號","121.701448333333","24.929945","6502000","坪林區"
"244001","248-BX","2018/04/02 07:48:58","新北市林口區頂福里24號","121.35282","25.0949916666667","6501700","林口區"
"244018","657-BX","2018/04/02 07:49:07","新北市林口區粉寮69號","121.405031666667","25.09087","6501700","林口區"
"222005","289-BY","2018/04/02 07:49:06","新北市深坑區文化街74號","121.618078333333","25.0015066666667","6501800","深坑區"
"231007","189-VK","2018/04/02 07:48:52","新北市新店區安華路28-1號","121.519735","24.96149","6500600","新店區"
"231008","192-VK","2018/04/02 07:48:54","新北市新店區安華路28-1號","121.519245","24.9613483333333","6500600","新店區"
"235001","611-BX","2018/04/02 07:49:07","新北市中和區圓通路367巷4號","121.49136","24.98926","6500300","中和區"
"226005","5620-A6","2018/04/02 07:48:58","新北市平溪區靜安路二段393號","121.738688333333","25.02457","6502400","平溪區"
"226001","7418-A5","2018/04/02 07:48:55","新北市平溪區平湖里大厝37-3號","121.780363333333","25.02884","6502400","平溪區"
"226003","AGD-0702","2018/04/02 07:35:20","新北市平溪區嶺腳里嶺腳寮83-2號","121.750303333333","25.0349716666667","6502400","平溪區"
"223006","022-BY","2018/04/02 07:49:01","新北市石碇區蚯蚓坑29-1號","121.685981666667","25.0101916666667","6501900","石碇區"
"223001","205-TH","2018/04/02 07:48:56","新北市石碇區蛇舌子6號","121.664833333333","24.96859","6501900","石碇區"
"223008","406-TH","2018/04/02 07:32:19","新北市石碇區靜安路一段337號","121.698786666667","25.0146866666667","6501900","石碇區"
"223001","592-UM","2018/04/02 07:49:04","新北市石碇區蛇舌子6號","121.664871666667","24.968495","6501900","石碇區"
"223004","660-BX","2018/04/02 07:48:59","新北市石碇區楓子林30號","121.642296666667","25.00955","6501900","石碇區"
"223005","677-TV","2018/04/02 07:49:05","新北市石碇區楓子林30號","121.642301666667","25.0096183333333","6501900","石碇區"
"227005","282-VK","2018/04/02 07:49:01","新北市雙溪區雙溪里太平路54號","121.86472","25.0355066666667","6502500","雙溪區"
"252006","073-UM","2018/04/02 07:48:52","新北市三芝區古庄里四棧橋41號","121.48194","25.26382","6502100","三芝區"
"252004","249-BX","2018/04/02 07:49:01","新北市三芝區店子里菜公坑102號","121.517498333333","25.2071083333333","6502100","三芝區"
"237001","159-UY","2018/04/02 07:49:02","新北市三峽區國慶路144號","121.375638333333","24.9398683333333","6500900","三峽區"
"236007","165-UM","2018/04/02 07:48:54","新北市土城區清水路259號","121.462943333333","24.9844216666667","6501300","土城區"
"236001","339-SR","2018/04/02 07:46:42","新北市土城區承天路114號","121.452431666667","24.9498633333333","6501300","土城區"
"242033","AAC-296","2018/04/02 07:48:55","新北市新莊區瓊林路110-1號","121.442291666667","25.0260283333333","6500500","新莊區"
"242028","986-R7","2018/04/02 07:48:54","新北市新莊區幸福路762號","121.447101666667","25.0493566666667","6500500","新莊區"
"242052","751-BX","2018/04/02 07:49:05","新北市新莊區環河路636-1號","121.436646666667","25.0107966666667","6500500","新莊區"
"242057","705-TV","2018/04/02 07:48:48","新北市泰山區磚雅厝2-5號","121.441925","25.0432333333333","6500500","新莊區"
"242026","615-BX","2018/04/02 07:49:05","新北市新莊區中港路307號","121.45277","25.0447033333333","6500500","新莊區"
"242040","566-BX","2018/04/02 07:48:57","新北市新莊區中正路471號","121.441876666667","25.0339016666667","6500500","新莊區"
"242045","497-BY","2018/04/02 07:49:02","新北市新莊區新樹路65-5號","121.43945","25.0308216666667","6500500","新莊區"
"242049","441-UM","2018/04/02 07:48:49","新北市新莊區瓊林南路42巷1-1號","121.435946666667","25.0178083333333","6500500","新莊區"
"242055","440-UM","2018/04/02 07:48:56","新北市新莊區新莊路664-2號","121.442123333333","25.032985","6500500","新莊區"
"242035","415-TV","2018/04/02 07:49:02","新北市新莊區中正路481號","121.441365","25.033765","6500500","新莊區"
"242006","413-TV","2018/04/02 07:48:47","新北市新莊區新泰路488號","121.442483333333","25.0457666666667","6500500","新莊區"
"242043","400-BY","2018/04/02 07:49:00","新北市新莊區富國路101-1號","121.42134","25.02551","6500500","新莊區"
"242022","362-BY","2018/04/02 07:49:05","新北市新莊區中平路82巷2號","121.444828333333","25.04485","6500500","新莊區"
"242059","353-BY","2018/04/02 07:48:50","新北市新莊區三和路10號","121.441973333333","25.0357433333333","6500500","新莊區"
"242038","133-UY","2018/04/02 07:48:55","新北市新莊區新泰路357巷3弄1號","121.44227","25.041585","6500500","新莊區"
"242030","135-UY","2018/04/02 07:48:46","新北市新莊區三和路12-20號","121.442275","25.03779","6500500","新莊區"
"242047","172-VK","2018/04/02 07:49:02","新北市新莊區龍安路249巷1號","121.419041666667","25.0206866666667","6500500","新莊區"
"242016","175-VK","2018/04/02 07:49:05","新北市新莊區中港路307號","121.452695","25.044695","6500500","新莊區"
"242003","176-VK","2018/04/02 07:49:04","新北市新莊區中平路82巷3號","121.445048333333","25.0449533333333","6500500","新莊區"
"242014","346-TH","2018/04/02 07:48:52","新北市新莊區建中街150號","121.444918333333","25.03652","6500500","新莊區"
"242020","348-TH","2018/04/02 07:49:06","新北市新莊區公園路212號","121.455643333333","25.0404566666667","6500500","新莊區"
"242001","349-TH","2018/04/02 07:48:49","新北市新莊區新泰路287號","121.445565","25.04067","6500500","新莊區"
"242012","351-TH","2018/04/02 07:48:48","新北市新莊區三和路12-21號","121.442131666667","25.038525","6500500","新莊區"
"220064","282-UM","2018/04/02 07:48:54","新北市板橋區南雅南路一段53號","121.455888333333","25.006055","6500100","板橋區"
"242008","281-VK","2018/04/02 07:49:01","新北市新莊區新泰路369巷21號","121.442758333333","25.04318","6500500","新莊區"
"242018","280-VK","2018/04/02 07:49:00","新北市新莊區中平路82巷5號","121.445161666667","25.0450066666667","6500500","新莊區"
