"lineid","car","time","location","longitude","latitude","cityid","cityname"
"234044","148-BY","2018/01/06 13:29:40","新北市永和區秀朗路二段131號","121.524558333333","25.001675","6500400","永和區"
"234012","149-BY","2018/01/06 13:29:52","新北市永和區中山路一段184巷9弄1號","121.508438333333","25.0092233333333","6500400","永和區"
"234005","207-UY","2018/01/06 13:29:46","新北市永和區中山路一段232號","121.507853333333","25.008185","6500400","永和區"
"234078","298-R6","2018/01/06 13:29:52","新北市永和區林森路10巷18弄17號","121.526296666667","25.0071883333333","6500400","永和區"
"234036","336-UY","2018/01/06 13:29:51","新北市永和區民樂街30巷2號","121.527568333333","25.0013","6500400","永和區"
"234062","337-UY","2018/01/06 13:29:58","新北市永和區中正路368巷1弄73號","121.520338333333","25.0008516666667","6500400","永和區"
"234084","338-UY","2018/01/06 13:29:55","新北市永和區永元路138號","121.522868333333","25.0031816666667","6500400","永和區"
"234052","553-UM","2018/01/06 13:29:56","新北市永和區復興街19巷4號","121.516168333333","25.01317","6500400","永和區"
"234015","745-BX","2018/01/06 13:29:52","新北市永和區環河西路一段51巷2號","121.51373","25.01825","6500400","永和區"
"234028","746-BX","2018/01/06 13:29:49","新北市永和區民生路75號","121.522578333333","24.9970133333333","6500400","永和區"
"234060","AAD-866","2018/01/06 13:29:49","新北市永和區中正路403號","121.51712","25.0046983333333","6500400","永和區"
"234068","847-RS","2018/01/06 13:29:47","新北市永和區竹林路169號","121.520478333333","25.0101216666667","6500400","永和區"
"234040","862-TW","2018/01/06 13:29:57","新北市永和區水源街39巷24號","121.510618333333","25.0033266666667","6500400","永和區"
"234048","863-TW","2018/01/06 13:29:39","新北市永和區信義路84號","121.512506666667","25.0134566666667","6500400","永和區"
"234025","9371-KE","2018/01/06 13:29:46","新北市永和區中山路一段17巷4弄13號","121.513551666667","25.0101516666667","6500400","永和區"
"234010","9373-KE","2018/01/06 13:29:37","新北市永和區仁愛路141巷30弄5號","121.512003333333","25.01156","6500400","永和區"
"248017","225-UY","2018/01/06 13:29:26","新北市五股區御史路300號","121.416815","25.1098883333333","6501500","五股區"
"234022","9380-KE","2018/01/06 13:29:43","新北市永和區竹林路91巷43弄2號","121.521281666667","25.0128866666667","6500400","永和區"
"234076","969-R7","2018/01/06 13:29:54","新北市永和區智光街53號","121.517211666667","24.9980466666667","6500400","永和區"
"234072","AAC-211","2018/01/06 13:29:43","新北市永和區光復街60巷25號","121.517808333333","25.0175483333333","6500400","永和區"
"234066","AAC-212","2018/01/06 13:29:56","新北市永和區保平路176號","121.510853333333","25.0066716666667","6500400","永和區"
"234001","AAC-295","2018/01/06 13:29:52","新北市永和區永和路一段107號","121.513811666667","25.00792","6500400","永和區"
"231002","001-UM","2018/01/06 13:29:55","新北市新店區環河路29巷1號","121.536988333333","24.9613416666667","6500600","新店區"
"231025","0291-UT","2018/01/06 13:29:42","新北市新店區中央七街61巷10號","121.528648333333","24.9763616666667","6500600","新店區"
"231037","0293-UT","2018/01/06 13:29:40","新北市新店區安康路二段380號","121.500546666667","24.957075","6500600","新店區"
"231028","046-UY","2018/01/06 13:29:44","新北市新店區安康路一段355-3號","121.519778333333","24.9622583333333","6500600","新店區"
"231030","047-UY","2018/01/06 13:29:50","新北市新店區安康路一段355-1號","121.519005","24.9639416666667","6500600","新店區"
"231029","106-UY","2018/01/06 13:29:53","新北市新店區車子路10-4號","121.50493","24.95459","6500600","新店區"
"231018","107-UY","2018/01/06 13:29:48","新北市新店區中央路151號","121.529273333333","24.9721216666667","6500600","新店區"
"231012","108-UY","2018/01/06 13:29:45","新北市新店區德正街24號","121.543908333333","24.9721116666667","6500600","新店區"
"231020","187-VK","2018/01/06 13:29:50","新北市新店區北宜路一段142號","121.540053333333","24.9542366666667","6500600","新店區"
"231017","KEA-2219","2018/01/06 13:29:43","新北市新店區新烏路一段11巷1弄2號","121.547356666667","24.95137","6500600","新店區"
"231026","256-BX","2018/01/06 13:29:36","新北市新店區秀山路20號","121.532531666667","24.9604383333333","6500600","新店區"
"231010","278-BY","2018/01/06 13:29:43","新北市新店區自由街8號","121.535366666667","24.9749633333333","6500600","新店區"
"231023","AAD-862","2018/01/06 13:29:49","新北市新店區新店路13號","121.54029","24.9528483333333","6500600","新店區"
"231027","3712-VJ","2018/01/06 13:29:43","新北市新店區新店後街60號","121.53772","24.9540833333333","6500600","新店區"
"231024","4716-K9","2018/01/06 13:29:48","新北市新店區中正路128巷11號","121.542585","24.9721766666667","6500600","新店區"
"231038","4715-K9","2018/01/06 13:29:52","新北市新店區安華路30巷1號","121.519571666667","24.9593066666667","6500600","新店區"
"231036","512-UM","2018/01/06 13:29:37","新北市新店區建業路47-1號","121.478696666667","24.9550466666667","6500600","新店區"
"231035","515-UM","2018/01/06 13:29:46","新北市新店區安康路一段266巷4號","121.519818333333","24.96406","6500600","新店區"
"231006","617-UM","2018/01/06 13:29:38","新北市新店區安康路一段227號","121.525693333333","24.9631116666667","6500600","新店區"
"231001","619-UM","2018/01/06 13:29:44","新北市新店區環河路120號","121.536638333333","24.9681933333333","6500600","新店區"
"231003","641-BX","2018/01/06 13:29:47","新北市新店區安康路一段132號","121.526728333333","24.962865","6500600","新店區"
"231034","645-TV","2018/01/06 13:29:47","新北市新店區安忠路57巷11弄14號","121.51523","24.9579633333333","6500600","新店區"
"231013","719-UM","2018/01/06 13:29:45","新北市新店區中正路454-5號","121.534511666667","24.9790716666667","6500600","新店區"
"231033","720-UM","2018/01/06 13:29:40","新北市新店區安忠路57巷26弄64號","121.5122","24.956775","6500600","新店區"
"231005","897-TW","2018/01/06 13:29:54","新北市新店區北新路一段90號","121.541908333333","24.96864","6500600","新店區"
"231004","899-TW","2018/01/06 13:29:58","新北市新店區安康路一段17號","121.533138333333","24.9604016666667","6500600","新店區"
"235030","003-UY","2018/01/06 13:29:44","新北市中和區中山路二段122號","121.502546666667","25.00364","6500300","中和區"
"235028","005-UY","2018/01/06 13:29:44","新北市中和區圓通路141巷41-6號","121.498923333333","24.9944566666667","6500300","中和區"
"235027","006-UY","2018/01/06 13:29:38","新北市中和區連城路347巷2號","121.488116666667","24.9958383333333","6500300","中和區"
"235020","096-UM","2018/01/06 13:29:50","新北市中和區中山路二段594號","121.482366666667","25.0056133333333","6500300","中和區"
"235003","097-UM","2018/01/06 13:29:41","新北市中和區景平路149號","121.513868333333","24.992345","6500300","中和區"
"235029","098-UM","2018/01/06 13:29:51","新北市中和區莊敬路49巷20弄24號","121.502888333333","25.00568","6500300","中和區"
"235004","150-BY","2018/01/06 13:29:51","新北市中和區保健路50巷66號","121.50938","24.9951483333333","6500300","中和區"
"235019","183-VK","2018/01/06 13:29:56","新北市中和區民享街245-1號","121.472168333333","24.9962783333333","6500300","中和區"
"235002","185-VK","2018/01/06 13:29:51","新北市中和區自立路147號","121.52265","24.9931016666667","6500300","中和區"
"235013","186-VK","2018/01/06 13:29:52","新北市中和區景平路353號","121.504768333333","24.993475","6500300","中和區"
"235031","255-BX","2018/01/06 13:29:44","新北市中和區新生街242巷11弄1號","121.483016666667","24.99757","6500300","中和區"
"235036","301-VK","2018/01/06 13:29:53","新北市中和區連城路279號","121.490428333333","24.9964633333333","6500300","中和區"
"235007","352-BY","2018/01/06 13:29:51","新北市中和區景平路297號","121.5068","24.99317","6500300","中和區"
"235032","377-QA","2018/01/06 02:13:45","新北市中和區員山路36巷16-3號","121.48515","24.991165","6500300","中和區"
"235025","378-QA","2018/01/06 13:29:46","新北市中和區民治街27巷4號","121.475528333333","25.0011033333333","6500300","中和區"
"235014","4979-A6","2018/01/06 13:29:42","新北市中和區景新街362巷3號","121.512055","24.99012","6500300","中和區"
"235033","4980-A6","2018/01/06 13:29:41","新北市中和區連城路127巷4弄1號","121.496366666667","24.9987666666667","6500300","中和區"
"235006","551-UM","2018/01/06 13:29:53","新北市中和區自立路56巷21號","121.522411666667","24.991625","6500300","中和區"
"235034","558-UM","2018/01/06 13:29:23","新北市中和區圓通路76號","121.50006","24.9972016666667","6500300","中和區"
"235009","565-BX","2018/01/06 13:29:40","新北市中和區景安路198號","121.504196666667","24.9913383333333","6500300","中和區"
"235018","640-BX","2018/01/06 13:29:50","新北市中和區民享街112號","121.47455","24.9992116666667","6500300","中和區"
"235024","647-TV","2018/01/06 13:29:53","新北市中和區員山路36巷16-3號","121.484876666667","24.9918216666667","6500300","中和區"
"235011","732-UM","2018/01/06 13:28:25","新北市中和區圓通路141巷48弄23號","121.498153333333","24.9943533333333","6500300","中和區"
"235026","800-TS","2018/01/06 13:29:40","新北市中和區景平路726-7號","121.496721666667","25.0036633333333","6500300","中和區"
"235021","801-TS","2018/01/06 13:29:47","新北市中和區中正路637巷52弄9號","121.485013333333","24.99376","6500300","中和區"
"235005","802-TS","2018/01/06 13:29:43","新北市永和區中和路425號","121.509316666667","25.0007833333333","6500300","中和區"
"235016","805-TS","2018/01/06 13:29:52","新北市中和區興南路二段133號","121.505265","24.984215","6500300","中和區"
"235012","896-TW","2018/01/06 13:29:41","新北市中和區中正路637巷52弄1號","121.4856","24.9935916666667","6500300","中和區"
"235017","900-TW","2018/01/06 13:29:38","新北市中和區民享街457號","121.470475","24.99317","6500300","中和區"
"235015","157-BY","2018/01/06 13:29:45","新北市中和區興南路二段142巷37弄1號","121.502265","24.9846733333333","6500300","中和區"
"235001","AAC-213","2018/01/06 13:29:53","新北市中和區景平路151巷37號","121.51461","24.99075","6500300","中和區"
"235023","AAC-215","2018/01/06 13:29:43","新北市中和區員山路36巷16-3號","121.485015","24.9912483333333","6500300","中和區"
"220034","073-UY","2018/01/06 13:29:40","新北市板橋區南雅南路二段120-12號","121.452115","24.999405","6500100","板橋區"
"247001","337-TH","2018/01/06 13:29:49","新北市五股區芳洲九路38號","121.447896666667","25.0884166666667","6501400","蘆洲區"
"228005","097-TW","2018/01/06 13:29:44","新北市貢寮區美豐里文秀坑8號","121.902486666667","25.05037","6502600","貢寮區"
"228004","212-TW","2018/01/06 13:29:40","新北市貢寮區龍崗里石壁坑街17號","121.910378333333","24.98947","6502600","貢寮區"
"253003","6232-TK","2018/01/06 13:29:53","新北市石門區內石門14-2號","121.573628333333","25.2778","6502200","石門區"
"253001","6251-TK","2018/01/06 13:29:53","新北市三芝區新庄里新庄子71-3號","121.511643333333","25.2766666666667","6502200","石門區"
"253002","637-UY","2018/01/06 13:29:52","新北市石門區九芎林9號","121.565613333333","25.2623366666667","6502200","石門區"
"253004","8270-PC","2018/01/06 13:29:37","新北市石門區竹子湖6號","121.616903333333","25.2614666666667","6502200","石門區"
"208004","AAC-292","2018/01/06 13:29:56","新北市金山區重和里林口28-3號","121.596136666667","25.2087083333333","6502700","金山區"
"207002","749-BX","2018/01/06 13:29:51","新北市萬里區崁腳里崁腳路166號","121.645063333333","25.1559216666667","6502800","萬里區"
"252005","073-UM","2018/01/06 13:29:40","新北市三芝區福德里土地公埔67-6號","121.518346666667","25.2277783333333","6502100","三芝區"
"207001","662-BX","2018/01/06 13:29:52","新北市萬里區野柳里八斗60-1號","121.675201666667","25.2010566666667","6502800","萬里區"
"236006","498-BY","2018/01/06 13:29:38","新北市土城區慶祥街58號","121.436563333333","24.9740116666667","6501300","土城區"
"221012","276-VK","2018/01/06 13:26:57","新北市汐止區汐萬路一段256巷3號","121.653371666667","25.07466","6501100","汐止區"
"221032","280-BY","2018/01/06 13:29:44","新北市汐止區水源路一段56號","121.657453333333","25.065605","6501100","汐止區"
"220027","145-BY","2018/01/06 13:29:44","新北市板橋區華東街1-10號","121.448281666667","24.9949966666667","6500100","板橋區"
"220010","305-R5","2018/01/06 13:29:52","新北市板橋區民生路二段120號","121.47044","25.019705","6500100","板橋區"
"220080","461-BY","2018/01/06 08:32:25","新北市板橋區華東街1-9號","121.448133333333","24.9948166666667","6500100","板橋區"
"220011","609-BX","2018/01/06 00:14:29","新北市板橋區民生路二段175號","121.469816666667","25.0202033333333","6500100","板橋區"
"220025","687-BX","2018/01/06 13:29:40","新北市板橋區大觀路三段6號","121.434793333333","24.9956866666667","6500100","板橋區"
"220014","829-TW","2018/01/06 13:29:41","新北市板橋區民生路二段120號","121.470463333333","25.0196","6500100","板橋區"
"220022","895-R6","2018/01/06 13:29:36","新北市板橋區華東街1-9號","121.448248333333","24.9948916666667","6500100","板橋區"
