"lineid","car","time","location","longitude","latitude","cityid","cityname"
"234044","148-BY","2018/01/06 14:09:40","新北市永和區得和路342號","121.52366","24.99941","6500400","永和區"
"234012","149-BY","2018/01/06 14:09:52","新北市永和區永貞路387號","121.508036666667","25.008685","6500400","永和區"
"234005","207-UY","2018/01/06 14:09:46","新北市永和區永貞路376號","121.50993","25.0070066666667","6500400","永和區"
"234078","298-R6","2018/01/06 14:09:52","新北市永和區國中路106號","121.52419","25.0064733333333","6500400","永和區"
"234036","336-UY","2018/01/06 14:09:51","新北市永和區成功路一段45號","121.527025","25.0041166666667","6500400","永和區"
"234062","337-UY","2018/01/06 14:09:38","新北市永和區永利路152號","121.522468333333","25.0026983333333","6500400","永和區"
"234084","338-UY","2018/01/06 14:09:55","新北市永和區福和路223號","121.51881","25.0074216666667","6500400","永和區"
"234052","553-UM","2018/01/06 14:09:56","新北市永和區博愛街28號","121.518473333333","25.0157716666667","6500400","永和區"
"234015","745-BX","2018/01/06 14:09:55","新北市永和區仁愛路34號","121.514395","25.0134433333333","6500400","永和區"
"234028","746-BX","2018/01/06 14:09:52","新北市永和區民權路49巷8號","121.520625","24.9970433333333","6500400","永和區"
"234060","AAD-866","2018/01/06 14:09:50","新北市永和區安樂路146-1號","121.51417","25.00041","6500400","永和區"
"234068","847-RS","2018/01/06 14:09:47","新北市永和區永亨路80巷2號","121.521475","25.00569","6500400","永和區"
"234040","862-TW","2018/01/06 14:09:37","新北市永和區中和路389巷51-1號","121.507618333333","25.0022533333333","6500400","永和區"
"234048","863-TW","2018/01/06 14:09:39","新北市永和區環河西路二段69號","121.506908333333","25.015225","6500400","永和區"
"234025","9371-KE","2018/01/06 14:09:46","新北市永和區安樂路272巷11號","121.514941666667","25.00433","6500400","永和區"
"234010","9373-KE","2018/01/06 14:09:37","新北市中和區勝利路5號","121.499823333333","25.008205","6500400","永和區"
"248017","225-UY","2018/01/06 14:09:46","新北市五股區壟路8-2號","121.41632","25.0897333333333","6501500","五股區"
"234022","9380-KE","2018/01/06 14:09:43","新北市永和區永和路二段303號","121.515955","25.0164883333333","6500400","永和區"
"234076","969-R7","2018/01/06 14:09:54","新北市永和區民族街67巷8號","121.518928333333","24.9971683333333","6500400","永和區"
"234072","AAC-211","2018/01/06 14:09:43","新北市永和區竹林路201巷22弄7號","121.52239","25.009375","6500400","永和區"
"234066","AAC-212","2018/01/06 14:09:56","新北市永和區保平路214巷1弄11號","121.509131666667","25.0057966666667","6500400","永和區"
"234001","AAC-295","2018/01/06 14:09:52","新北市永和區中正路706號","121.516141666667","25.0098883333333","6500400","永和區"
"231002","001-UM","2018/01/06 14:09:55","新北市新店區中正路487號","121.53368","24.9821233333333","6500600","新店區"
"231025","0291-UT","2018/01/06 14:09:42","新北市新店區中正路306號","121.537386666667","24.9745566666667","6500600","新店區"
"231037","0293-UT","2018/01/06 14:09:40","新北市新店區安康路二段341巷50號","121.49666","24.9543283333333","6500600","新店區"
"231028","046-UY","2018/01/06 14:09:44","新北市新店區安和路二段227號","121.51713","24.976055","6500600","新店區"
"231030","047-UY","2018/01/06 14:09:50","新北市新店區安民街65巷21-2號","121.51521","24.9675283333333","6500600","新店區"
"231029","106-UY","2018/01/06 14:09:53","新北市新店區安康路二段161號","121.510168333333","24.95926","6500600","新店區"
"231018","107-UY","2018/01/06 14:09:48","新北市新店區中央路192號","121.53096","24.9749383333333","6500600","新店區"
"231012","108-UY","2018/01/06 14:09:45","新北市新店區五峰路63巷8弄106號","121.547878333333","24.968615","6500600","新店區"
"231020","187-VK","2018/01/06 14:09:50","新北市新店區新烏路二段444號","121.551638333333","24.9081733333333","6500600","新店區"
"231017","KEA-2219","2018/01/06 14:09:43","新北市新店區中生路171號","121.57691","24.94947","6500600","新店區"
"231026","256-BX","2018/01/06 14:09:57","新北市新店區安華路28-1號","121.51974","24.9611883333333","6500600","新店區"
"231023","AAD-862","2018/01/06 14:09:49","新北市新店區文中路43號","121.539741666667","24.9568383333333","6500600","新店區"
"231027","3712-VJ","2018/01/06 14:09:43","新北市新店區光明街224巷20弄5-1號","121.540631666667","24.9623283333333","6500600","新店區"
"231024","4716-K9","2018/01/06 14:09:48","新北市新店區新生街13巷26號","121.53897","24.9665216666667","6500600","新店區"
"231038","4715-K9","2018/01/06 14:09:52","新北市新店區溪洲路121號","121.531205","24.9627816666667","6500600","新店區"
"231036","512-UM","2018/01/06 14:09:57","新北市新店區安祥路109巷1弄47號","121.477216666667","24.9605866666667","6500600","新店區"
"231035","515-UM","2018/01/06 14:09:46","新北市新店區安和路二段113巷3弄3號","121.51806","24.9702266666667","6500600","新店區"
"231006","617-UM","2018/01/06 14:09:38","新北市新店區北宜路二段126號","121.556865","24.953875","6500600","新店區"
"231001","619-UM","2018/01/06 14:09:44","新北市新店區中華路52號","121.539581666667","24.96851","6500600","新店區"
"231003","641-BX","2018/01/06 14:09:47","新北市新店區中興路一段168號","121.54283","24.9643883333333","6500600","新店區"
"231034","645-TV","2018/01/06 14:09:47","新北市新店區黎明路3號","121.503385","24.95234","6500600","新店區"
"231013","719-UM","2018/01/06 14:09:45","新北市新店區北新路三段65巷34弄26號","121.540048333333","24.9817583333333","6500600","新店區"
"231033","720-UM","2018/01/06 14:09:40","新北市新店區溪洲路46號","121.532941666667","24.9612283333333","6500600","新店區"
"231005","897-TW","2018/01/06 14:09:54","新北市新店區中興路三段309-1號","121.541918333333","24.986015","6500600","新店區"
"231004","899-TW","2018/01/06 14:09:52","新北市新店區北新路二段106-1號","121.543056666667","24.9740283333333","6500600","新店區"
"235030","003-UY","2018/01/06 14:09:44","新北市中和區廣福路14號","121.505228333333","25.00269","6500300","中和區"
"235028","005-UY","2018/01/06 14:09:44","新北市中和區連城路45號","121.49822","25.0017416666667","6500300","中和區"
"235027","006-UY","2018/01/06 14:09:38","新北市中和區圓通路198巷11號","121.495525","24.9944366666667","6500300","中和區"
"235010","031-BX","2018/01/06 14:09:43","新北市中和區忠孝街1巷3號","121.508713333333","24.9833233333333","6500300","中和區"
"235020","096-UM","2018/01/06 14:09:53","新北市中和區員山路563號","121.479488333333","25.007715","6500300","中和區"
"235003","097-UM","2018/01/06 14:09:41","新北市中和區景平路3號","121.52371","24.9903033333333","6500300","中和區"
"235029","098-UM","2018/01/06 14:09:51","新北市中和區中山路二段64巷3號","121.503586666667","25.0048633333333","6500300","中和區"
"235004","150-BY","2018/01/06 14:09:51","新北市中和區保健路67巷7號","121.509866666667","24.99766","6500300","中和區"
"235022","151-BY","2018/01/06 14:09:46","新北市中和區員山路128號","121.481096666667","24.9961","6500300","中和區"
"235019","183-VK","2018/01/06 14:09:56","新北市中和區德光路95號","121.468593333333","25.0033883333333","6500300","中和區"
"235002","185-VK","2018/01/06 14:09:51","新北市中和區大仁街10巷27弄4號","121.519218333333","24.9927466666667","6500300","中和區"
"235013","186-VK","2018/01/06 14:09:54","新北市中和區明禮街4號","121.505205","24.995785","6500300","中和區"
"235031","255-BX","2018/01/06 14:09:44","新北市中和區中正路711號","121.48464","24.9985233333333","6500300","中和區"
"235008","293-VK","2018/01/06 14:09:44","新北市中和區中興街222-6號","121.500698333333","24.98974","6500300","中和區"
"235036","301-VK","2018/01/06 14:09:53","新北市中和區中山路二段257號","121.49732","25.0023933333333","6500300","中和區"
"235007","352-BY","2018/01/06 14:09:51","新北市中和區景平路20號","121.523691666667","24.99058","6500300","中和區"
"235032","377-QA","2018/01/06 14:09:49","新北市中和區連勝街38巷16號","121.49779","24.9979333333333","6500300","中和區"
"235025","378-QA","2018/01/06 14:09:46","新北市中和區中山路三段33號","121.478976666667","25.0058716666667","6500300","中和區"
"235014","4979-A6","2018/01/06 14:09:43","新北市中和區復興路280巷18弄14號","121.502088333333","24.991915","6500300","中和區"
"235033","4980-A6","2018/01/06 14:09:41","新北市中和區廣福路71巷38號","121.502501666667","25.0003433333333","6500300","中和區"
"235006","551-UM","2018/01/06 14:09:53","新北市中和區自立路117巷3號","121.522331666667","24.9944883333333","6500300","中和區"
"235034","558-UM","2018/01/06 14:09:43","新北市中和區安和路217號","121.505906666667","24.99921","6500300","中和區"
"235009","565-BX","2018/01/06 14:09:40","新北市中和區景新街467巷35弄4號","121.514621666667","24.9891133333333","6500300","中和區"
"235018","640-BX","2018/01/06 14:09:50","新北市中和區國光街107巷2弄29號","121.46932","24.9989266666667","6500300","中和區"
"235024","647-TV","2018/01/06 14:09:53","新北市中和區民治街5巷2號","121.475035","25.00501","6500300","中和區"
"235011","732-UM","2018/01/06 14:09:45","新北市中和區興南路一段56巷3弄1號","121.510656666667","24.990875","6500300","中和區"
"235026","800-TS","2018/01/06 14:09:40","新北市中和區中山路二段362-6號","121.492315","25.0027916666667","6500300","中和區"
"235021","801-TS","2018/01/06 14:09:47","新北市中和區民利街68巷5弄34號","121.47744","24.9988383333333","6500300","中和區"
"235005","802-TS","2018/01/06 14:09:43","新北市中和區新興街8巷1號","121.512328333333","25.0024483333333","6500300","中和區"
"235016","805-TS","2018/01/06 14:09:52","新北市中和區興南路二段142巷19弄4號","121.502945","24.9834383333333","6500300","中和區"
"235012","896-TW","2018/01/06 14:09:41","新北市中和區華新街109巷26號","121.508483333333","24.9802416666667","6500300","中和區"
"235017","900-TW","2018/01/06 14:09:38","新北市中和區民德路274號","121.46778","24.9965016666667","6500300","中和區"
"235015","157-BY","2018/01/06 14:09:44","新北市中和區景新街382號","121.512285","24.9899716666667","6500300","中和區"
"235001","AAC-213","2018/01/06 14:09:41","新北市中和區秀朗路三段60巷46號","121.524788333333","24.9948816666667","6500300","中和區"
"235023","AAC-215","2018/01/06 14:09:43","新北市中和區圓通路294巷17-5號","121.48863","24.99049","6500300","中和區"
"220104","015-TV","2018/01/06 14:09:38","新北市板橋區瑞安街31巷10號","121.456021666667","25.0226333333333","6500100","板橋區"
"220013","072-UY","2018/01/06 14:09:35","新北市板橋區民族路219巷44號","121.469445","25.008735","6500100","板橋區"
"220034","073-UY","2018/01/06 14:09:40","新北市板橋區中正路236巷79號","121.459123333333","25.0197466666667","6500100","板橋區"
"220105","075-UY","2018/01/06 14:09:51","新北市板橋區雙十路三段10巷16號","121.4723","25.031005","6500100","板橋區"
"220017","AAD-861","2018/01/06 14:09:50","新北市板橋區華興街26號","121.45914","25.0046683333333","6500100","板橋區"
"220045","120-SR","2018/01/06 14:09:43","新北市板橋區大同街4號","121.476855","25.0268033333333","6500100","板橋區"
"247021","893-R6","2018/01/06 14:09:47","新北市蘆洲區三民路173號","121.471178333333","25.0872266666667","6501400","蘆洲區"
"247011","546-UM","2018/01/06 14:09:51","新北市蘆洲區信義路282號","121.477858333333","25.0872166666667","6501400","蘆洲區"
"247019","500-BY","2018/01/06 14:09:53","新北市蘆洲區民族路446-5號","121.472695","25.0921966666667","6501400","蘆洲區"
"247009","339-TH","2018/01/06 14:09:45","新北市蘆洲區信義路178號","121.479205","25.08403","6501400","蘆洲區"
"247001","337-TH","2018/01/06 14:09:49","新北市蘆洲區永平街49號","121.457913333333","25.0913216666667","6501400","蘆洲區"
"247003","336-TH","2018/01/06 14:09:48","新北市蘆洲區長安街102巷63-1號","121.462641666667","25.082095","6501400","蘆洲區"
"247015","057-VK","2018/01/06 14:09:42","新北市蘆洲區光華路46巷37號","121.467765","25.0843116666667","6501400","蘆洲區"
"247005","056-VK","2018/01/06 14:09:46","新北市蘆洲區永安南路二段16巷17弄1號","121.46773","25.077825","6501400","蘆洲區"
"247007","053-VK","2018/01/06 14:09:50","新北市蘆洲區中山一路285號","121.471935","25.0796016666667","6501400","蘆洲區"
"247013","007-UY","2018/01/06 14:09:47","新北市蘆洲區保和街50-6號","121.469875","25.0862916666667","6501400","蘆洲區"
"247023","002-UY","2018/01/06 14:09:52","新北市蘆洲區光榮路118-2號","121.464878333333","25.0892233333333","6501400","蘆洲區"
"247017","001-UY","2018/01/06 14:09:44","新北市蘆洲區民族路201巷26號","121.477683333333","25.0890766666667","6501400","蘆洲區"
"228005","097-TW","2018/01/06 14:09:44","新北市貢寮區美豐里土地公嶺21-2號","121.889271666667","25.0623666666667","6502600","貢寮區"
"228004","212-TW","2018/01/06 14:09:40","新北市貢寮區雙玉里下雙溪街6-2號","121.914603333333","25.0159616666667","6502600","貢寮區"
"253003","6232-TK","2018/01/06 14:09:53","新北市石門區阿里磅80號","121.584165","25.2673683333333","6502200","石門區"
"253001","6251-TK","2018/01/06 14:09:53","新北市石門區八甲75號","121.530023333333","25.2634966666667","6502200","石門區"
"253002","637-UY","2018/01/06 14:09:52","新北市石門區老梅路14號","121.544621666667","25.287985","6502200","石門區"
"253004","8270-PC","2018/01/06 14:09:57","新北市石門區內阿里磅6號","121.589526666667","25.252725","6502200","石門區"
"208004","AAC-292","2018/01/06 14:09:56","新北市金山區六股里下六股65號","121.614405","25.2236433333333","6502700","金山區"
"207002","749-BX","2018/01/06 14:09:51","新北市萬里區溪底里瑞泉路9號","121.6048","25.1444683333333","6502800","萬里區"
"252005","073-UM","2018/01/06 14:09:40","新北市三芝區圓山里二坪頂47號","121.536581666667","25.2455533333333","6502100","三芝區"
"207001","662-BX","2018/01/06 14:09:52","新北市萬里區磺潭里清水18號","121.637833333333","25.197795","6502800","萬里區"
"236068","105-UM","2018/01/06 14:09:46","新北市土城區明德路一段232號","121.46038","24.9773983333333","6501300","土城區"
"236041","107-UM","2018/01/06 14:09:50","新北市土城區城林路6巷80號","121.438695","24.9797316666667","6501300","土城區"
"236075","166-UM","2018/01/06 14:09:46","新北市土城區永和街5號","121.434596666667","24.9650466666667","6501300","土城區"
"236029","253-BX","2018/01/06 14:09:44","新北市土城區城林路6巷80號","121.438371666667","24.9797816666667","6501300","土城區"
"236025","269-VK","2018/01/06 14:09:43","新北市土城區承天路67號","121.439478333333","24.963645","6501300","土城區"
"236013","270-VK","2018/01/06 14:09:50","新北市土城區裕民路172號","121.452576666667","24.98551","6501300","土城區"
"236035","271-VK","2018/01/06 14:09:36","新北市土城區明德路一段375-1號","121.454908333333","24.97816","6501300","土城區"
"236017","401-BY","2018/01/06 14:09:50","新北市土城區員福街10號","121.441698333333","24.9785383333333","6501300","土城區"
"236006","498-BY","2018/01/06 14:09:38","新北市土城區日新街49號","121.44306","24.9889483333333","6501300","土城區"
"236057","912-UM","2018/01/06 14:09:46","新北市土城區中央路四段128-1號","121.41782","24.9588116666667","6501300","土城區"
"236045","913-UM","2018/01/06 14:09:45","新北市土城區明德路一段365-1號","121.453545","24.979075","6501300","土城區"
"236061","915-UM","2018/01/06 14:09:54","新北市土城區金城路二段392號","121.463685","24.9857116666667","6501300","土城區"
"236054","AAC-216","2018/01/06 14:09:50","新北市土城區中華路二段80號","121.438626666667","24.97557","6501300","土城區"
"221012","276-VK","2018/01/06 13:26:57","新北市汐止區汐萬路一段256巷3號","121.653371666667","25.07466","6501100","汐止區"
"220027","145-BY","2018/01/06 14:09:44","新北市板橋區光正街23巷48號","121.461468333333","25.015605","6500100","板橋區"
"220028","200-UY","2018/01/06 14:09:55","新北市板橋區大觀路二段3巷24號","121.448001666667","25.0035666666667","6500100","板橋區"
"220030","610-BX","2018/01/06 14:09:47","新北市板橋區溪北路52號","121.427516666667","24.9899233333333","6500100","板橋區"
"220020","277-BY","2018/01/06 14:09:41","新北市板橋區金門街369巷58號","121.428283333333","24.9816766666667","6500100","板橋區"
"220050","280-UM","2018/01/06 14:09:40","新北市板橋區民生路二段188號","121.470076666667","25.0207433333333","6500100","板橋區"
"220019","283-VK","2018/01/06 14:09:47","新北市板橋區重慶路353巷3號","121.464681666667","24.9980316666667","6500100","板橋區"
"220043","285-UM","2018/01/06 14:09:49","新北市板橋區光武街161號","121.465333333333","25.02978","6500100","板橋區"
"220001","285-VK","2018/01/06 14:09:44","新北市板橋區懷仁街32號","121.476336666667","25.0193866666667","6500100","板橋區"
"220031","286-VK","2018/01/06 14:09:45","新北市板橋區大觀路二段174巷176弄9號","121.442628333333","25.0033283333333","6500100","板橋區"
"220029","287-VK","2018/01/06 14:09:53","新北市板橋區南雅西路二段110巷23號","121.452576666667","25.0126916666667","6500100","板橋區"
"220039","288-VK","2018/01/06 14:09:40","新北市板橋區裕民街45巷3-1號","121.461598333333","25.028395","6500100","板橋區"
"220009","293-UM","2018/01/06 14:09:52","新北市板橋區三民路二段21巷47號","121.480658333333","25.0183566666667","6500100","板橋區"
"220032","296-UM","2018/01/06 14:09:43","新北市板橋區篤行路一段34號","121.431931666667","24.993885","6500100","板橋區"
"220023","297-UM","2018/01/06 14:09:44","新北市板橋區中正路107號","121.45639","25.014865","6500100","板橋區"
"220010","305-R5","2018/01/06 14:09:52","新北市板橋區三民路二段居仁巷1弄23號","121.479928333333","25.0136483333333","6500100","板橋區"
"220041","307-R5","2018/01/06 14:09:52","新北市板橋區文化路二段225巷60弄11號","121.469173333333","25.0287533333333","6500100","板橋區"
"220047","317-R6","2018/01/06 14:09:55","新北市板橋區自由路51巷9-3號","121.465051666667","25.0234683333333","6500100","板橋區"
"220080","461-BY","2018/01/06 13:39:13","新北市板橋區華東街1-9號","121.448213333333","24.9948016666667","6500100","板橋區"
"220012","486-VK","2018/01/06 14:09:49","新北市板橋區民生路一段33號","121.476478333333","25.01192","6500100","板橋區"
"220038","487-VK","2018/01/06 14:09:45","新北市板橋區文化路二段389號","121.473411666667","25.031375","6500100","板橋區"
"220037","491-VK","2018/01/06 14:09:42","新北市板橋區文化路二段182巷3弄26號","121.47212","25.0279566666667","6500100","板橋區"
"220052","561-BX","2018/01/06 14:09:55","新北市板橋區文化路一段188巷11弄54號","121.469058333333","25.018785","6500100","板橋區"
"220011","609-BX","2018/01/06 14:09:49","新北市板橋區三民路二段85號","121.479328333333","25.0165666666667","6500100","板橋區"
"220004","630-UY","2018/01/06 14:09:47","新北市板橋區信義路74巷1弄14號","121.457576666667","24.9927216666667","6500100","板橋區"
"220040","637-BX","2018/01/06 14:09:51","新北市板橋區縣民大道247巷37號","121.482048333333","25.02677","6500100","板橋區"
"220005","686-BX","2018/01/06 14:09:42","新北市板橋區重慶路265號","121.463375","25.0000233333333","6500100","板橋區"
"220025","687-BX","2018/01/06 14:09:40","新北市板橋區龍興街36號","121.443096666667","25.0005716666667","6500100","板橋區"
"220042","689-BX","2018/01/06 14:09:54","新北市板橋區民生路三段241號","121.464825","25.0288883333333","6500100","板橋區"
"220002","741-BX","2018/01/06 14:09:43","新北市板橋區實踐路38號","121.46366","25.00679","6500100","板橋區"
"220003","827-TW","2018/01/06 14:09:43","新北市板橋區新民街4巷2弄2-1號","121.464068333333","25.0098983333333","6500100","板橋區"
"220014","829-TW","2018/01/06 14:09:41","新北市板橋區長安街347號","121.47492","25.012395","6500100","板橋區"
"220051","830-TW","2018/01/06 14:09:52","新北市板橋區田單街49巷1弄3號","121.482675","25.0284516666667","6500100","板橋區"
"220022","895-R6","2018/01/06 14:09:56","新北市板橋區後菜園街54號","121.456091666667","25.0101333333333","6500100","板橋區"
"220021","985-R7","2018/01/06 14:09:42","新北市板橋區中正路191號","121.456446666667","25.01695","6500100","板橋區"
"220046","AAC-210","2018/01/06 14:09:53","新北市板橋區新海路135巷4號","121.459891666667","25.0228816666667","6500100","板橋區"
"220018","AAC-253","2018/01/06 14:09:54","新北市板橋區忠孝路33-1號","121.460886666667","25.0020133333333","6500100","板橋區"
