"lineid","car","time","location","longitude","latitude","cityid","cityname"
"234012","149-BY","2018/01/06 14:19:52","新北市永和區仁愛路295號","121.505056666667","25.0090666666667","6500400","永和區"
"234005","207-UY","2018/01/06 14:19:46","新北市永和區中正路638號","121.516935","25.008215","6500400","永和區"
"234078","298-R6","2018/01/06 14:19:52","新北市永和區永貞路8號","121.520905","25.0072083333333","6500400","永和區"
"234036","336-UY","2018/01/06 14:19:51","新北市永和區成功路一段74號","121.526778333333","25.00336","6500400","永和區"
"234062","337-UY","2018/01/06 14:19:55","新北市永和區得和路108號","121.518243333333","25.0001033333333","6500400","永和區"
"234084","338-UY","2018/01/06 14:19:56","新北市永和區永和路二段85號","121.51471","25.0113633333333","6500400","永和區"
"234052","553-UM","2018/01/06 14:19:36","新北市永和區光復街2巷16弄15號","121.517625","25.0163483333333","6500400","永和區"
"234028","746-BX","2018/01/06 14:19:38","新北市永和區民權路49巷26號","121.521405","24.9974133333333","6500400","永和區"
"234060","AAD-866","2018/01/06 14:19:49","新北市永和區安樂路194巷39弄8號","121.516261666667","25.001445","6500400","永和區"
"234068","847-RS","2018/01/06 14:19:51","新北市永和區福和路263巷14號","121.51791","25.0067883333333","6500400","永和區"
"234040","862-TW","2018/01/06 14:19:57","新北市中和區中和路350巷3弄2號","121.510308333333","25.00125","6500400","永和區"
"234048","863-TW","2018/01/06 14:19:40","新北市永和區新生路75號","121.508646666667","25.0160716666667","6500400","永和區"
"234025","9371-KE","2018/01/06 14:19:46","新北市永和區安樂路144巷29號","121.515145","24.99974","6500400","永和區"
"248017","225-UY","2018/01/06 14:15:26","新北市五股區壟路16-1號","121.414973333333","25.0853933333333","6501500","五股區"
"234022","9380-KE","2018/01/06 14:19:43","新北市永和區竹林路25巷32號","121.518123333333","25.0149283333333","6500400","永和區"
"234076","969-R7","2018/01/06 14:19:54","新北市永和區民族街81巷36號","121.519343333333","24.9964783333333","6500400","永和區"
"234072","AAC-211","2018/01/06 14:19:43","新北市永和區豫溪街191巷7弄25號","121.523238333333","25.0110283333333","6500400","永和區"
"234066","AAC-212","2018/01/06 14:19:56","新北市永和區保平路292巷13弄10號","121.50694","25.00538","6500400","永和區"
"234001","AAC-295","2018/01/06 14:19:52","新北市永和區自強街32巷2號","121.515941666667","25.0079116666667","6500400","永和區"
"231002","001-UM","2018/01/06 14:19:55","新北市新店區中央路192號","121.530766666667","24.974695","6500600","新店區"
"231025","0291-UT","2018/01/06 14:19:42","新北市新店區二十張路129巷1弄1號","121.535988333333","24.97912","6500600","新店區"
"231037","0293-UT","2018/01/06 14:19:40","新北市新店區車子路67號","121.50363","24.9513416666667","6500600","新店區"
"231028","046-UY","2018/01/06 14:19:44","新北市新店區安和路一段47號","121.517396666667","24.9657783333333","6500600","新店區"
"231030","047-UY","2018/01/06 14:19:50","新北市新店區安民街3巷6弄14號","121.515238333333","24.964705","6500600","新店區"
"231029","106-UY","2018/01/06 14:19:53","新北市新店區安康路二段159巷2號","121.51024","24.95926","6500600","新店區"
"231018","107-UY","2018/01/06 14:19:48","新北市新店區中央四街64號","121.527115","24.9753533333333","6500600","新店區"
"231012","108-UY","2018/01/06 14:19:45","新北市新店區五峰路59-7號","121.547418333333","24.9701983333333","6500600","新店區"
"231020","187-VK","2018/01/06 14:19:50","新北市新店區桂山路73-1號","121.566386666667","24.9008183333333","6500600","新店區"
"231017","KEA-2219","2018/01/06 14:19:43","新北市新店區北宜路二段458號","121.570753333333","24.9563616666667","6500600","新店區"
"231023","AAD-862","2018/01/06 14:19:46","新北市新店區光明街31號","121.538348333333","24.9597966666667","6500600","新店區"
"231027","3712-VJ","2018/01/06 14:19:43","新北市新店區北新路二段184號","121.543028333333","24.97627","6500600","新店區"
"231024","4716-K9","2018/01/06 14:19:48","新北市新店區新生街13巷26號","121.538956666667","24.96651","6500600","新店區"
"231038","4715-K9","2018/01/06 14:19:52","新北市新店區溪洲路61-2號","121.533613333333","24.9608666666667","6500600","新店區"
"231036","512-UM","2018/01/06 14:19:37","新北市新店區安祥路109巷87號","121.477748333333","24.9601683333333","6500600","新店區"
"231035","515-UM","2018/01/06 14:19:46","新北市新店區光華街7巷2號","121.517525","24.9690216666667","6500600","新店區"
"231006","617-UM","2018/01/06 14:19:38","新北市新店區北宜路二段599號","121.568125","24.9556383333333","6500600","新店區"
"231001","619-UM","2018/01/06 14:19:44","新北市新店區北新路一段335號","121.541816666667","24.9686266666667","6500600","新店區"
"231003","641-BX","2018/01/06 14:19:47","新北市新店區中興路一段203號","121.543671666667","24.9657733333333","6500600","新店區"
"231034","645-TV","2018/01/06 14:19:47","新北市新店區黎明路3號","121.503376666667","24.9523433333333","6500600","新店區"
"231013","719-UM","2018/01/06 14:19:45","新北市新店區建國路201號","121.537811666667","24.9801","6500600","新店區"
"231033","720-UM","2018/01/06 14:19:40","新北市新店區安業街185號","121.527601666667","24.9665083333333","6500600","新店區"
"231005","897-TW","2018/01/06 14:19:54","新北市新店區中興路三段225號","121.543143333333","24.983095","6500600","新店區"
"231004","899-TW","2018/01/06 14:19:47","新北市新店區中正路223號","121.539563333333","24.9730016666667","6500600","新店區"
"235030","003-UY","2018/01/06 14:19:44","新北市中和區中和路102號","121.502661666667","24.9997133333333","6500300","中和區"
"235028","005-UY","2018/01/06 14:19:44","新北市中和區連城路72號","121.49744","25.001295","6500300","中和區"
"235027","006-UY","2018/01/06 14:19:38","新北市中和區連城路221號","121.494221666667","24.9976883333333","6500300","中和區"
"235010","031-BX","2018/01/06 14:19:43","新北市中和區忠孝街2巷12-2號","121.510676666667","24.9815566666667","6500300","中和區"
"235020","096-UM","2018/01/06 14:19:50","新北市中和區民富街17號","121.476423333333","25.0074366666667","6500300","中和區"
"235003","097-UM","2018/01/06 14:19:41","新北市中和區秀峰街119巷8弄14號","121.519073333333","24.9900483333333","6500300","中和區"
"235029","098-UM","2018/01/06 14:19:51","新北市中和區中山路二段2巷13弄14號","121.503043333333","25.006505","6500300","中和區"
"235004","150-BY","2018/01/06 14:19:56","新北市中和區安平路42號","121.510003333333","24.9954283333333","6500300","中和區"
"235022","151-BY","2018/01/06 14:19:46","新北市中和區和城路一段271巷1號","121.485435","24.9916933333333","6500300","中和區"
"235019","183-VK","2018/01/06 14:19:56","新北市中和區中山路三段203號","121.472161666667","25.006415","6500300","中和區"
"235002","185-VK","2018/01/06 14:19:51","新北市中和區大智街55巷31號","121.520421666667","24.9926766666667","6500300","中和區"
"235013","186-VK","2018/01/06 14:19:52","新北市中和區景新街230巷5號","121.508131666667","24.9940983333333","6500300","中和區"
"235031","255-BX","2018/01/06 14:19:44","新北市中和區中正路673號","121.485048333333","24.99692","6500300","中和區"
"235008","293-VK","2018/01/06 14:19:44","新北市中和區中興街222-5號","121.500575","24.989585","6500300","中和區"
"235036","301-VK","2018/01/06 14:19:53","新北市中和區福美路232號","121.499031666667","25.005305","6500300","中和區"
"235007","352-BY","2018/01/06 14:19:51","新北市中和區景平路296號","121.512946666667","24.9927733333333","6500300","中和區"
"235032","377-QA","2018/01/06 14:18:49","新北市中和區連勝街57巷20號","121.498015","24.9963883333333","6500300","中和區"
"235025","378-QA","2018/01/06 14:19:46","新北市中和區員山路189號","121.481136666667","24.9972783333333","6500300","中和區"
"235014","4979-A6","2018/01/06 14:19:42","新北市中和區復興路337號","121.500075","24.9901866666667","6500300","中和區"
"235033","4980-A6","2018/01/06 14:19:44","新北市中和區景平路736巷3弄1號","121.497118333333","25.0037633333333","6500300","中和區"
"235006","551-UM","2018/01/06 14:19:53","新北市中和區大勇街76號","121.518225","24.9948183333333","6500300","中和區"
"235034","558-UM","2018/01/06 14:19:43","新北市中和區中和路42號","121.500291666667","25.0011066666667","6500300","中和區"
"235009","565-BX","2018/01/06 14:19:51","新北市中和區景新街423巷35弄5號","121.514035","24.9899266666667","6500300","中和區"
"235018","640-BX","2018/01/06 14:19:50","新北市中和區國光街115號","121.469703333333","25.00059","6500300","中和區"
"235024","647-TV","2018/01/06 14:19:53","新北市中和區中山路三段147號","121.473756666667","25.00603","6500300","中和區"
"235011","732-UM","2018/01/06 14:19:51","新北市中和區和平街76巷6弄4號","121.508041666667","24.9920533333333","6500300","中和區"
"235026","800-TS","2018/01/06 14:19:40","新北市中和區中山路二段488-1號","121.487501666667","25.0050433333333","6500300","中和區"
"235021","801-TS","2018/01/06 14:19:57","新北市中和區員山路220號","121.48122","25.00107","6500300","中和區"
"235005","802-TS","2018/01/06 14:19:43","新北市中和區宜安路118巷26號","121.511076666667","24.9989366666667","6500300","中和區"
"235016","805-TS","2018/01/06 14:19:52","新北市中和區興南路二段122號","121.504533333333","24.9837","6500300","中和區"
"235012","896-TW","2018/01/06 14:19:40","新北市中和區華新街109巷24號","121.508705","24.9804866666667","6500300","中和區"
"235017","900-TW","2018/01/06 14:19:38","新北市中和區民德路258號","121.467775","24.9969866666667","6500300","中和區"
"235015","157-BY","2018/01/06 14:19:53","新北市中和區和平街24巷4號","121.51002","24.9904","6500300","中和區"
"235001","AAC-213","2018/01/06 14:19:41","新北市中和區秀朗路三段10巷37弄15號","121.524061666667","24.9955533333333","6500300","中和區"
"235023","AAC-215","2018/01/06 14:19:43","新北市中和區圓通路286巷10號","121.491526666667","24.9911783333333","6500300","中和區"
"220104","015-TV","2018/01/06 14:19:38","新北市板橋區中正路413巷2弄37號","121.45309","25.0233416666667","6500100","板橋區"
"220013","072-UY","2018/01/06 14:19:55","新北市板橋區國泰街76巷19號","121.467195","25.0069316666667","6500100","板橋區"
"220034","073-UY","2018/01/06 14:19:40","新北市板橋區中正路216巷20號","121.45669","25.01849","6500100","板橋區"
"220105","075-UY","2018/01/06 14:19:51","新北市板橋區江寧路三段87巷2弄27號","121.47272","25.0333133333333","6500100","板橋區"
"220017","AAD-861","2018/01/06 14:19:56","新北市板橋區華興街31巷19號","121.458383333333","25.003765","6500100","板橋區"
"220045","120-SR","2018/01/06 14:19:58","新北市板橋區文聖街160號","121.478866666667","25.0271566666667","6500100","板橋區"
"247021","893-R6","2018/01/06 14:19:47","新北市蘆洲區中正路476巷16號","121.463203333333","25.0955616666667","6501400","蘆洲區"
"247011","546-UM","2018/01/06 14:19:51","新北市蘆洲區民權路3巷14弄15號","121.475105","25.08562","6501400","蘆洲區"
"247019","500-BY","2018/01/06 14:19:53","新北市蘆洲區仁愛街37號","121.472076666667","25.09282","6501400","蘆洲區"
"247009","339-TH","2018/01/06 14:19:45","新北市蘆洲區信義路168號","121.479275","25.0837883333333","6501400","蘆洲區"
"247001","337-TH","2018/01/06 14:19:49","新北市蘆洲區永樂街83號","121.455958333333","25.08875","6501400","蘆洲區"
"247003","336-TH","2018/01/06 14:19:48","新北市蘆洲區長安街174號","121.459196666667","25.083425","6501400","蘆洲區"
"247015","057-VK","2018/01/06 14:18:42","新北市蘆洲區光華路132巷2弄3號","121.466355","25.0828116666667","6501400","蘆洲區"
"247005","056-VK","2018/01/06 14:19:46","新北市蘆洲區長安街22巷36號","121.464968333333","25.0801583333333","6501400","蘆洲區"
"247007","053-VK","2018/01/06 14:19:50","新北市蘆洲區民生街28號","121.474921666667","25.078845","6501400","蘆洲區"
"247013","007-UY","2018/01/06 14:19:47","新北市蘆洲區中山一路200號","121.473561666667","25.08079","6501400","蘆洲區"
"247023","002-UY","2018/01/06 14:19:56","新北市蘆洲區三民路577號","121.46206","25.092615","6501400","蘆洲區"
"247017","001-UY","2018/01/06 14:19:44","新北市蘆洲區民權路144號","121.472761666667","25.0892233333333","6501400","蘆洲區"
"228005","097-TW","2018/01/06 14:19:44","新北市貢寮區美豐里雞母嶺街57號","121.897101666667","25.0639883333333","6502600","貢寮區"
"228004","212-TW","2018/01/06 14:19:40","新北市貢寮區雙玉里田寮洋街39號","121.924988333333","25.0139416666667","6502600","貢寮區"
"253003","6232-TK","2018/01/06 14:19:53","新北市石門區內石門67-3號","121.57621","25.2566483333333","6502200","石門區"
"253001","6251-TK","2018/01/06 14:19:53","新北市石門區八甲70-1號","121.531086666667","25.2693733333333","6502200","石門區"
"253002","637-UY","2018/01/06 14:19:32","新北市三芝區橫山里橫山39-3號","121.545761666667","25.25374","6502200","石門區"
"253004","8270-PC","2018/01/06 14:19:37","新北市石門區內阿里磅31-4號","121.588826666667","25.2417683333333","6502200","石門區"
"208004","AAC-292","2018/01/06 14:19:56","新北市金山區重和里六股林口9-3號","121.60699","25.220505","6502700","金山區"
"207002","749-BX","2018/01/06 14:19:51","新北市萬里區溪底里瑞泉路4-1號","121.60925","25.1479916666667","6502800","萬里區"
"252005","073-UM","2018/01/06 14:19:40","新北市三芝區橫山里橫山34號","121.539306666667","25.2584733333333","6502100","三芝區"
"207001","662-BX","2018/01/06 14:19:52","新北市萬里區磺潭里清水18號","121.637783333333","25.1977566666667","6502800","萬里區"
"236068","105-UM","2018/01/06 14:19:46","新北市土城區明德路一段128巷19號","121.462938333333","24.97875","6501300","土城區"
"236041","107-UM","2018/01/06 14:19:50","新北市土城區樂利街3巷30號","121.448576666667","24.986485","6501300","土城區"
"236075","166-UM","2018/01/06 14:19:46","新北市土城區永寧路32巷42弄2號","121.428093333333","24.9609083333333","6501300","土城區"
"236029","253-BX","2018/01/06 14:19:44","新北市土城區順風路29號","121.440166666667","24.9770033333333","6501300","土城區"
"236025","269-VK","2018/01/06 14:19:43","新北市土城區承天路67號","121.439598333333","24.9635966666667","6501300","土城區"
"236013","270-VK","2018/01/06 14:19:50","新北市土城區青雲路39巷7號","121.460296666667","24.9874883333333","6501300","土城區"
"236035","271-VK","2018/01/06 14:19:56","新北市土城區青雲路451巷8弄13號","121.459603333333","24.9742283333333","6501300","土城區"
"236017","401-BY","2018/01/06 14:19:50","新北市土城區明峰街55號","121.467751666667","24.9865783333333","6501300","土城區"
"236006","498-BY","2018/01/06 14:19:38","新北市土城區中華路二段2號","121.438843333333","24.979695","6501300","土城區"
"236057","912-UM","2018/01/06 14:19:44","新北市土城區中央路四段404號","121.41245","24.9538716666667","6501300","土城區"
"236045","913-UM","2018/01/06 14:19:45","新北市土城區明德路一段361-1號","121.45677","24.9776166666667","6501300","土城區"
"236061","915-UM","2018/01/06 14:19:54","新北市土城區延壽路44巷15號","121.471626666667","24.993045","6501300","土城區"
"236054","AAC-216","2018/01/06 14:19:50","新北市土城區中華路二段100號","121.438088333333","24.9743916666667","6501300","土城區"
"221012","276-VK","2018/01/06 13:26:57","新北市汐止區汐萬路一段256巷3號","121.653371666667","25.07466","6501100","汐止區"
"220027","145-BY","2018/01/06 14:19:47","新北市板橋區民權路202巷13弄36號","121.458516666667","25.0163783333333","6500100","板橋區"
"220028","200-UY","2018/01/06 14:19:53","新北市板橋區大觀路二段19巷83號","121.449211666667","25.0028883333333","6500100","板橋區"
"220030","610-BX","2018/01/06 14:19:43","新北市板橋區溪北路49號","121.427793333333","24.990145","6500100","板橋區"
"220020","277-BY","2018/01/06 14:19:52","新北市板橋區金門街337巷9弄1號","121.430503333333","24.984635","6500100","板橋區"
"220050","280-UM","2018/01/06 14:19:40","新北市板橋區莊敬路25巷17號","121.474405","25.0270783333333","6500100","板橋區"
"220019","283-VK","2018/01/06 14:19:47","新北市板橋區仁愛路73巷12號","121.460975","25.00044","6500100","板橋區"
"220043","285-UM","2018/01/06 14:19:51","新北市板橋區吳鳳路23號","121.467033333333","25.0309633333333","6500100","板橋區"
"220001","285-VK","2018/01/06 14:19:44","新北市板橋區縣民大道三段270巷13號","121.478493333333","25.0229866666667","6500100","板橋區"
"220031","286-VK","2018/01/06 14:19:43","新北市板橋區龍興街95巷27-2號","121.443053333333","25.00293","6500100","板橋區"
"220029","287-VK","2018/01/06 14:19:53","新北市板橋區南雅西路一段122號","121.452723333333","25.006585","6500100","板橋區"
"220039","288-VK","2018/01/06 14:19:49","新北市板橋區長江路一段106巷13弄33號","121.46131","25.0297583333333","6500100","板橋區"
"220009","293-UM","2018/01/06 14:19:51","新北市板橋區中山路二段255巷7號","121.477006666667","25.01794","6500100","板橋區"
"220032","296-UM","2018/01/06 14:19:43","新北市板橋區溪崑二街63號","121.428006666667","24.99043","6500100","板橋區"
"220023","297-UM","2018/01/06 14:19:59","新北市板橋區南雅南路一段1巷1弄17號","121.456918333333","25.0061683333333","6500100","板橋區"
"220010","305-R5","2018/01/06 14:19:52","新北市板橋區三民路二段153巷28號","121.48084","25.0150516666667","6500100","板橋區"
"220041","307-R5","2018/01/06 14:19:41","新北市板橋區光武街48巷47弄4號","121.468325","25.027415","6500100","板橋區"
"220047","317-R6","2018/01/06 14:19:55","新北市板橋區四維路214號","121.463915","25.02745","6500100","板橋區"
"220080","461-BY","2018/01/06 13:39:13","新北市板橋區華東街1-9號","121.448213333333","24.9948016666667","6500100","板橋區"
"220012","486-VK","2018/01/06 14:19:49","新北市板橋區縣民大道二段3號","121.462521666667","25.0120583333333","6500100","板橋區"
"220038","487-VK","2018/01/06 14:19:45","新北市板橋區文化路一段351號","121.466785","25.0209466666667","6500100","板橋區"
"220037","491-VK","2018/01/06 14:19:35","新北市板橋區雙十路二段126號","121.474066666667","25.0287416666667","6500100","板橋區"
"220052","561-BX","2018/01/06 14:19:46","新北市板橋區文化路一段188巷7弄16號","121.467618333333","25.0196383333333","6500100","板橋區"
"220011","609-BX","2018/01/06 14:19:49","新北市板橋區三民路二段204-4號","121.478845","25.012435","6500100","板橋區"
"220004","630-UY","2018/01/06 14:19:47","新北市板橋區和平路4號","121.458071666667","24.9942983333333","6500100","板橋區"
"220040","637-BX","2018/01/06 14:19:44","新北市板橋區縣民大道三段223號","121.480635","25.025445","6500100","板橋區"
"220005","686-BX","2018/01/06 14:19:42","新北市板橋區和平路161巷22號","121.463296666667","24.9966083333333","6500100","板橋區"
"220025","687-BX","2018/01/06 14:19:40","新北市板橋區大觀路二段111號","121.446053333333","25.0016","6500100","板橋區"
"220042","689-BX","2018/01/06 14:19:54","新北市板橋區漢生西路11號","121.463756666667","25.0180516666667","6500100","板橋區"
"220002","741-BX","2018/01/06 14:19:43","新北市板橋區重慶路62巷5號","121.461461666667","25.0067466666667","6500100","板橋區"
"220003","827-TW","2018/01/06 14:19:43","新北市板橋區忠孝路173號","121.46407","25.002515","6500100","板橋區"
"220014","829-TW","2018/01/06 14:19:44","新北市板橋區長安街138巷7弄4號","121.473325","25.008315","6500100","板橋區"
"220051","830-TW","2018/01/06 14:19:52","新北市板橋區文聖街99-3號","121.477661666667","25.02961","6500100","板橋區"
"220022","895-R6","2018/01/06 14:19:56","新北市板橋區府中路60號","121.456798333333","25.009655","6500100","板橋區"
"220021","985-R7","2018/01/06 14:19:42","新北市板橋區新生街96號","121.458348333333","25.0220133333333","6500100","板橋區"
"220046","AAC-210","2018/01/06 14:19:53","新北市板橋區幸福路32巷1弄12號","121.460916666667","25.02053","6500100","板橋區"
"220018","AAC-253","2018/01/06 14:19:54","新北市板橋區忠孝路155號","121.463608333333","25.0024283333333","6500100","板橋區"
