"lineid","car","time","location","longitude","latitude","cityid","cityname"
"234005","207-UY","2018/01/06 15:09:46","新北市林口區太平里180號","121.366416666667","25.1344583333333","6500400","永和區"
"234078","298-R6","2018/01/06 15:09:52","新北市八里區中山路三段390號","121.368333333333","25.1350833333333","6500400","永和區"
"234028","746-BX","2018/01/06 15:09:58","新北市八里區中山路三段390號","121.368288333333","25.135","6500400","永和區"
"248017","225-UY","2018/01/06 15:09:52","新北市五股區登林路91-1號","121.421846666667","25.0715633333333","6501500","五股區"
"231002","001-UM","2018/01/06 15:09:54","新北市新店區中正路698號","121.534055","24.9905983333333","6500600","新店區"
"231025","0291-UT","2018/01/06 15:09:42","新北市新店區建國路218號","121.537781666667","24.98112","6500600","新店區"
"231037","0293-UT","2018/01/06 15:09:40","新北市新店區安興路56號","121.51646","24.9749566666667","6500600","新店區"
"231028","046-UY","2018/01/06 15:09:44","新北市新店區僑信路119號","121.500735","24.9459716666667","6500600","新店區"
"231030","047-UY","2018/01/06 15:09:50","新北市新店區安民街339號","121.516971666667","24.9748316666667","6500600","新店區"
"231029","106-UY","2018/01/06 15:09:53","新北市新店區安康路三段738號","121.473875","24.9420083333333","6500600","新店區"
"231018","107-UY","2018/01/06 15:09:48","新北市新店區中央六街45號","121.528481666667","24.9755533333333","6500600","新店區"
"231012","108-UY","2018/01/06 15:09:45","新北市新店區寶元路一段61號","121.542081666667","24.9858583333333","6500600","新店區"
"231020","187-VK","2018/01/06 15:09:50","新北市新店區湖興路128-5號","121.565306666667","24.9311216666667","6500600","新店區"
"231017","KEA-2219","2018/01/06 15:05:03","新北市新店區明山路5號","121.563255","24.9553766666667","6500600","新店區"
"231026","256-BX","2018/01/06 15:09:45","新北市新店區建興街5號","121.540091666667","24.9764816666667","6500600","新店區"
"231023","AAD-862","2018/01/06 15:09:49","新北市新店區中興路一段139號","121.542106666667","24.9636183333333","6500600","新店區"
"231024","4716-K9","2018/01/06 15:09:48","新北市新店區中華路42巷26號","121.540945","24.9689283333333","6500600","新店區"
"231036","512-UM","2018/01/06 15:09:57","新北市新店區安祥路104巷11弄13號","121.480871666667","24.96332","6500600","新店區"
"231035","515-UM","2018/01/06 15:09:46","新北市新店區永平街68號","121.516215","24.9850333333333","6500600","新店區"
"231006","617-UM","2018/01/06 15:09:38","新北市新店區新坡一街18巷7弄3號","121.550515","24.9614966666667","6500600","新店區"
"231001","619-UM","2018/01/06 15:09:44","新北市新店區中正路190號","121.540608333333","24.9724066666667","6500600","新店區"
"231003","641-BX","2018/01/06 15:09:47","新北市新店區寶橋路230號","121.551558333333","24.97884","6500600","新店區"
"231034","645-TV","2018/01/06 15:09:47","新北市新店區玫瑰路4-1號","121.493613333333","24.9513816666667","6500600","新店區"
"231039","718-UY","2018/01/06 15:09:40","新北市新店區中興路三段230號","121.543303333333","24.9832933333333","6500600","新店區"
"231033","720-UM","2018/01/06 15:09:40","新北市新店區安泰路17號","121.485215","24.9498016666667","6500600","新店區"
"231005","897-TW","2018/01/06 15:09:54","新北市新店區順安街72號","121.540903333333","24.9866816666667","6500600","新店區"
"231004","899-TW","2018/01/06 15:09:38","新北市新店區建國路4號","121.539846666667","24.9734183333333","6500600","新店區"
"241013","270-UM","2018/01/06 15:09:56","新北市三重區重新路四段121號","121.484766666667","25.05248","6500200","三重區"
"235030","003-UY","2018/01/06 15:09:44","新北市中和區保平路372號","121.50621","25.00352","6500300","中和區"
"235010","031-BX","2018/01/06 15:09:43","新北市中和區忠孝街79號","121.512148333333","24.9851383333333","6500300","中和區"
"235003","097-UM","2018/01/06 15:09:41","新北市中和區宜安路52巷24號","121.512773333333","24.99752","6500300","中和區"
"235029","098-UM","2018/01/06 15:09:51","新北市中和區福美路312巷7號","121.496573333333","25.0051916666667","6500300","中和區"
"235004","150-BY","2018/01/06 15:09:51","新北市中和區景安路77號","121.506463333333","24.9974166666667","6500300","中和區"
"235036","301-VK","2018/01/06 15:09:53","新北市中和區中正路420號","121.49179","24.994225","6500300","中和區"
"235007","352-BY","2018/01/06 15:09:51","新北市中和區興南路二段159巷10號","121.505148333333","24.9832433333333","6500300","中和區"
"235032","377-QA","2018/01/06 15:09:49","新北市中和區勝利路35巷1弄36號","121.500365","25.0079416666667","6500300","中和區"
"235014","4979-A6","2018/01/06 15:09:42","新北市中和區景新街300號","121.511181666667","24.991895","6500300","中和區"
"235034","558-UM","2018/01/06 15:09:43","新北市中和區圓通路105號","121.49959","24.9965283333333","6500300","中和區"
"235018","640-BX","2018/01/06 15:09:50","新北市中和區民享街35巷8弄15號","121.474628333333","25.0035183333333","6500300","中和區"
"235026","800-TS","2018/01/06 15:09:40","新北市中和區建八路134號","121.489363333333","24.998555","6500300","中和區"
"235012","896-TW","2018/01/06 15:09:40","新北市中和區興南路一段142-6號","121.508498333333","24.9870733333333","6500300","中和區"
"235015","157-BY","2018/01/06 15:09:44","新北市中和區復興路34號","121.504986666667","24.9900216666667","6500300","中和區"
"235023","AAC-215","2018/01/06 15:09:52","新北市中和區圓通路335巷33弄33號","121.493565","24.9888116666667","6500300","中和區"
"220013","072-UY","2018/01/06 15:09:35","新北市中和區員山路570號","121.47893","25.01102","6500100","板橋區"
"220017","AAD-861","2018/01/06 15:09:50","新北市板橋區大明街23號","121.458648333333","25.0025183333333","6500100","板橋區"
"228004","212-TW","2018/01/06 15:09:54","新北市貢寮區雙玉里田寮洋街16-2號","121.921666666667","25.025345","6502600","貢寮區"
"253003","6232-TK","2018/01/06 15:09:53","新北市石門區小坑12-1號","121.595471666667","25.284125","6502200","石門區"
"253001","6251-TK","2018/01/06 15:09:53","新北市石門區大溪墘2-4號","121.548726666667","25.2892883333333","6502200","石門區"
"253002","637-UY","2018/01/06 15:09:52","新北市石門區小坑9號","121.594471666667","25.2891966666667","6502200","石門區"
"253004","8270-PC","2018/01/06 15:09:42","新北市石門區小坑9號","121.59448","25.2891533333333","6502200","石門區"
"208004","AAC-292","2018/01/06 15:09:53","新北市金山區南勢29號","121.627246666667","25.2189083333333","6502700","金山區"
"207002","749-BX","2018/01/06 15:09:51","新北市萬里區崁腳里內中福路97號","121.653766666667","25.1639033333333","6502800","萬里區"
"207001","662-BX","2018/01/06 15:09:52","新北市萬里區雙興里麗水路8號","121.6492","25.187955","6502800","萬里區"
"236068","105-UM","2018/01/06 15:09:46","新北市土城區學成路143號","121.448933333333","24.9895316666667","6501300","土城區"
"236041","107-UM","2018/01/06 15:09:50","新北市土城區學士路11號","121.453791666667","24.9828983333333","6501300","土城區"
"236075","166-UM","2018/01/06 15:05:06","新北市土城區中州路3巷43號","121.413425","24.95631","6501300","土城區"
"236029","253-BX","2018/01/06 15:09:44","新北市土城區福祥街103巷1號","121.441661666667","24.9818916666667","6501300","土城區"
"236025","269-VK","2018/01/06 15:09:43","新北市土城區中央路二段177巷44號","121.443791666667","24.97616","6501300","土城區"
"236013","270-VK","2018/01/06 15:09:50","新北市土城區學府路一段37巷6號","121.457853333333","24.9880666666667","6501300","土城區"
"236035","271-VK","2018/01/06 15:09:56","新北市土城區明德路一段92號","121.464801666667","24.97973","6501300","土城區"
"236017","401-BY","2018/01/06 15:09:50","新北市土城區延吉街146號","121.469116666667","24.9855866666667","6501300","土城區"
"236057","912-UM","2018/01/06 15:09:44","新北市土城區金城路一段189號","121.44602","24.9749133333333","6501300","土城區"
"236045","913-UM","2018/01/06 15:09:45","新北市土城區清水路201號","121.459995","24.981665","6501300","土城區"
"236061","915-UM","2018/01/06 15:09:58","新北市土城區延平街31號","121.46804","24.9917516666667","6501300","土城區"
"236054","AAC-216","2018/01/06 15:09:50","新北市土城區學府路一段276號","121.449908333333","24.98304","6501300","土城區"
"221012","276-VK","2018/01/06 13:26:57","新北市汐止區汐萬路一段256巷3號","121.653371666667","25.07466","6501100","汐止區"
"220030","610-BX","2018/01/06 15:09:46","新北市板橋區篤行路二段131巷33-4號","121.431881666667","24.9901116666667","6500100","板橋區"
"220050","280-UM","2018/01/06 15:09:44","新北市板橋區莒光路158-2號","121.47403","25.023835","6500100","板橋區"
"220031","286-VK","2018/01/06 15:09:43","新北市板橋區大觀路一段38巷156弄166號","121.443983333333","25.0092533333333","6500100","板橋區"
"220029","287-VK","2018/01/06 15:09:53","新北市板橋區僑中一街102巷5弄3-1號","121.446611666667","25.0126283333333","6500100","板橋區"
"220009","293-UM","2018/01/06 15:09:52","新北市板橋區四川路一段286巷3號","121.458391666667","25.0008966666667","6500100","板橋區"
"220041","307-R5","2018/01/06 15:09:41","新北市板橋區漢生西路70號","121.463036666667","25.0191016666667","6500100","板橋區"
"220080","461-BY","2018/01/06 13:39:13","新北市板橋區華東街1-9號","121.448213333333","24.9948016666667","6500100","板橋區"
"220012","486-VK","2018/01/06 15:09:56","新北市板橋區長安街331巷73號","121.472901666667","25.0128833333333","6500100","板橋區"
"220038","487-VK","2018/01/06 15:09:45","新北市板橋區新海路402號","121.458623333333","25.02677","6500100","板橋區"
"220037","491-VK","2018/01/06 15:09:55","新北市板橋區懷德街127巷23弄7號","121.479283333333","25.0317366666667","6500100","板橋區"
"220052","561-BX","2018/01/06 15:09:46","新北市板橋區文化路一段435巷31弄11號","121.466873333333","25.0228733333333","6500100","板橋區"
"220011","609-BX","2018/01/06 15:09:54","新北市板橋區三民路一段5巷1號","121.479071666667","25.02339","6500100","板橋區"
"220005","686-BX","2018/01/06 15:09:42","新北市板橋區南雅南路二段144巷30號","121.450285","24.9957033333333","6500100","板橋區"
"220025","687-BX","2018/01/06 15:09:40","新北市板橋區華東街1-8號","121.447485","24.9949666666667","6500100","板橋區"
"220042","689-BX","2018/01/06 15:09:54","新北市板橋區長江路二段243號","121.46889","25.032635","6500100","板橋區"
"220003","827-TW","2018/01/06 15:09:43","新北市板橋區南雅南路二段114號","121.453448333333","25.0004966666667","6500100","板橋區"
"220014","829-TW","2018/01/06 15:09:40","新北市板橋區萬板路820號","121.483608333333","25.0275416666667","6500100","板橋區"
"220051","830-TW","2018/01/06 15:09:52","新北市板橋區文聖街151號","121.478568333333","25.0279416666667","6500100","板橋區"
"220046","AAC-210","2018/01/06 15:09:53","新北市板橋區光正街45巷6弄15號","121.461118333333","25.0170366666667","6500100","板橋區"
"220018","AAC-253","2018/01/06 15:09:54","新北市板橋區四川路二段245巷55弄1號","121.452421666667","24.99253","6500100","板橋區"
