"lineid","car","time","location","longitude","latitude","cityid","cityname"
"249005","172-UM","2018/01/06 16:59:36","新北市八里區渡船頭3-16號","121.434331666667","25.1529633333333","6502300","八里區"
"249001","173-UM","2018/01/06 16:59:41","新北市八里區中山路三段109號","121.390285","25.1419783333333","6502300","八里區"
"249004","303-UY","2018/01/06 16:59:46","新北市八里區忠孝路353號","121.4164","25.1611483333333","6502300","八里區"
"249002","305-UY","2018/01/06 16:59:06","新北市八里區牛寮埔4號","121.433793333333","25.1422633333333","6502300","八里區"
"249003","593-UM","2018/01/06 16:59:56","新北市八里區中山路二段301號","121.40107","25.1480483333333","6502300","八里區"
"244013","069-UM","2018/01/06 16:59:49","新北市林口區粉寮69號","121.405033333333","25.09078","6501700","林口區"
"244007","080-UY","2018/01/06 16:59:55","新北市林口區中湖8鄰50號","121.376718333333","25.0912516666667","6501700","林口區"
"244019","403-UM","2018/01/06 16:59:48","新北市林口區仁愛路二段150號","121.38214","25.0743466666667","6501700","林口區"
"244023","483-VK","2018/01/06 16:59:42","新北市林口區粉寮路二段160巷28號","121.405128333333","25.0907516666667","6501700","林口區"
"244009","837-TS","2018/01/06 16:59:38","新北市林口區粉寮69號","121.405038333333","25.090865","6501700","林口區"
"244021","838-TS","2018/01/06 16:59:54","新北市林口區粉寮69號","121.40481","25.090805","6501700","林口區"
"231046","278-BY","2018/01/06 16:59:55","新北市新店區永業路81巷42號","121.529995","24.94804","6500600","新店區"
"241011","013-R5","2018/01/06 16:59:53","新北市三重區公園街15號","121.499333333333","25.07288","6500200","三重區"
"241028","022-UY","2018/01/06 16:59:50","新北市三重區中正南路47號","121.493975","25.0597016666667","6500200","三重區"
"241008","059-VK","2018/01/06 16:59:49","新北市三重區永福街179巷38號","121.477613333333","25.0747733333333","6500200","三重區"
"241009","060-VK","2018/01/06 16:59:45","新北市三重區溪尾街218巷50號","121.486125","25.08081","6500200","三重區"
"241031","061-VK","2018/01/06 16:59:53","新北市三重區重新路三段115巷8號","121.490506666667","25.060165","6500200","三重區"
"241015","062-VK","2018/01/06 16:59:51","新北市三重區三和路二段35-1號","121.500946666667","25.0671483333333","6500200","三重區"
"241017","063-VK","2018/01/06 16:59:41","新北市三重區國隆路12巷9號","121.492526666667","25.0636866666667","6500200","三重區"
"241024","065-VK","2018/01/06 16:59:55","新北市三重區大勇街82巷26弄34號","121.478351666667","25.071935","6500200","三重區"
"241026","066-VK","2018/01/06 16:59:46","新北市三重區文化南路42號","121.500375","25.0601883333333","6500200","三重區"
"241002","090-VK","2018/01/06 16:59:44","新北市三重區仁義街101巷2號","121.497713333333","25.0799683333333","6500200","三重區"
"241003","091-VK","2018/01/06 16:59:46","新北市三重區五華街141巷58號","121.49358","25.0868083333333","6500200","三重區"
"241005","262-UM","2018/01/06 16:59:47","新北市三重區碧華街114號","121.484685","25.0818683333333","6500200","三重區"
"241016","266-UM","2018/01/06 16:59:36","新北市三重區大同北路56號","121.494306666667","25.0638916666667","6500200","三重區"
"241022","267-UM","2018/01/06 16:59:53","新北市三重區中華路73號","121.483828333333","25.0625733333333","6500200","三重區"
"241018","268-UM","2018/01/06 16:59:36","新北市三重區六張街126巷2弄23號","121.49271","25.06947","6500200","三重區"
"241032","269-UM","2018/01/06 16:59:50","新北市三重區重陽路一段130巷11號","121.486006666667","25.0605533333333","6500200","三重區"
"241013","270-UM","2018/01/06 16:59:40","新北市三重區仁和街21號","121.496476666667","25.0735716666667","6500200","三重區"
"241025","271-UM","2018/01/06 16:59:49","新北市三重區中正北路508巷5號","121.472596666667","25.0712883333333","6500200","三重區"
"241007","398-BY","2018/01/06 16:59:53","新北市三重區溪尾街182號","121.488518333333","25.0807083333333","6500200","三重區"
"241020","413-TH","2018/01/06 16:59:47","新北市三重區後竹圍街175巷33號","121.4857","25.0734","6500200","三重區"
"241004","475-VK","2018/01/06 16:59:37","新北市三重區五華街92巷10號","121.492373333333","25.0819716666667","6500200","三重區"
"241019","478-VK","2018/01/06 16:59:57","新北市三重區三張街104號","121.4879","25.0698866666667","6500200","三重區"
"241030","480-VK","2018/01/06 16:59:39","新北市三重區昌隆街64號","121.491073333333","25.0510583333333","6500200","三重區"
"241014","543-UM","2018/01/06 16:59:55","新北市三重區介壽路189號","121.501418333333","25.0707283333333","6500200","三重區"
"241023","545-UM","2018/01/06 16:59:53","新北市三重區忠孝路三段99巷4號","121.48018","25.0643033333333","6500200","三重區"
"241001","547-UM","2018/01/06 16:59:43","新北市三重區仁政街9號","121.493445","25.0764166666667","6500200","三重區"
"241006","AAD-863","2018/01/06 16:59:50","新北市三重區車路頭街153號","121.4838","25.0770233333333","6500200","三重區"
"241012","941-UM","2018/01/06 16:59:45","新北市三重區仁和街165號","121.499893333333","25.0746883333333","6500200","三重區"
"241029","942-UM","2018/01/06 16:59:43","新北市三重區中正南路260-1號","121.493195","25.052895","6500200","三重區"
"241033","AAC-255","2018/01/06 16:59:49","新北市三重區中興北街275號","121.469216666667","25.06072","6500200","三重區"
"235064","005-UY","2018/01/06 16:23:24","新北市中和區員山路36巷16-3號","121.485101666667","24.9912633333333","6500300","中和區"
"235046","031-BX","2018/01/06 16:36:01","新北市中和區員山路36巷16-2號","121.485208333333","24.99163","6500300","中和區"
"235061","378-QA","2018/01/06 16:55:39","新北市中和區和城路一段271巷1號","121.485383333333","24.9917166666667","6500300","中和區"
"235062","800-TS","2018/01/06 15:32:56","新北市中和區員山路36巷16-3號","121.484951666667","24.9915183333333","6500300","中和區"
"247020","500-BY","2018/01/06 16:59:53","新北市蘆洲區民族路422巷82弄12號","121.474023333333","25.09382","6501400","蘆洲區"
"247010","339-TH","2018/01/06 16:59:39","新北市蘆洲區三民路26巷53弄2號","121.478328333333","25.0832216666667","6501400","蘆洲區"
"247002","337-TH","2018/01/06 16:45:02","新北市蘆洲區環堤大道365號","121.459225","25.0954916666667","6501400","蘆洲區"
"247004","336-TH","2018/01/06 16:59:47","新北市蘆洲區中原路13-5號","121.460723333333","25.08307","6501400","蘆洲區"
"247016","057-VK","2018/01/06 16:59:43","新北市蘆洲區正和街3號","121.470398333333","25.0828716666667","6501400","蘆洲區"
"247006","056-VK","2018/01/06 16:59:52","新北市蘆洲區中華街82號","121.460868333333","25.07958","6501400","蘆洲區"
"247008","053-VK","2018/01/06 16:59:43","新北市蘆洲區中山一路197巷26號","121.475008333333","25.0799433333333","6501400","蘆洲區"
"247014","007-UY","2018/01/06 16:59:45","新北市蘆洲區中山二路36巷42-1號","121.473961666667","25.0836083333333","6501400","蘆洲區"
"247024","002-UY","2018/01/06 16:59:38","新北市蘆洲區長興路202號","121.46058","25.0874433333333","6501400","蘆洲區"
"247018","001-UY","2018/01/06 16:59:41","新北市蘆洲區民族路304號","121.477571666667","25.0900283333333","6501400","蘆洲區"
"228003","097-TW","2018/01/06 16:59:40","新北市貢寮區福隆里興隆街24-1號","121.944375","25.0165733333333","6502600","貢寮區"
"228001","212-TW","2018/01/06 16:59:54","新北市貢寮區貢寮里朝陽街1-2號","121.912238333333","25.0213","6502600","貢寮區"
"228002","585-TW","2018/01/06 16:59:50","新北市貢寮區貢寮里朝陽街1-2號","121.911665","25.0213466666667","6502600","貢寮區"
"224010","AGQ-8101","2018/01/06 08:48:00","新北市瑞芳區明燈路二段46號","121.80951","25.1082","6501200","瑞芳區"
"224006","676-BX","2018/01/06 16:59:37","新北市瑞芳區大寮路356-1號","121.78458","25.1032","6501200","瑞芳區"
"224009","285-BY","2018/01/06 16:59:59","新北市瑞芳區濱二路23號","121.836275","25.1127983333333","6501200","瑞芳區"
"224008","275-VK","2018/01/06 16:59:53","新北市瑞芳區明燈路一段173號","121.819228333333","25.107565","6501200","瑞芳區"
"224007","272-VK","2018/01/06 16:59:38","新北市瑞芳區瑞竹路46號","121.763533333333","25.1033533333333","6501200","瑞芳區"
"224005","271-BY","2018/01/06 16:59:55","新北市瑞芳區南雅路3號","121.889188333333","25.1199883333333","6501200","瑞芳區"
"227002","400-TW","2018/01/06 16:59:54","新北市雙溪區長源里柑腳19號","121.80451","25.0142483333333","6502500","雙溪區"
"227010","030-BX","2018/01/06 16:59:53","新北市雙溪區牡丹里聖南8號","121.859211666667","25.05239","6502500","雙溪區"
"251004","009-UM","2018/01/06 16:59:56","新北市淡水區中正路二段31號","121.419036666667","25.1821766666667","6501000","淡水區"
"251013","179-VK","2018/01/06 16:59:49","新北市淡水區泉洲厝32號","121.489308333333","25.1925966666667","6501000","淡水區"
"251014","180-VK","2018/01/06 16:59:45","新北市淡水區淡金路四段472巷24號","121.452935","25.22398","6501000","淡水區"
"251008","181-VK","2018/01/06 16:59:49","新北市淡水區樹梅坑9號","121.472728333333","25.1427066666667","6501000","淡水區"
"251015","182-VK","2018/01/06 16:59:56","新北市淡水區淡金路一段102號","121.457828333333","25.174635","6501000","淡水區"
"251010","413-VK","2018/01/06 16:59:56","新北市淡水區沙崙路228號","121.42544","25.1845616666667","6501000","淡水區"
"251012","441-VK","2018/01/06 16:59:55","新北市淡水區沙崙路145號","121.42342","25.18299","6501000","淡水區"
"251016","442-VK","2018/01/06 16:59:39","新北市淡水區瓦坑3號","121.47759","25.180665","6501000","淡水區"
"251005","443-VK","2018/01/06 16:59:37","新北市淡水區中正路382號","121.429491666667","25.1752733333333","6501000","淡水區"
"251006","561-UM","2018/01/06 16:59:54","新北市淡水區文化路16號","121.439843333333","25.172515","6501000","淡水區"
"251009","575-R6","2018/01/06 16:59:54","新北市淡水區中正路259號","121.43228","25.1746966666667","6501000","淡水區"
"251007","577-R6","2018/01/06 16:59:52","新北市淡水區中正東路37號","121.446241666667","25.1681033333333","6501000","淡水區"
"251011","650-BX","2018/01/06 16:59:38","新北市淡水區中正東路55-8號","121.446795","25.167775","6501000","淡水區"
"252002","178-VK","2018/01/06 16:59:53","新北市三芝區忠孝街171號","121.505566666667","25.261235","6502100","三芝區"
"252001","292-VK","2018/01/06 16:59:50","新北市三芝區淡金路二段47-1號","121.503541666667","25.2604916666667","6502100","三芝區"
"242031","AAC-296","2018/01/06 16:59:41","新北市新莊區新泰路357巷3弄57號","121.442008333333","25.0397033333333","6500500","新莊區"
"242029","986-R7","2018/01/06 16:59:53","新北市新莊區新泰路357巷3弄57號","121.44243","25.0395766666667","6500500","新莊區"
"242051","751-BX","2018/01/06 16:59:46","新北市新莊區新泰路357巷3弄57號","121.44206","25.03906","6500500","新莊區"
"242025","615-BX","2018/01/06 16:59:49","新北市新莊區新泰路255巷83號","121.442288333333","25.0388116666667","6500500","新莊區"
"242023","613-BX","2018/01/06 16:59:45","新北市新莊區新泰路255巷83號","121.442263333333","25.0391516666667","6500500","新莊區"
"242039","566-BX","2018/01/06 16:59:48","新北市新莊區新泰路357巷3弄57號","121.441871666667","25.039115","6500500","新莊區"
"242044","442-UM","2018/01/06 14:07:16","新北市新莊區新泰路255巷83號","121.442051666667","25.0388433333333","6500500","新莊區"
"242048","441-UM","2018/01/06 16:59:40","新北市新莊區三和路12-21號","121.441893333333","25.0381633333333","6500500","新莊區"
"242053","440-UM","2018/01/06 16:59:48","新北市新莊區新泰路357巷3弄57號","121.442096666667","25.0391716666667","6500500","新莊區"
"242034","415-TV","2018/01/06 16:59:39","新北市新莊區新泰路357巷3弄57號","121.442126666667","25.0392316666667","6500500","新莊區"
"242042","400-BY","2018/01/06 16:59:40","新北市新莊區新泰路357巷3弄57號","121.442145","25.03965","6500500","新莊區"
"242061","362-BY","2018/01/06 16:59:46","新北市新莊區三和路12-21號","121.442273333333","25.0385883333333","6500500","新莊區"
"242058","353-BY","2018/01/06 16:59:52","新北市新莊區新泰路255巷83號","121.442281666667","25.0387416666667","6500500","新莊區"
"242036","133-UY","2018/01/06 16:59:52","新北市新莊區三和路12-21號","121.442083333333","25.038775","6500500","新莊區"
"242046","172-VK","2018/01/06 15:16:46","新北市新莊區新泰路255巷83號","121.441991666667","25.0388933333333","6500500","新莊區"
"242015","175-VK","2018/01/06 16:59:37","新北市新莊區三和路12-21號","121.442043333333","25.03868","6500500","新莊區"
"242002","176-VK","2018/01/06 16:59:43","新北市新莊區三和路12-21號","121.441995","25.0385783333333","6500500","新莊區"
"242013","346-TH","2018/01/06 16:59:48","新北市新莊區三和路12-16號","121.44199","25.0374133333333","6500500","新莊區"
"242056","349-TH","2018/01/06 16:59:41","新北市新莊區三和路12-16號","121.442103333333","25.0373816666667","6500500","新莊區"
"242011","351-TH","2018/01/06 16:59:43","新北市新莊區新泰路357巷3弄57號","121.442023333333","25.03946","6500500","新莊區"
"238023","601-UM","2018/01/06 16:59:53","新北市樹林區育德街78-1號","121.388091666667","24.9682816666667","6500700","樹林區"
"238022","KEA-2213","2018/01/06 16:59:41","新北市樹林區育德街78-1號","121.387976666667","24.9680316666667","6500700","樹林區"
"238017","283-BY","2018/01/06 16:59:42","新北市樹林區育德街78號","121.387438333333","24.9683783333333","6500700","樹林區"
"238026","172-UY","2018/01/06 16:59:43","新北市樹林區育德街78-1號","121.38802","24.9682833333333","6500700","樹林區"
"239007","AAC-297","2018/01/06 11:41:22","新北市鶯歌區二甲路13-16號","121.345178333333","24.9354233333333","6500800","鶯歌區"
"239006","891-R6","2018/01/06 16:59:38","新北市鶯歌區二甲路13-16號","121.345266666667","24.9349933333333","6500800","鶯歌區"
"239008","527-UM","2018/01/06 11:45:36","新北市鶯歌區二甲路13-16號","121.345121666667","24.93509","6500800","鶯歌區"
"239005","526-UM","2018/01/06 11:55:16","新北市鶯歌區二甲路12-2號","121.345758333333","24.93493","6500800","鶯歌區"
"239001","417-VK","2018/01/06 10:45:49","新北市鶯歌區二甲路13號","121.343755","24.935495","6500800","鶯歌區"
"239003","360-BY","2018/01/06 16:59:41","新北市鶯歌區二甲路12-2號","121.345486666667","24.9350133333333","6500800","鶯歌區"
"239002","359-BY","2018/01/06 11:53:09","新北市鶯歌區二甲路13號","121.344018333333","24.9354866666667","6500800","鶯歌區"
"221012","276-VK","2018/01/06 13:26:57","新北市汐止區汐萬路一段256巷3號","121.653371666667","25.07466","6501100","汐止區"
"220080","461-BY","2018/01/06 13:39:13","新北市板橋區華東街1-9號","121.448213333333","24.9948016666667","6500100","板橋區"
"242019","280-VK","2018/01/06 16:59:48","新北市新莊區三和路12-21號","121.442008333333","25.0382116666667","6500500","新莊區"
