"lineid","car","time","location","longitude","latitude","cityid","cityname"
"249005","172-UM","2018/01/06 17:29:36","新北市八里區荖阡坑路65-3號","121.404188333333","25.1317816666667","6502300","八里區"
"249001","173-UM","2018/01/06 17:29:40","新北市八里區大崁腳41號","121.425385","25.1591933333333","6502300","八里區"
"249004","303-UY","2018/01/06 17:29:46","新北市八里區民享街15號","121.413776666667","25.1578333333333","6502300","八里區"
"249002","305-UY","2018/01/06 17:29:46","新北市八里區龍形五街37巷8-3號","121.448135","25.133855","6502300","八里區"
"249003","593-UM","2018/01/06 17:29:36","新北市八里區中山路二段315號","121.400618333333","25.1477333333333","6502300","八里區"
"244013","069-UM","2018/01/06 17:29:49","新北市林口區粉寮69號","121.404835","25.0907733333333","6501700","林口區"
"244007","080-UY","2018/01/06 17:29:55","新北市林口區建國路2號","121.387496666667","25.09289","6501700","林口區"
"244019","403-UM","2018/01/06 17:29:48","新北市林口區公園路173號","121.37142","25.07183","6501700","林口區"
"244025","742-UY","2018/01/06 17:29:46","新北市林口區忠孝路53號","121.365351666667","25.0750866666667","6501700","林口區"
"244023","483-VK","2018/01/06 17:29:42","新北市林口區興林一街109巷16號","121.392065","25.0727583333333","6501700","林口區"
"244009","837-TS","2018/01/06 17:29:38","新北市林口區中華路265號","121.384448333333","25.090435","6501700","林口區"
"244021","838-TS","2018/01/06 17:29:54","新北市林口區粉寮路二段46-1號","121.403575","25.0870516666667","6501700","林口區"
"231046","278-BY","2018/01/06 17:29:55","新北市新店區直潭路92號","121.530945","24.9376583333333","6500600","新店區"
"241011","013-R5","2018/01/06 17:29:53","新北市三重區河邊北街110巷15號","121.503485","25.070775","6500200","三重區"
"241009","060-VK","2018/01/06 17:29:45","新北市三重區車路頭街135-1號","121.48423","25.0759916666667","6500200","三重區"
"241015","062-VK","2018/01/06 17:29:51","新北市三重區長元街65巷16弄15號","121.503558333333","25.0661733333333","6500200","三重區"
"241017","063-VK","2018/01/06 17:29:41","新北市三重區中正北路25巷9號","121.492668333333","25.0621666666667","6500200","三重區"
"241024","065-VK","2018/01/06 17:29:54","新北市三重區國道路一段58巷20號","121.481285","25.0720316666667","6500200","三重區"
"241003","091-VK","2018/01/06 17:29:46","新北市三重區碧華街327號","121.491475","25.08462","6500200","三重區"
"241005","262-UM","2018/01/06 17:29:47","新北市三重區永安北路二段5巷41號","121.48295","25.081265","6500200","三重區"
"241016","266-UM","2018/01/06 17:29:56","新北市三重區信義西街43號","121.495243333333","25.06397","6500200","三重區"
"241022","267-UM","2018/01/06 17:29:51","新北市三重區新北大道一段7號","121.489708333333","25.0613483333333","6500200","三重區"
"241018","268-UM","2018/01/06 17:29:36","新北市三重區國隆路2巷1號","121.49368","25.063525","6500200","三重區"
"241032","269-UM","2018/01/06 17:29:44","新北市三重區名源街40號","121.482416666667","25.059595","6500200","三重區"
"241013","270-UM","2018/01/06 17:29:40","新北市三重區仁愛街124號","121.494841666667","25.0748866666667","6500200","三重區"
"241025","271-UM","2018/01/06 17:29:49","新北市三重區中正北路380號","121.476381666667","25.069915","6500200","三重區"
"241007","398-BY","2018/01/06 17:29:53","新北市三重區三和路四段145巷203號","121.48855","25.0794683333333","6500200","三重區"
"241020","413-TH","2018/01/06 17:29:47","新北市三重區忠孝路二段2號","121.487125","25.071505","6500200","三重區"
"241019","478-VK","2018/01/06 17:29:57","新北市三重區自強路二段26巷10號","121.489123333333","25.069075","6500200","三重區"
"241030","480-VK","2018/01/06 17:29:39","新北市三重區中正南路263號","121.492996666667","25.0528933333333","6500200","三重區"
"241014","543-UM","2018/01/06 17:29:53","新北市三重區長壽街96號","121.501875","25.068615","6500200","三重區"
"241023","545-UM","2018/01/06 17:29:53","新北市三重區忠孝路三段84巷24號","121.481248333333","25.0644483333333","6500200","三重區"
"241012","941-UM","2018/01/06 17:29:45","新北市三重區仁興街31巷2號","121.499338333333","25.0752816666667","6500200","三重區"
"241033","AAC-255","2018/01/06 17:29:48","新北市三重區興德路133號","121.470253333333","25.052765","6500200","三重區"
"235064","005-UY","2018/01/06 16:23:24","新北市中和區員山路36巷16-3號","121.485101666667","24.9912633333333","6500300","中和區"
"235046","031-BX","2018/01/06 16:36:01","新北市中和區員山路36巷16-2號","121.485208333333","24.99163","6500300","中和區"
"235061","378-QA","2018/01/06 16:55:39","新北市中和區和城路一段271巷1號","121.485383333333","24.9917166666667","6500300","中和區"
"235062","800-TS","2018/01/06 15:32:56","新北市中和區員山路36巷16-3號","121.484951666667","24.9915183333333","6500300","中和區"
"247022","893-R6","2018/01/06 17:29:51","新北市蘆洲區三民路296號","121.46675","25.0905083333333","6501400","蘆洲區"
"247012","546-UM","2018/01/06 17:29:43","新北市蘆洲區民族路30號","121.47635","25.0842616666667","6501400","蘆洲區"
"247020","500-BY","2018/01/06 17:29:53","新北市蘆洲區仁愛街116號","121.469735","25.0948216666667","6501400","蘆洲區"
"247010","339-TH","2018/01/06 17:29:38","新北市蘆洲區中山一路74巷55號","121.479938333333","25.081565","6501400","蘆洲區"
"247002","337-TH","2018/01/06 16:45:02","新北市蘆洲區環堤大道365號","121.459225","25.0954916666667","6501400","蘆洲區"
"247004","336-TH","2018/01/06 17:29:47","新北市蘆洲區中原路13-5號","121.46089","25.0831333333333","6501400","蘆洲區"
"247016","057-VK","2018/01/06 17:29:43","新北市蘆洲區光華路22巷37號","121.468301666667","25.0845283333333","6501400","蘆洲區"
"247006","056-VK","2018/01/06 17:29:52","新北市蘆洲區長安街46巷25號","121.463876666667","25.0804033333333","6501400","蘆洲區"
"247008","053-VK","2018/01/06 17:29:43","新北市蘆洲區信義路34巷96號","121.475516666667","25.0772216666667","6501400","蘆洲區"
"247014","007-UY","2018/01/06 17:29:45","新北市蘆洲區三民路25號","121.47562","25.0826216666667","6501400","蘆洲區"
"247024","002-UY","2018/01/06 17:29:38","新北市蘆洲區長興路331號","121.46066","25.0905","6501400","蘆洲區"
"247018","001-UY","2018/01/06 17:29:41","新北市蘆洲區民權路99號","121.472755","25.0891216666667","6501400","蘆洲區"
"228003","097-TW","2018/01/06 17:29:51","新北市貢寮區仁理村仁和路2-2號","121.923355","25.0484233333333","6502600","貢寮區"
"228001","212-TW","2018/01/06 17:29:54","新北市貢寮區仁理村仁愛路62巷1號","121.925906666667","25.0534866666667","6502600","貢寮區"
"228002","585-TW","2018/01/06 17:29:50","新北市貢寮區福隆里福隆街10號","121.944858333333","25.0162266666667","6502600","貢寮區"
"224010","AGQ-8101","2018/01/06 08:48:00","新北市瑞芳區明燈路二段46號","121.80951","25.1082","6501200","瑞芳區"
"224006","676-BX","2018/01/06 17:29:57","新北市瑞芳區傑魚坑路169號","121.789626666667","25.1093333333333","6501200","瑞芳區"
"224002","639-TC","2018/01/06 17:29:51","新北市瑞芳區民權街3-1號","121.809341666667","25.1080883333333","6501200","瑞芳區"
"224009","285-BY","2018/01/06 17:29:39","新北市瑞芳區汽車路7-5號","121.84567","25.1099233333333","6501200","瑞芳區"
"224008","275-VK","2018/01/06 17:29:54","新北市瑞芳區九芎橋路17號","121.83282","25.0926933333333","6501200","瑞芳區"
"224005","271-BY","2018/01/06 17:29:35","新北市瑞芳區海濱路8-6號","121.831655","25.126125","6501200","瑞芳區"
"227002","400-TW","2018/01/06 17:29:54","新北市雙溪區平林里外平林32號","121.855763333333","25.0359066666667","6502500","雙溪區"
"227010","030-BX","2018/01/06 17:29:33","新北市雙溪區三貂里政光路3-1號","121.85119","25.0632433333333","6502500","雙溪區"
"251004","009-UM","2018/01/06 17:29:55","新北市淡水區中正東路二段88巷15號","121.459023333333","25.15057","6501000","淡水區"
"251013","179-VK","2018/01/06 17:29:49","新北市淡水區大竹圍5號","121.466573333333","25.1951866666667","6501000","淡水區"
"251014","180-VK","2018/01/06 17:29:45","新北市淡水區公埔子20-3號","121.469446666667","25.2285733333333","6501000","淡水區"
"251008","181-VK","2018/01/06 17:29:49","新北市淡水區大同路100巷11號","121.462923333333","25.139605","6501000","淡水區"
"251015","182-VK","2018/01/06 17:29:53","新北市淡水區三空泉15號","121.472711666667","25.16332","6501000","淡水區"
"251010","413-VK","2018/01/06 17:29:56","新北市淡水區中正路二段211號","121.426208333333","25.1891416666667","6501000","淡水區"
"251012","441-VK","2018/01/06 17:29:55","新北市淡水區北新路113號","121.448338333333","25.1784516666667","6501000","淡水區"
"251016","442-VK","2018/01/06 17:29:39","新北市淡水區社厝坑9-1號","121.466125","25.1926033333333","6501000","淡水區"
"251005","443-VK","2018/01/06 17:29:42","新北市淡水區鄧公路31巷6號","121.451526666667","25.17073","6501000","淡水區"
"251001","559-UM","2018/01/06 17:29:45","新北市淡水區民權路92巷35-1號","121.46222","25.12668","6501000","淡水區"
"251006","561-UM","2018/01/06 17:29:42","新北市淡水區大仁街64號","121.442805","25.1760266666667","6501000","淡水區"
"251009","575-R6","2018/01/06 17:29:54","新北市淡水區重建街1巷1號","121.439805","25.1733133333333","6501000","淡水區"
"251007","577-R6","2018/01/06 17:29:52","新北市淡水區民生路60號","121.462146666667","25.13799","6501000","淡水區"
"251011","650-BX","2018/01/06 17:29:38","新北市淡水區坪頂路712號","121.482491666667","25.1584583333333","6501000","淡水區"
"251002","672-BX","2018/01/06 17:29:52","新北市淡水區中正路261號","121.431608333333","25.1748616666667","6501000","淡水區"
"251003","673-BX","2018/01/06 17:29:57","新北市淡水區中山路162號","121.441073333333","25.17357","6501000","淡水區"
"207003","550-UM","2018/01/06 17:29:44","新北市萬里區龜吼里翡翠路17號","121.683386666667","25.187225","6502800","萬里區"
"207004","225-TW","2018/01/06 17:29:50","新北市萬里區萬里里景美路11-1號","121.68502","25.173175","6502800","萬里區"
"252002","178-VK","2018/01/06 17:29:53","新北市三芝區忠孝街1-14號","121.505473333333","25.253975","6502100","三芝區"
"252001","292-VK","2018/01/06 17:29:50","新北市三芝區長安街119號","121.498038333333","25.25968","6502100","三芝區"
"237011","572-TV","2018/01/06 14:19:58","新北市三峽區中山路459巷163-3號","121.348653333333","24.9330233333333","6500900","三峽區"
"237016","649-BX","2018/01/06 17:23:24","新北市三峽區中山路459巷163-3號","121.348583333333","24.9329416666667","6500900","三峽區"
"242031","AAC-296","2018/01/06 17:29:42","新北市新莊區新泰路401巷29-1號","121.442386666667","25.0438416666667","6500500","新莊區"
"242029","986-R7","2018/01/06 17:29:53","新北市新莊區復興路二段188號","121.459113333333","25.04439","6500500","新莊區"
"242051","751-BX","2018/01/06 17:29:46","新北市新莊區新樹路437號","121.432641666667","25.0137366666667","6500500","新莊區"
"242025","615-BX","2018/01/06 17:29:49","新北市新莊區中港路281號","121.453193333333","25.043795","6500500","新莊區"
"242023","613-BX","2018/01/06 17:29:45","新北市新莊區公園路148號","121.45311","25.0401116666667","6500500","新莊區"
"242027","612-BX","2018/01/06 17:29:44","新北市新莊區思源路53號","121.46018","25.0401683333333","6500500","新莊區"
"242039","566-BX","2018/01/06 17:29:48","新北市新莊區民安西路37號","121.427591666667","25.020905","6500500","新莊區"
"242044","442-UM","2018/01/06 17:29:46","新北市新莊區富國路39號","121.419053333333","25.0262266666667","6500500","新莊區"
"242048","441-UM","2018/01/06 17:29:40","新北市新莊區四維路210號","121.421315","25.0201816666667","6500500","新莊區"
"242053","440-UM","2018/01/06 17:29:48","新北市新莊區瓊林南路305巷3號","121.434876666667","25.0055883333333","6500500","新莊區"
"242034","415-TV","2018/01/06 17:29:39","新北市新莊區新莊路380號","121.449156666667","25.0334883333333","6500500","新莊區"
"242042","400-BY","2018/01/06 17:29:40","新北市新莊區建國一路78號","121.434433333333","25.0304416666667","6500500","新莊區"
"242061","362-BY","2018/01/06 17:29:46","新北市新莊區瓊林南路42巷2-2號","121.43609","25.01815","6500500","新莊區"
"242058","353-BY","2018/01/06 17:29:52","新北市新莊區中正路516-42號","121.432328333333","25.0320416666667","6500500","新莊區"
"242007","132-UY","2018/01/06 17:29:47","新北市新莊區自強街40號","121.45478","25.04641","6500500","新莊區"
"242036","133-UY","2018/01/06 17:29:52","新北市新莊區建國一路171號","121.435015","25.0243583333333","6500500","新莊區"
"242046","172-VK","2018/01/06 17:29:52","新北市新莊區新樹路65-5號","121.439393333333","25.0309216666667","6500500","新莊區"
"242009","173-VK","2018/01/06 17:29:39","新北市新莊區中原路189-1號","121.452415","25.054275","6500500","新莊區"
"242015","175-VK","2018/01/06 17:29:37","新北市新莊區新泰路216號","121.446693333333","25.0388733333333","6500500","新莊區"
"242002","176-VK","2018/01/06 17:29:43","新北市新莊區新莊路213號","121.455281666667","25.0353983333333","6500500","新莊區"
"242013","346-TH","2018/01/06 17:29:47","新北市新莊區中誠街158號","121.448348333333","25.04745","6500500","新莊區"
"242019","348-TH","2018/01/06 17:29:44","新北市新莊區中港路76號","121.455476666667","25.038975","6500500","新莊區"
"242056","349-TH","2018/01/06 17:29:41","新北市新莊區新泰路16號","121.449701666667","25.03307","6500500","新莊區"
"242017","350-TH","2018/01/06 17:29:43","新北市新莊區復興路一段193號","121.451916666667","25.043475","6500500","新莊區"
"242011","351-TH","2018/01/06 17:29:43","新北市新莊區中港路410號","121.45218","25.050205","6500500","新莊區"
"238015","755-BX","2018/01/06 17:29:50","新北市樹林區大安路267號","121.41905","24.9936783333333","6500700","樹林區"
"238023","601-UM","2018/01/06 17:29:53","新北市樹林區中正路442-1號","121.41337","25.01175","6500700","樹林區"
"238019","599-UM","2018/01/06 17:29:39","新北市樹林區八德街37-3號","121.419163333333","24.9830733333333","6500700","樹林區"
"238018","571-TV","2018/01/06 17:29:46","新北市樹林區鎮前街165號","121.422366666667","24.9873333333333","6500700","樹林區"
"238024","5061-A6","2018/01/06 17:29:56","新北市樹林區鎮前街49號","121.425221666667","24.9916366666667","6500700","樹林區"
"238021","KEA-2217","2018/01/06 17:29:52","新北市樹林區民權街30號","121.39845","24.95904","6500700","樹林區"
"238022","KEA-2213","2018/01/06 17:29:41","新北市樹林區信義街2號","121.422213333333","24.9816583333333","6500700","樹林區"
"238025","303-VK","2018/01/06 17:29:38","新北市樹林區保安街一段195號","121.420941666667","24.996065","6500700","樹林區"
"238017","283-BY","2018/01/06 17:29:42","新北市樹林區中正路254號","121.417566666667","25.00734","6500700","樹林區"
"238014","282-BY","2018/01/06 17:29:52","新北市樹林區長壽街84號","121.420083333333","24.99573","6500700","樹林區"
"238020","268-VK","2018/01/06 17:29:55","新北市樹林區千歲街111-1號","121.429235","25.001665","6500700","樹林區"
"238026","172-UY","2018/01/06 17:29:43","新北市樹林區新興街2-1號","121.400281666667","24.9744166666667","6500700","樹林區"
"238016","169-UY","2018/01/06 17:29:49","新北市樹林區長壽街15-5號","121.422976666667","24.993495","6500700","樹林區"
"239007","AAC-297","2018/01/06 17:29:48","新北市鶯歌區光明街206號","121.342898333333","24.95599","6500800","鶯歌區"
"239006","891-R6","2018/01/06 17:29:58","新北市鶯歌區鶯桃路472巷25號","121.333148333333","24.9659516666667","6500800","鶯歌區"
"239008","527-UM","2018/01/06 17:29:39","新北市鶯歌區大湖路642號","121.334255","24.975185","6500800","鶯歌區"
"239005","526-UM","2018/01/06 17:29:35","新北市鶯歌區福隆一街52號","121.324856666667","24.9713133333333","6500800","鶯歌區"
"239001","417-VK","2018/01/06 17:29:44","新北市鶯歌區高職西街101號","121.335975","24.940775","6500800","鶯歌區"
"239003","360-BY","2018/01/06 17:29:41","新北市鶯歌區鶯桃路244號","121.336178333333","24.959455","6500800","鶯歌區"
"239002","359-BY","2018/01/06 17:29:47","新北市鶯歌區育才街29號","121.348965","24.9549783333333","6500800","鶯歌區"
"239004","193-VK","2018/01/06 17:29:45","新北市鶯歌區三鶯路11號","121.356391666667","24.9412383333333","6500800","鶯歌區"
"221008","489-VK","2018/01/06 17:29:45","新北市汐止區康寧街901號","121.65128","25.0749933333333","6501100","汐止區"
"221012","276-VK","2018/01/06 13:26:57","新北市汐止區汐萬路一段256巷3號","121.653371666667","25.07466","6501100","汐止區"
"221033","647-BX","2018/01/06 17:29:56","新北市汐止區汐萬路一段266號","121.651101666667","25.0737483333333","6501100","汐止區"
"242004","281-VK","2018/01/06 17:29:50","新北市新莊區中港路288巷16號","121.453536666667","25.0445333333333","6500500","新莊區"
"220080","461-BY","2018/01/06 13:39:13","新北市板橋區華東街1-9號","121.448213333333","24.9948016666667","6500100","板橋區"
"242021","280-VK","2018/01/06 17:29:27","新北市新莊區中正路134號","121.452755","25.0361916666667","6500500","新莊區"
