"lineid","car","time","location","longitude","latitude","cityid","cityname"
"234026","9371-KE","2018/01/06 17:39:54","新北市永和區中正路637號","121.515436666667","25.0101016666667","6500400","永和區"
"249005","172-UM","2018/01/06 17:39:56","新北市八里區荖阡坑路34號","121.402731666667","25.1297883333333","6502300","八里區"
"249001","173-UM","2018/01/06 17:39:40","新北市八里區龍米路二段153-8號","121.440133333333","25.1534883333333","6502300","八里區"
"249004","303-UY","2018/01/06 17:39:46","新北市八里區中華路一段79巷7號","121.420628333333","25.1565466666667","6502300","八里區"
"249002","305-UY","2018/01/06 17:39:46","新北市八里區石壁腳19號","121.441723333333","25.13533","6502300","八里區"
"249003","593-UM","2018/01/06 17:39:36","新北市八里區中華路二段258巷22號","121.405048333333","25.1501433333333","6502300","八里區"
"248006","077-UY","2018/01/06 17:39:38","新北市五股區中興路二段37巷28號","121.460153333333","25.07471","6501500","五股區"
"232011","375-UM","2018/01/06 17:39:50","新北市坪林區北宜路八段453號","121.705401666667","24.9229233333333","6502000","坪林區"
"244013","069-UM","2018/01/06 17:39:49","新北市林口區中山路260號","121.384891666667","25.0798433333333","6501700","林口區"
"244007","080-UY","2018/01/06 17:39:35","新北市林口區林口路272巷6號","121.386685","25.08453","6501700","林口區"
"244019","403-UM","2018/01/06 17:39:48","新北市林口區文化一路一段111號","121.372978333333","25.07104","6501700","林口區"
"244025","742-UY","2018/01/06 17:39:46","新北市林口區文化三路一段369號","121.365255","25.072875","6501700","林口區"
"244023","483-VK","2018/01/06 17:39:42","新北市林口區興林路152巷24號","121.387665","25.0716116666667","6501700","林口區"
"244011","656-BX","2018/01/06 17:39:39","新北市林口區佳林路154號","121.384188333333","25.0770933333333","6501700","林口區"
"244009","837-TS","2018/01/06 17:39:38","新北市林口區中北三街196號","121.382846666667","25.0822416666667","6501700","林口區"
"244021","838-TS","2018/01/06 17:39:54","新北市林口區東林街17號","121.396046666667","25.07898","6501700","林口區"
"231046","278-BY","2018/01/06 17:39:55","新北市新店區直潭路92號","121.53094","24.9376583333333","6500600","新店區"
"241011","013-R5","2018/01/06 17:39:53","新北市三重區河邊北街122-1號","121.50363","25.0713966666667","6500200","三重區"
"241017","063-VK","2018/01/06 17:39:41","新北市三重區大同北路34巷1號","121.494821666667","25.0624766666667","6500200","三重區"
"241024","065-VK","2018/01/06 17:39:55","新北市三重區車路頭街37巷1號","121.483863333333","25.0716516666667","6500200","三重區"
"241005","262-UM","2018/01/06 17:39:47","新北市三重區仁愛街512號","121.48733","25.0821416666667","6500200","三重區"
"241016","266-UM","2018/01/06 17:39:35","新北市三重區重新路二段21號","121.498008333333","25.0625166666667","6500200","三重區"
"241007","398-BY","2018/01/06 17:39:53","新北市三重區車路頭街79號","121.484421666667","25.073975","6500200","三重區"
"241030","480-VK","2018/01/06 17:39:39","新北市三重區中華路48號","121.483335","25.0615116666667","6500200","三重區"
"241014","543-UM","2018/01/06 17:39:52","新北市三重區河邊北街110巷66號","121.502256666667","25.070375","6500200","三重區"
"241023","545-UM","2018/01/06 17:39:53","新北市三重區中華路107號","121.483685","25.0633883333333","6500200","三重區"
"241012","941-UM","2018/01/06 17:39:45","新北市三重區龍門路300號","121.502461666667","25.07456","6500200","三重區"
"241033","AAC-255","2018/01/06 17:39:48","新北市三重區光復路一段53號","121.472298333333","25.0489466666667","6500200","三重區"
"235064","005-UY","2018/01/06 17:39:37","新北市中和區員山路36巷16-3號","121.485096666667","24.9912816666667","6500300","中和區"
"235046","031-BX","2018/01/06 16:36:01","新北市中和區員山路36巷16-2號","121.485208333333","24.99163","6500300","中和區"
"235061","378-QA","2018/01/06 16:55:39","新北市中和區和城路一段271巷1號","121.485383333333","24.9917166666667","6500300","中和區"
"235062","800-TS","2018/01/06 15:32:56","新北市中和區員山路36巷16-3號","121.484951666667","24.9915183333333","6500300","中和區"
"247022","893-R6","2018/01/06 17:39:51","新北市蘆洲區三民路277號","121.46784","25.0897983333333","6501400","蘆洲區"
"247012","546-UM","2018/01/06 17:39:43","新北市蘆洲區民權路19號","121.47626","25.0862183333333","6501400","蘆洲區"
"247020","500-BY","2018/01/06 17:39:53","新北市蘆洲區民族路349號","121.472323333333","25.0918233333333","6501400","蘆洲區"
"247010","339-TH","2018/01/06 17:39:38","新北市蘆洲區中山一路124號","121.47673","25.0815766666667","6501400","蘆洲區"
"247002","337-TH","2018/01/06 16:45:02","新北市蘆洲區環堤大道365號","121.459225","25.0954916666667","6501400","蘆洲區"
"247004","336-TH","2018/01/06 17:39:47","新北市蘆洲區長安街233巷36號","121.458056666667","25.0823283333333","6501400","蘆洲區"
"247016","057-VK","2018/01/06 17:39:42","新北市蘆洲區光華路54巷1號","121.468276666667","25.082905","6501400","蘆洲區"
"247006","056-VK","2018/01/06 17:39:52","新北市蘆洲區長安街22巷39弄19號","121.464346666667","25.0809266666667","6501400","蘆洲區"
"247008","053-VK","2018/01/06 17:39:43","新北市蘆洲區民生街105號","121.473461666667","25.0787183333333","6501400","蘆洲區"
"247014","007-UY","2018/01/06 17:39:45","新北市蘆洲區中正路31號","121.471288333333","25.0822033333333","6501400","蘆洲區"
"247024","002-UY","2018/01/06 17:39:38","新北市蘆洲區光榮路85號","121.462103333333","25.0884783333333","6501400","蘆洲區"
"247018","001-UY","2018/01/06 17:39:41","新北市蘆洲區民權路63號","121.473708333333","25.08807","6501400","蘆洲區"
"228003","097-TW","2018/01/06 17:39:40","新北市貢寮區仁理村仁和路61號","121.924116666667","25.054385","6502600","貢寮區"
"228001","212-TW","2018/01/06 17:39:54","新北市貢寮區真理里新港街26巷28-6號","121.927675","25.0554083333333","6502600","貢寮區"
"228002","585-TW","2018/01/06 17:39:50","新北市貢寮區福隆里外隆林街14-1號","121.959128333333","25.0036983333333","6502600","貢寮區"
"224010","AGQ-8101","2018/01/06 08:48:00","新北市瑞芳區明燈路二段46號","121.80951","25.1082","6501200","瑞芳區"
"224006","676-BX","2018/01/06 17:39:57","新北市瑞芳區中山路269號","121.797055","25.1098433333333","6501200","瑞芳區"
"224002","639-TC","2018/01/06 17:39:51","新北市瑞芳區明燈路二段46號","121.80953","25.1081833333333","6501200","瑞芳區"
"224009","285-BY","2018/01/06 17:39:39","新北市瑞芳區金光路376號","121.850525","25.1111216666667","6501200","瑞芳區"
"224008","275-VK","2018/01/06 17:39:53","新北市瑞芳區瑞柑新村36號","121.829341666667","25.1069933333333","6501200","瑞芳區"
"224005","271-BY","2018/01/06 17:39:37","新北市瑞芳區籠山路22號","121.832173333333","25.12333","6501200","瑞芳區"
"227002","400-TW","2018/01/06 17:39:54","新北市雙溪區三貂里政光路3號","121.85134","25.0632083333333","6502500","雙溪區"
"208002","742-BX","2018/01/06 17:39:49","新北市金山區磺清路135號","121.639266666667","25.2276933333333","6502700","金山區"
"251004","009-UM","2018/01/06 17:39:55","新北市淡水區中正東路二段88巷37-21號","121.459363333333","25.1442416666667","6501000","淡水區"
"251013","179-VK","2018/01/06 17:39:51","新北市淡水區演戲埔腳3-3號","121.473665","25.1924683333333","6501000","淡水區"
"251014","180-VK","2018/01/06 17:39:45","新北市淡水區公埔子16-6號","121.480365","25.2250816666667","6501000","淡水區"
"251008","181-VK","2018/01/06 17:39:49","新北市淡水區八勢路30巷19號","121.462731666667","25.1536066666667","6501000","淡水區"
"251015","182-VK","2018/01/06 17:39:53","新北市淡水區糞箕湖9-1號","121.485298333333","25.1706666666667","6501000","淡水區"
"251010","413-VK","2018/01/06 17:39:56","新北市淡水區淡海路280巷33弄34-2號","121.418768333333","25.18862","6501000","淡水區"
"251012","441-VK","2018/01/06 17:39:55","新北市淡水區北新路200巷8號","121.45179","25.17968","6501000","淡水區"
"251016","442-VK","2018/01/06 17:39:59","新北市淡水區埤島39-15號","121.45274","25.1958933333333","6501000","淡水區"
"251005","443-VK","2018/01/06 17:39:37","新北市淡水區鄧公路33巷9號","121.451831666667","25.1709866666667","6501000","淡水區"
"251001","559-UM","2018/01/06 17:39:45","新北市淡水區民權路92巷35-1號","121.46218","25.1266716666667","6501000","淡水區"
"251006","561-UM","2018/01/06 17:39:42","新北市淡水區大信街1巷3號","121.441078333333","25.17657","6501000","淡水區"
"251009","575-R6","2018/01/06 17:39:54","新北市淡水區中正路38-1號","121.443748333333","25.169225","6501000","淡水區"
"251007","577-R6","2018/01/06 17:39:52","新北市淡水區民生路124巷4弄8號","121.463565","25.1380283333333","6501000","淡水區"
"251011","650-BX","2018/01/06 17:39:58","新北市淡水區小坪頂13-3號","121.486595","25.1561616666667","6501000","淡水區"
"251002","672-BX","2018/01/06 17:39:36","新北市淡水區清水街246號","121.440568333333","25.1721383333333","6501000","淡水區"
"251003","673-BX","2018/01/06 17:39:37","新北市淡水區大忠街5巷2號","121.443116666667","25.1763616666667","6501000","淡水區"
"207003","550-UM","2018/01/06 17:39:44","新北市萬里區龜吼里漁澳路85-2號","121.688053333333","25.1961983333333","6502800","萬里區"
"207004","225-TW","2018/01/06 17:39:50","新北市萬里區中幅里中福路6-7號","121.685881666667","25.1644766666667","6502800","萬里區"
"252002","178-VK","2018/01/06 17:39:33","新北市三芝區智成街88號","121.505241666667","25.2556683333333","6502100","三芝區"
"252001","292-VK","2018/01/06 17:39:30","新北市三芝區中山路一段4號","121.501016666667","25.258965","6502100","三芝區"
"237008","302-VK","2018/01/06 17:39:55","新北市三峽區中山路323號","121.360516666667","24.9380833333333","6500900","三峽區"
"237006","5529-G3","2018/01/06 17:39:50","新北市三峽區介壽路一段552巷17號","121.387676666667","24.9324033333333","6500900","三峽區"
"237011","572-TV","2018/01/06 14:19:58","新北市三峽區中山路459巷163-3號","121.348653333333","24.9330233333333","6500900","三峽區"
"237016","649-BX","2018/01/06 17:23:24","新北市三峽區中山路459巷163-3號","121.348583333333","24.9329416666667","6500900","三峽區"
"237010","706-TV","2018/01/06 17:39:41","新北市三峽區中山路126號","121.3655","24.9359983333333","6500900","三峽區"
"236043","107-UM","2018/01/06 17:39:40","新北市土城區城林路6巷80號","121.438403333333","24.9797066666667","6501300","土城區"
"236079","166-UM","2018/01/06 17:39:38","新北市土城區城林路6巷80號","121.43847","24.9796016666667","6501300","土城區"
"236015","270-VK","2018/01/06 17:39:41","新北市土城區城林路6巷80號","121.438438333333","24.9796316666667","6501300","土城區"
"236038","271-VK","2018/01/06 17:39:47","新北市土城區城林路6巷80號","121.438441666667","24.9797283333333","6501300","土城區"
"242031","AAC-296","2018/01/06 17:39:42","新北市新莊區新泰路361巷1號","121.443785","25.0432316666667","6500500","新莊區"
"242029","986-R7","2018/01/06 17:39:53","新北市新莊區復興路二段23號","121.45382","25.043945","6500500","新莊區"
"242051","751-BX","2018/01/06 17:39:46","新北市新莊區西盛街195-1號","121.42813","25.0171716666667","6500500","新莊區"
"242025","615-BX","2018/01/06 17:39:50","新北市新莊區思源路118號","121.460056666667","25.0469933333333","6500500","新莊區"
"242023","613-BX","2018/01/06 17:39:45","新北市新莊區公園路222巷1號","121.456365","25.0405633333333","6500500","新莊區"
"242027","612-BX","2018/01/06 17:39:44","新北市新莊區福壽街103號","121.458018333333","25.050655","6500500","新莊區"
"242039","566-BX","2018/01/06 17:39:48","新北市新莊區民安路322號","121.42898","25.0219316666667","6500500","新莊區"
"242044","442-UM","2018/01/06 17:39:45","新北市新莊區中正路871巷9弄25號","121.419325","25.0270866666667","6500500","新莊區"
"242048","441-UM","2018/01/06 17:39:40","新北市新莊區萬安街129號","121.42062","25.022255","6500500","新莊區"
"242053","440-UM","2018/01/06 17:39:55","新北市新莊區新樹路699巷1-2號","121.432493333333","25.00201","6500500","新莊區"
"242034","415-TV","2018/01/06 17:39:39","新北市新莊區新莊路595號","121.446153333333","25.0331783333333","6500500","新莊區"
"242042","400-BY","2018/01/06 17:39:49","新北市新莊區中正路514巷43號","121.432356666667","25.03347","6500500","新莊區"
"242061","362-BY","2018/01/06 17:39:45","新北市新莊區瓊林南路118-27號","121.433871666667","25.0107483333333","6500500","新莊區"
"242058","353-BY","2018/01/06 17:39:52","新北市新莊區中正路698號","121.418793333333","25.0278383333333","6500500","新莊區"
"242007","132-UY","2018/01/06 17:39:47","新北市新莊區福樂街118巷3號","121.457203333333","25.0479933333333","6500500","新莊區"
"242036","133-UY","2018/01/06 17:39:52","新北市新莊區後港一路119號","121.428886666667","25.0271866666667","6500500","新莊區"
"242046","172-VK","2018/01/06 17:39:52","新北市新莊區福營路103號","121.433861666667","25.0322816666667","6500500","新莊區"
"242009","173-VK","2018/01/06 17:39:39","新北市新莊區昌明街14巷1弄2號","121.457275","25.0527433333333","6500500","新莊區"
"242015","175-VK","2018/01/06 17:39:57","新北市新莊區新泰路335號","121.44493","25.041815","6500500","新莊區"
"242002","176-VK","2018/01/06 17:39:43","新北市新莊區新莊路294號","121.45124","25.033745","6500500","新莊區"
"242013","346-TH","2018/01/06 17:39:47","新北市新莊區中誠街73號","121.450513333333","25.047855","6500500","新莊區"
"242019","348-TH","2018/01/06 17:39:44","新北市新莊區中港路136號","121.455248333333","25.040805","6500500","新莊區"
"242056","349-TH","2018/01/06 17:39:41","新北市新莊區泰豐街13號","121.448443333333","25.0314966666667","6500500","新莊區"
"242017","350-TH","2018/01/06 17:39:43","新北市新莊區復興路一段149巷21弄16號","121.449583333333","25.0441183333333","6500500","新莊區"
"242011","351-TH","2018/01/06 17:39:53","新北市新莊區中原路201-2號","121.45111","25.0539383333333","6500500","新莊區"
"238015","755-BX","2018/01/06 17:39:50","新北市樹林區啟智街25號","121.420895","24.993385","6500700","樹林區"
"238023","601-UM","2018/01/06 17:39:52","新北市樹林區三福街114號","121.406436666667","25.0163283333333","6500700","樹林區"
"238019","599-UM","2018/01/06 17:39:39","新北市樹林區太平路125號","121.419241666667","24.9805","6500700","樹林區"
"238018","571-TV","2018/01/06 17:39:46","新北市樹林區鎮前街124號","121.424911666667","24.9910583333333","6500700","樹林區"
"238024","5061-A6","2018/01/06 17:39:36","新北市樹林區八德街491-8號","121.403008333333","24.9693066666667","6500700","樹林區"
"238021","KEA-2217","2018/01/06 17:39:52","新北市樹林區柑園街一段309號","121.392545","24.9562483333333","6500700","樹林區"
"238022","KEA-2213","2018/01/06 17:39:44","新北市樹林區和平街2巷2號","121.420851666667","24.981455","6500700","樹林區"
"238025","303-VK","2018/01/06 17:39:38","新北市樹林區保安街二段154號","121.413286666667","25.0044166666667","6500700","樹林區"
"238017","283-BY","2018/01/06 17:39:42","新北市樹林區中正路460號","121.412943333333","25.012465","6500700","樹林區"
"238014","282-BY","2018/01/06 17:39:52","新北市樹林區保安街一段336巷25號","121.417646666667","24.999195","6500700","樹林區"
"238020","268-VK","2018/01/06 17:39:55","新北市樹林區俊英街118號","121.427458333333","25.0056416666667","6500700","樹林區"
"238026","172-UY","2018/01/06 17:39:43","新北市樹林區中山路三段27巷3弄12-5號","121.402135","24.97353","6500700","樹林區"
"238016","169-UY","2018/01/06 17:39:49","新北市樹林區育英街53號","121.420786666667","24.98923","6500700","樹林區"
"239007","AAC-297","2018/01/06 17:39:48","新北市鶯歌區鶯桃路170巷9號","121.337426666667","24.9556183333333","6500800","鶯歌區"
"239006","891-R6","2018/01/06 17:39:58","新北市鶯歌區永和街56巷5號","121.333698333333","24.9677816666667","6500800","鶯歌區"
"239008","527-UM","2018/01/06 17:39:39","新北市鶯歌區大湖路732巷1弄5號","121.332493333333","24.9772","6500800","鶯歌區"
"239005","526-UM","2018/01/06 17:39:35","新北市鶯歌區鳳吉四街5號","121.326165","24.9725366666667","6500800","鶯歌區"
"239001","417-VK","2018/01/06 17:39:44","新北市鶯歌區中正三路234-4號","121.330621666667","24.9369633333333","6500800","鶯歌區"
"239003","360-BY","2018/01/06 17:39:41","新北市鶯歌區鶯桃路204號","121.337283333333","24.9590333333333","6500800","鶯歌區"
"239002","359-BY","2018/01/06 17:39:55","新北市鶯歌區育德街11號","121.344563333333","24.9551866666667","6500800","鶯歌區"
"239004","193-VK","2018/01/06 17:39:05","新北市鶯歌區三鶯路124號","121.359521666667","24.944195","6500800","鶯歌區"
"221008","489-VK","2018/01/06 17:39:45","新北市汐止區康寧街901號","121.651295","25.0750116666667","6501100","汐止區"
"221010","269-BY","2018/01/06 17:39:39","新北市汐止區汐萬路一段312號","121.650036666667","25.0751766666667","6501100","汐止區"
"221012","276-VK","2018/01/06 13:26:57","新北市汐止區汐萬路一段256巷3號","121.653371666667","25.07466","6501100","汐止區"
"221032","280-BY","2018/01/06 17:39:45","新北市汐止區樟樹二路355號","121.644308333333","25.07438","6501100","汐止區"
"221033","647-BX","2018/01/06 17:39:56","新北市汐止區橫科路407巷25弄17-5號","121.626783333333","25.0493133333333","6501100","汐止區"
"242004","281-VK","2018/01/06 17:39:53","新北市新莊區自立街190號","121.456395","25.0455133333333","6500500","新莊區"
"220080","461-BY","2018/01/06 13:39:13","新北市板橋區華東街1-9號","121.448213333333","24.9948016666667","6500100","板橋區"
"242021","280-VK","2018/01/06 17:39:48","新北市新莊區中華路一段82號","121.452075","25.0392633333333","6500500","新莊區"
