"lineid","car","time","location","longitude","latitude","cityid","cityname"
"234026","9371-KE","2018/01/06 17:49:54","新北市永和區中山路一段117巷2號","121.510946666667","25.0102633333333","6500400","永和區"
"249005","172-UM","2018/01/06 17:49:36","新北市八里區荖阡坑路41-10號","121.402436666667","25.1334016666667","6502300","八里區"
"249001","173-UM","2018/01/06 17:47:59","新北市八里區龍米路二段108-1號","121.44387","25.1493983333333","6502300","八里區"
"249004","303-UY","2018/01/06 17:49:46","新北市八里區大崁二街12-1號","121.418368333333","25.1572316666667","6502300","八里區"
"249002","305-UY","2018/01/06 17:49:46","新北市八里區龍形五街37巷8號","121.448281666667","25.1320183333333","6502300","八里區"
"249003","593-UM","2018/01/06 17:49:56","新北市八里區中山路二段123號","121.405455","25.1518833333333","6502300","八里區"
"248006","077-UY","2018/01/06 17:49:38","新北市五股區中興路二段37巷28號","121.460115","25.0748316666667","6501500","五股區"
"248020","225-UY","2018/01/06 17:49:44","新北市五股區中興路二段83巷26-6號","121.460043333333","25.0751816666667","6501500","五股區"
"232011","375-UM","2018/01/06 17:49:53","新北市坪林區北宜路八段28號","121.70317","24.93611","6502000","坪林區"
"244013","069-UM","2018/01/06 17:49:49","新北市林口區中正路525巷17號","121.383323333333","25.07684","6501700","林口區"
"244007","080-UY","2018/01/06 17:49:55","新北市林口區林口路162號","121.387813333333","25.0824783333333","6501700","林口區"
"244019","403-UM","2018/01/06 17:49:48","新北市林口區文化一路一段89-5號","121.371886666667","25.07039","6501700","林口區"
"244025","742-UY","2018/01/06 17:49:46","新北市林口區忠孝三路42號","121.360155","25.070245","6501700","林口區"
"244023","483-VK","2018/01/06 17:49:42","新北市林口區東湖一街1號","121.387325","25.073005","6501700","林口區"
"244011","656-BX","2018/01/06 17:49:39","新北市林口區佳林路219號","121.3837","25.0765783333333","6501700","林口區"
"244009","837-TS","2018/01/06 17:49:38","新北市林口區中北三街71號","121.384543333333","25.0852266666667","6501700","林口區"
"244021","838-TS","2018/01/06 17:49:54","新北市林口區仁愛路一段139巷9號","121.39813","25.0717016666667","6501700","林口區"
"222003","436-BY","2018/01/06 17:49:50","新北市深坑區阿柔洋60-1號","121.608595","24.9985116666667","6501800","深坑區"
"231046","278-BY","2018/01/06 17:49:55","新北市新店區下石厝路2-1號","121.531396666667","24.92827","6500600","新店區"
"241024","065-VK","2018/01/06 17:49:35","新北市三重區車路頭街62巷51號","121.482851666667","25.0723783333333","6500200","三重區"
"241005","262-UM","2018/01/06 17:49:47","新北市三重區集賢路87-1號","121.493853333333","25.08689","6500200","三重區"
"241016","266-UM","2018/01/06 17:49:56","新北市三重區新北大道一段7號","121.489783333333","25.0613","6500200","三重區"
"241033","AAC-255","2018/01/06 17:49:48","新北市三重區光復路一段13號","121.472151666667","25.04723","6500200","三重區"
"235064","005-UY","2018/01/06 17:49:37","新北市中和區員山路36巷16-3號","121.485051666667","24.9912816666667","6500300","中和區"
"235063","006-UY","2018/01/06 17:49:48","新北市中和區員山路36巷16-3號","121.48503","24.99125","6500300","中和區"
"235046","031-BX","2018/01/06 16:36:01","新北市中和區員山路36巷16-2號","121.485208333333","24.99163","6500300","中和區"
"235038","185-VK","2018/01/06 17:49:42","新北市中和區和城路一段271巷1號","121.485455","24.991995","6500300","中和區"
"235061","378-QA","2018/01/06 16:55:39","新北市中和區和城路一段271巷1號","121.485383333333","24.9917166666667","6500300","中和區"
"235062","800-TS","2018/01/06 15:32:56","新北市中和區員山路36巷16-3號","121.484951666667","24.9915183333333","6500300","中和區"
"247022","893-R6","2018/01/06 17:49:51","新北市蘆洲區三民路341-7號","121.464283333333","25.0913733333333","6501400","蘆洲區"
"247012","546-UM","2018/01/06 17:49:43","新北市蘆洲區復興路77號","121.476246666667","25.0873516666667","6501400","蘆洲區"
"247020","500-BY","2018/01/06 17:49:53","新北市蘆洲區民義街73號","121.473131666667","25.0901533333333","6501400","蘆洲區"
"247010","339-TH","2018/01/06 17:49:59","新北市蘆洲區信義路214號","121.479051666667","25.085","6501400","蘆洲區"
"247002","337-TH","2018/01/06 17:49:44","新北市蘆洲區環堤大道224號","121.458041666667","25.0927516666667","6501400","蘆洲區"
"247004","336-TH","2018/01/06 17:49:47","新北市蘆洲區長安街172巷16號","121.459926666667","25.0836966666667","6501400","蘆洲區"
"247016","057-VK","2018/01/06 17:49:42","新北市蘆洲區中正路185巷25弄16號","121.467028333333","25.08386","6501400","蘆洲區"
"247006","056-VK","2018/01/06 17:49:52","新北市蘆洲區九芎街156號","121.464185","25.0781416666667","6501400","蘆洲區"
"247008","053-VK","2018/01/06 17:49:49","新北市蘆洲區和平路29巷5號","121.472078333333","25.0788883333333","6501400","蘆洲區"
"247014","007-UY","2018/01/06 17:49:45","新北市蘆洲區保和街50-1號","121.469555","25.0861666666667","6501400","蘆洲區"
"247024","002-UY","2018/01/06 17:49:38","新北市蘆洲區光榮路63號","121.461171666667","25.0887933333333","6501400","蘆洲區"
"247018","001-UY","2018/01/06 17:49:41","新北市蘆洲區復興路227巷2弄2號","121.479958333333","25.09","6501400","蘆洲區"
"228003","097-TW","2018/01/06 17:49:40","新北市貢寮區真理里美艷山街6-2號","121.928823333333","25.0607666666667","6502600","貢寮區"
"228001","212-TW","2018/01/06 17:49:54","新北市貢寮區仁理村仁愛路95-1號","121.927683333333","25.0554233333333","6502600","貢寮區"
"228002","585-TW","2018/01/06 17:49:50","新北市貢寮區福隆里龜壽谷街11-1號","121.955436666667","25.006465","6502600","貢寮區"
"224010","AGQ-8101","2018/01/06 17:49:42","新北市瑞芳區明燈路一段25號","121.82283","25.10734","6501200","瑞芳區"
"224006","676-BX","2018/01/06 17:49:57","新北市瑞芳區傑魚坑路183號","121.788445","25.108265","6501200","瑞芳區"
"224002","639-TC","2018/01/06 17:49:51","新北市瑞芳區明燈路二段46號","121.809435","25.1081583333333","6501200","瑞芳區"
"224009","285-BY","2018/01/06 17:49:39","新北市瑞芳區新山路145號","121.852171666667","25.1087383333333","6501200","瑞芳區"
"224008","275-VK","2018/01/06 17:49:53","新北市瑞芳區明燈路一段183號","121.819098333333","25.107845","6501200","瑞芳區"
"224005","271-BY","2018/01/06 17:49:55","新北市瑞芳區建基路一段70號","121.816483333333","25.127895","6501200","瑞芳區"
"253006","741-TV","2018/01/06 17:49:35","新北市石門區中山路62-7號","121.567473333333","25.290225","6502200","石門區"
"222001","KEA-2212","2018/01/06 17:49:52","新北市深坑區北深路三段25巷15-2號","121.608726666667","24.99972","6501800","深坑區"
"208002","742-BX","2018/01/06 17:49:48","新北市金山區磺清路135號","121.639273333333","25.2277666666667","6502700","金山區"
"208003","665-BX","2018/01/06 17:49:45","新北市金山區磺清路135號","121.63947","25.2277","6502700","金山區"
"208001","761-BX","2018/01/06 17:49:40","新北市金山區磺清路135號","121.639343333333","25.227715","6502700","金山區"
"251004","009-UM","2018/01/06 17:49:36","新北市淡水區民權一街60號","121.459316666667","25.1361716666667","6501000","淡水區"
"251013","179-VK","2018/01/06 17:49:49","新北市淡水區泉洲厝31號","121.479591666667","25.1910366666667","6501000","淡水區"
"251014","180-VK","2018/01/06 17:49:45","新北市淡水區公埔子16-6號","121.48101","25.2245666666667","6501000","淡水區"
"251008","181-VK","2018/01/06 17:49:49","新北市淡水區八勢路一段156號","121.468125","25.15648","6501000","淡水區"
"251015","182-VK","2018/01/06 17:49:53","新北市淡水區興福寮15號","121.493023333333","25.16498","6501000","淡水區"
"251010","413-VK","2018/01/06 17:49:56","新北市淡水區中正路二段52號","121.419318333333","25.1833","6501000","淡水區"
"251012","441-VK","2018/01/06 17:49:55","新北市淡水區北新路二段42號","121.477518333333","25.1857483333333","6501000","淡水區"
"251016","442-VK","2018/01/06 17:49:39","新北市淡水區埤島39-15號","121.452745","25.1958866666667","6501000","淡水區"
"251005","443-VK","2018/01/06 17:49:57","新北市淡水區學府路102巷5-1號","121.450513333333","25.1719766666667","6501000","淡水區"
"251001","559-UM","2018/01/06 17:49:45","新北市淡水區民權路92巷35-1號","121.462223333333","25.12668","6501000","淡水區"
"251006","561-UM","2018/01/06 17:49:42","新北市淡水區中山北路一段24號","121.441603333333","25.17517","6501000","淡水區"
"251009","575-R6","2018/01/06 17:49:54","新北市淡水區長興街47號","121.444231666667","25.1717683333333","6501000","淡水區"
"251007","577-R6","2018/01/06 17:49:52","新北市淡水區民生路47-7號","121.462431666667","25.1381233333333","6501000","淡水區"
"251011","650-BX","2018/01/06 17:49:38","新北市淡水區吳(仔)厝24號","121.479461666667","25.1489033333333","6501000","淡水區"
"251002","672-BX","2018/01/06 17:49:36","新北市淡水區中山路66號","121.443646666667","25.17057","6501000","淡水區"
"251003","673-BX","2018/01/06 17:49:37","新北市淡水區大忠街39號","121.444383333333","25.1762816666667","6501000","淡水區"
"207003","550-UM","2018/01/06 17:49:44","新北市萬里區野柳里東澳路66號","121.692721666667","25.2008966666667","6502800","萬里區"
"207004","225-TW","2018/01/06 17:49:50","新北市萬里區萬里里瑪鋉頂街100-1號","121.68778","25.1804183333333","6502800","萬里區"
"252002","178-VK","2018/01/06 17:49:53","新北市三芝區中山路一段88巷15號","121.502893333333","25.2567516666667","6502100","三芝區"
"252001","292-VK","2018/01/06 17:49:50","新北市三芝區淡金路一段22號","121.499825","25.259405","6502100","三芝區"
"237004","078-UY","2018/01/06 17:49:51","新北市三峽區中山路110號","121.365806666667","24.935755","6500900","三峽區"
"237009","210-TH","2018/01/06 17:49:42","新北市三峽區大勇路3巷33號","121.367643333333","24.9367716666667","6500900","三峽區"
"237013","252-BX","2018/01/06 17:49:48","新北市三峽區愛國路18號","121.37406","24.9335066666667","6500900","三峽區"
"237012","275-BY","2018/01/06 17:49:48","新北市三峽區文化路164號","121.369988333333","24.9360883333333","6500900","三峽區"
"237008","302-VK","2018/01/06 17:49:55","新北市三峽區中正路二段31號","121.366936666667","24.91905","6500900","三峽區"
"237014","433-BY","2018/01/06 17:49:44","新北市三峽區文化路120巷20號","121.371215","24.93693","6500900","三峽區"
"237006","5529-G3","2018/01/06 17:49:50","新北市三峽區介壽路二段32號","121.390966666667","24.9352233333333","6500900","三峽區"
"237011","572-TV","2018/01/06 14:19:58","新北市三峽區中山路459巷163-3號","121.348653333333","24.9330233333333","6500900","三峽區"
"237016","649-BX","2018/01/06 17:23:24","新北市三峽區中山路459巷163-3號","121.348583333333","24.9329416666667","6500900","三峽區"
"237010","706-TV","2018/01/06 17:49:41","新北市三峽區文化路197號","121.366586666667","24.9356983333333","6500900","三峽區"
"237005","AKY-6261","2018/01/06 17:49:44","新北市三峽區中山路321-2號","121.36077","24.9380483333333","6500900","三峽區"
"236073","105-UM","2018/01/06 17:49:49","新北市土城區學士路79號","121.451736666667","24.9807683333333","6501300","土城區"
"236043","107-UM","2018/01/06 17:49:40","新北市土城區城林路6巷80號","121.438425","24.9797116666667","6501300","土城區"
"236079","166-UM","2018/01/06 17:46:38","新北市土城區城林路6巷80號","121.438471666667","24.9795983333333","6501300","土城區"
"236031","253-BX","2018/01/06 17:49:52","新北市土城區城林路6巷80號","121.438458333333","24.9797416666667","6501300","土城區"
"236027","269-VK","2018/01/06 17:49:48","新北市土城區中華路二段184號","121.437465","24.97141","6501300","土城區"
"236015","270-VK","2018/01/06 17:49:41","新北市土城區城林路6巷80號","121.438451666667","24.9796116666667","6501300","土城區"
"236038","271-VK","2018/01/06 17:49:47","新北市土城區城林路6巷80號","121.438426666667","24.9797316666667","6501300","土城區"
"236059","912-UM","2018/01/06 17:49:43","新北市土城區城林路6巷80號","121.438433333333","24.9797883333333","6501300","土城區"
"236063","915-UM","2018/01/06 17:49:40","新北市土城區城林路6巷80號","121.438545","24.9796016666667","6501300","土城區"
"236055","AAC-216","2018/01/06 17:49:36","新北市土城區城林路6巷80號","121.438548333333","24.9796533333333","6501300","土城區"
"242031","AAC-296","2018/01/06 17:49:42","新北市新莊區新泰路321巷37號","121.442976666667","25.0411616666667","6500500","新莊區"
"242029","986-R7","2018/01/06 17:49:53","新北市新莊區復興路一段93號","121.448796666667","25.0427733333333","6500500","新莊區"
"242051","751-BX","2018/01/06 17:49:51","新北市新莊區西盛街311巷4號","121.428325","25.0152333333333","6500500","新莊區"
"242025","615-BX","2018/01/06 17:49:49","新北市三重區新北大道二段25號","121.471641666667","25.0612216666667","6500500","新莊區"
"242023","613-BX","2018/01/06 17:49:45","新北市新莊區福樂街40號","121.457753333333","25.0456683333333","6500500","新莊區"
"242027","612-BX","2018/01/06 17:49:55","新北市新莊區福壽街145號","121.458015","25.05292","6500500","新莊區"
"242039","566-BX","2018/01/06 17:49:48","新北市新莊區民安路168號","121.424996666667","25.0241533333333","6500500","新莊區"
"242044","442-UM","2018/01/06 17:49:45","新北市新莊區雙鳳路24號","121.416743333333","25.0270283333333","6500500","新莊區"
"242048","441-UM","2018/01/06 17:49:40","新北市新莊區萬安街60巷3號","121.42062","25.0235816666667","6500500","新莊區"
"242053","440-UM","2018/01/06 17:49:48","新北市新莊區民安西路488號","121.432491666667","25.0073483333333","6500500","新莊區"
"242034","415-TV","2018/01/06 17:49:39","新北市新莊區新莊路761號","121.442455","25.0326416666667","6500500","新莊區"
"242042","400-BY","2018/01/06 17:49:40","新北市泰山區貴陽街74號","121.423711666667","25.0321383333333","6500500","新莊區"
"242061","362-BY","2018/01/06 17:49:52","新北市新莊區新樹路563號","121.432861666667","25.0072516666667","6500500","新莊區"
"242058","353-BY","2018/01/06 17:49:52","新北市新莊區中山路三段627號","121.413913333333","25.02374","6500500","新莊區"
"242007","132-UY","2018/01/06 17:49:50","新北市新莊區福樂街108巷3號","121.457528333333","25.0478916666667","6500500","新莊區"
"242036","133-UY","2018/01/06 17:49:52","新北市新莊區後港一路87號","121.427616666667","25.0267416666667","6500500","新莊區"
"242046","172-VK","2018/01/06 17:49:52","新北市新莊區福營路97巷24號","121.435108333333","25.031745","6500500","新莊區"
"242009","173-VK","2018/01/06 17:49:39","新北市新莊區昌明街30巷8號","121.456763333333","25.0527533333333","6500500","新莊區"
"242015","175-VK","2018/01/06 17:49:57","新北市新莊區新泰路502巷40號","121.443688333333","25.04634","6500500","新莊區"
"242002","176-VK","2018/01/06 17:49:43","新北市新莊區景德路93號","121.45186","25.03475","6500500","新莊區"
"242013","346-TH","2018/01/06 17:49:47","新北市新莊區中誠街142巷13弄2號","121.448646666667","25.04812","6500500","新莊區"
"242019","348-TH","2018/01/06 17:49:44","新北市新莊區中港路271號","121.45354","25.0435633333333","6500500","新莊區"
"242056","349-TH","2018/01/06 17:49:41","新北市新莊區瓊林路38巷39號","121.446565","25.0303966666667","6500500","新莊區"
"242017","350-TH","2018/01/06 17:49:43","新北市新莊區永安街39號","121.451686666667","25.0447433333333","6500500","新莊區"
"242011","351-TH","2018/01/06 17:49:46","新北市新莊區中港路695號","121.450691666667","25.0567916666667","6500500","新莊區"
"238015","755-BX","2018/01/06 17:49:50","新北市樹林區樹德街136巷33號","121.419928333333","24.994165","6500700","樹林區"
"238023","601-UM","2018/01/06 17:49:53","新北市樹林區福興街13巷7號","121.404251666667","25.0167133333333","6500700","樹林區"
"238019","599-UM","2018/01/06 17:49:39","新北市樹林區太平路161號","121.418745","24.9793983333333","6500700","樹林區"
"238018","571-TV","2018/01/06 17:49:46","新北市樹林區博愛街132號","121.426521666667","24.9912633333333","6500700","樹林區"
"238021","KEA-2217","2018/01/06 17:49:52","新北市樹林區柑園街一段137號","121.40103","24.95934","6500700","樹林區"
"238022","KEA-2213","2018/01/06 17:49:41","新北市樹林區太元街42號","121.41828","24.979805","6500700","樹林區"
"238025","303-VK","2018/01/06 17:49:38","新北市樹林區三俊街136號","121.416033333333","25.0153633333333","6500700","樹林區"
"238017","283-BY","2018/01/06 17:49:51","新北市樹林區俊德街51號","121.41565","25.0132833333333","6500700","樹林區"
"238014","282-BY","2018/01/06 17:49:52","新北市樹林區大安路179號","121.421268333333","24.9962","6500700","樹林區"
"238020","268-VK","2018/01/06 17:49:55","新北市樹林區俊英街276號","121.424053333333","25.0128116666667","6500700","樹林區"
"238026","172-UY","2018/01/06 17:49:43","新北市樹林區中洲街51巷4號","121.396748333333","24.9709783333333","6500700","樹林區"
"238016","169-UY","2018/01/06 17:49:49","新北市樹林區復興路282號","121.417978333333","24.9880716666667","6500700","樹林區"
"239007","AAC-297","2018/01/06 17:49:48","新北市鶯歌區鶯桃路94巷31號","121.341425","24.9540283333333","6500800","鶯歌區"
"239006","891-R6","2018/01/06 17:49:38","新北市鶯歌區鶯桃路413巷33號","121.330765","24.9634066666667","6500800","鶯歌區"
"239008","527-UM","2018/01/06 17:49:39","新北市鶯歌區國際一路62號","121.33534","24.9780733333333","6500800","鶯歌區"
"239005","526-UM","2018/01/06 17:49:55","新北市鶯歌區鳳吉五街20號","121.327046666667","24.9724133333333","6500800","鶯歌區"
"239001","417-VK","2018/01/06 17:49:44","新北市鶯歌區中正三路448巷1號","121.323138333333","24.9345033333333","6500800","鶯歌區"
"239003","360-BY","2018/01/06 17:49:41","新北市鶯歌區永吉街53號","121.335411666667","24.95693","6500800","鶯歌區"
"239002","359-BY","2018/01/06 17:49:47","新北市鶯歌區國華路41號","121.342865","24.9554333333333","6500800","鶯歌區"
"239004","193-VK","2018/01/06 17:49:45","新北市鶯歌區尖山路34-1號","121.351201666667","24.95021","6500800","鶯歌區"
"221008","489-VK","2018/01/06 17:49:45","新北市汐止區康寧街901號","121.651315","25.0750166666667","6501100","汐止區"
"221036","130-UY","2018/01/06 17:49:41","新北市汐止區長江街95號","121.657863333333","25.072545","6501100","汐止區"
"221010","269-BY","2018/01/06 17:49:59","新北市汐止區汐萬路二段7號","121.649313333333","25.08018","6501100","汐止區"
"221012","276-VK","2018/01/06 13:26:57","新北市汐止區汐萬路一段256巷3號","121.653371666667","25.07466","6501100","汐止區"
"221012","278-VK","2018/01/06 17:49:40","新北市汐止區長江街83號","121.657466666667","25.07237","6501100","汐止區"
"221023","279-VK","2018/01/06 17:49:56","新北市汐止區民族二街36號","121.634871666667","25.0704883333333","6501100","汐止區"
"221032","280-BY","2018/01/06 17:49:45","新北市汐止區大同路一段142-1號","121.631321666667","25.0553983333333","6501100","汐止區"
"221027","281-BY","2018/01/06 17:49:45","新北市汐止區汐萬路一段282號","121.650803333333","25.0741566666667","6501100","汐止區"
"221029","298-VK","2018/01/06 17:49:47","新北市汐止區康寧街901號","121.651625","25.0749616666667","6501100","汐止區"
"221021","299-VK","2018/01/06 17:49:39","新北市汐止區水源路一段21號","121.657226666667","25.0666616666667","6501100","汐止區"
"221031","353-TW","2018/01/06 17:49:55","新北市汐止區樟樹二路122號","121.639798333333","25.06519","6501100","汐止區"
"221015","567-BX","2018/01/06 17:49:02","新北市汐止區汐萬路一段39號","121.654936666667","25.0690683333333","6501100","汐止區"
"221035","622-UM","2018/01/06 17:49:55","新北市汐止區汐萬路一段191號","121.652453333333","25.0715933333333","6501100","汐止區"
"221025","623-UM","2018/01/06 17:49:43","新北市汐止區仁愛路1號","121.658545","25.0642266666667","6501100","汐止區"
"221038","646-BX","2018/01/06 17:49:57","新北市汐止區汐萬路一段158號","121.652701666667","25.07144","6501100","汐止區"
"221033","647-BX","2018/01/06 17:44:36","新北市汐止區林森街132巷6弄19號","121.624031666667","25.0403066666667","6501100","汐止區"
"221018","753-BX","2018/01/06 17:49:40","新北市汐止區汐萬路一段160號","121.652541666667","25.0715733333333","6501100","汐止區"
"242004","281-VK","2018/01/06 17:49:54","新北市新莊區自立街257號","121.459075","25.04555","6500500","新莊區"
"220080","461-BY","2018/01/06 13:39:13","新北市板橋區華東街1-9號","121.448213333333","24.9948016666667","6500100","板橋區"
"242021","280-VK","2018/01/06 17:49:48","新北市新莊區復興路一段212號","121.452891666667","25.0437916666667","6500500","新莊區"
