"lineid","car","time","location","longitude","latitude","cityid","cityname"
"234007","207-UY","2018/01/06 18:09:52","新北市永和區福和路1號","121.526516666667","25.00994","6500400","永和區"
"234026","9371-KE","2018/01/06 18:09:54","新北市永和區秀朗路一段10巷19號","121.513468333333","25.0062666666667","6500400","永和區"
"249005","172-UM","2018/01/06 18:09:56","新北市八里區荖阡坑路15號","121.401676666667","25.1399083333333","6502300","八里區"
"249001","173-UM","2018/01/06 18:09:40","新北市八里區龍米路二段26號","121.448871666667","25.1393716666667","6502300","八里區"
"249004","303-UY","2018/01/06 18:09:46","新北市八里區龍米路二段200巷30號","121.433205","25.1593666666667","6502300","八里區"
"249002","305-UY","2018/01/06 18:09:46","新北市八里區龍形一街3號","121.450736666667","25.13066","6502300","八里區"
"249003","593-UM","2018/01/06 18:09:56","新北市八里區中華路二段488號","121.400285","25.1457033333333","6502300","八里區"
"248006","077-UY","2018/01/06 18:09:38","新北市五股區中興路二段81號","121.460778333333","25.0772516666667","6501500","五股區"
"248008","095-VK","2018/01/06 18:09:41","新北市五股區更洲路32巷15弄9號","121.458181666667","25.08047","6501500","五股區"
"248020","225-UY","2018/01/06 18:09:45","新北市五股區凌雲路一段21號","121.454415","25.0992916666667","6501500","五股區"
"248014","261-SL","2018/01/06 18:09:40","新北市五股區成泰路一段231-13號","121.43541","25.0777883333333","6501500","五股區"
"248004","677-BX","2018/01/06 18:09:52","新北市五股區工商路48號","121.439168333333","25.0840016666667","6501500","五股區"
"248002","678-BX","2018/01/06 18:09:45","新北市五股區新五路三段38號","121.44415","25.0875583333333","6501500","五股區"
"248010","682-TV","2018/01/06 18:09:47","新北市五股區成泰路一段229-1號","121.434226666667","25.0776933333333","6501500","五股區"
"232011","375-UM","2018/01/06 18:09:50","新北市坪林區水柳腳25號","121.710903333333","24.9358066666667","6502000","坪林區"
"244013","069-UM","2018/01/06 18:09:49","新北市林口區中山路18號","121.396206666667","25.07837","6501700","林口區"
"244007","080-UY","2018/01/06 18:09:35","新北市林口區林口路124巷10弄1號","121.38904","25.08176","6501700","林口區"
"244019","403-UM","2018/01/06 18:09:48","新北市林口區文化一路一段82號","121.372165","25.07027","6501700","林口區"
"244025","742-UY","2018/01/06 18:09:46","新北市林口區文化北路一段299巷16號","121.359736666667","25.0732116666667","6501700","林口區"
"244023","483-VK","2018/01/06 18:09:42","新北市林口區東湖路153巷135號","121.382251666667","25.0735433333333","6501700","林口區"
"244017","485-VK","2018/01/06 18:09:51","新北市林口區忠孝路372號","121.369245","25.0713033333333","6501700","林口區"
"244011","656-BX","2018/01/06 18:09:39","新北市林口區中正路70號","121.394886666667","25.0774266666667","6501700","林口區"
"244009","837-TS","2018/01/06 18:09:58","新北市林口區佳林路56巷6弄9號","121.385436666667","25.0822483333333","6501700","林口區"
"244021","838-TS","2018/01/06 18:09:54","新北市林口區自強五街3號","121.398658333333","25.0766066666667","6501700","林口區"
"243013","646-TV","2018/01/06 18:09:42","新北市泰山區南林路89-4號","121.415461666667","25.0512433333333","6501600","泰山區"
"222003","436-BY","2018/01/06 18:09:50","新北市深坑區阿柔洋49-1號","121.611691666667","24.9965733333333","6501800","深坑區"
"222002","659-BX","2018/01/06 18:09:39","新北市深坑區文化街52號","121.61895","25.0015733333333","6501800","深坑區"
"231066","0293-UT","2018/01/06 18:09:48","新北市新店區安華路1-1號","121.519501666667","24.96047","6500600","新店區"
"231059","046-UY","2018/01/06 18:09:44","新北市新店區安華路28-1號","121.51953","24.9606333333333","6500600","新店區"
"231061","047-UY","2018/01/06 18:09:42","新北市新店區安華路28-1號","121.519046666667","24.960985","6500600","新店區"
"231051","107-UY","2018/01/06 18:09:46","新北市新店區安華路28-1號","121.519201666667","24.9613166666667","6500600","新店區"
"231052","187-VK","2018/01/06 18:09:36","新北市新店區安華路28-1號","121.51951","24.9610816666667","6500600","新店區"
"231046","278-BY","2018/01/06 18:09:55","新北市新店區直潭十街6號","121.531938333333","24.93908","6500600","新店區"
"231054","AAD-862","2018/01/06 18:09:38","新北市新店區安華路28-1號","121.519808333333","24.9609916666667","6500600","新店區"
"231058","3712-VJ","2018/01/06 18:09:57","新北市新店區安華路28-1號","121.519655","24.9614133333333","6500600","新店區"
"231056","3713-VJ","2018/01/06 18:09:41","新北市新店區安康路一段257號","121.524508333333","24.9633666666667","6500600","新店區"
"231055","4716-K9","2018/01/06 18:09:48","新北市新店區安華路28-1號","121.519761666667","24.96103","6500600","新店區"
"231065","512-UM","2018/01/06 18:09:36","新北市新店區安華路28-1號","121.519253333333","24.9613066666667","6500600","新店區"
"231040","619-UM","2018/01/06 18:09:48","新北市新店區安華路28-1號","121.519386666667","24.9607966666667","6500600","新店區"
"231063","645-TV","2018/01/06 18:09:41","新北市新店區安華路1-1號","121.519305","24.9605083333333","6500600","新店區"
"231049","719-UM","2018/01/06 18:09:42","新北市新店區安華路28-1號","121.519513333333","24.9610333333333","6500600","新店區"
"231062","720-UM","2018/01/06 18:09:53","新北市新店區安華路28-1號","121.519278333333","24.961155","6500600","新店區"
"231044","897-TW","2018/01/06 18:09:47","新北市新店區安華路1-1號","121.519338333333","24.9602783333333","6500600","新店區"
"231043","899-TW","2018/01/06 18:09:54","新北市新店區安華路28-1號","121.519016666667","24.9609816666667","6500600","新店區"
"241024","065-VK","2018/01/06 18:09:55","新北市三重區中正北路350號","121.477641666667","25.0694016666667","6500200","三重區"
"241033","AAC-255","2018/01/06 18:09:48","新北市三重區中興北街56-1號","121.469016666667","25.0512933333333","6500200","三重區"
"235066","003-UY","2018/01/06 18:09:43","新北市中和區圓通路172號","121.497343333333","24.994625","6500300","中和區"
"235064","005-UY","2018/01/06 18:09:57","新北市中和區中正路209號","121.49731","24.993695","6500300","中和區"
"235063","006-UY","2018/01/06 18:09:48","新北市中和區員山路36巷16-3號","121.48505","24.9912616666667","6500300","中和區"
"235046","031-BX","2018/01/06 16:36:01","新北市中和區員山路36巷16-2號","121.485208333333","24.99163","6500300","中和區"
"235056","096-UM","2018/01/06 18:09:55","新北市中和區新生街231號","121.483816666667","24.9991466666667","6500300","中和區"
"235039","097-UM","2018/01/06 18:09:57","新北市中和區和城路一段271巷1號","121.485485","24.99195","6500300","中和區"
"235065","098-UM","2018/01/06 18:09:42","新北市中和區莊敬路49巷27號","121.501601666667","25.006185","6500300","中和區"
"235040","150-BY","2018/01/06 18:09:34","新北市中和區中正路395號","121.489885","24.9935483333333","6500300","中和區"
"235058","151-BY","2018/01/06 18:09:54","新北市中和區錦和路169號","121.490705","24.99157","6500300","中和區"
"235038","185-VK","2018/01/06 18:09:42","新北市中和區大智街2號","121.519833333333","24.99187","6500300","中和區"
"235067","255-BX","2018/01/06 18:09:58","新北市中和區和城路一段271巷1號","121.485376666667","24.9919133333333","6500300","中和區"
"235072","301-VK","2018/01/06 18:09:53","新北市中和區員山路36巷12號","121.48395","24.9907383333333","6500300","中和區"
"235043","352-BY","2018/01/06 18:09:55","新北市中和區中正路637巷52弄1號","121.485525","24.9936883333333","6500300","中和區"
"235061","378-QA","2018/01/06 18:09:43","新北市中和區連城路599號","121.478716666667","24.9931016666667","6500300","中和區"
"235050","4979-A6","2018/01/06 18:09:49","新北市中和區中正路275號","121.495411666667","24.9937066666667","6500300","中和區"
"235069","4980-A6","2018/01/06 18:09:47","新北市中和區中正路589巷15號","121.485646666667","24.9934866666667","6500300","中和區"
"235042","551-UM","2018/01/06 18:09:42","新北市中和區景平路502號","121.504343333333","24.9935366666667","6500300","中和區"
"235070","558-UM","2018/01/06 15:52:02","新北市中和區員山路36巷16-2號","121.48516","24.9914533333333","6500300","中和區"
"235045","565-BX","2018/01/06 18:09:38","新北市中和區錦和路350-1號","121.490048333333","24.99357","6500300","中和區"
"235054","640-BX","2018/01/06 18:09:51","新北市中和區連城路506號","121.47756","24.992635","6500300","中和區"
"235060","647-TV","2018/01/06 18:09:38","新北市中和區員山路36巷16-3號","121.48483","24.99157","6500300","中和區"
"235047","732-UM","2018/01/06 18:09:38","新北市中和區和城路一段271巷1號","121.485471666667","24.99152","6500300","中和區"
"235062","800-TS","2018/01/06 18:09:54","新北市中和區景平路999巷2號","121.495345","25.0060133333333","6500300","中和區"
"235041","802-TS","2018/01/06 18:09:53","新北市中和區員山路36巷16-2號","121.485261666667","24.9916816666667","6500300","中和區"
"235052","805-TS","2018/01/06 18:09:40","新北市中和區中正路190-1號","121.497868333333","24.99376","6500300","中和區"
"235053","900-TW","2018/01/06 18:09:52","新北市中和區員山路36巷16-3號","121.485158333333","24.9913666666667","6500300","中和區"
"235051","157-BY","2018/01/06 18:09:50","新北市中和區中正路190-1號","121.497755","24.99379","6500300","中和區"
"235037","AAC-213","2018/01/06 18:09:43","新北市中和區景平路225號","121.510358333333","24.9926516666667","6500300","中和區"
"247002","337-TH","2018/01/06 18:09:42","新北市蘆洲區永平街32巷69弄31號","121.458751666667","25.0938783333333","6501400","蘆洲區"
"226004","312-R5","2018/01/06 18:09:56","新北市平溪區菁桐里菁桐街117號","121.724121666667","25.0239166666667","6502400","平溪區"
"228003","097-TW","2018/01/06 18:09:39","新北市貢寮區真理里美艷山街6-2號","121.92882","25.0607466666667","6502600","貢寮區"
"228001","212-TW","2018/01/06 18:09:54","新北市貢寮區真理里新港街26巷55弄2-1號","121.92739","25.0528883333333","6502600","貢寮區"
"228002","585-TW","2018/01/06 18:09:50","新北市貢寮區福連里馬崗街1號","121.995831666667","25.0159416666667","6502600","貢寮區"
"224010","AGQ-8101","2018/01/06 17:58:42","新北市瑞芳區汽車路7-3號","121.848098333333","25.1093816666667","6501200","瑞芳區"
"224006","676-BX","2018/01/06 18:09:57","新北市瑞芳區東和路3號","121.80456","25.1061333333333","6501200","瑞芳區"
"224002","639-TC","2018/01/06 18:09:51","新北市瑞芳區三爪子坑路84號","121.809981666667","25.105485","6501200","瑞芳區"
"224009","285-BY","2018/01/06 18:09:39","新北市瑞芳區金光路113號","121.853776666667","25.1062383333333","6501200","瑞芳區"
"224008","275-VK","2018/01/06 18:09:53","新北市瑞芳區員山子路23號","121.821411666667","25.10303","6501200","瑞芳區"
"224007","272-VK","2018/01/06 18:09:47","新北市瑞芳區四腳亭坑路8號","121.777763333333","25.1096683333333","6501200","瑞芳區"
"224005","271-BY","2018/01/06 18:09:55","新北市瑞芳區深澳路1號","121.816496666667","25.128555","6501200","瑞芳區"
"253005","032-BX","2018/01/06 18:09:45","新北市石門區福安街39號","121.568633333333","25.2920033333333","6502200","石門區"
"253006","741-TV","2018/01/06 18:09:55","新北市石門區老梅路52巷21號","121.546418333333","25.2885483333333","6502200","石門區"
"222001","KEA-2212","2018/01/06 18:09:52","新北市深坑區北深路二段153號","121.614316666667","25.0022633333333","6501800","深坑區"
"208002","742-BX","2018/01/06 18:09:49","新北市金山區法鼓路99號","121.623488333333","25.233155","6502700","金山區"
"208003","665-BX","2018/01/06 18:09:45","新北市金山區民生路2號","121.649736666667","25.2248983333333","6502700","金山區"
"208001","761-BX","2018/01/06 18:09:40","新北市金山區磺港里磺港路112號","121.646293333333","25.226665","6502700","金山區"
"251004","009-UM","2018/01/06 18:09:35","新北市淡水區民族路110巷15號","121.461906666667","25.1354","6501000","淡水區"
"251013","179-VK","2018/01/06 18:09:49","新北市淡水區竹圍子10號","121.476156666667","25.1941683333333","6501000","淡水區"
"251014","180-VK","2018/01/06 18:09:45","新北市淡水區南平14-3號","121.486635","25.22035","6501000","淡水區"
"251008","181-VK","2018/01/06 18:09:49","新北市淡水區坪頂路70巷35號","121.460143333333","25.1608333333333","6501000","淡水區"
"251015","182-VK","2018/01/06 18:09:53","新北市淡水區興福寮88巷1號","121.485433333333","25.1650383333333","6501000","淡水區"
"251010","413-VK","2018/01/06 18:09:36","新北市淡水區中正路二段50巷10號","121.419935","25.1833633333333","6501000","淡水區"
"251012","441-VK","2018/01/06 18:09:55","新北市淡水區北新路三段116號","121.486713333333","25.1882716666667","6501000","淡水區"
"251016","442-VK","2018/01/06 18:09:39","新北市淡水區淡金路三段46巷60號","121.450431666667","25.2001283333333","6501000","淡水區"
"251005","443-VK","2018/01/06 18:09:37","新北市淡水區水源街一段139號","121.44716","25.1718916666667","6501000","淡水區"
"251001","559-UM","2018/01/06 18:09:45","新北市淡水區自立路8-2號","121.462885","25.1296","6501000","淡水區"
"251006","561-UM","2018/01/06 18:09:47","新北市淡水區新民街72號","121.438783333333","25.1764033333333","6501000","淡水區"
"251009","575-R6","2018/01/06 18:09:54","新北市淡水區大忠街34巷23號","121.444326666667","25.1758866666667","6501000","淡水區"
"251011","650-BX","2018/01/06 18:09:58","新北市淡水區三空泉7-1號","121.476486666667","25.1624183333333","6501000","淡水區"
"251002","672-BX","2018/01/06 18:09:36","新北市淡水區中正東路一段105巷3號","121.453276666667","25.1605033333333","6501000","淡水區"
"251003","673-BX","2018/01/06 18:09:37","新北市淡水區北新路180號","121.449443333333","25.1787283333333","6501000","淡水區"
"207003","550-UM","2018/01/06 18:09:44","新北市萬里區野柳里港西路68-3號","121.685271666667","25.2044416666667","6502800","萬里區"
"207004","225-TW","2018/01/06 18:09:50","新北市萬里區中幅里中福路112-1號","121.675865","25.16736","6502800","萬里區"
"252002","178-VK","2018/01/06 18:09:53","新北市三芝區中山路二段38號","121.502951666667","25.2551866666667","6502100","三芝區"
"252003","249-BX","2018/01/06 18:09:55","新北市三芝區埔頭里埔頭37號","121.498465","25.260305","6502100","三芝區"
"252001","292-VK","2018/01/06 18:09:50","新北市三芝區中興街二段2號","121.498375","25.2566233333333","6502100","三芝區"
"237004","078-UY","2018/01/06 18:09:51","新北市三峽區大埔路353號","121.371258333333","24.8963866666667","6500900","三峽區"
"237007","153-BY","2018/01/06 18:09:49","新北市三峽區中正路二段382號","121.365441666667","24.9092033333333","6500900","三峽區"
"237009","210-TH","2018/01/06 18:09:42","新北市三峽區大仁路50巷2號","121.365441666667","24.93769","6500900","三峽區"
"237013","252-BX","2018/01/06 18:09:48","新北市三峽區長泰街70-2號","121.376675","24.9334483333333","6500900","三峽區"
"237012","275-BY","2018/01/06 18:09:48","新北市三峽區民生街1巷6-8號","121.37715","24.9356933333333","6500900","三峽區"
"237008","302-VK","2018/01/06 18:09:55","新北市三峽區白雞42-2號","121.379065","24.9111233333333","6500900","三峽區"
"237014","433-BY","2018/01/06 18:09:44","新北市三峽區國光街73號","121.374048333333","24.9381966666667","6500900","三峽區"
"237006","5529-G3","2018/01/06 18:09:50","新北市三峽區介壽路二段138巷1弄98-6號","121.398796666667","24.9322866666667","6500900","三峽區"
"237011","572-TV","2018/01/06 14:19:58","新北市三峽區中山路459巷163-3號","121.348653333333","24.9330233333333","6500900","三峽區"
"237016","649-BX","2018/01/06 18:08:24","新北市三峽區紫新路25巷8號","121.422531666667","24.92126","6500900","三峽區"
"237010","706-TV","2018/01/06 18:09:41","新北市三峽區民族街49號","121.369668333333","24.929935","6500900","三峽區"
"237005","AKY-6261","2018/01/06 18:09:44","新北市三峽區忠孝街23號","121.370956666667","24.934135","6500900","三峽區"
"236073","105-UM","2018/01/06 18:09:49","新北市土城區青雲路585-5號","121.459456666667","24.9715","6501300","土城區"
"236043","107-UM","2018/01/06 18:09:40","新北市土城區城林路6巷80號","121.438556666667","24.979675","6501300","土城區"
"236079","166-UM","2018/01/06 18:09:38","新北市土城區永寧路32巷2號","121.42945","24.96065","6501300","土城區"
"236031","253-BX","2018/01/06 18:09:51","新北市土城區城林路6巷80號","121.438401666667","24.9796183333333","6501300","土城區"
"236027","269-VK","2018/01/06 18:09:48","新北市土城區承天路18號","121.439468333333","24.96351","6501300","土城區"
"236015","270-VK","2018/01/06 18:09:41","新北市土城區學府路一段276號","121.450153333333","24.9831233333333","6501300","土城區"
"236038","271-VK","2018/01/06 18:09:47","新北市土城區金城路二段65-1號","121.451361666667","24.9789183333333","6501300","土城區"
"236023","401-BY","2018/01/06 18:09:52","新北市土城區城林路6巷80號","121.438708333333","24.979685","6501300","土城區"
"236059","912-UM","2018/01/06 18:09:43","新北市土城區中央路四段38號","121.420791666667","24.9608133333333","6501300","土城區"
"236049","913-UM","2018/01/06 18:09:43","新北市土城區明德路一段365-1號","121.45354","24.9790316666667","6501300","土城區"
"236063","915-UM","2018/01/06 18:09:40","新北市土城區金城路二段36號","121.450965","24.9785966666667","6501300","土城區"
"236055","AAC-216","2018/01/06 18:09:56","新北市土城區中華路二段80號","121.43867","24.9755983333333","6501300","土城區"
"242031","AAC-296","2018/01/06 18:09:42","新北市新莊區新泰路277巷55號","121.443596666667","25.04009","6500500","新莊區"
"242029","986-R7","2018/01/06 18:09:53","新北市新莊區中平路110巷9號","121.445563333333","25.04603","6500500","新莊區"
"242051","751-BX","2018/01/06 18:09:46","新北市新莊區西盛街153巷3號","121.428531666667","25.018135","6500500","新莊區"
"242025","615-BX","2018/01/06 18:09:51","新北市新莊區五工一路97巷8號","121.46029","25.0676716666667","6500500","新莊區"
"242023","613-BX","2018/01/06 18:09:45","新北市新莊區幸福路600號","121.453183333333","25.0492766666667","6500500","新莊區"
"242027","612-BX","2018/01/06 18:09:44","新北市新莊區幸福路73號","121.456913333333","25.04938","6500500","新莊區"
"242039","566-BX","2018/01/06 18:09:47","新北市新莊區民安西路40號","121.427246666667","25.020935","6500500","新莊區"
"242044","442-UM","2018/01/06 18:09:44","新北市新莊區中正路730號","121.414916666667","25.023755","6500500","新莊區"
"242048","441-UM","2018/01/06 18:09:41","新北市新莊區富國路124號","121.422335","25.0251433333333","6500500","新莊區"
"242053","440-UM","2018/01/06 18:09:48","新北市新莊區民安西路327巷3號","121.427901666667","25.0113583333333","6500500","新莊區"
"242034","415-TV","2018/01/06 18:09:46","新北市新莊區景德路382號","121.446183333333","25.0334816666667","6500500","新莊區"
"242042","400-BY","2018/01/06 18:09:40","新北市新莊區天祥街123號","121.414475","25.0297166666667","6500500","新莊區"
"242061","362-BY","2018/01/06 18:09:46","新北市新莊區新樹路18號","121.43857","25.0297733333333","6500500","新莊區"
"242058","353-BY","2018/01/06 18:09:52","新北市新莊區新北大道七段462號","121.41321","25.0300116666667","6500500","新莊區"
"242007","132-UY","2018/01/06 18:09:47","新北市新莊區中華路二段94號","121.453521666667","25.0471766666667","6500500","新莊區"
"242036","133-UY","2018/01/06 18:09:52","新北市新莊區建福路58巷4號","121.426283333333","25.0273","6500500","新莊區"
"242046","172-VK","2018/01/06 18:09:52","新北市新莊區福營路367號","121.423746666667","25.0276816666667","6500500","新莊區"
"242009","173-VK","2018/01/06 18:09:39","新北市新莊區中華路二段209號","121.45223","25.052985","6500500","新莊區"
"242015","175-VK","2018/01/06 18:09:57","新北市新莊區中和街59巷28號","121.446235","25.0467316666667","6500500","新莊區"
"242002","176-VK","2018/01/06 18:09:43","新北市新莊區新莊路116號","121.456055","25.0360016666667","6500500","新莊區"
"242019","348-TH","2018/01/06 18:09:44","新北市新莊區明中街49巷16號","121.456571666667","25.0391083333333","6500500","新莊區"
"242056","349-TH","2018/01/06 18:09:41","新北市新莊區豐年街55-4號","121.446526666667","25.0310883333333","6500500","新莊區"
"242017","350-TH","2018/01/06 18:09:43","新北市新莊區中港路304號","121.452706666667","25.0450266666667","6500500","新莊區"
"242011","351-TH","2018/01/06 18:09:43","新北市新莊區中信街76號","121.448038333333","25.052955","6500500","新莊區"
"238015","755-BX","2018/01/06 18:09:49","新北市樹林區大安路246巷7號","121.417668333333","24.9922083333333","6500700","樹林區"
"238023","601-UM","2018/01/06 18:09:52","新北市樹林區龍興街44號","121.402905","25.0155516666667","6500700","樹林區"
"238019","599-UM","2018/01/06 18:09:39","新北市樹林區忠孝街102號","121.424486666667","24.980465","6500700","樹林區"
"238018","571-TV","2018/01/06 18:09:46","新北市樹林區保順街85號","121.429015","24.99446","6500700","樹林區"
"238024","5061-A6","2018/01/06 18:09:56","新北市樹林區豐林街41-1號","121.421416666667","24.9982133333333","6500700","樹林區"
"238021","KEA-2217","2018/01/06 18:09:52","新北市樹林區柑園街一段287號","121.39345","24.9563033333333","6500700","樹林區"
"238022","KEA-2213","2018/01/06 18:09:41","新北市樹林區太平路150巷7號","121.418105","24.977825","6500700","樹林區"
"238025","303-VK","2018/01/06 18:09:38","新北市樹林區保安街二段37-1號","121.416208333333","25.000075","6500700","樹林區"
"238017","283-BY","2018/01/06 18:09:42","新北市樹林區中正路714號","121.4091","25.0178083333333","6500700","樹林區"
"238014","282-BY","2018/01/06 18:09:52","新北市樹林區潭興街65號","121.424516666667","24.9982266666667","6500700","樹林區"
"238020","268-VK","2018/01/06 18:09:55","新北市樹林區三龍街132號","121.416205","25.0184383333333","6500700","樹林區"
"238026","172-UY","2018/01/06 18:09:43","新北市樹林區育德街18號","121.390506666667","24.969925","6500700","樹林區"
"238016","169-UY","2018/01/06 18:09:49","新北市樹林區日新街139號","121.42069","24.9885983333333","6500700","樹林區"
"239007","AAC-297","2018/01/06 18:09:48","新北市鶯歌區重慶街53號","121.35012","24.9512916666667","6500800","鶯歌區"
"239006","891-R6","2018/01/06 18:09:38","新北市鶯歌區鶯桃路381巷2弄5號","121.33315","24.9634716666667","6500800","鶯歌區"
"239008","527-UM","2018/01/06 18:09:39","新北市鶯歌區朝陽街53巷21號","121.33829","24.9778483333333","6500800","鶯歌區"
"239005","526-UM","2018/01/06 18:09:55","新北市鶯歌區鶯桃路668巷74-1號","121.329946666667","24.9717783333333","6500800","鶯歌區"
"239001","417-VK","2018/01/06 18:09:44","新北市鶯歌區國中街70巷16號","121.341331666667","24.94265","6500800","鶯歌區"
"239003","360-BY","2018/01/06 18:09:41","新北市鶯歌區福安街13巷1號","121.335631666667","24.9652966666667","6500800","鶯歌區"
"239002","359-BY","2018/01/06 18:09:47","新北市鶯歌區國慶街83號","121.350061666667","24.9549283333333","6500800","鶯歌區"
"239004","193-VK","2018/01/06 18:09:45","新北市鶯歌區尖山路137巷2號","121.3469","24.9486166666667","6500800","鶯歌區"
"221008","489-VK","2018/01/06 18:09:45","新北市汐止區康寧街357號","121.628378333333","25.06769","6501100","汐止區"
"221036","130-UY","2018/01/06 18:09:41","新北市汐止區大同路三段143號","121.669453333333","25.0777283333333","6501100","汐止區"
"221010","269-BY","2018/01/06 18:09:59","新北市汐止區汐萬路二段275巷1弄25號","121.646381666667","25.0881583333333","6501100","汐止區"
"221012","276-VK","2018/01/06 13:26:57","新北市汐止區汐萬路一段256巷3號","121.653371666667","25.07466","6501100","汐止區"
"221012","278-VK","2018/01/06 18:09:39","新北市汐止區保一街67號","121.674285","25.0799066666667","6501100","汐止區"
"221023","279-VK","2018/01/06 18:09:56","新北市汐止區明峰街190號","121.628113333333","25.0698666666667","6501100","汐止區"
"221032","280-BY","2018/01/06 18:09:45","新北市汐止區橫科路19號","121.617776666667","25.0512866666667","6501100","汐止區"
"221027","281-BY","2018/01/06 18:09:45","新北市汐止區和平街6巷1弄2號","121.66344","25.0712566666667","6501100","汐止區"
"221029","298-VK","2018/01/06 18:09:47","新北市汐止區樟樹二路134號","121.63992","25.065755","6501100","汐止區"
"221021","299-VK","2018/01/06 18:09:39","新北市汐止區大同路二段184巷16號","121.653298333333","25.0633616666667","6501100","汐止區"
"221031","353-TW","2018/01/06 18:09:35","新北市汐止區中興路181號","121.63032","25.0667516666667","6501100","汐止區"
"221015","567-BX","2018/01/06 18:09:47","新北市汐止區長江街361號","121.66781","25.0822516666667","6501100","汐止區"
"221035","622-UM","2018/01/06 18:09:55","新北市汐止區大同路二段207號","121.6527","25.0645333333333","6501100","汐止區"
"221025","623-UM","2018/01/06 18:09:43","新北市汐止區勤進路8號","121.6598","25.0615683333333","6501100","汐止區"
"221038","646-BX","2018/01/06 18:09:57","新北市汐止區勤進路8號","121.659761666667","25.06153","6501100","汐止區"
"221033","647-BX","2018/01/06 18:09:36","新北市汐止區宜興街20巷20號","121.622063333333","25.0408066666667","6501100","汐止區"
"221002","707-TV","2018/01/06 18:09:53","新北市汐止區福德一路201巷6號","121.635505","25.0654583333333","6501100","汐止區"
"221018","753-BX","2018/01/06 18:09:40","新北市汐止區忠孝東路384號","121.665551666667","25.07017","6501100","汐止區"
"242004","281-VK","2018/01/06 18:09:50","新北市新莊區自立街98號","121.454986666667","25.0453016666667","6500500","新莊區"
"220080","461-BY","2018/01/06 13:39:13","新北市板橋區華東街1-9號","121.448213333333","24.9948016666667","6500100","板橋區"
"242021","280-VK","2018/01/06 18:09:48","新北市新莊區建中街2號","121.449915","25.0375483333333","6500500","新莊區"
