"lineid","car","time","location","longitude","latitude","cityid","cityname"
"234046","148-BY","2018/01/06 19:09:45","新北市永和區永元路18巷40弄2號","121.5241","25.000255","6500400","永和區"
"234013","149-BY","2018/01/06 19:09:49","新北市永和區保福路二段51號","121.510988333333","25.011915","6500400","永和區"
"234007","207-UY","2018/01/06 19:09:52","新北市永和區中山路一段275號","121.507148333333","25.0070533333333","6500400","永和區"
"234081","298-R6","2018/01/06 19:09:46","新北市永和區永貞路39巷9弄2號","121.522088333333","25.006645","6500400","永和區"
"234038","336-UY","2018/01/06 19:09:50","新北市永和區民樂街71巷2號","121.527371666667","24.9973233333333","6500400","永和區"
"234064","337-UY","2018/01/06 19:09:41","新北市永和區秀朗路二段45號","121.521585","25.0022566666667","6500400","永和區"
"234086","338-UY","2018/01/06 19:09:55","新北市永和區永貞路102號","121.519138333333","25.0044833333333","6500400","永和區"
"234054","553-UM","2018/01/06 19:09:50","新北市永和區中興街133巷6號","121.518651666667","25.012595","6500400","永和區"
"234017","745-BX","2018/01/06 19:09:54","新北市永和區文化路90巷15弄1號","121.513733333333","25.0159916666667","6500400","永和區"
"234030","746-BX","2018/01/06 19:09:44","新北市永和區民生路23號","121.522863333333","24.9988283333333","6500400","永和區"
"234061","AAD-866","2018/01/06 19:09:45","新北市永和區安樂路306-8號","121.514581666667","25.0052733333333","6500400","永和區"
"234070","847-RS","2018/01/06 19:09:40","新北市永和區豫溪街137巷1弄10號","121.51928","25.0104616666667","6500400","永和區"
"234042","862-TW","2018/01/06 19:09:44","新北市永和區保平路111巷5號","121.5117","25.0059133333333","6500400","永和區"
"234050","863-TW","2018/01/06 19:09:27","新北市永和區文化路135巷9號","121.510731666667","25.014455","6500400","永和區"
"234026","9371-KE","2018/01/06 19:09:54","新北市永和區安樂路270號","121.514561666667","25.0040366666667","6500400","永和區"
"234011","9373-KE","2018/01/06 19:09:55","新北市永和區仁愛路141巷9號","121.51171","25.0118483333333","6500400","永和區"
"249005","172-UM","2018/01/06 19:09:56","新北市八里區中華路三段99巷2號","121.393793333333","25.1383683333333","6502300","八里區"
"249001","173-UM","2018/01/06 19:09:39","新北市八里區龍米路二段246-1號","121.430013333333","25.158855","6502300","八里區"
"248016","026-BX","2018/01/06 19:09:47","新北市五股區成泰路三段577巷73號","121.44996","25.1035933333333","6501500","五股區"
"248008","095-VK","2018/01/06 19:09:41","新北市五股區中興路一段118巷20號","121.466035","25.0743683333333","6501500","五股區"
"248020","225-UY","2018/01/06 19:09:44","新北市五股區凌雲路三段57號","121.425268333333","25.125005","6501500","五股區"
"248012","247-BX","2018/01/06 19:09:45","新北市五股區中興路四段48巷16號","121.43862","25.083435","6501500","五股區"
"248014","261-SL","2018/01/06 19:09:31","新北市五股區民義路一段107巷23號","121.432088333333","25.0845033333333","6501500","五股區"
"248004","677-BX","2018/01/06 19:09:49","新北市五股區六合街3號","121.431921666667","25.08863","6501500","五股區"
"248002","678-BX","2018/01/06 19:09:45","新北市五股區凌雲路一段158巷14-1號","121.447863333333","25.1035233333333","6501500","五股區"
"248010","682-TV","2018/01/06 19:09:47","新北市五股區水碓一路23號","121.430565","25.0713816666667","6501500","五股區"
"234023","9380-KE","2018/01/06 19:09:42","新北市永和區中興街135號","121.518641666667","25.0123783333333","6500400","永和區"
"234077","969-R7","2018/01/06 19:09:47","新北市永和區民權路48號","121.5201","24.9985166666667","6500400","永和區"
"234074","AAC-211","2018/01/06 19:09:50","新北市永和區竹林路239號","121.52089","25.0081216666667","6500400","永和區"
"234067","AAC-212","2018/01/06 19:09:45","新北市永和區永和路一段49號","121.512558333333","25.0065616666667","6500400","永和區"
"234003","AAC-295","2018/01/06 19:09:41","新北市永和區保福路一段90號","121.512121666667","25.0103616666667","6500400","永和區"
"244013","069-UM","2018/01/06 19:09:49","新北市林口區麗園二街23巷15-9號","121.379318333333","25.0702616666667","6501700","林口區"
"244019","403-UM","2018/01/06 19:09:47","新北市林口區麗園二街15號","121.379271666667","25.0696116666667","6501700","林口區"
"244025","742-UY","2018/01/06 19:09:51","新北市林口區文化北路一段542巷13弄69號","121.369698333333","25.079665","6501700","林口區"
"244023","483-VK","2018/01/06 19:09:42","新北市林口區文化三路一段555巷50號","121.369793333333","25.0769016666667","6501700","林口區"
"244017","485-VK","2018/01/06 19:09:51","新北市林口區公園路100號","121.369786666667","25.07081","6501700","林口區"
"244011","656-BX","2018/01/06 19:09:39","新北市林口區竹林路56號","121.387493333333","25.0780916666667","6501700","林口區"
"244009","837-TS","2018/01/06 19:09:38","新北市林口區竹林路325-5號","121.38922","25.0842016666667","6501700","林口區"
"243012","AAD-798","2018/01/06 19:09:45","新北市泰山區辭修路36巷8弄5號","121.427838333333","25.0585916666667","6501600","泰山區"
"243011","297-R6","2018/01/06 19:09:40","新北市泰山區明志路二段346號","121.425885","25.0453366666667","6501600","泰山區"
"243015","380-SR","2018/01/06 19:09:52","新北市泰山區明志路一段431號","121.430706666667","25.0565383333333","6501600","泰山區"
"243014","421-VK","2018/01/06 19:09:44","新北市泰山區泰林路二段480號","121.425083333333","25.0640566666667","6501600","泰山區"
"243010","KEA-2215","2018/01/06 19:09:46","新北市泰山區明志路一段483巷1弄1號","121.431108333333","25.055445","6501600","泰山區"
"243009","KEA-2216","2018/01/06 19:09:42","新北市泰山區楓樹街15巷3-2號","121.434826666667","25.0629366666667","6501600","泰山區"
"243013","646-TV","2018/01/06 19:09:42","新北市泰山區明志路三段277號","121.422985","25.03694","6501600","泰山區"
"243016","680-BX","2018/01/06 19:09:42","新北市泰山區明志路二段341號","121.425505","25.04462","6501600","泰山區"
"222003","436-BY","2018/01/06 19:09:50","新北市深坑區深南路156號","121.624713333333","25.015295","6501800","深坑區"
"222002","659-BX","2018/01/06 19:09:39","新北市深坑區北深路一段185號","121.63198","25.01052","6501800","深坑區"
"231041","001-UM","2018/01/06 19:09:52","新北市新店區溪園路383號","121.523298333333","24.9794683333333","6500600","新店區"
"231066","0293-UT","2018/01/06 19:09:48","新北市新店區安康路三段359巷16號","121.484611666667","24.9496516666667","6500600","新店區"
"231059","046-UY","2018/01/06 19:09:43","新北市新店區安和路二段138-3號","121.519445","24.9720966666667","6500600","新店區"
"231061","047-UY","2018/01/06 19:09:42","新北市新店區安康路一段75-1號","121.530121666667","24.96112","6500600","新店區"
"231060","106-UY","2018/01/06 19:09:43","新北市新店區安康路二段214號","121.509886666667","24.95936","6500600","新店區"
"231051","107-UY","2018/01/06 19:09:36","新北市新店區中正路382巷6號","121.53507","24.97734","6500600","新店區"
"231048","108-UY","2018/01/06 19:09:40","新北市新店區德正街27巷26號","121.545281666667","24.971005","6500600","新店區"
"231052","187-VK","2018/01/06 19:09:36","新北市新店區自強路86號","121.546386666667","24.924245","6500600","新店區"
"231050","KEA-2219","2018/01/06 19:09:44","新北市新店區竹林路2巷27弄1號","121.550195","24.9507883333333","6500600","新店區"
"231046","278-BY","2018/01/06 19:09:55","新北市新店區華潭街1巷49號","121.526891666667","24.9470133333333","6500600","新店區"
"231054","AAD-862","2018/01/06 19:09:38","新北市新店區新店路159號","121.537098333333","24.95539","6500600","新店區"
"231058","3712-VJ","2018/01/06 19:09:37","新北市新店區光明街138巷13弄3號","121.54018","24.9613416666667","6500600","新店區"
"231056","3713-VJ","2018/01/06 19:09:41","新北市新店區民權路107-4號","121.536273333333","24.9821316666667","6500600","新店區"
"231055","4716-K9","2018/01/06 19:09:48","新北市新店區力行路12號","121.539436666667","24.964605","6500600","新店區"
"231067","4772-VM","2018/01/06 19:09:55","新北市新店區安康路一段230-3號","121.522363333333","24.963765","6500600","新店區"
"231065","512-UM","2018/01/06 19:09:55","新北市新店區安祥路145巷42號","121.475676666667","24.9568766666667","6500600","新店區"
"231064","515-UM","2018/01/06 19:09:46","新北市新店區安忠路102巷2號","121.51082","24.9564116666667","6500600","新店區"
"231045","617-UM","2018/01/06 19:09:57","新北市新店區北宜路一段162號","121.540371666667","24.953405","6500600","新店區"
"231040","619-UM","2018/01/06 19:09:48","新北市新店區三民路98-3號","121.533921666667","24.9733933333333","6500600","新店區"
"231042","641-BX","2018/01/06 19:09:37","新北市新店區中興路一段115號","121.541366666667","24.9627433333333","6500600","新店區"
"231063","645-TV","2018/01/06 19:09:55","新北市新店區車子路140號","121.505195","24.9476716666667","6500600","新店區"
"231049","719-UM","2018/01/06 19:09:42","新北市新店區二十張路25巷14號","121.539085","24.9820933333333","6500600","新店區"
"231062","720-UM","2018/01/06 19:09:53","新北市新店區安康路一段201-1號","121.526176666667","24.9629583333333","6500600","新店區"
"231044","897-TW","2018/01/06 19:09:47","新北市新店區中興路三段218號","121.543633333333","24.982635","6500600","新店區"
"231043","899-TW","2018/01/06 19:09:54","新北市新店區寶橋路69-1號","121.545396666667","24.97498","6500600","新店區"
"241026","066-VK","2018/01/06 19:09:49","新北市三重區泉州街74號","121.494786666667","25.0546133333333","6500200","三重區"
"241035","462-BY","2018/01/06 19:09:40","新北市三重區捷運路11-2號","121.486153333333","25.0563483333333","6500200","三重區"
"241029","942-UM","2018/01/06 19:09:50","新北市三重區重安街75巷20號","121.491698333333","25.0556633333333","6500200","三重區"
"235066","003-UY","2018/01/06 19:09:43","新北市中和區廣福路8號","121.505845","25.0030533333333","6500300","中和區"
"235064","005-UY","2018/01/06 19:09:57","新北市中和區泰和街38巷13號","121.498903333333","25.000515","6500300","中和區"
"235063","006-UY","2018/01/06 19:09:48","新北市中和區連城路220號","121.491313333333","24.996495","6500300","中和區"
"235046","031-BX","2018/01/06 19:09:38","新北市中和區忠孝街1巷45號","121.508468333333","24.9841233333333","6500300","中和區"
"235056","096-UM","2018/01/06 19:09:55","新北市板橋區三民路二段228號","121.478876666667","25.0114516666667","6500300","中和區"
"235039","097-UM","2018/01/06 19:09:56","新北市中和區立人街14巷28號","121.519703333333","24.9954733333333","6500300","中和區"
"235065","098-UM","2018/01/06 19:09:42","新北市中和區福祥路158號","121.498451666667","25.0075683333333","6500300","中和區"
"235040","150-BY","2018/01/06 19:09:14","新北市中和區宜安路35號","121.512375","24.9963283333333","6500300","中和區"
"235058","151-BY","2018/01/06 19:09:54","新北市中和區連城路539號","121.480343333333","24.9948716666667","6500300","中和區"
"235055","183-VK","2018/01/06 19:09:55","新北市中和區德光路12號","121.471513333333","25.0046216666667","6500300","中和區"
"235038","185-VK","2018/01/06 19:09:42","新北市中和區大仁街10巷27弄4號","121.519203333333","24.992725","6500300","中和區"
"235049","186-VK","2018/01/06 19:09:44","新北市中和區明禮街21號","121.504745","24.9959633333333","6500300","中和區"
"235067","255-BX","2018/01/06 19:09:57","新北市中和區新生街189號","121.483803333333","25.0003433333333","6500300","中和區"
"235044","293-VK","2018/01/06 19:09:49","新北市中和區中興街222-5號","121.500621666667","24.9895883333333","6500300","中和區"
"235072","301-VK","2018/01/06 19:09:53","新北市中和區福美路302號","121.497065","25.004875","6500300","中和區"
"235043","352-BY","2018/01/06 19:09:35","新北市中和區景平路120號","121.519305","24.9918083333333","6500300","中和區"
"235068","377-QA","2018/01/06 19:09:34","新北市中和區圓通路162巷37弄1號","121.496255","24.9954483333333","6500300","中和區"
"235061","378-QA","2018/01/06 19:09:43","新北市中和區中山路三段63巷13弄41號","121.476655","25.0035016666667","6500300","中和區"
"235050","4979-A6","2018/01/06 19:09:49","新北市中和區復興路249巷11弄3號","121.50359","24.9897166666667","6500300","中和區"
"235069","4980-A6","2018/01/06 19:09:47","新北市中和區中和路217巷8-2號","121.504181666667","25.0005516666667","6500300","中和區"
"235042","551-UM","2018/01/06 19:09:42","新北市中和區自立路113號","121.522191666667","24.994475","6500300","中和區"
"235070","558-UM","2018/01/06 19:09:48","新北市中和區中和路212號","121.506028333333","24.9995783333333","6500300","中和區"
"235045","565-BX","2018/01/06 19:09:43","新北市中和區景新街467巷33號","121.514761666667","24.9888416666667","6500300","中和區"
"235054","640-BX","2018/01/06 19:09:55","新北市中和區國光街52號","121.470771666667","25.0002483333333","6500300","中和區"
"235060","647-TV","2018/01/06 19:09:38","新北市中和區民治街7巷2號","121.475083333333","25.0046233333333","6500300","中和區"
"235047","732-UM","2018/01/06 19:09:38","新北市中和區興南路一段56巷1弄2號","121.510673333333","24.9908183333333","6500300","中和區"
"235057","801-TS","2018/01/06 19:09:37","新北市中和區民利街100巷6弄1號","121.477008333333","24.9984783333333","6500300","中和區"
"235041","802-TS","2018/01/06 19:09:53","新北市中和區中和路232號","121.506628333333","24.9996","6500300","中和區"
"235052","805-TS","2018/01/06 19:09:40","新北市中和區興南路二段142巷19弄4號","121.502933333333","24.9834233333333","6500300","中和區"
"235048","896-TW","2018/01/06 19:09:44","新北市中和區華新街136號","121.50805","24.9825433333333","6500300","中和區"
"235053","900-TW","2018/01/06 19:09:52","新北市中和區華福街12號","121.46564","24.9967633333333","6500300","中和區"
"235051","157-BY","2018/01/06 19:09:50","新北市中和區興南路一段105巷20弄4號","121.510273333333","24.9858083333333","6500300","中和區"
"235037","AAC-213","2018/01/06 19:09:53","新北市中和區秀朗路三段60巷38號","121.525075","24.9949683333333","6500300","中和區"
"235059","AAC-215","2018/01/06 19:09:52","新北市中和區圓通路294巷11弄8號","121.488401666667","24.9900083333333","6500300","中和區"
"220065","072-UY","2018/01/06 19:09:52","新北市板橋區民族路151巷73號","121.469688333333","25.0086883333333","6500100","板橋區"
"220086","073-UY","2018/01/06 19:09:43","新北市板橋區中正路250巷93號","121.459508333333","25.0200066666667","6500100","板橋區"
"220106","075-UY","2018/01/06 19:09:40","新北市板橋區文化路二段315號","121.472153333333","25.029765","6500100","板橋區"
"220069","AAD-861","2018/01/06 19:09:53","新北市板橋區四川路一段104號","121.459495","25.0045266666667","6500100","板橋區"
"220096","120-SR","2018/01/06 19:09:53","新北市板橋區雙十路二段4-1號","121.477131666667","25.0254733333333","6500100","板橋區"
"226004","312-R5","2018/01/06 19:09:56","新北市平溪區靜安路二段455號","121.739298333333","25.024425","6502400","平溪區"
"228003","097-TW","2018/01/06 19:09:39","新北市貢寮區和美里和美街29號","121.913751666667","25.08288","6502600","貢寮區"
"228001","212-TW","2018/01/06 19:09:54","新北市貢寮區真理里新港街10號","121.925521666667","25.054385","6502600","貢寮區"
"228002","585-TW","2018/01/06 19:09:50","新北市貢寮區福隆里福隆街32-1號","121.94504","25.017385","6502600","貢寮區"
"224006","676-BX","2018/01/06 19:09:37","新北市瑞芳區三爪子坑路106巷1-11號","121.807886666667","25.105275","6501200","瑞芳區"
"224009","285-BY","2018/01/06 19:09:59","新北市瑞芳區洞頂路101巷16號","121.860523333333","25.1218883333333","6501200","瑞芳區"
"224008","275-VK","2018/01/06 19:09:53","新北市瑞芳區瑞芳街112巷2號","121.80158","25.1109033333333","6501200","瑞芳區"
"224005","271-BY","2018/01/06 19:09:54","新北市瑞芳區國中新村18號","121.817168333333","25.1073333333333","6501200","瑞芳區"
"227002","400-TW","2018/01/06 19:09:56","新北市雙溪區平林里梅竹蹊56-5號","121.860281666667","25.0372533333333","6502500","雙溪區"
"227010","030-BX","2018/01/06 19:09:53","新北市雙溪區牡丹里中正路36號","121.864678333333","25.0383933333333","6502500","雙溪區"
"253005","032-BX","2018/01/06 19:09:45","新北市石門區阿里磅1號","121.587305","25.2918533333333","6502200","石門區"
"253006","741-TV","2018/01/06 19:09:55","新北市石門區崁子腳58-19號","121.531401666667","25.28742","6502200","石門區"
"222001","KEA-2212","2018/01/06 19:09:52","新北市深坑區北深路一段300號","121.624223333333","25.0057533333333","6501800","深坑區"
"208002","742-BX","2018/01/06 19:09:48","新北市金山區中華路122巷9號","121.633618333333","25.2211016666667","6502700","金山區"
"208003","665-BX","2018/01/06 19:09:44","新北市金山區中正路6號","121.636553333333","25.222375","6502700","金山區"
"208001","761-BX","2018/01/06 19:09:40","新北市金山區金包里街68號","121.639105","25.2215466666667","6502700","金山區"
"251013","179-VK","2018/01/06 19:09:49","新北市淡水區安子內12號","121.481566666667","25.2191","6501000","淡水區"
"251014","180-VK","2018/01/06 19:09:45","新北市淡水區小中寮19-8號","121.486653333333","25.227775","6501000","淡水區"
"251015","182-VK","2018/01/06 19:09:52","新北市淡水區糞箕湖75號","121.485701666667","25.17268","6501000","淡水區"
"251010","413-VK","2018/01/06 19:09:36","新北市淡水區中正路一段156巷1號","121.421098333333","25.18019","6501000","淡水區"
"251016","442-VK","2018/01/06 19:09:39","新北市淡水區下圭柔山119-51號","121.450663333333","25.2084983333333","6501000","淡水區"
"251005","443-VK","2018/01/06 19:09:51","新北市淡水區原德路11號","121.442088333333","25.1712266666667","6501000","淡水區"
"251001","559-UM","2018/01/06 19:09:45","新北市淡水區自強路201巷39號","121.462075","25.1268333333333","6501000","淡水區"
"251006","561-UM","2018/01/06 19:09:42","新北市淡水區中山北路一段149巷28號","121.443101666667","25.17806","6501000","淡水區"
"251009","575-R6","2018/01/06 19:09:54","新北市淡水區清水街152號","121.441178333333","25.17038","6501000","淡水區"
"251007","577-R6","2018/01/06 19:09:52","新北市淡水區民生路145巷36-16號","121.467148333333","25.1389466666667","6501000","淡水區"
"251002","672-BX","2018/01/06 19:09:56","新北市淡水區中山路88號","121.44274","25.1705","6501000","淡水區"
"251003","673-BX","2018/01/06 19:09:37","新北市淡水區中山北路一段68號","121.442108333333","25.1758366666667","6501000","淡水區"
"207003","550-UM","2018/01/06 19:09:44","新北市萬里區大鵬里萬里加投24號","121.649383333333","25.2082683333333","6502800","萬里區"
"207004","225-TW","2018/01/06 19:09:50","新北市萬里區萬里里瑪鋉下街29號","121.69125","25.178785","6502800","萬里區"
"252002","178-VK","2018/01/06 19:09:53","新北市三芝區埔坪里埔頭坑84號","121.508108333333","25.2542483333333","6502100","三芝區"
"252003","249-BX","2018/01/06 19:09:54","新北市三芝區錫板里南勢崗6號","121.479553333333","25.2619466666667","6502100","三芝區"
"252001","292-VK","2018/01/06 19:09:49","新北市三芝區長勤街82號","121.500211666667","25.2551","6502100","三芝區"
"237004","078-UY","2018/01/06 19:09:51","新北市三峽區有木206號","121.439111666667","24.85149","6500900","三峽區"
"237007","153-BY","2018/01/06 19:09:49","新北市三峽區中正路二段41號","121.366733333333","24.91876","6500900","三峽區"
"237009","210-TH","2018/01/06 19:09:42","新北市三峽區民生街187號","121.372028333333","24.93484","6500900","三峽區"
"237013","252-BX","2018/01/06 19:09:48","新北市三峽區光明路69巷25號","121.376715","24.9292466666667","6500900","三峽區"
"237012","275-BY","2018/01/06 19:09:48","新北市三峽區三樹路222巷236弄19-16號","121.392881666667","24.9431033333333","6500900","三峽區"
"237008","302-VK","2018/01/06 19:09:55","新北市三峽區大同路176號","121.372518333333","24.9268","6500900","三峽區"
"237014","433-BY","2018/01/06 19:09:44","新北市三峽區中山路299巷17號","121.361225","24.9366366666667","6500900","三峽區"
"237006","5529-G3","2018/01/06 19:09:50","新北市三峽區介壽路二段167號","121.39475","24.9360633333333","6500900","三峽區"
"237011","572-TV","2018/01/06 14:19:58","新北市三峽區中山路459巷163-3號","121.348653333333","24.9330233333333","6500900","三峽區"
"237016","649-BX","2018/01/06 19:04:24","新北市三峽區安坑48-1號","121.458655","24.93247","6500900","三峽區"
"237010","706-TV","2018/01/06 19:09:41","新北市三峽區復興路75號","121.37271","24.93747","6500900","三峽區"
"237005","AKY-6261","2018/01/06 19:09:44","新北市三峽區中山路459巷163-3號","121.34866","24.9329016666667","6500900","三峽區"
"236073","105-UM","2018/01/06 19:09:49","新北市土城區裕生路85號","121.446831666667","24.98406","6501300","土城區"
"236079","166-UM","2018/01/06 19:09:38","新北市土城區龍泉路44號","121.412196666667","24.945595","6501300","土城區"
"236031","253-BX","2018/01/06 19:09:51","新北市土城區城林路6巷80號","121.438248333333","24.9795083333333","6501300","土城區"
"236027","269-VK","2018/01/06 19:09:53","新北市土城區中正路11巷6號","121.442986666667","24.975535","6501300","土城區"
"236015","270-VK","2018/01/06 19:09:49","新北市土城區學府路一段37巷16號","121.457766666667","24.987805","6501300","土城區"
"236038","271-VK","2018/01/06 19:09:47","新北市土城區清水路145號","121.458396666667","24.9818116666667","6501300","土城區"
"236023","401-BY","2018/01/06 19:09:52","新北市土城區延安街35巷15號","121.468678333333","24.9847533333333","6501300","土城區"
"236059","912-UM","2018/01/06 19:09:43","新北市土城區學士路123號","121.447266666667","24.9759883333333","6501300","土城區"
"236049","913-UM","2018/01/06 19:09:43","新北市土城區明德路一段398-1號","121.453661666667","24.9790933333333","6501300","土城區"
"236063","915-UM","2018/01/06 19:09:40","新北市土城區延和路88巷3弄2號","121.466658333333","24.9891666666667","6501300","土城區"
"236055","AAC-216","2018/01/06 19:09:56","新北市土城區學府路一段177號","121.452405","24.9852266666667","6501300","土城區"
"238015","755-BX","2018/01/06 19:09:50","新北市樹林區備內街158巷18號","121.407426666667","24.9899083333333","6500700","樹林區"
"238023","601-UM","2018/01/06 19:09:52","新北市樹林區大慶街61號","121.396055","25.013575","6500700","樹林區"
"238019","599-UM","2018/01/06 19:09:39","新北市樹林區東榮街91巷4弄4號","121.416225","24.9819783333333","6500700","樹林區"
"238018","571-TV","2018/01/06 19:09:46","新北市樹林區八德街862-1號","121.39173","24.968485","6500700","樹林區"
"238021","KEA-2217","2018/01/06 19:09:48","新北市樹林區柑園街二段322號","121.373191666667","24.9516716666667","6500700","樹林區"
"238022","KEA-2213","2018/01/06 19:09:46","新北市樹林區中山路二段151巷6弄5號","121.406571666667","24.9781583333333","6500700","樹林區"
"238025","303-VK","2018/01/06 19:09:58","新北市樹林區中山路三段76號","121.393583333333","24.97235","6500700","樹林區"
"238017","283-BY","2018/01/06 19:09:42","新北市樹林區光興街223巷56號","121.406771666667","25.0048933333333","6500700","樹林區"
"238014","282-BY","2018/01/06 19:09:52","新北市樹林區千歲街70巷1弄21號","121.42671","24.99776","6500700","樹林區"
"238020","268-VK","2018/01/06 19:09:55","新北市樹林區俊英街216號","121.424976666667","25.0098416666667","6500700","樹林區"
"238026","172-UY","2018/01/06 19:09:43","新北市樹林區佳園路二段65巷1號","121.390998333333","24.960825","6500700","樹林區"
"238016","169-UY","2018/01/06 19:09:49","新北市樹林區復興路335巷6弄11號","121.41804","24.9870716666667","6500700","樹林區"
"239007","AAC-297","2018/01/06 19:09:48","新北市鶯歌區大湖路余厝巷1號","121.342433333333","24.961305","6500800","鶯歌區"
"239006","891-R6","2018/01/06 19:09:58","新北市鶯歌區建國路546號","121.338501666667","24.95043","6500800","鶯歌區"
"239008","527-UM","2018/01/06 19:09:39","新北市鶯歌區國際二路8巷15號","121.338618333333","24.974165","6500800","鶯歌區"
"239005","526-UM","2018/01/06 19:09:55","新北市鶯歌區中湖街63號","121.349161666667","24.9745183333333","6500800","鶯歌區"
"239001","417-VK","2018/01/06 19:09:43","新北市鶯歌區永智街106號","121.336886666667","24.9532333333333","6500800","鶯歌區"
"239003","360-BY","2018/01/06 19:09:41","新北市鶯歌區德昌街11號","121.333506666667","24.9602383333333","6500800","鶯歌區"
"239002","359-BY","2018/01/06 19:09:49","新北市鶯歌區湖山路29巷20號","121.339548333333","24.97467","6500800","鶯歌區"
"239004","193-VK","2018/01/06 19:09:45","新北市鶯歌區中正三路鄭厝巷65號","121.331633333333","24.9337033333333","6500800","鶯歌區"
"221008","489-VK","2018/01/06 19:09:48","新北市汐止區康寧街434號","121.630986666667","25.06817","6501100","汐止區"
"221036","130-UY","2018/01/06 19:09:41","新北市汐止區大同路二段411號","121.658471666667","25.0672583333333","6501100","汐止區"
"221010","269-BY","2018/01/06 19:09:39","新北市汐止區康寧街901號","121.651431666667","25.0750166666667","6501100","汐止區"
"221012","276-VK","2018/01/06 13:26:57","新北市汐止區汐萬路一段256巷3號","121.653371666667","25.07466","6501100","汐止區"
"221012","278-VK","2018/01/06 19:09:39","新北市汐止區康寧街901號","121.650831666667","25.0752433333333","6501100","汐止區"
"221023","279-VK","2018/01/06 19:09:35","新北市汐止區康寧街901號","121.65098","25.0752033333333","6501100","汐止區"
"221027","281-BY","2018/01/06 19:09:45","新北市汐止區康寧街901號","121.651481666667","25.0750233333333","6501100","汐止區"
"221029","298-VK","2018/01/06 19:09:47","新北市汐止區汐萬路一段256巷3號","121.65253","25.0745683333333","6501100","汐止區"
"221031","353-TW","2018/01/06 19:09:55","新北市汐止區汐萬路一段312號","121.65044","25.0753916666667","6501100","汐止區"
"221015","567-BX","2018/01/06 19:09:47","新北市汐止區汐萬路一段312號","121.650648333333","25.07536","6501100","汐止區"
"221025","623-UM","2018/01/06 19:09:43","新北市汐止區康寧街901號","121.651636666667","25.0749466666667","6501100","汐止區"
"221038","646-BX","2018/01/06 19:09:57","新北市汐止區汐萬路一段312號","121.650693333333","25.0753183333333","6501100","汐止區"
"221033","647-BX","2018/01/06 19:09:56","新北市汐止區南勢街1巷1號","121.62706","25.0374533333333","6501100","汐止區"
"221002","707-TV","2018/01/06 19:09:53","新北市汐止區大同路一段4號","121.621275","25.0548816666667","6501100","汐止區"
"221018","753-BX","2018/01/06 19:09:51","新北市汐止區汐萬路一段141號","121.653568333333","25.071145","6501100","汐止區"
"220079","145-BY","2018/01/06 19:09:41","新北市板橋區民權路260巷10號","121.458136666667","25.0153816666667","6500100","板橋區"
"220080","200-UY","2018/01/06 19:09:39","新北市板橋區大觀路二段7巷82號","121.449676666667","25.0030316666667","6500100","板橋區"
"220082","610-BX","2018/01/06 19:09:51","新北市板橋區溪北路2號","121.426436666667","24.9905416666667","6500100","板橋區"
"220072","277-BY","2018/01/06 19:09:54","新北市板橋區金門街419號","121.427138333333","24.98373","6500100","板橋區"
"220101","280-UM","2018/01/06 19:09:41","新北市板橋區萬板路15號","121.470576666667","25.020985","6500100","板橋區"
"220071","283-VK","2018/01/06 19:09:38","新北市板橋區重慶路353巷7號","121.46487","24.9981316666667","6500100","板橋區"
"220094","285-UM","2018/01/06 19:09:51","新北市板橋區光武街155號","121.46542","25.029555","6500100","板橋區"
"220053","285-VK","2018/01/06 19:09:46","新北市板橋區懷仁街37-4號","121.476625","25.0194683333333","6500100","板橋區"
"220083","286-VK","2018/01/06 19:09:46","新北市板橋區龍興街99巷3號","121.444106666667","25.00292","6500100","板橋區"
"220081","287-VK","2018/01/06 19:09:49","新北市板橋區光華街39巷27號","121.452983333333","25.0129133333333","6500100","板橋區"
"220090","288-VK","2018/01/06 19:09:41","新北市板橋區裕民街43號","121.461448333333","25.0286283333333","6500100","板橋區"
"220061","293-UM","2018/01/06 19:09:46","新北市板橋區三民路二段21巷2號","121.479693333333","25.0181666666667","6500100","板橋區"
"220084","296-UM","2018/01/06 19:09:37","新北市板橋區篤行路二段99號","121.431565","24.99145","6500100","板橋區"
"220075","297-UM","2018/01/06 19:09:55","新北市板橋區南雅南路一段3巷25-15號","121.45651","25.0055983333333","6500100","板橋區"
"220062","305-R5","2018/01/06 19:09:47","新北市板橋區三民路二段245巷69弄2號","121.481125","25.01285","6500100","板橋區"
"220092","307-R5","2018/01/06 19:09:39","新北市板橋區文化路二段225巷1號","121.470605","25.0283","6500100","板橋區"
"220098","317-R6","2018/01/06 19:09:49","新北市板橋區自由路51巷14弄5號","121.464656666667","25.0236666666667","6500100","板橋區"
"220080","461-BY","2018/01/06 13:39:13","新北市板橋區華東街1-9號","121.448213333333","24.9948016666667","6500100","板橋區"
"220064","486-VK","2018/01/06 19:09:42","新北市板橋區板新路12號","121.474678333333","25.01311","6500100","板橋區"
"220089","487-VK","2018/01/06 19:09:57","新北市板橋區文化路二段347號","121.472695","25.0305516666667","6500100","板橋區"
"220088","491-VK","2018/01/06 19:09:50","新北市板橋區文化路二段182巷1弄12號","121.471326666667","25.027755","6500100","板橋區"
"220035","560-BX","2018/01/06 19:09:55","新北市板橋區中正路330號","121.454406666667","25.021735","6500100","板橋區"
"220103","561-BX","2018/01/06 19:09:48","新北市板橋區介壽街84巷48號","121.468803333333","25.0185033333333","6500100","板橋區"
"220063","609-BX","2018/01/06 19:09:37","新北市板橋區三民路二段150號","121.479068333333","25.015065","6500100","板橋區"
"220056","630-UY","2018/01/06 19:09:52","新北市板橋區信義路74巷3弄1號","121.457031666667","24.9930483333333","6500100","板橋區"
"220091","637-BX","2018/01/06 19:09:45","新北市板橋區縣民大道247巷80號","121.482146666667","25.0269133333333","6500100","板橋區"
"220057","686-BX","2018/01/06 19:09:40","新北市板橋區重慶路201號","121.462888333333","25.001625","6500100","板橋區"
"220077","687-BX","2018/01/06 19:09:48","新北市板橋區大觀路一段51號","121.447748333333","25.0068466666667","6500100","板橋區"
"220093","689-BX","2018/01/06 19:09:48","新北市板橋區民生路三段239號","121.464605","25.0287266666667","6500100","板橋區"
"220054","741-BX","2018/01/06 19:09:37","新北市板橋區重慶路89巷12號","121.462998333333","25.0064866666667","6500100","板橋區"
"220055","827-TW","2018/01/06 19:09:50","新北市板橋區新民街4巷1號","121.464265","25.0102116666667","6500100","板橋區"
"220067","829-TW","2018/01/06 19:09:49","新北市板橋區中山路二段90巷47弄2號","121.476435","25.0145483333333","6500100","板橋區"
"220102","830-TW","2018/01/06 19:09:46","新北市板橋區萬板路818巷9號","121.482975","25.0267583333333","6500100","板橋區"
"220074","895-R6","2018/01/06 19:09:37","新北市板橋區中正路自強新村45-1號","121.454818333333","25.0139366666667","6500100","板橋區"
"220073","985-R7","2018/01/06 19:09:41","新北市板橋區中正路360巷11號","121.455071666667","25.024015","6500100","板橋區"
"220097","AAC-210","2018/01/06 19:09:43","新北市板橋區新海路135巷37號","121.45967","25.0227566666667","6500100","板橋區"
"220070","AAC-253","2018/01/06 19:09:42","新北市板橋區忠孝路31-1號","121.460708333333","25.0019633333333","6500100","板橋區"
