"lineid","car","time","location","longitude","latitude","cityid","cityname"
"234046","148-BY","2018/01/06 19:29:56","新北市永和區秀朗路二段231號","121.526466666667","25.000245","6500400","永和區"
"234013","149-BY","2018/01/06 19:29:46","新北市永和區中山路一段184巷9弄17號","121.508313333333","25.00921","6500400","永和區"
"234007","207-UY","2018/01/06 19:29:52","新北市永和區永和路一段64號","121.513011666667","25.0060266666667","6500400","永和區"
"234081","298-R6","2018/01/06 19:29:50","新北市永和區林森路10巷18弄17號","121.526255","25.0072116666667","6500400","永和區"
"234038","336-UY","2018/01/06 19:29:50","新北市永和區成功路二段47巷7號","121.527361666667","25.0002383333333","6500400","永和區"
"234064","337-UY","2018/01/06 19:29:41","新北市永和區中正路368巷1弄88號","121.520475","25.00074","6500400","永和區"
"234086","338-UY","2018/01/06 19:29:35","新北市永和區林森路68號","121.523786666667","25.0040066666667","6500400","永和區"
"234054","553-UM","2018/01/06 19:29:50","新北市永和區復興街19巷2號","121.51615","25.0131","6500400","永和區"
"234017","745-BX","2018/01/06 19:29:54","新北市永和區環河西路一段61號","121.51344","25.018115","6500400","永和區"
"234030","746-BX","2018/01/06 19:29:44","新北市永和區民生路69號","121.522643333333","24.9972833333333","6500400","永和區"
"234061","AAD-866","2018/01/06 19:29:45","新北市永和區中正路568號","121.517121666667","25.00614","6500400","永和區"
"234070","847-RS","2018/01/06 19:29:40","新北市永和區警光街5-1號","121.519795","25.0095216666667","6500400","永和區"
"234042","862-TW","2018/01/06 19:29:44","新北市永和區中和路519巷7號","121.510813333333","25.0030316666667","6500400","永和區"
"234050","863-TW","2018/01/06 19:29:47","新北市永和區仁愛路96號","121.512323333333","25.0131783333333","6500400","永和區"
"234026","9371-KE","2018/01/06 19:29:54","新北市中和區安平路210號","121.513613333333","24.999825","6500400","永和區"
"234011","9373-KE","2018/01/06 19:29:55","新北市永和區保福路二段74號","121.510451666667","25.0131716666667","6500400","永和區"
"249002","305-UY","2018/01/06 19:29:46","新北市八里區頂寮二街138號","121.44932","25.129435","6502300","八里區"
"249003","593-UM","2018/01/06 19:29:42","新北市八里區中山路二段500巷26號","121.397345","25.1475416666667","6502300","八里區"
"248008","095-VK","2018/01/06 19:29:41","新北市五股區中興路一段95巷9號","121.46661","25.0724833333333","6501500","五股區"
"248020","225-UY","2018/01/06 19:29:44","新北市五股區凌雲路三段88號","121.428055","25.119045","6501500","五股區"
"248012","247-BX","2018/01/06 19:29:45","新北市五股區中興路四段48巷16號","121.438695","25.083435","6501500","五股區"
"248014","261-SL","2018/01/06 19:29:46","新北市五股區民義路一段183巷5-1號","121.430515","25.087115","6501500","五股區"
"248004","677-BX","2018/01/06 19:29:55","新北市五股區五福路39-1號","121.433368333333","25.0893966666667","6501500","五股區"
"248002","678-BX","2018/01/06 19:29:45","新北市五股區凌雲路一段158巷14-1號","121.44793","25.1034716666667","6501500","五股區"
"248010","682-TV","2018/01/06 19:29:47","新北市五股區水碓一路23號","121.430581666667","25.0713216666667","6501500","五股區"
"234023","9380-KE","2018/01/06 19:29:42","新北市永和區竹林路91巷22號","121.520496666667","25.0123133333333","6500400","永和區"
"234077","969-R7","2018/01/06 19:29:52","新北市永和區民權路58巷2弄2號","121.51978","24.99826","6500400","永和區"
"234074","AAC-211","2018/01/06 19:29:50","新北市永和區永和路二段278號","121.516046666667","25.0152433333333","6500400","永和區"
"234067","AAC-212","2018/01/06 19:29:46","新北市永和區永貞路360巷5號","121.510518333333","25.006945","6500400","永和區"
"234003","AAC-295","2018/01/06 19:29:40","新北市永和區福和路376號","121.5143","25.007795","6500400","永和區"
"244013","069-UM","2018/01/06 19:29:49","新北市林口區文化一路一段126號","121.37548","25.0727266666667","6501700","林口區"
"244019","403-UM","2018/01/06 19:29:50","新北市林口區文化二路一段551號","121.374575","25.0769033333333","6501700","林口區"
"244023","483-VK","2018/01/06 19:29:42","新北市林口區文化北路二段230號","121.37269","25.0852616666667","6501700","林口區"
"243012","AAD-798","2018/01/06 19:29:45","新北市泰山區明志路一段501巷19號","121.431385","25.05465","6501600","泰山區"
"243011","297-R6","2018/01/06 19:29:40","新北市泰山區中山路二段563號","121.429868333333","25.0403733333333","6501600","泰山區"
"243015","380-SR","2018/01/06 19:29:12","新北市泰山區民族街3號","121.428986666667","25.0521033333333","6501600","泰山區"
"243014","421-VK","2018/01/06 19:29:43","新北市泰山區中港西路420號","121.433825","25.0538883333333","6501600","泰山區"
"243010","KEA-2215","2018/01/06 19:29:46","新北市泰山區民權街41號","121.429128333333","25.0508516666667","6501600","泰山區"
"243009","KEA-2216","2018/01/06 19:29:41","新北市泰山區美寧街58號","121.430783333333","25.0647033333333","6501600","泰山區"
"243013","646-TV","2018/01/06 19:29:42","新北市泰山區明志路三段145巷40號","121.427046666667","25.0391283333333","6501600","泰山區"
"243016","680-BX","2018/01/06 19:29:47","新北市泰山區明志路三段170號","121.424298333333","25.0390666666667","6501600","泰山區"
"222003","436-BY","2018/01/06 19:29:50","新北市深坑區深南路88巷1號","121.621061666667","25.011385","6501800","深坑區"
"222002","659-BX","2018/01/06 19:29:39","新北市深坑區北深路一段177號","121.63255","25.0109083333333","6501800","深坑區"
"231041","001-UM","2018/01/06 19:29:45","新北市新店區中正路545號","121.53373","24.98758","6500600","新店區"
"231066","0293-UT","2018/01/06 19:29:48","新北市新店區安康路三段137號","121.489641666667","24.95153","6500600","新店區"
"231059","046-UY","2018/01/06 19:29:44","新北市新店區安和路三段157號","121.516445","24.9857683333333","6500600","新店區"
"231061","047-UY","2018/01/06 19:29:42","新北市新店區安民街71號","121.51651","24.967085","6500600","新店區"
"231060","106-UY","2018/01/06 19:29:43","新北市新店區安康路二段78號","121.514158333333","24.9633266666667","6500600","新店區"
"231051","107-UY","2018/01/06 19:29:56","新北市新店區中央五街28號","121.529076666667","24.9745933333333","6500600","新店區"
"231048","108-UY","2018/01/06 19:29:36","新北市新店區五峰路63巷10號","121.546391666667","24.9684966666667","6500600","新店區"
"231052","187-VK","2018/01/06 19:29:36","新北市新店區屈尺路11號","121.549288333333","24.9222483333333","6500600","新店區"
"231050","KEA-2219","2018/01/06 19:29:44","新北市新店區北宜路二段241號","121.553933333333","24.9534416666667","6500600","新店區"
"231057","256-BX","2018/01/06 19:29:50","新北市新店區花園一路二段27號","121.551331666667","24.93253","6500600","新店區"
"231046","278-BY","2018/01/06 19:29:55","新北市新店區北新路一段128-3號","121.542388333333","24.9701166666667","6500600","新店區"
"231054","AAD-862","2018/01/06 19:29:38","新北市新店區文中路51號","121.539811666667","24.9565766666667","6500600","新店區"
"231058","3712-VJ","2018/01/06 19:29:37","新北市新店區北新路二段230-7號","121.543905","24.9772033333333","6500600","新店區"
"231067","4772-VM","2018/01/06 19:29:35","新北市新店區吉安街4號","121.517031666667","24.9656433333333","6500600","新店區"
"231065","512-UM","2018/01/06 19:29:55","新北市新店區安祥路109巷1弄9號","121.475908333333","24.9596333333333","6500600","新店區"
"231064","515-UM","2018/01/06 19:29:46","新北市新店區安忠路36號","121.514378333333","24.9613066666667","6500600","新店區"
"231045","617-UM","2018/01/06 19:29:57","新北市新店區北宜路二段211號","121.553206666667","24.9532966666667","6500600","新店區"
"231040","619-UM","2018/01/06 19:29:48","新北市新店區北新路一段62號","121.541123333333","24.9666183333333","6500600","新店區"
"231042","641-BX","2018/01/06 19:29:37","新北市新店區中興路一段208號","121.543783333333","24.9654666666667","6500600","新店區"
"231063","645-TV","2018/01/06 19:29:41","新北市新店區達觀路16號","121.50297","24.9409466666667","6500600","新店區"
"231049","719-UM","2018/01/06 19:29:42","新北市新店區北新路三段65巷12弄25號","121.540611666667","24.982","6500600","新店區"
"231062","720-UM","2018/01/06 19:29:53","新北市新店區秀山路11巷8號","121.531916666667","24.9594783333333","6500600","新店區"
"231044","897-TW","2018/01/06 19:29:47","新北市新店區中興路三段136號","121.54456","24.9800283333333","6500600","新店區"
"231043","899-TW","2018/01/06 19:29:54","新北市新店區北新路二段156-1號","121.542955","24.9755516666667","6500600","新店區"
"241028","022-UY","2018/01/06 19:29:47","新北市三重區中寮街55號","121.492998333333","25.0582833333333","6500200","三重區"
"241008","059-VK","2018/01/06 19:29:40","新北市三重區永福街135巷40號","121.477131666667","25.0772283333333","6500200","三重區"
"241009","060-VK","2018/01/06 19:29:44","新北市三重區溪尾街242巷76號","121.485975","25.0813983333333","6500200","三重區"
"241031","061-VK","2018/01/06 19:29:52","新北市三重區重新路四段244巷52號","121.488215","25.0537666666667","6500200","三重區"
"241017","063-VK","2018/01/06 19:29:40","新北市三重區中正北路25巷2號","121.493148333333","25.0626316666667","6500200","三重區"
"241026","066-VK","2018/01/06 19:29:49","新北市三重區文化南路47巷57號","121.498768333333","25.0610316666667","6500200","三重區"
"241022","267-UM","2018/01/06 19:29:47","新北市三重區三民街155巷2號","121.484008333333","25.064405","6500200","三重區"
"241025","271-UM","2018/01/06 19:29:38","新北市三重區頂崁街210巷27號","121.475741666667","25.068155","6500200","三重區"
"241007","398-BY","2018/01/06 19:29:53","新北市三重區溪尾街146號","121.489151666667","25.079895","6500200","三重區"
"241020","413-TH","2018/01/06 19:29:44","新北市三重區三和路四段20巷22-1號","121.490266666667","25.07374","6500200","三重區"
"241035","462-BY","2018/01/06 19:29:40","新北市三重區信義西街1巷21號","121.498021666667","25.0652916666667","6500200","三重區"
"241030","480-VK","2018/01/06 19:29:59","新北市三重區成功路41巷4號","121.490185","25.051465","6500200","三重區"
"241006","AAD-863","2018/01/06 19:29:54","新北市三重區車路頭街78號","121.484325","25.074055","6500200","三重區"
"241029","942-UM","2018/01/06 19:29:44","新北市三重區中正南路216號","121.493888333333","25.0551316666667","6500200","三重區"
"235066","003-UY","2018/01/06 19:29:43","新北市中和區景新街48號","121.503835","24.9991916666667","6500300","中和區"
"235064","005-UY","2018/01/06 19:29:57","新北市中和區圓通路2號","121.50198","24.9981333333333","6500300","中和區"
"235063","006-UY","2018/01/06 19:29:48","新北市中和區連城路219巷17號","121.495003333333","24.996195","6500300","中和區"
"235046","031-BX","2018/01/06 19:29:38","新北市中和區忠孝街37巷52號","121.51109","24.9849383333333","6500300","中和區"
"235056","096-UM","2018/01/06 19:29:55","新北市中和區中山路三段35-2號","121.47853","25.005595","6500300","中和區"
"235039","097-UM","2018/01/06 19:29:36","新北市中和區秀峰街38號","121.52134","24.9902766666667","6500300","中和區"
"235065","098-UM","2018/01/06 19:29:42","新北市中和區中山路二段64巷12弄16號","121.504031666667","25.0053583333333","6500300","中和區"
"235040","150-BY","2018/01/06 19:29:54","新北市中和區保健路46巷33號","121.508788333333","24.9957916666667","6500300","中和區"
"235058","151-BY","2018/01/06 19:29:54","新北市中和區連城路469巷22弄5號","121.483123333333","24.9951566666667","6500300","中和區"
"235055","183-VK","2018/01/06 19:29:55","新北市中和區莒光路120巷58號","121.471681666667","25.0007333333333","6500300","中和區"
"235038","185-VK","2018/01/06 19:29:54","新北市中和區立人街23號","121.521226666667","24.9940683333333","6500300","中和區"
"235049","186-VK","2018/01/06 19:29:38","新北市中和區景新街285巷2號","121.509945","24.9934166666667","6500300","中和區"
"235067","255-BX","2018/01/06 19:29:37","新北市中和區中正路799號","121.484873333333","25.0006866666667","6500300","中和區"
"235044","293-VK","2018/01/06 19:29:54","新北市中和區捷運路102號","121.5056","24.9915133333333","6500300","中和區"
"235072","301-VK","2018/01/06 19:29:53","新北市中和區連城路263巷8弄7號","121.491751666667","24.9952183333333","6500300","中和區"
"235043","352-BY","2018/01/06 19:29:55","新北市中和區景新街149號","121.506478333333","24.9965533333333","6500300","中和區"
"235068","377-QA","2018/01/06 19:29:54","新北市中和區連勝街57巷25號","121.49851","24.9966916666667","6500300","中和區"
"235061","378-QA","2018/01/06 19:29:43","新北市中和區員山路143巷40號","121.479143333333","24.9955883333333","6500300","中和區"
"235050","4979-A6","2018/01/06 19:29:49","新北市中和區中正路426號","121.491656666667","24.994185","6500300","中和區"
"235042","551-UM","2018/01/06 19:29:42","新北市中和區中安街192號","121.511433333333","24.9992516666667","6500300","中和區"
"235070","558-UM","2018/01/06 19:29:48","新北市中和區中山路二段224號","121.499305","25.00271","6500300","中和區"
"235045","565-BX","2018/01/06 19:29:43","新北市中和區景新街400號","121.51258","24.9895466666667","6500300","中和區"
"235054","640-BX","2018/01/06 19:29:51","新北市中和區國光街112巷14弄1號","121.469881666667","25.0012733333333","6500300","中和區"
"235060","647-TV","2018/01/06 19:29:38","新北市中和區中山路三段41號","121.477166666667","25.0056033333333","6500300","中和區"
"235047","732-UM","2018/01/06 19:29:38","新北市中和區景平路259巷16號","121.50783","24.99263","6500300","中和區"
"235057","801-TS","2018/01/06 19:29:58","新北市中和區員山路421號","121.480926666667","25.0034133333333","6500300","中和區"
"235041","802-TS","2018/01/06 19:29:53","新北市中和區中安街110號","121.511323333333","25.0008233333333","6500300","中和區"
"235052","805-TS","2018/01/06 19:29:40","新北市中和區華新街143巷65弄2號","121.50663","24.9789666666667","6500300","中和區"
"235048","896-TW","2018/01/06 19:29:44","新北市中和區忠孝街184號","121.5128","24.98819","6500300","中和區"
"235053","900-TW","2018/01/06 19:29:52","新北市中和區華順街73號","121.46566","24.998395","6500300","中和區"
"235051","157-BY","2018/01/06 19:29:50","新北市中和區景新街134號","121.505396666667","24.9979683333333","6500300","中和區"
"235037","AAC-213","2018/01/06 19:29:42","新北市中和區秀朗路三段10巷14弄19號","121.52462","24.9964683333333","6500300","中和區"
"235059","AAC-215","2018/01/06 19:29:52","新北市中和區圓通路252巷36弄1號","121.492453333333","24.99303","6500300","中和區"
"220065","072-UY","2018/01/06 19:29:52","新北市板橋區國泰街75巷28弄68號","121.467471666667","25.0044333333333","6500100","板橋區"
"220086","073-UY","2018/01/06 19:29:43","新北市板橋區中正路222號","121.455783333333","25.0186116666667","6500100","板橋區"
"220106","075-UY","2018/01/06 19:29:40","新北市板橋區長江路三段64號","121.47369","25.034035","6500100","板橋區"
"220069","AAD-861","2018/01/06 19:29:53","新北市板橋區大明街20巷29弄19號","121.457825","25.0034666666667","6500100","板橋區"
"220096","120-SR","2018/01/06 19:29:53","新北市板橋區大同街14-3號","121.477361666667","25.0270166666667","6500100","板橋區"
"247004","336-TH","2018/01/06 19:29:48","新北市蘆洲區長安街142號","121.460151666667","25.082075","6501400","蘆洲區"
"226004","312-R5","2018/01/06 19:29:35","新北市平溪區南山里南山坪20號","121.771825","25.0368883333333","6502400","平溪區"
"228003","097-TW","2018/01/06 19:29:39","新北市貢寮區和美里和美街19-2號","121.912773333333","25.0826166666667","6502600","貢寮區"
"228001","212-TW","2018/01/06 19:29:54","新北市貢寮區真理里延平街68號","121.92537","25.0574183333333","6502600","貢寮區"
"228002","585-TW","2018/01/06 19:29:50","新北市貢寮區龍門里龍門街76號","121.931353333333","25.0270383333333","6502600","貢寮區"
"224010","AGQ-8101","2018/01/06 19:29:50","新北市瑞芳區輕便路216-1號","121.845003333333","25.1095716666667","6501200","瑞芳區"
"224006","676-BX","2018/01/06 19:29:37","新北市瑞芳區三爪子坑路106巷1-11號","121.80822","25.1051483333333","6501200","瑞芳區"
"224009","285-BY","2018/01/06 19:29:59","新北市瑞芳區明燈路二段66號","121.809383333333","25.10762","6501200","瑞芳區"
"224008","275-VK","2018/01/06 19:29:53","新北市瑞芳區一坑路261-2號","121.801255","25.10868","6501200","瑞芳區"
"227002","400-TW","2018/01/06 19:29:54","新北市雙溪區雙溪里光復街18號","121.865108333333","25.0354683333333","6502500","雙溪區"
"227010","030-BX","2018/01/06 19:29:53","新北市雙溪區新基里新基北街43號","121.868208333333","25.0396933333333","6502500","雙溪區"
"253005","032-BX","2018/01/06 19:29:45","新北市石門區阿里荖15號","121.607973333333","25.28046","6502200","石門區"
"253006","741-TV","2018/01/06 19:29:35","新北市石門區中央路1-13號","121.562216666667","25.2909816666667","6502200","石門區"
"222001","KEA-2212","2018/01/06 19:29:52","新北市深坑區深坑街10號","121.615775","25.0027916666667","6501800","深坑區"
"208002","742-BX","2018/01/06 19:29:48","新北市金山區仁愛路78巷1號","121.634633333333","25.2216983333333","6502700","金山區"
"208003","665-BX","2018/01/06 19:29:56","新北市金山區中山路263巷10號","121.636225","25.221655","6502700","金山區"
"208001","761-BX","2018/01/06 19:29:40","新北市金山區中正路9號","121.636996666667","25.2224933333333","6502700","金山區"
"251013","179-VK","2018/01/06 19:29:49","新北市淡水區大牛稠5號","121.46996","25.2195166666667","6501000","淡水區"
"251014","180-VK","2018/01/06 19:29:45","新北市淡水區小中寮19-7號","121.484775","25.229625","6501000","淡水區"
"251015","182-VK","2018/01/06 19:29:52","新北市淡水區山子邊3號","121.483843333333","25.18423","6501000","淡水區"
"251010","413-VK","2018/01/06 19:29:56","新北市淡水區中正路二段150號","121.422818333333","25.187675","6501000","淡水區"
"251012","441-VK","2018/01/06 19:29:55","新北市淡水區中山北路三段164號","121.445703333333","25.1965833333333","6501000","淡水區"
"251016","442-VK","2018/01/06 19:29:39","新北市淡水區淡金路三段350巷18號","121.450728333333","25.2083066666667","6501000","淡水區"
"251005","443-VK","2018/01/06 19:29:51","新北市淡水區水源街一段71巷18號","121.444296666667","25.1729366666667","6501000","淡水區"
"251001","559-UM","2018/01/06 19:29:25","新北市淡水區民權路137號","121.460095","25.1365333333333","6501000","淡水區"
"251006","561-UM","2018/01/06 19:29:50","新北市淡水區大義街28-1號","121.442811666667","25.1785533333333","6501000","淡水區"
"251009","575-R6","2018/01/06 19:29:54","新北市淡水區大忠街5巷8號","121.44337","25.1765116666667","6501000","淡水區"
"251007","577-R6","2018/01/06 19:29:52","新北市淡水區坪頂路52巷10號","121.457833333333","25.1624266666667","6501000","淡水區"
"251011","650-BX","2018/01/06 19:29:45","新北市淡水區中正東路二段161巷11弄14號","121.460471666667","25.1465233333333","6501000","淡水區"
"251003","673-BX","2018/01/06 19:29:37","新北市淡水區中山北路二段375號","121.44421","25.1871216666667","6501000","淡水區"
"207003","550-UM","2018/01/06 19:29:44","新北市萬里區大鵬里萬里加投158號","121.643948333333","25.215065","6502800","萬里區"
"207004","225-TW","2018/01/06 19:29:50","新北市萬里區萬里里瑪鋉頂街1號","121.689146666667","25.1783933333333","6502800","萬里區"
"252002","178-VK","2018/01/06 19:29:53","新北市三芝區淡金路二段20號","121.502691666667","25.2596033333333","6502100","三芝區"
"252001","292-VK","2018/01/06 19:29:49","新北市三芝區長勤街50-1號","121.500185","25.255435","6502100","三芝區"
"237004","078-UY","2018/01/06 19:29:51","新北市三峽區有木205號","121.438936666667","24.852205","6500900","三峽區"
"237007","153-BY","2018/01/06 19:29:49","新北市三峽區二鬮路178號","121.359106666667","24.906855","6500900","三峽區"
"237009","210-TH","2018/01/06 19:29:42","新北市三峽區中山路11號","121.36945","24.9343216666667","6500900","三峽區"
"237013","252-BX","2018/01/06 19:29:48","新北市三峽區介壽路一段237號","121.379483333333","24.9301616666667","6500900","三峽區"
"237012","275-BY","2018/01/06 19:29:48","新北市三峽區三樹路98巷121號","121.382838333333","24.93826","6500900","三峽區"
"237008","302-VK","2018/01/06 19:29:55","新北市三峽區中正路一段185號","121.372523333333","24.9280166666667","6500900","三峽區"
"237014","433-BY","2018/01/06 19:29:44","新北市三峽區嘉添61號","121.368728333333","24.9106","6500900","三峽區"
"237006","5529-G3","2018/01/06 19:29:50","新北市三峽區中正路一段336巷15弄8號","121.370153333333","24.924415","6500900","三峽區"
"237011","572-TV","2018/01/06 14:19:58","新北市三峽區中山路459巷163-3號","121.348653333333","24.9330233333333","6500900","三峽區"
"237016","649-BX","2018/01/06 19:04:24","新北市三峽區安坑48-1號","121.458655","24.93247","6500900","三峽區"
"237005","AKY-6261","2018/01/06 19:29:44","新北市三峽區復興路367巷21號","121.363756666667","24.9375266666667","6500900","三峽區"
"236073","105-UM","2018/01/06 19:29:49","新北市土城區學府路一段129巷28號","121.454515","24.98574","6501300","土城區"
"236079","166-UM","2018/01/06 19:24:58","新北市土城區中央路四段215號","121.413841666667","24.9557833333333","6501300","土城區"
"236031","253-BX","2018/01/06 19:29:51","新北市土城區中央路一段318巷8號","121.442728333333","24.9818233333333","6501300","土城區"
"236027","269-VK","2018/01/06 19:29:48","新北市土城區中央路二段61巷26號","121.443331666667","24.9788883333333","6501300","土城區"
"236015","270-VK","2018/01/06 19:29:41","新北市土城區廣福街123號","121.456286666667","24.992865","6501300","土城區"
"236023","401-BY","2018/01/06 19:29:52","新北市土城區峰廷街3號","121.469095","24.987325","6501300","土城區"
"236059","912-UM","2018/01/06 19:29:43","新北市土城區中央路二段63號","121.442518333333","24.97897","6501300","土城區"
"236049","913-UM","2018/01/06 19:29:43","新北市土城區清水路165號","121.458888333333","24.981545","6501300","土城區"
"236063","915-UM","2018/01/06 19:29:40","新北市土城區金城路三段202-3號","121.469458333333","24.9885183333333","6501300","土城區"
"238015","755-BX","2018/01/06 19:29:56","新北市樹林區復興路196號","121.419981666667","24.9909683333333","6500700","樹林區"
"238023","601-UM","2018/01/06 19:29:52","新北市樹林區中正路865號","121.408776666667","25.01815","6500700","樹林區"
"238019","599-UM","2018/01/06 19:29:39","新北市樹林區鎮前街375號","121.415725","24.9839016666667","6500700","樹林區"
"238018","571-TV","2018/01/06 19:29:46","新北市樹林區中華路124號","121.417681666667","24.9804316666667","6500700","樹林區"
"238024","5061-A6","2018/01/06 19:29:56","新北市樹林區中山路三段125號","121.398918333333","24.97429","6500700","樹林區"
"238021","KEA-2217","2018/01/06 19:29:48","新北市樹林區柑園街二段203巷2號","121.378471666667","24.9518433333333","6500700","樹林區"
"238022","KEA-2213","2018/01/06 19:29:44","新北市樹林區名園街39號","121.41963","24.978905","6500700","樹林區"
"238025","303-VK","2018/01/06 19:29:58","新北市樹林區中山路一段10號","121.424213333333","24.9927533333333","6500700","樹林區"
"238017","283-BY","2018/01/06 19:29:46","新北市樹林區保安街二段167巷6號","121.414771666667","25.002915","6500700","樹林區"
"238014","282-BY","2018/01/06 19:29:52","新北市樹林區千歲街6巷4號","121.425173333333","24.995395","6500700","樹林區"
"238020","268-VK","2018/01/06 19:29:55","新北市樹林區俊英街121巷24號","121.423371666667","25.01006","6500700","樹林區"
"238026","172-UY","2018/01/06 19:29:43","新北市樹林區佳園路二段39號","121.391671666667","24.9627483333333","6500700","樹林區"
"238016","169-UY","2018/01/06 19:29:49","新北市樹林區復興路446巷1號","121.413403333333","24.98429","6500700","樹林區"
"239007","AAC-297","2018/01/06 19:29:48","新北市鶯歌區大湖路358號","121.34628","24.9725716666667","6500800","鶯歌區"
"239006","891-R6","2018/01/06 19:29:38","新北市鶯歌區文化路72-4號","121.354963333333","24.9537683333333","6500800","鶯歌區"
"239001","417-VK","2018/01/06 19:29:46","新北市鶯歌區尖山埔路116號","121.344181666667","24.9500466666667","6500800","鶯歌區"
"239003","360-BY","2018/01/06 19:29:41","新北市鶯歌區中山路171號","121.34851","24.95699","6500800","鶯歌區"
"239002","359-BY","2018/01/06 19:29:47","新北市鶯歌區大湖路159號","121.344155","24.9669433333333","6500800","鶯歌區"
"239004","193-VK","2018/01/06 19:29:45","新北市鶯歌區二甲路佳美巷23號","121.33748","24.9339583333333","6500800","鶯歌區"
"221008","489-VK","2018/01/06 19:29:45","新北市汐止區康寧街145號","121.622031666667","25.06664","6501100","汐止區"
"221036","130-UY","2018/01/06 19:29:41","新北市汐止區汐萬路一段256巷1號","121.65173","25.0748783333333","6501100","汐止區"
"221010","269-BY","2018/01/06 19:29:39","新北市汐止區連峰街5巷1號","121.646551666667","25.0768033333333","6501100","汐止區"
"221012","276-VK","2018/01/06 13:26:57","新北市汐止區汐萬路一段256巷3號","121.653371666667","25.07466","6501100","汐止區"
"221012","278-VK","2018/01/06 19:29:39","新北市汐止區大同路三段174號","121.67414","25.074945","6501100","汐止區"
"221023","279-VK","2018/01/06 19:29:35","新北市汐止區連峰街1巷1號","121.646496666667","25.0760583333333","6501100","汐止區"
"221032","280-BY","2018/01/06 19:29:45","新北市汐止區汐萬路一段266號","121.651095","25.0736966666667","6501100","汐止區"
"221027","281-BY","2018/01/06 19:29:47","新北市汐止區忠孝東路9號","121.658315","25.0659933333333","6501100","汐止區"
"221029","298-VK","2018/01/06 19:29:47","新北市汐止區康寧街901號","121.651501666667","25.0750783333333","6501100","汐止區"
"221031","353-TW","2018/01/06 19:29:55","新北市汐止區康寧街901號","121.651616666667","25.074905","6501100","汐止區"
"221015","567-BX","2018/01/06 19:29:47","新北市汐止區汐萬路一段256巷1號","121.651723333333","25.0748783333333","6501100","汐止區"
"221025","623-UM","2018/01/06 19:29:43","新北市汐止區新台五路二段28號","121.660736666667","25.065235","6501100","汐止區"
"221038","646-BX","2018/01/06 19:29:57","新北市汐止區中正路311號","121.655868333333","25.0677333333333","6501100","汐止區"
"221033","647-BX","2018/01/06 19:29:56","新北市汐止區南勢街1巷1號","121.627061666667","25.0374683333333","6501100","汐止區"
"221002","707-TV","2018/01/06 19:29:54","新北市汐止區大同路一段325號","121.63813","25.0591733333333","6501100","汐止區"
"220079","145-BY","2018/01/06 19:29:39","新北市板橋區中正路142號","121.45689","25.0160583333333","6500100","板橋區"
"220080","200-UY","2018/01/06 19:29:40","新北市板橋區大觀路二段3巷58號","121.449085","25.0033766666667","6500100","板橋區"
"220082","610-BX","2018/01/06 19:29:51","新北市板橋區金門街301號","121.43","24.9864966666667","6500100","板橋區"
"220072","277-BY","2018/01/06 19:29:54","新北市板橋區篤行路二段141巷12號","121.43024","24.9879183333333","6500100","板橋區"
"220101","280-UM","2018/01/06 19:29:38","新北市板橋區縣民大道三段133巷30號","121.477245","25.023855","6500100","板橋區"
"220071","283-VK","2018/01/06 19:29:38","新北市板橋區忠孝路48巷4弄1-1號","121.460838333333","25.000755","6500100","板橋區"
"220094","285-UM","2018/01/06 19:29:51","新北市板橋區吳鳳路50巷9號","121.467918333333","25.0305066666667","6500100","板橋區"
"220053","285-VK","2018/01/06 19:29:51","新北市板橋區永豐街110號","121.476076666667","25.02068","6500100","板橋區"
"220083","286-VK","2018/01/06 19:29:46","新北市板橋區龍興街73巷41號","121.442241666667","25.0028083333333","6500100","板橋區"
"220081","287-VK","2018/01/06 19:29:46","新北市板橋區南雅西路一段10巷7弄17號","121.45402","25.0043083333333","6500100","板橋區"
"220090","288-VK","2018/01/06 19:29:41","新北市板橋區長江路一段106巷20弄11號","121.460111666667","25.02826","6500100","板橋區"
"220061","293-UM","2018/01/06 19:29:51","新北市板橋區中山路一段267號","121.468788333333","25.0135416666667","6500100","板橋區"
"220084","296-UM","2018/01/06 19:29:42","新北市板橋區篤行路三段玉平巷79號","121.428241666667","24.986095","6500100","板橋區"
"220075","297-UM","2018/01/06 19:29:55","新北市板橋區大勇街4巷17號","121.454623333333","25.01786","6500100","板橋區"
"242004","281-VK","2018/01/06 19:29:43","新北市新莊區思源路157號","121.459671666667","25.0445266666667","6500500","新莊區"
"220062","305-R5","2018/01/06 19:29:55","新北市板橋區三民路二段123巷1號","121.479503333333","25.0156333333333","6500100","板橋區"
"220092","307-R5","2018/01/06 19:29:39","新北市板橋區松江街16號","121.469111666667","25.0263233333333","6500100","板橋區"
"220098","317-R6","2018/01/06 19:29:49","新北市板橋區四維路266巷5弄18號","121.463623333333","25.0291616666667","6500100","板橋區"
"220080","461-BY","2018/01/06 13:39:13","新北市板橋區華東街1-9號","121.448213333333","24.9948016666667","6500100","板橋區"
"220064","486-VK","2018/01/06 19:29:55","新北市板橋區館前東路26-4號","121.46046","25.0071983333333","6500100","板橋區"
"220089","487-VK","2018/01/06 19:29:42","新北市板橋區文化路一段117號","121.461821666667","25.0148616666667","6500100","板橋區"
"220088","491-VK","2018/01/06 19:29:50","新北市板橋區雙十路二段95號","121.475261666667","25.0277783333333","6500100","板橋區"
"220035","560-BX","2018/01/06 19:29:40","新北市板橋區中正路413巷2弄16號","121.453426666667","25.0231533333333","6500100","板橋區"
"220103","561-BX","2018/01/06 19:29:44","新北市板橋區文化路一段280-1號","121.467115","25.0210483333333","6500100","板橋區"
"220063","609-BX","2018/01/06 19:29:37","新北市板橋區三民路一段31巷87弄1號","121.481588333333","25.0233933333333","6500100","板橋區"
"220056","630-UY","2018/01/06 19:29:52","新北市板橋區國慶路49巷21號","121.45963","24.99638","6500100","板橋區"
"220091","637-BX","2018/01/06 19:29:44","新北市板橋區文聖街149巷22號","121.479468333333","25.028525","6500100","板橋區"
"220057","686-BX","2018/01/06 19:29:40","新北市板橋區廣權路125號","121.465491666667","24.99317","6500100","板橋區"
"220077","687-BX","2018/01/06 19:29:48","新北市板橋區僑中二街124巷2號","121.445376666667","25.0053833333333","6500100","板橋區"
"220093","689-BX","2018/01/06 19:29:41","新北市板橋區雨農路32號","121.461215","25.0244483333333","6500100","板橋區"
"220054","741-BX","2018/01/06 19:29:55","新北市板橋區光明街57號","121.46168","25.0027883333333","6500100","板橋區"
"220055","827-TW","2018/01/06 19:29:50","新北市板橋區和平路161巷22號","121.463305","24.99673","6500100","板橋區"
"220067","829-TW","2018/01/06 19:29:39","新北市板橋區漢生東路338號","121.471963333333","25.0075316666667","6500100","板橋區"
"220102","830-TW","2018/01/06 19:29:46","新北市板橋區雙十路二段112號","121.474588333333","25.02878","6500100","板橋區"
"220074","895-R6","2018/01/06 19:29:57","新北市板橋區北門街42-2號","121.457005","25.0110116666667","6500100","板橋區"
"220073","985-R7","2018/01/06 19:29:41","新北市板橋區中正路184號","121.456203333333","25.0177","6500100","板橋區"
"220097","AAC-210","2018/01/06 19:29:45","新北市板橋區漢生西路163號","121.463176666667","25.023145","6500100","板橋區"
"220070","AAC-253","2018/01/06 19:29:42","新北市板橋區四川路一段12號","121.459356666667","25.00659","6500100","板橋區"
