"lineid","car","time","location","longitude","latitude","cityid","cityname"
"234046","148-BY","2018/01/06 19:59:45","新北市永和區成功路一段82號","121.526718333333","25.0029516666667","6500400","永和區"
"234013","149-BY","2018/01/06 19:59:46","新北市永和區保生路55號","121.504721666667","25.01059","6500400","永和區"
"234007","207-UY","2018/01/06 19:59:52","新北市永和區保生路22巷8號","121.507398333333","25.0079","6500400","永和區"
"234081","298-R6","2018/01/06 19:59:46","新北市永和區國中路12號","121.524378333333","25.00494","6500400","永和區"
"234038","336-UY","2018/01/06 19:59:50","新北市永和區成功路二段152-2號","121.526558333333","24.9966166666667","6500400","永和區"
"234064","337-UY","2018/01/06 19:59:41","新北市永和區中正路412巷2弄12號","121.518561666667","25.0017666666667","6500400","永和區"
"234086","338-UY","2018/01/06 19:59:55","新北市永和區福和路127號","121.5216","25.0078266666667","6500400","永和區"
"234054","553-UM","2018/01/06 19:59:50","新北市永和區環河東路一段124號","121.520696666667","25.0154733333333","6500400","永和區"
"234017","745-BX","2018/01/06 19:59:54","新北市永和區文化路53號","121.514288333333","25.0150566666667","6500400","永和區"
"234030","746-BX","2018/01/06 19:59:44","新北市永和區民生路22巷21號","121.52143","24.9970383333333","6500400","永和區"
"234061","AAD-866","2018/01/06 19:59:45","新北市永和區中正路283巷9號","121.516993333333","25.00059","6500400","永和區"
"234070","847-RS","2018/01/06 19:59:40","新北市永和區國光路14號","121.51915","25.0083983333333","6500400","永和區"
"234042","862-TW","2018/01/06 19:59:44","新北市永和區中和路335巷14號","121.507536666667","25.000315","6500400","永和區"
"234050","863-TW","2018/01/06 19:59:47","新北市永和區保安路244號","121.506558333333","25.01258","6500400","永和區"
"234026","9371-KE","2018/01/06 19:59:54","新北市永和區水源街34號","121.511113333333","25.0045416666667","6500400","永和區"
"234011","9373-KE","2018/01/06 19:59:35","新北市永和區仁愛路352巷112弄12號","121.501115","25.0085783333333","6500400","永和區"
"249005","172-UM","2018/01/06 19:59:56","新北市八里區楓林路3-4號","121.382618333333","25.1298133333333","6502300","八里區"
"249001","173-UM","2018/01/06 19:59:48","新北市八里區中華路二段312號","121.403775","25.1483916666667","6502300","八里區"
"249004","303-UY","2018/01/06 19:59:39","新北市八里區中華路一段333-1號","121.412911666667","25.1543566666667","6502300","八里區"
"249002","305-UY","2018/01/06 19:59:46","新北市八里區龍米路一段87巷1號","121.454211666667","25.1233583333333","6502300","八里區"
"249003","593-UM","2018/01/06 19:59:42","新北市八里區中華路二段560巷3號","121.39865","25.1450716666667","6502300","八里區"
"248016","026-BX","2018/01/06 19:59:36","新北市五股區成泰路三段577巷80弄25號","121.449526666667","25.1046033333333","6501500","五股區"
"248008","095-VK","2018/01/06 19:59:47","新北市五股區四維路30巷34弄2號","121.4683","25.0715166666667","6501500","五股區"
"248020","225-UY","2018/01/06 19:59:44","新北市五股區凌雲路三段30-9號","121.431468333333","25.1071683333333","6501500","五股區"
"248012","247-BX","2018/01/06 19:59:45","新北市五股區民義路一段52號","121.436591666667","25.084285","6501500","五股區"
"248014","261-SL","2018/01/06 19:59:49","新北市五股區五福路14巷16號","121.435063333333","25.08875","6501500","五股區"
"248004","677-BX","2018/01/06 19:59:49","新北市五股區成泰路一段32巷58號","121.435008333333","25.0671333333333","6501500","五股區"
"248002","678-BX","2018/01/06 19:59:45","新北市五股區成泰路三段487號","121.450795","25.0993816666667","6501500","五股區"
"248010","682-TV","2018/01/06 19:59:47","新北市五股區登林路79-4號","121.427633333333","25.0704016666667","6501500","五股區"
"234077","969-R7","2018/01/06 19:59:47","新北市永和區民有街23巷1號","121.516833333333","24.9963916666667","6500400","永和區"
"234074","AAC-211","2018/01/06 19:59:50","新北市永和區豫溪街215巷5號","121.523965","25.0097633333333","6500400","永和區"
"234067","AAC-212","2018/01/06 19:59:45","新北市永和區保生路2號","121.506915","25.007185","6500400","永和區"
"234003","AAC-295","2018/01/06 19:59:41","新北市永和區永和路一段155-4號","121.514291666667","25.009465","6500400","永和區"
"243012","AAD-798","2018/01/06 19:59:45","新北市泰山區全興路111號","121.433888333333","25.0566316666667","6501600","泰山區"
"243011","297-R6","2018/01/06 19:59:40","新北市泰山區明志路三段182巷58號","121.42271","25.039865","6501600","泰山區"
"243015","380-SR","2018/01/06 19:59:52","新北市泰山區明志路二段214巷16弄15號","121.42683","25.049655","6501600","泰山區"
"243014","421-VK","2018/01/06 19:59:24","新北市泰山區泰林路二段109-1號","121.434555","25.059205","6501600","泰山區"
"243010","KEA-2215","2018/01/06 19:59:46","新北市泰山區中華街10巷1號","121.427881666667","25.052485","6501600","泰山區"
"243009","KEA-2216","2018/01/06 19:59:41","新北市泰山區泰林路二段164巷24號","121.434536666667","25.0609933333333","6501600","泰山區"
"243013","646-TV","2018/01/06 19:59:42","新北市泰山區明志路三段74巷28弄2號","121.423195","25.04227","6501600","泰山區"
"243016","680-BX","2018/01/06 19:59:54","新北市泰山區明志路三段522號","121.420863333333","25.0306266666667","6501600","泰山區"
"222003","436-BY","2018/01/06 19:59:47","新北市深坑區北深路二段20號","121.620755","25.004435","6501800","深坑區"
"222002","659-BX","2018/01/06 19:59:39","新北市深坑區北深路二段55巷12弄23號","121.618423333333","25.0030866666667","6501800","深坑區"
"231041","001-UM","2018/01/06 19:59:44","新北市新店區中正路366號","121.535401666667","24.9759933333333","6500600","新店區"
"231066","0293-UT","2018/01/06 19:59:51","新北市新店區柴埕路60巷1-1號","121.510101666667","24.9636716666667","6500600","新店區"
"231059","046-UY","2018/01/06 19:59:45","新北市新店區安康路二段147號","121.511225","24.9599","6500600","新店區"
"231061","047-UY","2018/01/06 19:59:42","新北市新店區安興路83-8號","121.515225","24.9757566666667","6500600","新店區"
"231060","106-UY","2018/01/06 19:59:43","新北市新店區安康路二段353號","121.495916666667","24.9548716666667","6500600","新店區"
"231051","107-UY","2018/01/06 19:59:56","新北市新店區中央二街1號","121.529273333333","24.972975","6500600","新店區"
"231048","108-UY","2018/01/06 19:59:42","新北市新店區寶宏路3-3號","121.549185","24.976655","6500600","新店區"
"231052","187-VK","2018/01/06 19:59:56","新北市新店區新烏路三段336號","121.546693333333","24.896055","6500600","新店區"
"231050","KEA-2219","2018/01/06 19:59:44","新北市新店區北宜路二段6號","121.547701666667","24.9518216666667","6500600","新店區"
"231057","256-BX","2018/01/06 19:59:50","新北市新店區花園二路一段11號","121.555503333333","24.9325066666667","6500600","新店區"
"231054","AAD-862","2018/01/06 19:59:58","新北市新店區光明街115號","121.538921666667","24.9615833333333","6500600","新店區"
"231056","3713-VJ","2018/01/06 19:59:41","新北市新店區北新路三段111號","121.54132","24.9822666666667","6500600","新店區"
"231055","4716-K9","2018/01/06 19:59:48","新北市新店區力行路30號","121.53913","24.9647766666667","6500600","新店區"
"231067","4772-VM","2018/01/06 19:59:55","新北市新店區秀山路11巷12弄19號","121.531205","24.9596716666667","6500600","新店區"
"231065","512-UM","2018/01/06 19:59:35","新北市新店區安祥路109巷8號","121.475408333333","24.95885","6500600","新店區"
"231064","515-UM","2018/01/06 19:59:49","新北市新店區光華街7巷2號","121.517556666667","24.9690266666667","6500600","新店區"
"231045","617-UM","2018/01/06 19:59:57","新北市新店區北宜路二段126號","121.557026666667","24.953805","6500600","新店區"
"231040","619-UM","2018/01/06 19:59:48","新北市新店區中正路62號","121.544265","24.9700666666667","6500600","新店區"
"231042","641-BX","2018/01/06 19:59:37","新北市新店區中興路一段292號","121.545968333333","24.9691366666667","6500600","新店區"
"231063","645-TV","2018/01/06 19:59:53","新北市新店區黎明路53巷2號","121.502383333333","24.9484533333333","6500600","新店區"
"231068","718-UY","2018/01/06 19:59:42","新北市新店區安華路28-1號","121.519385","24.9611133333333","6500600","新店區"
"231049","719-UM","2018/01/06 19:59:42","新北市新店區明德路42號","121.54146","24.9781","6500600","新店區"
"231062","720-UM","2018/01/06 19:59:53","新北市新店區精忠路7號","121.528741666667","24.95613","6500600","新店區"
"231044","897-TW","2018/01/06 19:59:47","新北市新店區寶慶街71號","121.54185","24.98663","6500600","新店區"
"231043","899-TW","2018/01/06 19:59:54","新北市新店區中正路263-2號","121.538391666667","24.97368","6500600","新店區"
"241011","013-R5","2018/01/06 19:59:52","新北市三重區三和路二段167號","121.49785","25.0696516666667","6500200","三重區"
"241028","022-UY","2018/01/06 19:59:47","新北市三重區重新路三段49號","121.493035","25.0612133333333","6500200","三重區"
"241008","059-VK","2018/01/06 19:59:39","新北市三重區永福街179-2號","121.478845","25.0750166666667","6500200","三重區"
"241009","060-VK","2018/01/06 19:59:44","新北市三重區三和路四段390巷30號","121.480853333333","25.0787016666667","6500200","三重區"
"241031","061-VK","2018/01/06 19:59:52","新北市三重區重新路四段144巷7號","121.486963333333","25.0555466666667","6500200","三重區"
"241015","062-VK","2018/01/06 19:59:54","新北市三重區三和路二段35-1號","121.500875","25.06721","6500200","三重區"
"241017","063-VK","2018/01/06 19:59:40","新北市三重區自強路一段306號","121.49127","25.0684133333333","6500200","三重區"
"241024","065-VK","2018/01/06 19:59:55","新北市三重區大勇街55號","121.481128333333","25.07165","6500200","三重區"
"241026","066-VK","2018/01/06 19:59:49","新北市三重區中央南路5號","121.50107","25.0629583333333","6500200","三重區"
"241002","090-VK","2018/01/06 19:59:44","新北市三重區仁愛街269巷55號","121.49459","25.0795116666667","6500200","三重區"
"241005","262-UM","2018/01/06 19:59:47","新北市三重區溪尾街332號","121.488293333333","25.0849583333333","6500200","三重區"
"241016","266-UM","2018/01/06 19:59:35","新北市三重區正義北路36巷37號","121.496195","25.063365","6500200","三重區"
"241022","267-UM","2018/01/06 19:59:47","新北市三重區市前街6號","121.489628333333","25.0620716666667","6500200","三重區"
"241018","268-UM","2018/01/06 19:59:53","新北市三重區雙園街64號","121.495771666667","25.06763","6500200","三重區"
"241013","270-UM","2018/01/06 19:59:40","新北市三重區三和路三段125巷33號","121.493806666667","25.0736783333333","6500200","三重區"
"241025","271-UM","2018/01/06 19:59:38","新北市三重區頂崁街210巷16號","121.476466666667","25.067775","6500200","三重區"
"241007","398-BY","2018/01/06 19:59:53","新北市三重區溪尾街124-1號","121.489486666667","25.079365","6500200","三重區"
"241020","413-TH","2018/01/06 19:59:44","新北市三重區三和路三段170巷63號","121.490361666667","25.07262","6500200","三重區"
"241035","462-BY","2018/01/06 19:59:40","新北市三重區大榮街9號","121.498206666667","25.0631683333333","6500200","三重區"
"241004","475-VK","2018/01/06 19:59:54","新北市三重區五華街108-2號","121.492491666667","25.082775","6500200","三重區"
"241019","478-VK","2018/01/06 19:59:57","新北市三重區重陽路四段12號","121.490836666667","25.0689833333333","6500200","三重區"
"241030","480-VK","2018/01/06 19:59:39","新北市三重區成功路171號","121.486173333333","25.0525666666667","6500200","三重區"
"241014","543-UM","2018/01/06 19:59:52","新北市三重區三和路二段176號","121.49902","25.06879","6500200","三重區"
"241023","545-UM","2018/01/06 19:59:53","新北市三重區頂崁街172號","121.477621666667","25.06595","6500200","三重區"
"241001","547-UM","2018/01/06 19:59:38","新北市三重區仁愛街269巷45號","121.494296666667","25.079345","6500200","三重區"
"241006","AAD-863","2018/01/06 19:59:50","新北市三重區力行路二段122號","121.482085","25.0749683333333","6500200","三重區"
"241012","941-UM","2018/01/06 19:59:45","新北市三重區仁厚街36號","121.500058333333","25.07647","6500200","三重區"
"241029","942-UM","2018/01/06 19:59:44","新北市三重區重安街1號","121.489916666667","25.0582466666667","6500200","三重區"
"241033","AAC-255","2018/01/06 19:59:48","新北市三重區中興北街20號","121.469616666667","25.0484066666667","6500200","三重區"
"235066","003-UY","2018/01/06 19:59:43","新北市中和區光華街33號","121.504951666667","25.00394","6500300","中和區"
"235046","031-BX","2018/01/06 19:59:38","新北市中和區興南路一段93巷27號","121.509998333333","24.9878916666667","6500300","中和區"
"235056","096-UM","2018/01/06 19:59:55","新北市中和區中山路三段114巷29號","121.475388333333","25.0083866666667","6500300","中和區"
"235039","097-UM","2018/01/06 19:59:36","新北市中和區大勇街27巷31號","121.516075","24.9938316666667","6500300","中和區"
"235065","098-UM","2018/01/06 19:59:42","新北市中和區福祥路90巷5號","121.499668333333","25.0059083333333","6500300","中和區"
"235040","150-BY","2018/01/06 19:59:54","新北市中和區保健路10巷3弄1號","121.507758333333","24.9976866666667","6500300","中和區"
"235058","151-BY","2018/01/06 19:59:54","新北市中和區員山路173號","121.481146666667","24.9969866666667","6500300","中和區"
"235055","183-VK","2018/01/06 19:59:35","新北市中和區民生街35巷3弄2號","121.470521666667","25.00464","6500300","中和區"
"235049","186-VK","2018/01/06 19:59:38","新北市中和區景平路518號","121.503423333333","24.9939183333333","6500300","中和區"
"235067","255-BX","2018/01/06 19:59:58","新北市中和區新生街213號","121.483955","24.9996983333333","6500300","中和區"
"235044","293-VK","2018/01/06 19:59:49","新北市中和區中正路65巷1弄2號","121.50128","24.9931133333333","6500300","中和區"
"235043","352-BY","2018/01/06 19:59:55","新北市中和區興南路二段159巷7號","121.5054","24.9831833333333","6500300","中和區"
"235068","377-QA","2018/01/06 19:59:54","新北市中和區中山路二段250巷14號","121.497475","25.00306","6500300","中和區"
"235050","4979-A6","2018/01/06 19:59:49","新北市中和區景平路155號","121.513443333333","24.9919333333333","6500300","中和區"
"235069","4980-A6","2018/01/06 19:59:47","新北市中和區南山路37巷3弄2號","121.502865","24.9991616666667","6500300","中和區"
"235070","558-UM","2018/01/06 19:59:28","新北市中和區圓通路113號","121.499468333333","24.9964033333333","6500300","中和區"
"235054","640-BX","2018/01/06 19:59:51","新北市中和區莒光路147號","121.472645","25.0012583333333","6500300","中和區"
"235060","647-TV","2018/01/06 19:59:58","新北市中和區新生街16巷21弄2號","121.482255","25.0043633333333","6500300","中和區"
"235041","802-TS","2018/01/06 19:59:53","新北市中和區安平路106號","121.511636666667","24.99737","6500300","中和區"
"235052","805-TS","2018/01/06 19:59:40","新北市中和區華新街144巷9號","121.507566666667","24.9831016666667","6500300","中和區"
"235048","896-TW","2018/01/06 19:59:44","新北市中和區景新街439號","121.513133333333","24.9888783333333","6500300","中和區"
"235053","900-TW","2018/01/06 19:59:52","新北市中和區民德路150號","121.468633333333","25.000195","6500300","中和區"
"235051","157-BY","2018/01/06 19:59:50","新北市中和區復興路301巷16號","121.50141","24.9895416666667","6500300","中和區"
"235037","AAC-213","2018/01/06 19:59:42","新北市中和區自立路143號","121.522343333333","24.9932866666667","6500300","中和區"
"235059","AAC-215","2018/01/06 19:59:52","新北市中和區圓通路305巷5弄36號","121.494481666667","24.9902816666667","6500300","中和區"
"220065","072-UY","2018/01/06 19:59:52","新北市板橋區長安街5號","121.466155","25.0087066666667","6500100","板橋區"
"220106","075-UY","2018/01/06 19:59:40","新北市板橋區民治街96巷22號","121.478546666667","25.0321866666667","6500100","板橋區"
"220069","AAD-861","2018/01/06 19:59:53","新北市板橋區大明街18-9號","121.458691666667","25.0027633333333","6500100","板橋區"
"220096","120-SR","2018/01/06 19:59:53","新北市板橋區莒光路16巷19號","121.46947","25.023905","6500100","板橋區"
"247020","500-BY","2018/01/06 19:59:54","新北市蘆洲區民義街66號","121.472965","25.0897833333333","6501400","蘆洲區"
"247010","339-TH","2018/01/06 19:59:55","新北市蘆洲區集賢路227-1號","121.482255","25.086035","6501400","蘆洲區"
"247002","337-TH","2018/01/06 19:59:50","新北市蘆洲區長安街260號","121.457476666667","25.0865316666667","6501400","蘆洲區"
"247004","336-TH","2018/01/06 19:59:48","新北市蘆洲區永康街77號","121.455763333333","25.0852383333333","6501400","蘆洲區"
"247016","057-VK","2018/01/06 19:59:42","新北市蘆洲區光華路17號","121.469578333333","25.0832283333333","6501400","蘆洲區"
"247006","056-VK","2018/01/06 19:52:56","新北市樹林區民和街77號","121.379315","24.9701466666667","6501400","蘆洲區"
"247008","053-VK","2018/01/06 19:59:54","新北市蘆洲區信義路115號","121.478466666667","25.08017","6501400","蘆洲區"
"247024","002-UY","2018/01/06 19:59:53","新北市蘆洲區光榮路120巷12號","121.465393333333","25.0884716666667","6501400","蘆洲區"
"226004","312-R5","2018/01/06 19:59:56","新北市平溪區靜安路三段392巷3號","121.784338333333","25.049455","6502400","平溪區"
"228003","097-TW","2018/01/06 19:59:39","新北市貢寮區仁理村仁和路76號","121.922706666667","25.0501566666667","6502600","貢寮區"
"224010","AGQ-8101","2018/01/06 19:59:42","新北市瑞芳區輕便路226號","121.844885","25.1088666666667","6501200","瑞芳區"
"224008","275-VK","2018/01/06 19:59:53","新北市平溪區新寮里五分寮10-2號","121.800208333333","25.07616","6501200","瑞芳區"
"227002","400-TW","2018/01/06 19:59:54","新北市雙溪區雙溪里長安街16號","121.864961666667","25.0347366666667","6502500","雙溪區"
"227010","030-BX","2018/01/06 19:59:53","新北市雙溪區新基里新基南街25號","121.866255","25.038175","6502500","雙溪區"
"222001","KEA-2212","2018/01/06 19:59:45","新北市深坑區北深路三段157號","121.602088333333","25.0031733333333","6501800","深坑區"
"208002","742-BX","2018/01/06 19:59:48","新北市金山區環金路19號","121.641031666667","25.2176016666667","6502700","金山區"
"208003","665-BX","2018/01/06 19:59:44","新北市金山區永興里濆水路5號","121.627966666667","25.2668966666667","6502700","金山區"
"208001","761-BX","2018/01/06 19:59:40","新北市金山區南勢湖39號","121.611836666667","25.2177983333333","6502700","金山區"
"251004","009-UM","2018/01/06 19:59:34","新北市淡水區民權路177巷15-1號","121.460888333333","25.1351166666667","6501000","淡水區"
"251013","179-VK","2018/01/06 19:59:49","新北市淡水區奎柔山路63號","121.4517","25.206145","6501000","淡水區"
"251014","180-VK","2018/01/06 19:59:45","新北市淡水區石頭厝1號","121.458715","25.2355433333333","6501000","淡水區"
"251008","181-VK","2018/01/06 19:59:49","新北市淡水區中正路一段132巷7弄8號","121.42233","25.1801283333333","6501000","淡水區"
"251015","182-VK","2018/01/06 19:59:52","新北市淡水區商工路379號","121.472343333333","25.1854183333333","6501000","淡水區"
"251012","441-VK","2018/01/06 19:59:34","新北市淡水區下圭柔山114-10號","121.445538333333","25.2098183333333","6501000","淡水區"
"251016","442-VK","2018/01/06 19:59:48","新北市淡水區興仁路162號","121.451395","25.2207466666667","6501000","淡水區"
"251005","443-VK","2018/01/06 19:59:51","新北市淡水區學府路136巷46號","121.45219","25.1726266666667","6501000","淡水區"
"251001","559-UM","2018/01/06 19:59:45","新北市淡水區淡金路二段147號","121.449905","25.1826916666667","6501000","淡水區"
"251006","561-UM","2018/01/06 19:59:42","新北市淡水區水碓街40巷1號","121.444456666667","25.1773066666667","6501000","淡水區"
"251009","575-R6","2018/01/06 19:59:54","新北市淡水區英專路28巷2弄11號","121.445903333333","25.1695016666667","6501000","淡水區"
"251011","650-BX","2018/01/06 19:59:45","新北市淡水區崁頂55-2號","121.442436666667","25.1970533333333","6501000","淡水區"
"251002","672-BX","2018/01/06 19:59:56","新北市淡水區中正路一段122號","121.423015","25.1784233333333","6501000","淡水區"
"207003","550-UM","2018/01/06 19:59:44","新北市萬里區磺潭里公館崙5號","121.641855","25.2142283333333","6502800","萬里區"
"207004","225-TW","2018/01/06 19:59:50","新北市萬里區北基里忠二街35號","121.685616666667","25.1757483333333","6502800","萬里區"
"252002","178-VK","2018/01/06 19:59:53","新北市三芝區三民街39巷36號","121.50542","25.2575633333333","6502100","三芝區"
"252001","292-VK","2018/01/06 19:59:49","新北市三芝區公正街9號","121.499773333333","25.2574833333333","6502100","三芝區"
"237004","078-UY","2018/01/06 19:59:51","新北市三峽區嘉添95號","121.370403333333","24.90961","6500900","三峽區"
"237007","153-BY","2018/01/06 19:59:49","新北市三峽區二鬮路136巷127號","121.356161666667","24.9106233333333","6500900","三峽區"
"237009","210-TH","2018/01/06 19:59:42","新北市三峽區民權街201號","121.367686666667","24.9287833333333","6500900","三峽區"
"237012","275-BY","2018/01/06 19:59:48","新北市三峽區中華路3巷8-1號","121.37492","24.9311383333333","6500900","三峽區"
"237008","302-VK","2018/01/06 19:59:35","新北市三峽區中華路65號","121.372293333333","24.9303966666667","6500900","三峽區"
"237006","5529-G3","2018/01/06 19:59:50","新北市三峽區中園街237-1號","121.367068333333","24.9194266666667","6500900","三峽區"
"237005","AKY-6261","2018/01/06 19:59:44","新北市三峽區民生街1巷5-14號","121.379105","24.9363283333333","6500900","三峽區"
"236073","105-UM","2018/01/06 19:59:49","新北市土城區忠義路77號","121.443276666667","24.9647216666667","6501300","土城區"
"236043","107-UM","2018/01/06 19:59:40","新北市土城區學府路一段145號","121.453658333333","24.986075","6501300","土城區"
"236079","166-UM","2018/01/06 19:24:58","新北市土城區中央路四段215號","121.413841666667","24.9557833333333","6501300","土城區"
"236031","253-BX","2018/01/06 19:59:51","新北市土城區中央路一段279號","121.444563333333","24.9846733333333","6501300","土城區"
"236027","269-VK","2018/01/06 19:59:48","新北市土城區中央路二段84號","121.44236","24.97888","6501300","土城區"
"236015","270-VK","2018/01/06 19:59:41","新北市土城區廣福街123號","121.45625","24.992915","6501300","土城區"
"236038","271-VK","2018/01/06 19:59:47","新北市土城區國際路61號","121.466711666667","24.97659","6501300","土城區"
"236023","401-BY","2018/01/06 19:59:52","新北市土城區延吉街165巷5號","121.470375","24.98533","6501300","土城區"
"236059","912-UM","2018/01/06 19:59:43","新北市土城區中央路一段269-4號","121.444871666667","24.985065","6501300","土城區"
"236049","913-UM","2018/01/06 19:59:43","新北市土城區金城路三段192號","121.468448333333","24.988025","6501300","土城區"
"236063","915-UM","2018/01/06 19:59:40","新北市土城區延和路62巷6弄1號","121.466071666667","24.9885716666667","6501300","土城區"
"236055","AAC-216","2018/01/06 19:59:52","新北市土城區立德路105號","121.463615","24.9875883333333","6501300","土城區"
"242031","AAC-296","2018/01/06 19:59:36","新北市新莊區中正路427號","121.443911666667","25.0342166666667","6500500","新莊區"
"242029","986-R7","2018/01/06 19:59:38","新北市新莊區中平路181號","121.444673333333","25.04902","6500500","新莊區"
"242025","615-BX","2018/01/06 19:59:46","新北市新莊區五工一路86號","121.461351666667","25.0674533333333","6500500","新莊區"
"242023","613-BX","2018/01/06 19:59:55","新北市新莊區化成路428號","121.46605","25.0511233333333","6500500","新莊區"
"242027","612-BX","2018/01/06 19:59:42","新北市新莊區立信一街60號","121.443048333333","25.049815","6500500","新莊區"
"242039","566-BX","2018/01/06 19:59:54","新北市新莊區民安路287-2號","121.428883333333","25.0228866666667","6500500","新莊區"
"242044","442-UM","2018/01/06 19:59:56","新北市新莊區中正路756號","121.41242","25.0221916666667","6500500","新莊區"
"242048","441-UM","2018/01/06 19:59:40","新北市新莊區富國路109巷2號","121.423736666667","25.0251316666667","6500500","新莊區"
"242053","440-UM","2018/01/06 19:59:53","新北市新莊區西盛街423號","121.427303333333","25.0121616666667","6500500","新莊區"
"242034","415-TV","2018/01/06 19:59:43","新北市新莊區建中街101號","121.446481666667","25.036465","6500500","新莊區"
"242042","400-BY","2018/01/06 19:59:53","新北市新莊區青山路一段55號","121.408441666667","25.027845","6500500","新莊區"
"242061","362-BY","2018/01/06 19:59:50","新北市新莊區瓊泰路1號","121.445081666667","25.0285866666667","6500500","新莊區"
"242058","353-BY","2018/01/06 19:59:56","新北市新莊區八德街135號","121.42385","25.0202216666667","6500500","新莊區"
"242007","132-UY","2018/01/06 19:59:47","新北市新莊區福壽街171號","121.45806","25.0537483333333","6500500","新莊區"
"242036","133-UY","2018/01/06 19:59:52","新北市新莊區建安街39號","121.429035","25.025435","6500500","新莊區"
"242046","172-VK","2018/01/06 19:59:54","新北市新莊區裕民街19巷6號","121.419786666667","25.0251133333333","6500500","新莊區"
"242009","173-VK","2018/01/06 19:59:39","新北市新莊區幸福路770號","121.447081666667","25.0491066666667","6500500","新莊區"
"242015","175-VK","2018/01/06 19:59:57","新北市新莊區中平路6巷37號","121.446135","25.0427883333333","6500500","新莊區"
"242002","176-VK","2018/01/06 19:59:43","新北市新莊區新泰路76號","121.449076666667","25.0349366666667","6500500","新莊區"
"242013","346-TH","2018/01/06 19:59:47","新北市新莊區幸福路672號","121.450891666667","25.0494616666667","6500500","新莊區"
"242019","348-TH","2018/01/06 19:59:52","新北市新莊區民生街28號","121.456306666667","25.042245","6500500","新莊區"
"242056","349-TH","2018/01/06 19:59:41","新北市新莊區中正路347巷15號","121.447273333333","25.0343666666667","6500500","新莊區"
"242017","350-TH","2018/01/06 19:59:49","新北市新莊區中安街34號","121.452998333333","25.046275","6500500","新莊區"
"242011","351-TH","2018/01/06 19:59:43","新北市新莊區中港路531巷90號","121.450033333333","25.0518483333333","6500500","新莊區"
"238015","755-BX","2018/01/06 19:59:50","新北市樹林區中山路三段210-2號","121.380693333333","24.96669","6500700","樹林區"
"238023","601-UM","2018/01/06 19:59:52","新北市樹林區中正路161號","121.424138333333","25.0021366666667","6500700","樹林區"
"238021","KEA-2217","2018/01/06 19:59:48","新北市樹林區佳園路三段101巷38弄45號","121.391601666667","24.9500383333333","6500700","樹林區"
"238025","303-VK","2018/01/06 19:59:37","新北市樹林區中山路三段214號","121.379678333333","24.96776","6500700","樹林區"
"238020","268-VK","2018/01/06 19:59:55","新北市樹林區中山路三段210-2號","121.380688333333","24.9666016666667","6500700","樹林區"
"221008","489-VK","2018/01/06 19:59:45","台北市內湖區康樂街125巷16號","121.620263333333","25.073295","6501100","汐止區"
"221036","130-UY","2018/01/06 19:59:41","新北市汐止區南昌街16號","121.66296","25.0685183333333","6501100","汐止區"
"221010","269-BY","2018/01/06 19:59:39","新北市汐止區八連路一段86巷10號","121.644655","25.0803616666667","6501100","汐止區"
"221012","276-VK","2018/01/06 13:26:57","新北市汐止區汐萬路一段256巷3號","121.653371666667","25.07466","6501100","汐止區"
"221012","278-VK","2018/01/06 19:59:39","新北市汐止區大同路三段334號","121.679578333333","25.0710933333333","6501100","汐止區"
"221023","279-VK","2018/01/06 19:59:35","新北市汐止區明峰街214號","121.627261666667","25.0690566666667","6501100","汐止區"
"221032","280-BY","2018/01/06 19:59:52","新北市汐止區橫科路18巷32弄10號","121.617423333333","25.0498016666667","6501100","汐止區"
"221027","281-BY","2018/01/06 19:59:48","新北市汐止區中正路68號","121.661736666667","25.0699116666667","6501100","汐止區"
"221029","298-VK","2018/01/06 19:59:47","新北市汐止區樟樹一路137巷26號","121.641021666667","25.065955","6501100","汐止區"
"221021","299-VK","2018/01/06 19:59:39","新北市汐止區水源路一段172號","121.655216666667","25.0618933333333","6501100","汐止區"
"221031","353-TW","2018/01/06 19:59:54","新北市汐止區福德一路215號","121.634721666667","25.0653016666667","6501100","汐止區"
"221015","567-BX","2018/01/06 19:59:47","新北市汐止區橋東街15號","121.666625","25.0757733333333","6501100","汐止區"
"221035","622-UM","2018/01/06 19:59:55","新北市汐止區長江街57巷6號","121.656226666667","25.0717716666667","6501100","汐止區"
"221025","623-UM","2018/01/06 19:59:43","新北市汐止區秀峰路93號","121.660031666667","25.0638433333333","6501100","汐止區"
"221038","646-BX","2018/01/06 19:59:37","新北市汐止區忠孝東路480號","121.666165","25.0737966666667","6501100","汐止區"
"221033","647-BX","2018/01/06 19:59:37","新北市汐止區東勢街201巷98號","121.633728333333","25.0430866666667","6501100","汐止區"
"221018","753-BX","2018/01/06 19:59:51","新北市汐止區茄苳路94號","121.667331666667","25.070465","6501100","汐止區"
"220079","145-BY","2018/01/06 19:59:39","新北市板橋區大仁街112號","121.452853333333","25.0158816666667","6500100","板橋區"
"220080","200-UY","2018/01/06 19:59:39","新北市板橋區大觀路二段163巷6-1號","121.445683333333","25.0003433333333","6500100","板橋區"
"220082","610-BX","2018/01/06 19:59:51","新北市板橋區存德街81號","121.431896666667","24.99113","6500100","板橋區"
"220072","277-BY","2018/01/06 19:59:54","新北市板橋區大觀路三段201號","121.431783333333","24.993165","6500100","板橋區"
"220101","280-UM","2018/01/06 19:59:38","新北市板橋區莊敬路253號","121.473488333333","25.0214983333333","6500100","板橋區"
"220071","283-VK","2018/01/06 19:59:58","新北市板橋區五權街30巷24弄28號","121.463628333333","24.9941816666667","6500100","板橋區"
"220094","285-UM","2018/01/06 19:59:51","新北市板橋區陽明街239號","121.463006666667","25.0245133333333","6500100","板橋區"
"220053","285-VK","2018/01/06 19:59:55","新北市板橋區永豐街87號","121.473578333333","25.0190766666667","6500100","板橋區"
"220083","286-VK","2018/01/06 19:59:48","新北市板橋區僑中二街10巷39-1號","121.445385","25.0111416666667","6500100","板橋區"
"220081","287-VK","2018/01/06 19:59:49","新北市板橋區大觀路一段28巷107號","121.449951666667","25.0120583333333","6500100","板橋區"
"220090","288-VK","2018/01/06 19:59:53","新北市板橋區幸福路32巷71號","121.460565","25.022385","6500100","板橋區"
"220061","293-UM","2018/01/06 19:59:44","新北市板橋區縣民大道二段200巷6號","121.469711666667","25.0171083333333","6500100","板橋區"
"220084","296-UM","2018/01/06 19:59:47","新北市板橋區滿平街2巷25號","121.425381666667","24.9894733333333","6500100","板橋區"
"220075","297-UM","2018/01/06 19:59:55","新北市板橋區金華街10巷123號","121.459651666667","25.0206816666667","6500100","板橋區"
"242004","281-VK","2018/01/06 19:59:43","新北市新莊區化成路205號","121.46572","25.0509583333333","6500500","新莊區"
"220062","305-R5","2018/01/06 19:59:47","新北市板橋區光復街202巷6號","121.486296666667","25.0204866666667","6500100","板橋區"
"220092","307-R5","2018/01/06 19:59:39","新北市板橋區四維路259巷55號","121.4613","25.0270016666667","6500100","板橋區"
"220098","317-R6","2018/01/06 19:59:49","新北市板橋區漢生西路159號","121.462981666667","25.02335","6500100","板橋區"
"220080","461-BY","2018/01/06 13:39:13","新北市板橋區華東街1-9號","121.448213333333","24.9948016666667","6500100","板橋區"
"220064","486-VK","2018/01/06 19:59:55","新北市板橋區區運路3號","121.465126666667","25.009365","6500100","板橋區"
"220089","487-VK","2018/01/06 19:59:42","新北市板橋區新海路385巷32號","121.457441666667","25.0254366666667","6500100","板橋區"
"242021","280-VK","2018/01/06 19:59:48","新北市新莊區建中街16巷35號","121.448696666667","25.038425","6500500","新莊區"
"220088","491-VK","2018/01/06 19:59:50","新北市板橋區懷德街187-3號","121.479746666667","25.0296216666667","6500100","板橋區"
"220035","560-BX","2018/01/06 19:59:43","新北市板橋區新生街29巷4弄2號","121.456578333333","25.0217266666667","6500100","板橋區"
"220103","561-BX","2018/01/06 19:59:44","新北市板橋區自由路13號","121.46545","25.0226833333333","6500100","板橋區"
"220063","609-BX","2018/01/06 19:59:37","新北市板橋區中山路二段84-2號","121.474843333333","25.016045","6500100","板橋區"
"220091","637-BX","2018/01/06 19:59:45","新北市板橋區懷德街174巷18弄1號","121.478821666667","25.0297266666667","6500100","板橋區"
"220057","686-BX","2018/01/06 19:59:40","新北市板橋區信義路17號","121.456931666667","24.9966883333333","6500100","板橋區"
"220093","689-BX","2018/01/06 19:59:41","新北市板橋區長江路三段120號","121.475236666667","25.0342916666667","6500100","板橋區"
"220054","741-BX","2018/01/06 19:59:57","新北市板橋區忠孝路201巷93號","121.46465","25.00478","6500100","板橋區"
"220055","827-TW","2018/01/06 19:59:50","新北市板橋區仁愛路47巷2號","121.459845","24.9995116666667","6500100","板橋區"
"220067","829-TW","2018/01/06 19:59:39","新北市板橋區長安街331巷91-2號","121.472015","25.0126233333333","6500100","板橋區"
"220102","830-TW","2018/01/06 19:59:46","新北市板橋區仁化街66號","121.475853333333","25.0316566666667","6500100","板橋區"
"220074","895-R6","2018/01/06 19:59:57","新北市板橋區縣民大道一段295號","121.46111","25.0105533333333","6500100","板橋區"
"220073","985-R7","2018/01/06 19:57:21","新北市板橋區南雅西路二段239號","121.45152","25.0142683333333","6500100","板橋區"
"220097","AAC-210","2018/01/06 19:59:45","新北市板橋區光正街43號","121.461785","25.01705","6500100","板橋區"
"220070","AAC-253","2018/01/06 19:59:42","新北市板橋區四川路一段127號","121.459873333333","25.0047016666667","6500100","板橋區"
