"lineid","car","time","location","longitude","latitude","cityid","cityname"
"234046","148-BY","2018/01/06 20:09:45","新北市永和區得和路328號","121.523266666667","24.9994183333333","6500400","永和區"
"234013","149-BY","2018/01/06 20:09:50","新北市永和區永貞路393號","121.507891666667","25.0088933333333","6500400","永和區"
"234007","207-UY","2018/01/06 20:09:52","新北市永和區保順路37巷7號","121.50319","25.0102816666667","6500400","永和區"
"234081","298-R6","2018/01/06 20:09:46","新北市永和區永亨路100號","121.523101666667","25.0047666666667","6500400","永和區"
"234038","336-UY","2018/01/06 20:09:50","新北市永和區成功路一段66號","121.52678","25.0036933333333","6500400","永和區"
"234064","337-UY","2018/01/06 20:09:41","新北市永和區永元路62號","121.522345","25.001375","6500400","永和區"
"234086","338-UY","2018/01/06 20:09:55","新北市永和區中正路614-2號","121.517096666667","25.00768","6500400","永和區"
"234054","553-UM","2018/01/06 20:09:50","新北市永和區博愛街19巷2號","121.517605","25.0158766666667","6500400","永和區"
"234017","745-BX","2018/01/06 20:09:55","新北市永和區文化路72號","121.514233333333","25.0151316666667","6500400","永和區"
"234030","746-BX","2018/01/06 20:09:44","新北市永和區民權路49巷33號","121.521788333333","24.9975383333333","6500400","永和區"
"234061","AAD-866","2018/01/06 20:09:45","新北市永和區中正路151巷5弄2號","121.51586","24.9986466666667","6500400","永和區"
"234070","847-RS","2018/01/06 20:09:40","新北市永和區永貞路10巷7號","121.52011","25.0072683333333","6500400","永和區"
"234042","862-TW","2018/01/06 20:09:54","新北市永和區雙和街16巷12號","121.510103333333","25.00238","6500400","永和區"
"234050","863-TW","2018/01/06 20:09:53","新北市永和區永平路372號","121.505768333333","25.0139283333333","6500400","永和區"
"234011","9373-KE","2018/01/06 20:09:35","新北市永和區仁愛路352巷122弄34號","121.501013333333","25.0092266666667","6500400","永和區"
"249005","172-UM","2018/01/06 20:09:56","新北市八里區下罟子46號","121.38473","25.1364416666667","6502300","八里區"
"249001","173-UM","2018/01/06 20:09:48","新北市八里區中華路二段328號","121.403205","25.1479383333333","6502300","八里區"
"249004","303-UY","2018/01/06 20:05:39","新北市八里區中山路一段157巷67號","121.412275","25.1577816666667","6502300","八里區"
"249002","305-UY","2018/01/06 20:09:46","新北市八里區龍米路一段100巷20號","121.454223333333","25.1250416666667","6502300","八里區"
"249003","593-UM","2018/01/06 20:09:42","新北市八里區中山路二段540巷9弄2號","121.396913333333","25.1472133333333","6502300","八里區"
"248016","026-BX","2018/01/06 20:09:56","新北市五股區天乙路67號","121.448138333333","25.1046483333333","6501500","五股區"
"248008","095-VK","2018/01/06 20:09:41","新北市五股區中興路一段1巷14號","121.469783333333","25.0713616666667","6501500","五股區"
"248020","225-UY","2018/01/06 20:09:56","新北市五股區凌雲路二段10號","121.445833333333","25.1024666666667","6501500","五股區"
"248012","247-BX","2018/01/06 20:09:45","新北市五股區民義路一段212號","121.430535","25.0894816666667","6501500","五股區"
"248014","261-SL","2018/01/06 20:09:46","新北市五股區成泰路三段101-1號","121.444061666667","25.0902516666667","6501500","五股區"
"248004","677-BX","2018/01/06 20:09:55","新北市五股區成泰路一段149-7號","121.435365","25.07374","6501500","五股區"
"248002","678-BX","2018/01/06 20:09:45","新北市五股區成泰路三段311-2號","121.447825","25.09487","6501500","五股區"
"248010","682-TV","2018/01/06 20:09:47","新北市五股區成泰路一段7巷11號","121.433095","25.066775","6501500","五股區"
"234023","9380-KE","2018/01/06 20:09:42","新北市永和區中正路702巷20弄1號","121.516521666667","25.0105616666667","6500400","永和區"
"234077","969-R7","2018/01/06 20:09:47","新北市永和區智光街107巷15號","121.515795","24.9959433333333","6500400","永和區"
"234074","AAC-211","2018/01/06 20:09:50","新北市永和區豫溪街155號","121.521233333333","25.0104266666667","6500400","永和區"
"234067","AAC-212","2018/01/06 20:09:45","新北市永和區保平路214巷5號","121.509251666667","25.0064916666667","6500400","永和區"
"234003","AAC-295","2018/01/06 20:09:41","新北市永和區中正路609巷28號","121.515898333333","25.0088183333333","6500400","永和區"
"243012","AAD-798","2018/01/06 20:09:45","新北市泰山區楓江路110號","121.438436666667","25.0639583333333","6501600","泰山區"
"243011","297-R6","2018/01/06 20:09:58","新北市泰山區壽山路78號","121.419561666667","25.0294616666667","6501600","泰山區"
"243015","380-SR","2018/01/06 20:09:52","新北市泰山區明志路一段412號","121.43068","25.05688","6501600","泰山區"
"243014","421-VK","2018/01/06 20:09:43","新北市泰山區明志路一段31號","121.433665","25.0655266666667","6501600","泰山區"
"243010","KEA-2215","2018/01/06 20:09:46","新北市泰山區明志路二段136巷48號","121.426163333333","25.0520166666667","6501600","泰山區"
"243009","KEA-2216","2018/01/06 20:09:41","新北市泰山區泰林路二段116巷2弄1號","121.434928333333","25.0594033333333","6501600","泰山區"
"243013","646-TV","2018/01/06 20:09:41","新北市泰山區民國街21號","121.425696666667","25.0434816666667","6501600","泰山區"
"243016","680-BX","2018/01/06 20:09:42","新北市泰山區貴陽街3號","121.420961666667","25.033555","6501600","泰山區"
"222003","436-BY","2018/01/06 20:09:47","新北市深坑區埔新街60號","121.620228333333","25.0024883333333","6501800","深坑區"
"222002","659-BX","2018/01/06 20:09:39","新北市深坑區北深路三段192巷9號","121.601896666667","25.004175","6501800","深坑區"
"231041","001-UM","2018/01/06 20:09:55","新北市新店區中正路468號","121.533973333333","24.979505","6500600","新店區"
"231066","0293-UT","2018/01/06 20:09:48","新北市新店區安興路96號","121.514856666667","24.9763683333333","6500600","新店區"
"231059","046-UY","2018/01/06 20:09:43","新北市新店區安德街39號","121.511498333333","24.96243","6500600","新店區"
"231061","047-UY","2018/01/06 20:09:42","新北市新店區安興路32號","121.515768333333","24.9703833333333","6500600","新店區"
"231060","106-UY","2018/01/06 20:09:43","新北市新店區安康路三段358號","121.485975","24.9516616666667","6500600","新店區"
"231051","107-UY","2018/01/06 20:09:36","新北市新店區中央六街7號","121.53022","24.9745","6500600","新店區"
"231048","108-UY","2018/01/06 20:09:56","新北市新店區永華街30號","121.544536666667","24.9756266666667","6500600","新店區"
"231052","187-VK","2018/01/06 20:09:36","新北市新店區新烏路三段寶島巷4號","121.551106666667","24.89926","6500600","新店區"
"231050","KEA-2219","2018/01/06 20:09:44","新北市新店區北新路一段339號","121.541831666667","24.9687816666667","6500600","新店區"
"231057","256-BX","2018/01/06 20:09:30","新北市新店區花園一路一段2號","121.553138333333","24.9324483333333","6500600","新店區"
"231054","AAD-862","2018/01/06 20:09:39","新北市新店區光明街312號","121.540863333333","24.9649933333333","6500600","新店區"
"231056","3713-VJ","2018/01/06 20:09:41","新北市新店區北新路二段29巷3弄1號","121.542238333333","24.9730216666667","6500600","新店區"
"231055","4716-K9","2018/01/06 20:09:48","新北市新店區中華路54巷28號","121.540781666667","24.969215","6500600","新店區"
"231067","4772-VM","2018/01/06 20:09:55","新北市新店區溪洲路61號","121.533511666667","24.960945","6500600","新店區"
"231065","512-UM","2018/01/06 20:09:55","新北市新店區安祥路106巷210號","121.474045","24.9604533333333","6500600","新店區"
"231064","515-UM","2018/01/06 20:09:46","新北市新店區安光路13-1號","121.513403333333","24.963685","6500600","新店區"
"231045","617-UM","2018/01/06 20:09:37","新北市新店區北宜路一段170號","121.540725","24.9530033333333","6500600","新店區"
"231040","619-UM","2018/01/06 20:09:48","新北市新店區中正路108號","121.543053333333","24.9705316666667","6500600","新店區"
"231042","641-BX","2018/01/06 20:09:37","新北市新店區中興路二段202-1號","121.548168333333","24.9745816666667","6500600","新店區"
"231063","645-TV","2018/01/06 20:09:41","新北市新店區黎明路53巷1號","121.502288333333","24.948745","6500600","新店區"
"231068","718-UY","2018/01/06 20:09:42","新北市新店區中興路三段88號","121.545283333333","24.9789283333333","6500600","新店區"
"231049","719-UM","2018/01/06 20:09:42","新北市新店區北新路二段121巷1-1號","121.542211666667","24.9749916666667","6500600","新店區"
"231062","720-UM","2018/01/06 20:09:53","新北市新店區安康路二段316號","121.505233333333","24.9581383333333","6500600","新店區"
"231044","897-TW","2018/01/06 20:09:47","新北市新店區寶慶街58巷8號","121.54207","24.9870633333333","6500600","新店區"
"231043","899-TW","2018/01/06 20:09:54","新北市新店區民族路172號","121.537155","24.976435","6500600","新店區"
"241011","013-R5","2018/01/06 20:09:52","新北市三重區仁愛街32號","121.496336666667","25.0717366666667","6500200","三重區"
"241028","022-UY","2018/01/06 20:09:47","新北市三重區仁化街146號","121.494645","25.057665","6500200","三重區"
"241008","059-VK","2018/01/06 20:09:46","新北市三重區永福街197巷37弄5號","121.478085","25.0742433333333","6500200","三重區"
"241009","060-VK","2018/01/06 20:09:44","新北市三重區永福街11號","121.482185","25.07827","6500200","三重區"
"241031","061-VK","2018/01/06 20:09:52","新北市三重區過圳街9-1號","121.488765","25.060055","6500200","三重區"
"241015","062-VK","2018/01/06 20:09:54","新北市三重區福德北路47號","121.502275","25.065065","6500200","三重區"
"241017","063-VK","2018/01/06 20:09:41","新北市三重區大同北路221巷66號","121.492875","25.0666566666667","6500200","三重區"
"241024","065-VK","2018/01/06 20:09:35","新北市三重區中正北路165巷43號","121.480213333333","25.07034","6500200","三重區"
"241026","066-VK","2018/01/06 20:09:49","新北市三重區福德南路65巷1號","121.502506666667","25.060515","6500200","三重區"
"241002","090-VK","2018/01/06 20:09:44","新北市三重區仁忠街41號","121.495385","25.0816883333333","6500200","三重區"
"241005","262-UM","2018/01/06 20:09:47","新北市三重區溪尾街327號","121.488528333333","25.0847716666667","6500200","三重區"
"241016","266-UM","2018/01/06 20:09:56","新北市三重區大同北路54巷1號","121.49427","25.0636033333333","6500200","三重區"
"241022","267-UM","2018/01/06 20:09:47","新北市三重區新北大道一段11號","121.488228333333","25.0606033333333","6500200","三重區"
"241018","268-UM","2018/01/06 20:09:53","新北市三重區正義北路215號","121.496108333333","25.0685283333333","6500200","三重區"
"241013","270-UM","2018/01/06 20:09:40","新北市三重區三和路三段139巷25號","121.49362","25.0739583333333","6500200","三重區"
"241025","271-UM","2018/01/06 20:09:52","新北市三重區中正北路255號","121.47531","25.0707166666667","6500200","三重區"
"241007","398-BY","2018/01/06 20:09:53","新北市三重區三和路四段111-8號","121.48629","25.077515","6500200","三重區"
"241020","413-TH","2018/01/06 20:09:44","新北市三重區重陽路四段158號","121.493226666667","25.072125","6500200","三重區"
"241035","462-BY","2018/01/06 20:09:40","新北市三重區文化北路22-2號","121.499121666667","25.0643216666667","6500200","三重區"
"241004","475-VK","2018/01/06 20:09:45","新北市三重區自強路四段112號","121.491688333333","25.0800866666667","6500200","三重區"
"241019","478-VK","2018/01/06 20:09:57","新北市三重區自強路二段33巷29號","121.490391666667","25.0697316666667","6500200","三重區"
"241030","480-VK","2018/01/06 20:09:39","新北市三重區成功路145巷24號","121.487331666667","25.053095","6500200","三重區"
"241014","543-UM","2018/01/06 20:09:52","新北市三重區長樂街112號","121.501616666667","25.0695183333333","6500200","三重區"
"241023","545-UM","2018/01/06 20:09:54","新北市三重區頂崁街231號","121.47705","25.0684","6500200","三重區"
"241001","547-UM","2018/01/06 20:09:39","新北市三重區溪尾街24號","121.490485","25.0760566666667","6500200","三重區"
"241006","AAD-863","2018/01/06 20:09:50","新北市三重區力行路二段91巷2號","121.482941666667","25.0758666666667","6500200","三重區"
"241012","941-UM","2018/01/06 20:09:45","新北市三重區仁愛街125巷81號","121.497983333333","25.0759033333333","6500200","三重區"
"241029","942-UM","2018/01/06 20:09:44","新北市三重區光明路32巷16號","121.491783333333","25.058715","6500200","三重區"
"241033","AAC-255","2018/01/06 20:09:48","新北市三重區光復路一段61巷21號","121.473156666667","25.0492483333333","6500200","三重區"
"235066","003-UY","2018/01/06 20:09:43","新北市中和區中山路二段3巷34號","121.507203333333","25.00499","6500300","中和區"
"235046","031-BX","2018/01/06 20:09:38","新北市中和區忠孝街31巷34號","121.509986666667","24.984685","6500300","中和區"
"235056","096-UM","2018/01/06 20:09:55","新北市中和區中山路三段136巷10弄12號","121.474186666667","25.0072983333333","6500300","中和區"
"235039","097-UM","2018/01/06 20:09:36","新北市中和區景平路278巷16弄24號","121.514545","24.993655","6500300","中和區"
"235065","098-UM","2018/01/06 20:09:42","新北市中和區福祥路58號","121.499408333333","25.00479","6500300","中和區"
"235040","150-BY","2018/01/06 20:09:54","新北市中和區保健路63-1號","121.509643333333","24.9971816666667","6500300","中和區"
"235058","151-BY","2018/01/06 20:09:54","新北市中和區員山路148巷11號","121.481823333333","24.9972166666667","6500300","中和區"
"235068","377-QA","2018/01/06 20:09:54","新北市中和區福祥路122號","121.498903333333","25.0065316666667","6500300","中和區"
"235050","4979-A6","2018/01/06 20:09:49","新北市中和區景新街306號","121.511256666667","24.9918033333333","6500300","中和區"
"235069","4980-A6","2018/01/06 20:09:47","新北市中和區南山路127巷27弄14號","121.503393333333","24.9979416666667","6500300","中和區"
"235070","558-UM","2018/01/06 20:09:48","新北市中和區中正路273號","121.49567","24.9938216666667","6500300","中和區"
"235054","640-BX","2018/01/06 20:09:51","新北市中和區莒光路11號","121.471986666667","25.0057516666667","6500300","中和區"
"235060","647-TV","2018/01/06 20:09:38","新北市中和區新生街224號","121.483826666667","24.99842","6500300","中和區"
"235052","805-TS","2018/01/06 20:09:40","新北市中和區華新街28-3號","121.507528333333","24.98448","6500300","中和區"
"235051","157-BY","2018/01/06 20:09:50","新北市中和區景安路220巷20號","121.502765","24.991445","6500300","中和區"
"235037","AAC-213","2018/01/06 20:09:42","新北市中和區自強路52號","121.5201","24.99482","6500300","中和區"
"235059","AAC-215","2018/01/06 20:09:52","新北市中和區圓通路335巷33弄17號","121.493085","24.9889583333333","6500300","中和區"
"220065","072-UY","2018/01/06 20:09:52","新北市板橋區板新路200巷22號","121.468623333333","25.0166233333333","6500100","板橋區"
"220106","075-UY","2018/01/06 20:09:40","新北市板橋區文聖街13號","121.47556","25.0323016666667","6500100","板橋區"
"220069","AAD-861","2018/01/06 20:09:52","新北市板橋區大明街25巷4弄9號","121.457633333333","25.0021183333333","6500100","板橋區"
"247022","893-R6","2018/01/06 20:09:41","新北市蘆洲區三民路193號","121.47053","25.08763","6501400","蘆洲區"
"247012","546-UM","2018/01/06 20:09:39","新北市蘆洲區民族路252號","121.478911666667","25.0887966666667","6501400","蘆洲區"
"247020","500-BY","2018/01/06 20:09:54","新北市蘆洲區民權路106巷5弄7號","121.47425","25.0890966666667","6501400","蘆洲區"
"247010","339-TH","2018/01/06 20:09:55","新北市蘆洲區中山一路74巷55號","121.479926666667","25.0815816666667","6501400","蘆洲區"
"247002","337-TH","2018/01/06 20:09:50","新北市蘆洲區長安街220巷5號","121.45868","25.08533","6501400","蘆洲區"
"247004","336-TH","2018/01/06 20:09:48","新北市蘆洲區永安南路二段328巷15弄1號","121.456771666667","25.0835983333333","6501400","蘆洲區"
"247016","057-VK","2018/01/06 20:09:42","新北市蘆洲區光華路169號","121.465045","25.0819466666667","6501400","蘆洲區"
"247006","056-VK","2018/01/06 19:52:56","新北市樹林區民和街77號","121.379315","24.9701466666667","6501400","蘆洲區"
"247008","053-VK","2018/01/06 20:09:54","新北市蘆洲區中山一路162號","121.474705","25.081405","6501400","蘆洲區"
"247014","007-UY","2018/01/06 20:09:39","新北市蘆洲區中山二路203號","121.470675","25.08053","6501400","蘆洲區"
"247024","002-UY","2018/01/06 20:09:53","新北市蘆洲區光明路131號","121.463771666667","25.088345","6501400","蘆洲區"
"247018","001-UY","2018/01/06 20:09:48","新北市蘆洲區民族路314巷24號","121.477893333333","25.0903683333333","6501400","蘆洲區"
"226004","312-R5","2018/01/06 20:09:56","新北市平溪區十分里十分街53號","121.775381666667","25.04124","6502400","平溪區"
"224008","275-VK","2018/01/06 20:09:33","新北市瑞芳區靜安路四段5號","121.795666666667","25.0792116666667","6501200","瑞芳區"
"222001","KEA-2212","2018/01/06 20:09:52","新北市深坑區北深路三段185號","121.601336666667","25.0035733333333","6501800","深坑區"
"208002","742-BX","2018/01/06 20:09:48","新北市金山區仁愛路9號","121.63799","25.2195466666667","6502700","金山區"
"251004","009-UM","2018/01/06 20:02:34","新北市淡水區民族路50巷50號","121.46089","25.1357966666667","6501000","淡水區"
"251013","179-VK","2018/01/06 20:09:49","新北市淡水區奎柔山路752巷1號","121.472773333333","25.2053933333333","6501000","淡水區"
"251014","180-VK","2018/01/06 20:09:45","新北市淡水區石頭厝3號","121.458708333333","25.2355533333333","6501000","淡水區"
"251008","181-VK","2018/01/06 20:09:53","新北市淡水區淡海路72巷37號","121.425005","25.1828266666667","6501000","淡水區"
"251015","182-VK","2018/01/06 20:09:52","新北市淡水區埤島76-5號","121.451888333333","25.1933066666667","6501000","淡水區"
"251010","413-VK","2018/01/06 20:09:56","新北市淡水區中正路二段305巷32號","121.422391666667","25.1944966666667","6501000","淡水區"
"251012","441-VK","2018/01/06 20:09:55","新北市淡水區淡金路三段224號","121.448895","25.204835","6501000","淡水區"
"251016","442-VK","2018/01/06 20:09:48","新北市淡水區番子田25-3號","121.456238333333","25.23062","6501000","淡水區"
"251006","561-UM","2018/01/06 20:09:42","新北市淡水區北新路141巷29號","121.448198333333","25.1796433333333","6501000","淡水區"
"251009","575-R6","2018/01/06 20:09:53","新北市淡水區中山路46-1號","121.444348333333","25.1702533333333","6501000","淡水區"
"251002","672-BX","2018/01/06 20:09:56","新北市淡水區中正路294號","121.437578333333","25.1720666666667","6501000","淡水區"
"207003","550-UM","2018/01/06 20:09:51","新北市萬里區大鵬里萬里加投166號","121.643455","25.2155466666667","6502800","萬里區"
"207004","225-TW","2018/01/06 20:09:49","新北市萬里區北基里大勇路13號","121.681808333333","25.1766133333333","6502800","萬里區"
"252002","178-VK","2018/01/06 20:09:53","新北市三芝區三民街5號","121.504073333333","25.2579566666667","6502100","三芝區"
"252001","292-VK","2018/01/06 20:09:49","新北市三芝區公正街9號","121.499765","25.257485","6502100","三芝區"
"237007","153-BY","2018/01/06 20:09:49","新北市三峽區二鬮路128號","121.359941666667","24.9081916666667","6500900","三峽區"
"237009","210-TH","2018/01/06 20:09:42","新北市三峽區民族街28巷2-8號","121.368918333333","24.9307233333333","6500900","三峽區"
"237012","275-BY","2018/01/06 20:09:48","新北市三峽區安溪路316號","121.371086666667","24.9304566666667","6500900","三峽區"
"237006","5529-G3","2018/01/06 20:09:50","新北市三峽區中正路二段295號","121.36607","24.9107883333333","6500900","三峽區"
"237005","AKY-6261","2018/01/06 20:09:44","新北市三峽區三樹路98巷74弄25號","121.385018333333","24.9384733333333","6500900","三峽區"
"236073","105-UM","2018/01/06 20:09:49","新北市土城區中央路三段185-6號","121.431758333333","24.9648483333333","6501300","土城區"
"236043","107-UM","2018/01/06 20:09:52","新北市土城區學成路22巷4號","121.453418333333","24.9872483333333","6501300","土城區"
"236079","166-UM","2018/01/06 19:24:58","新北市土城區中央路四段215號","121.413841666667","24.9557833333333","6501300","土城區"
"236031","253-BX","2018/01/06 20:09:51","新北市土城區中央路一段143巷3號","121.447093333333","24.9877866666667","6501300","土城區"
"236027","269-VK","2018/01/06 20:09:54","新北市土城區裕生路81號","121.447033333333","24.9841516666667","6501300","土城區"
"236015","270-VK","2018/01/06 20:09:41","新北市土城區廣興街19號","121.455933333333","24.99168","6501300","土城區"
"236038","271-VK","2018/01/06 20:09:47","新北市土城區延吉街294號","121.464538333333","24.9842083333333","6501300","土城區"
"236023","401-BY","2018/01/06 20:09:52","新北市土城區延吉街87巷12號","121.472233333333","24.986695","6501300","土城區"
"236059","912-UM","2018/01/06 20:09:43","新北市土城區中央路二段207號","121.44179","24.97447","6501300","土城區"
"236049","913-UM","2018/01/06 20:09:43","新北市土城區金城路三段75號","121.466516666667","24.9871483333333","6501300","土城區"
"236063","915-UM","2018/01/06 20:09:20","新北市土城區延和路12巷13號","121.464386666667","24.9874383333333","6501300","土城區"
"236055","AAC-216","2018/01/06 20:09:36","新北市土城區中央路一段45巷5號","121.448868333333","24.9901383333333","6501300","土城區"
"242031","AAC-296","2018/01/06 20:09:36","新北市新莊區公園一路98號","121.443508333333","25.037365","6500500","新莊區"
"242029","986-R7","2018/01/06 20:09:38","新北市新莊區中平路348號","121.445186666667","25.0528583333333","6500500","新莊區"
"242051","751-BX","2018/01/06 20:09:45","新北市新莊區民安西路172巷13號","121.425263333333","25.0160066666667","6500500","新莊區"
"242025","615-BX","2018/01/06 20:09:49","新北市新莊區五工路68巷1號","121.458181666667","25.0637783333333","6500500","新莊區"
"242023","613-BX","2018/01/06 20:09:55","新北市新莊區化成路658號","121.465901666667","25.0560516666667","6500500","新莊區"
"242027","612-BX","2018/01/06 20:09:42","新北市新莊區中平路181號","121.444811666667","25.0490083333333","6500500","新莊區"
"242039","566-BX","2018/01/06 20:09:41","新北市新莊區民安西路97-1號","121.427048333333","25.0188966666667","6500500","新莊區"
"242044","442-UM","2018/01/06 20:09:36","新北市新莊區中正路895-10號","121.412738333333","25.0213183333333","6500500","新莊區"
"242048","441-UM","2018/01/06 20:09:40","新北市新莊區四維路152巷20號","121.422111666667","25.0228166666667","6500500","新莊區"
"242053","440-UM","2018/01/06 20:09:53","新北市新莊區西盛街395巷9號","121.428186666667","25.0127","6500500","新莊區"
"242034","415-TV","2018/01/06 20:09:38","新北市新莊區中正路318巷18號","121.446406666667","25.0359966666667","6500500","新莊區"
"242042","400-BY","2018/01/06 20:09:53","新北市新莊區壽山路61號","121.410625","25.0327116666667","6500500","新莊區"
"242061","362-BY","2018/01/06 20:09:50","新北市新莊區瓊林路96-4號","121.443946666667","25.02723","6500500","新莊區"
"242058","353-BY","2018/01/06 20:09:56","新北市新莊區龍安路266巷3號","121.421676666667","25.0191133333333","6500500","新莊區"
"242007","132-UY","2018/01/06 20:09:47","新北市新莊區思源路419巷1弄15號","121.459225","25.0522433333333","6500500","新莊區"
"242036","133-UY","2018/01/06 20:09:52","新北市新莊區後港一路130巷37號","121.429996666667","25.0259616666667","6500500","新莊區"
"242046","172-VK","2018/01/06 20:09:54","新北市新莊區裕民街85巷11號","121.419163333333","25.0234166666667","6500500","新莊區"
"242009","173-VK","2018/01/06 20:09:39","新北市新莊區昌盛街35巷2弄1號","121.454153333333","25.0502783333333","6500500","新莊區"
"242015","175-VK","2018/01/06 20:09:57","新北市新莊區中平路26巷51號","121.447275","25.0434316666667","6500500","新莊區"
"242002","176-VK","2018/01/06 20:09:43","新北市新莊區中正路147-11號","121.457418333333","25.0369816666667","6500500","新莊區"
"242013","346-TH","2018/01/06 20:09:47","新北市新莊區幸福路710巷5弄1號","121.449056666667","25.0498216666667","6500500","新莊區"
"242019","348-TH","2018/01/06 20:09:52","新北市新莊區思源路137號","121.45995","25.043785","6500500","新莊區"
"242056","349-TH","2018/01/06 20:09:42","新北市新莊區新莊路649巷15弄18-1號","121.445323333333","25.0314716666667","6500500","新莊區"
"242017","350-TH","2018/01/06 20:09:39","新北市新莊區中港路397號","121.451961666667","25.0469616666667","6500500","新莊區"
"242011","351-TH","2018/01/06 20:09:43","新北市新莊區中信街67巷9號","121.448531666667","25.0506816666667","6500500","新莊區"
"238021","KEA-2217","2018/01/06 20:09:48","新北市樹林區田尾街194號","121.400565","24.9488816666667","6500700","樹林區"
"221008","489-VK","2018/01/06 20:09:45","台北市內湖區康樂街123號","121.619175","25.071075","6501100","汐止區"
"221036","130-UY","2018/01/06 20:09:41","新北市汐止區新台五路二段41巷13號","121.662991666667","25.066945","6501100","汐止區"
"221010","269-BY","2018/01/06 20:09:59","新北市汐止區八連路一段530巷11號","121.638013333333","25.093725","6501100","汐止區"
"221012","276-VK","2018/01/06 13:26:57","新北市汐止區汐萬路一段256巷3號","121.653371666667","25.07466","6501100","汐止區"
"221012","278-VK","2018/01/06 20:09:39","新北市汐止區汐平路二段66號","121.698441666667","25.060935","6501100","汐止區"
"221023","279-VK","2018/01/06 20:09:35","新北市汐止區明峰街298巷10弄1號","121.62491","25.0691666666667","6501100","汐止區"
"221032","280-BY","2018/01/06 20:09:45","新北市汐止區弘道街8巷5弄6號","121.61735","25.0478483333333","6501100","汐止區"
"221027","281-BY","2018/01/06 20:09:47","新北市汐止區中正路113號","121.660565","25.0694616666667","6501100","汐止區"
"221029","298-VK","2018/01/06 20:09:27","新北市汐止區樟樹一路119巷10弄1號","121.641208333333","25.06456","6501100","汐止區"
"221021","299-VK","2018/01/06 20:09:39","新北市汐止區水源路一段242號","121.654156666667","25.0602666666667","6501100","汐止區"
"221031","353-TW","2018/01/06 20:09:54","新北市汐止區原興路74巷2號","121.632158333333","25.066145","6501100","汐止區"
"221015","567-BX","2018/01/06 20:09:47","新北市汐止區建成路24號","121.664561666667","25.0726266666667","6501100","汐止區"
"221035","622-UM","2018/01/06 20:09:55","新北市汐止區長江街79巷4號","121.657296666667","25.0726216666667","6501100","汐止區"
"221025","623-UM","2018/01/06 20:09:43","新北市汐止區水源路二段30號","121.654808333333","25.0573083333333","6501100","汐止區"
"221038","646-BX","2018/01/06 20:09:57","新北市汐止區大同路三段66-3號","121.668171666667","25.07719","6501100","汐止區"
"221033","647-BX","2018/01/06 20:09:56","新北市汐止區東勢街201巷104號","121.633585","25.0429733333333","6501100","汐止區"
"221002","707-TV","2018/01/06 20:09:53","新北市汐止區工建路332號","121.633688333333","25.0598816666667","6501100","汐止區"
"221018","753-BX","2018/01/06 20:09:51","新北市汐止區茄福街35巷23號","121.673101666667","25.0663883333333","6501100","汐止區"
"220080","200-UY","2018/01/06 20:09:39","新北市板橋區大觀路二段187巷3號","121.44508","24.9997016666667","6500100","板橋區"
"220082","610-BX","2018/01/06 20:09:51","新北市板橋區大觀路三段133巷19號","121.432745","24.9945066666667","6500100","板橋區"
"220072","277-BY","2018/01/06 20:09:54","新北市板橋區金門街122號","121.432906666667","24.9914683333333","6500100","板橋區"
"220101","280-UM","2018/01/06 20:09:38","新北市板橋區莒光路165巷32-2號","121.474363333333","25.0247433333333","6500100","板橋區"
"220071","283-VK","2018/01/06 20:09:58","新北市板橋區廣權路113號","121.465031666667","24.992835","6500100","板橋區"
"220083","286-VK","2018/01/06 20:09:49","新北市板橋區僑中二街48巷8號","121.445975","25.0104266666667","6500100","板橋區"
"220081","287-VK","2018/01/06 20:09:46","新北市板橋區僑中一街124巷20弄19號","121.446938333333","25.0140083333333","6500100","板橋區"
"220061","293-UM","2018/01/06 20:09:44","新北市板橋區中山路一段102-1號","121.462286666667","25.0103516666667","6500100","板橋區"
"220084","296-UM","2018/01/06 20:09:37","新北市板橋區滿平街84巷80號","121.426071666667","24.9871766666667","6500100","板橋區"
"242004","281-VK","2018/01/06 20:09:47","新北市新莊區頭興街10號","121.465196666667","25.05357","6500500","新莊區"
"220092","307-R5","2018/01/06 20:09:39","新北市板橋區光正街45巷35號","121.461878333333","25.01578","6500100","板橋區"
"220098","317-R6","2018/01/06 20:09:49","新北市板橋區新海路72巷5弄34號","121.461638333333","25.0230233333333","6500100","板橋區"
"220080","461-BY","2018/01/06 13:39:13","新北市板橋區華東街1-9號","121.448213333333","24.9948016666667","6500100","板橋區"
"220064","486-VK","2018/01/06 20:09:55","新北市板橋區長安街331巷17號","121.473903333333","25.012465","6500100","板橋區"
"220089","487-VK","2018/01/06 20:09:42","新北市板橋區互助街90號","121.460336666667","25.0262633333333","6500100","板橋區"
"242021","280-VK","2018/01/06 20:09:57","新北市新莊區中興街49號","121.44921","25.0370783333333","6500500","新莊區"
"220088","491-VK","2018/01/06 20:09:50","新北市板橋區民治街85號","121.479461666667","25.0321283333333","6500100","板橋區"
"220035","560-BX","2018/01/06 20:09:40","新北市板橋區新生街44號","121.456651666667","25.0210833333333","6500100","板橋區"
"220103","561-BX","2018/01/06 20:09:44","新北市板橋區文化路一段421巷11弄15號","121.466805","25.0225033333333","6500100","板橋區"
"220057","686-BX","2018/01/06 20:09:57","新北市板橋區四川路二段130巷23號","121.44946","24.994155","6500100","板橋區"
"220093","689-BX","2018/01/06 20:09:47","新北市板橋區長江路一段156巷1號","121.461188333333","25.0301616666667","6500100","板橋區"
"220055","827-TW","2018/01/06 20:09:30","新北市板橋區仁愛路84號","121.460865","24.9996716666667","6500100","板橋區"
"220067","829-TW","2018/01/06 20:09:39","新北市板橋區中山路一段206巷2弄2號","121.470178333333","25.013235","6500100","板橋區"
"220102","830-TW","2018/01/06 20:09:46","新北市板橋區懷德街76巷11號","121.477668333333","25.031675","6500100","板橋區"
"220074","895-R6","2018/01/06 20:09:57","新北市板橋區館前西路66號","121.457735","25.0070833333333","6500100","板橋區"
"220097","AAC-210","2018/01/06 20:09:43","新北市板橋區光正街23巷7號","121.462203333333","25.016935","6500100","板橋區"
"220070","AAC-253","2018/01/06 20:09:42","新北市板橋區四川路二段245巷93號","121.452873333333","24.9931683333333","6500100","板橋區"
