"lineid","car","time","location","longitude","latitude","cityid","cityname"
"234007","207-UY","2018/01/06 20:29:52","台北市中正區思源街3號","121.529543333333","25.0103866666667","6500400","永和區"
"234081","298-R6","2018/01/06 20:29:46","新北市永和區永貞路74號","121.520275","25.0052383333333","6500400","永和區"
"234038","336-UY","2018/01/06 20:29:50","新北市永和區民樂街31巷6弄14號","121.528916666667","25.0015333333333","6500400","永和區"
"234064","337-UY","2018/01/06 20:29:41","新北市永和區中正路526號","121.517288333333","25.0049716666667","6500400","永和區"
"234086","338-UY","2018/01/06 20:29:55","新北市永和區光復街21號","121.516516666667","25.0174733333333","6500400","永和區"
"234054","553-UM","2018/01/06 20:29:50","新北市永和區環河東路一段42號","121.518835","25.017","6500400","永和區"
"234030","746-BX","2018/01/06 20:29:44","新北市中和區自強路64號","121.520053333333","24.994355","6500400","永和區"
"234061","AAD-866","2018/01/06 20:29:45","新北市永和區安樂路194巷19號","121.515933333333","25.0011183333333","6500400","永和區"
"234070","847-RS","2018/01/06 20:29:40","新北市永和區永亨路6-1號","121.519478333333","25.0056533333333","6500400","永和區"
"234042","862-TW","2018/01/06 20:29:52","新北市永和區安樂路433號","121.514316666667","25.0045566666667","6500400","永和區"
"234050","863-TW","2018/01/06 20:29:47","新北市永和區新生路177號","121.506978333333","25.01445","6500400","永和區"
"249001","173-UM","2018/01/06 20:29:48","新北市八里區商港路48號","121.39628","25.14528","6502300","八里區"
"249004","303-UY","2018/01/06 20:29:39","新北市八里區中山路一段129巷33號","121.414093333333","25.1584933333333","6502300","八里區"
"249002","305-UY","2018/01/06 20:29:46","新北市八里區龍米路二段170號","121.4346","25.1581916666667","6502300","八里區"
"249003","593-UM","2018/01/06 20:29:42","新北市八里區華峰一街28號","121.398938333333","25.146675","6502300","八里區"
"248004","677-BX","2018/01/06 20:29:49","新北市五股區天乙路101-6號","121.44498","25.1070066666667","6501500","五股區"
"248002","678-BX","2018/01/06 20:29:45","新北市五股區新五路二段373號","121.444178333333","25.0885333333333","6501500","五股區"
"234023","9380-KE","2018/01/06 20:29:42","新北市永和區永和路二段243號","121.515796666667","25.014715","6500400","永和區"
"234074","AAC-211","2018/01/06 20:29:50","新北市永和區豫溪街217巷27號","121.524336666667","25.010215","6500400","永和區"
"234067","AAC-212","2018/01/06 20:29:45","新北市永和區保平路292巷46弄2號","121.507466666667","25.00539","6500400","永和區"
"234003","AAC-295","2018/01/06 20:29:41","新北市永和區大新街16號","121.515138333333","25.0084766666667","6500400","永和區"
"243012","AAD-798","2018/01/06 20:29:45","新北市泰山區忠孝街17巷2號","121.427518333333","25.065345","6501600","泰山區"
"243011","297-R6","2018/01/06 20:29:40","新北市泰山區中山路二段661號","121.429393333333","25.0399383333333","6501600","泰山區"
"243015","380-SR","2018/01/06 20:29:52","新北市泰山區仁德路105號","121.433105","25.0563116666667","6501600","泰山區"
"243014","421-VK","2018/01/06 20:29:43","新北市泰山區泰林路二段527號","121.423738333333","25.063755","6501600","泰山區"
"243010","KEA-2215","2018/01/06 20:29:46","新北市泰山區新生路31巷12號","121.427763333333","25.0462533333333","6501600","泰山區"
"243009","KEA-2216","2018/01/06 20:29:41","新北市泰山區泰林路二段542巷3弄10號","121.423091666667","25.0643283333333","6501600","泰山區"
"243013","646-TV","2018/01/06 20:29:41","新北市泰山區明志路二段189號","121.427531666667","25.0493983333333","6501600","泰山區"
"243016","680-BX","2018/01/06 20:29:42","新北市泰山區明志路二段202-1號","121.4275","25.0493266666667","6501600","泰山區"
"222003","436-BY","2018/01/06 20:29:47","新北市深坑區深坑街49號","121.615326666667","25.0017483333333","6501800","深坑區"
"222002","659-BX","2018/01/06 20:29:39","新北市深坑區萬福路16巷16-3號","121.604988333333","25.0073833333333","6501800","深坑區"
"231041","001-UM","2018/01/06 20:29:44","新北市新店區中正路501-2號","121.533663333333","24.98375","6500600","新店區"
"231066","0293-UT","2018/01/06 20:29:48","新北市新店區安興路112號","121.514626666667","24.977665","6500600","新店區"
"231059","046-UY","2018/01/06 20:29:43","新北市新店區安豐路49號","121.500036666667","24.954915","6500600","新店區"
"231061","047-UY","2018/01/06 20:29:42","新北市新店區新和街34號","121.519145","24.9847583333333","6500600","新店區"
"231060","106-UY","2018/01/06 20:29:43","新北市新店區錦秀路51號","121.479133333333","24.9434766666667","6500600","新店區"
"231051","107-UY","2018/01/06 20:29:56","新北市新店區中央七街110號","121.525713333333","24.977565","6500600","新店區"
"231048","108-UY","2018/01/06 20:29:36","新北市新店區寶慶街58巷21-1號","121.541986666667","24.987335","6500600","新店區"
"231052","187-VK","2018/01/06 20:29:56","新北市新店區松林路30-1號","121.544838333333","24.91132","6500600","新店區"
"231050","KEA-2219","2018/01/06 20:29:44","新北市新店區博愛街13巷11號","121.540525","24.9736683333333","6500600","新店區"
"231057","256-BX","2018/01/06 20:29:50","新北市新店區花園五路二段3號","121.553576666667","24.9341833333333","6500600","新店區"
"231054","AAD-862","2018/01/06 20:29:38","新北市新店區檳榔路150號","121.544216666667","24.9615416666667","6500600","新店區"
"231056","3713-VJ","2018/01/06 20:29:41","新北市新店區建安街33巷24號","121.538443333333","24.9753016666667","6500600","新店區"
"231055","4716-K9","2018/01/06 20:29:48","新北市新店區新明街16號","121.540938333333","24.9683183333333","6500600","新店區"
"231065","512-UM","2018/01/06 20:29:48","新北市新店區安祥路102巷46弄71號","121.486823333333","24.9633783333333","6500600","新店區"
"231064","515-UM","2018/01/06 20:29:46","新北市新店區永安街85號","121.520078333333","24.9865016666667","6500600","新店區"
"231045","617-UM","2018/01/06 20:29:57","新北市新店區新坡一街20號","121.548926666667","24.9618783333333","6500600","新店區"
"231040","619-UM","2018/01/06 20:29:48","新北市新店區中正路277號","121.53765","24.9743366666667","6500600","新店區"
"231042","641-BX","2018/01/06 20:29:37","新北市新店區寶高路6號","121.550845","24.97788","6500600","新店區"
"231063","645-TV","2018/01/06 20:29:41","新北市新店區玫瑰路4-1號","121.493553333333","24.9513533333333","6500600","新店區"
"231068","718-UY","2018/01/06 20:29:42","新北市新店區寶安街19號","121.541973333333","24.98203","6500600","新店區"
"231049","719-UM","2018/01/06 20:29:42","新北市新店區永業路81巷40號","121.530058333333","24.9483883333333","6500600","新店區"
"231062","720-UM","2018/01/06 20:29:53","新北市新店區安泰路60巷128號","121.484115","24.9444083333333","6500600","新店區"
"231044","897-TW","2018/01/06 20:29:47","新北市新店區建國路138號","121.538921666667","24.9789416666667","6500600","新店區"
"231043","899-TW","2018/01/06 20:29:54","新北市新店區建國路92號","121.54036","24.9773416666667","6500600","新店區"
"241011","013-R5","2018/01/06 20:29:52","新北市三重區龍門路72號","121.496886666667","25.07264","6500200","三重區"
"241028","022-UY","2018/01/06 20:29:47","新北市三重區光興街91號","121.497353333333","25.05997","6500200","三重區"
"241008","059-VK","2018/01/06 20:29:39","新北市三重區下竹圍街42號","121.48102","25.0748766666667","6500200","三重區"
"241009","060-VK","2018/01/06 20:29:44","新北市三重區永福街46-1號","121.482096666667","25.0782383333333","6500200","三重區"
"241031","061-VK","2018/01/06 20:29:52","新北市三重區三寧街15號","121.489468333333","25.05975","6500200","三重區"
"241015","062-VK","2018/01/06 20:29:54","新北市三重區長元街2-2號","121.49878","25.0657966666667","6500200","三重區"
"241017","063-VK","2018/01/06 20:29:40","新北市三重區自強路一段298號","121.491413333333","25.0683283333333","6500200","三重區"
"241024","065-VK","2018/01/06 20:29:55","新北市三重區中正北路276巷26號","121.480326666667","25.067375","6500200","三重區"
"241026","066-VK","2018/01/06 20:29:49","新北市三重區環河南路30號","121.503345","25.06205","6500200","三重區"
"241002","090-VK","2018/01/06 20:29:44","新北市三重區仁義街211巷11號","121.497385","25.082055","6500200","三重區"
"241003","091-VK","2018/01/06 20:29:53","新北市三重區富華街165號","121.493383333333","25.0850383333333","6500200","三重區"
"241005","262-UM","2018/01/06 20:29:47","新北市三重區碧華街285號","121.490235","25.0835866666667","6500200","三重區"
"241016","266-UM","2018/01/06 20:29:55","新北市三重區正義北路190巷5號","121.496073333333","25.066815","6500200","三重區"
"241022","267-UM","2018/01/06 20:29:52","新北市三重區民生街61巷18弄7號","121.487593333333","25.06287","6500200","三重區"
"241018","268-UM","2018/01/06 20:29:53","新北市三重區正義北路208號","121.496143333333","25.0675166666667","6500200","三重區"
"241032","269-UM","2018/01/06 20:29:53","新北市三重區重陽路一段120巷48號","121.48501","25.060205","6500200","三重區"
"241013","270-UM","2018/01/06 20:29:40","新北市三重區溪尾街5巷2號","121.491903333333","25.0744366666667","6500200","三重區"
"241025","271-UM","2018/01/06 20:29:38","新北市三重區頂崁街210巷27號","121.475825","25.0681966666667","6500200","三重區"
"241007","398-BY","2018/01/06 20:29:53","新北市三重區自強路四段4號","121.488323333333","25.0760833333333","6500200","三重區"
"241020","413-TH","2018/01/06 20:29:44","新北市三重區明德街6號","121.492945","25.07222","6500200","三重區"
"241035","462-BY","2018/01/06 20:29:49","新北市三重區正義北路120號","121.496881666667","25.0654","6500200","三重區"
"241004","475-VK","2018/01/06 20:29:45","新北市三重區溪尾街181號","121.488841666667","25.08032","6500200","三重區"
"241019","478-VK","2018/01/06 20:29:37","新北市三重區重陽路四段79號","121.492586666667","25.07093","6500200","三重區"
"241030","480-VK","2018/01/06 20:29:59","新北市三重區成功路62號","121.488578333333","25.0508783333333","6500200","三重區"
"241014","543-UM","2018/01/06 20:29:52","新北市三重區長興街92號","121.501646666667","25.0692333333333","6500200","三重區"
"241023","545-UM","2018/01/06 20:29:53","新北市三重區自由街17巷1號","121.47985","25.0665733333333","6500200","三重區"
"241001","547-UM","2018/01/06 20:29:38","新北市三重區自強路三段97號","121.487565","25.0752616666667","6500200","三重區"
"241012","941-UM","2018/01/06 20:29:45","新北市三重區龍濱路172號","121.501388333333","25.072735","6500200","三重區"
"241029","942-UM","2018/01/06 20:20:04","新北市三重區重安街81號","121.492496666667","25.0559466666667","6500200","三重區"
"241033","AAC-255","2018/01/06 20:29:48","新北市三重區五谷王北街80巷52號","121.474935","25.0526733333333","6500200","三重區"
"235066","003-UY","2018/01/06 20:29:43","新北市中和區光華街31巷22弄28號","121.505908333333","25.00433","6500300","中和區"
"235039","097-UM","2018/01/06 20:29:36","新北市中和區立人街67號","121.520041666667","24.9942916666667","6500300","中和區"
"235065","098-UM","2018/01/06 20:29:42","新北市中和區橋和路316號","121.497338333333","25.0070183333333","6500300","中和區"
"235050","4979-A6","2018/01/06 20:29:49","新北市中和區南華路79號","121.50537","24.997355","6500300","中和區"
"235069","4980-A6","2018/01/06 20:29:27","新北市中和區中正路450號","121.490858333333","24.9942416666667","6500300","中和區"
"235026","800-TS","2018/01/06 20:25:31","新北市中和區員山路36巷16-3號","121.484803333333","24.9917366666667","6500300","中和區"
"235059","AAC-215","2018/01/06 20:29:52","新北市中和區員山路26號","121.48194","24.98579","6500300","中和區"
"247022","893-R6","2018/01/06 20:29:39","新北市蘆洲區中正路321號","121.466186666667","25.0887583333333","6501400","蘆洲區"
"247012","546-UM","2018/01/06 20:29:39","新北市蘆洲區復興路185號","121.479115","25.0894266666667","6501400","蘆洲區"
"247020","500-BY","2018/01/06 20:29:54","新北市蘆洲區民族路331-1號","121.473848333333","25.0916466666667","6501400","蘆洲區"
"247010","339-TH","2018/01/06 20:29:55","新北市蘆洲區民族路57號","121.47888","25.085605","6501400","蘆洲區"
"247002","337-TH","2018/01/06 20:29:50","新北市蘆洲區長安街361巷28號","121.455908333333","25.08764","6501400","蘆洲區"
"247004","336-TH","2018/01/06 20:29:48","新北市蘆洲區永康街55號","121.456626666667","25.0852666666667","6501400","蘆洲區"
"247016","057-VK","2018/01/06 20:29:22","新北市蘆洲區光華路110巷2號","121.46716","25.082785","6501400","蘆洲區"
"247006","056-VK","2018/01/06 20:29:56","新北市蘆洲區永安南路二段72-1號","121.464806666667","25.0781166666667","6501400","蘆洲區"
"247008","053-VK","2018/01/06 20:29:54","新北市蘆洲區重陽街91號","121.4824","25.0853533333333","6501400","蘆洲區"
"247014","007-UY","2018/01/06 20:29:38","新北市蘆洲區中山一路158號","121.474825","25.0816366666667","6501400","蘆洲區"
"247024","002-UY","2018/01/06 20:29:53","新北市蘆洲區光復路70巷21號","121.464765","25.0850783333333","6501400","蘆洲區"
"247018","001-UY","2018/01/06 20:29:48","新北市蘆洲區民族路327巷3號","121.474465","25.0910783333333","6501400","蘆洲區"
"226004","312-R5","2018/01/06 20:29:57","新北市平溪區嶺腳里田子22號","121.74704","25.02816","6502400","平溪區"
"224008","275-VK","2018/01/06 20:27:10","新北市瑞芳區民權街3-1號","121.8091","25.1083683333333","6501200","瑞芳區"
"222001","KEA-2212","2018/01/06 20:29:52","新北市深坑區北深路三段278號","121.597948333333","25.0051683333333","6501800","深坑區"
"251013","179-VK","2018/01/06 20:29:49","新北市淡水區後坑子6號","121.463498333333","25.206695","6501000","淡水區"
"251014","180-VK","2018/01/06 20:29:45","新北市淡水區石頭厝8-4號","121.46038","25.2375716666667","6501000","淡水區"
"251008","181-VK","2018/01/06 20:29:49","新北市淡水區淡海路204號","121.420348333333","25.1856483333333","6501000","淡水區"
"251015","182-VK","2018/01/06 20:29:52","新北市淡水區興仁路162號","121.451585","25.2207716666667","6501000","淡水區"
"251010","413-VK","2018/01/06 20:29:56","新北市淡水區沙崙路181巷15號","121.423983333333","25.184335","6501000","淡水區"
"251012","441-VK","2018/01/06 20:29:55","新北市淡水區興仁路86號","121.452598333333","25.2174716666667","6501000","淡水區"
"251016","442-VK","2018/01/06 20:29:48","新北市淡水區新埔子8號","121.449435","25.228255","6501000","淡水區"
"251001","559-UM","2018/01/06 20:29:45","新北市淡水區中山北路二段1號","121.44447","25.18312","6501000","淡水區"
"251006","561-UM","2018/01/06 20:29:42","新北市淡水區商工路296號","121.460908333333","25.1859016666667","6501000","淡水區"
"251011","650-BX","2018/01/06 20:29:45","新北市淡水區沙崙路二段112號","121.433371666667","25.1986483333333","6501000","淡水區"
"251002","672-BX","2018/01/06 20:29:55","新北市淡水區中正路11-1號","121.443058333333","25.16953","6501000","淡水區"
"251003","673-BX","2018/01/06 20:29:37","新北市淡水區新民街21號","121.43931","25.17545","6501000","淡水區"
"252002","178-VK","2018/01/06 20:29:53","新北市三芝區淡金路二段47-2號","121.503636666667","25.2606366666667","6502100","三芝區"
"252001","292-VK","2018/01/06 20:29:49","新北市三芝區中山路一段14號","121.500743333333","25.2580633333333","6502100","三芝區"
"236027","269-VK","2018/01/06 20:29:48","新北市土城區城林路6巷80號","121.437978333333","24.9795716666667","6501300","土城區"
"236015","270-VK","2018/01/06 20:29:41","新北市板橋區四川路二段245巷111號","121.453378333333","24.9929","6501300","土城區"
"236059","912-UM","2018/01/06 20:29:43","新北市樹林區環河路600號","121.404671666667","24.9689783333333","6501300","土城區"
"242031","AAC-296","2018/01/06 20:29:36","新北市新莊區義豐街1號","121.441008333333","25.0345016666667","6500500","新莊區"
"242029","986-R7","2018/01/06 20:29:38","新北市新莊區中原路263號","121.44841","25.054335","6500500","新莊區"
"242051","751-BX","2018/01/06 20:29:45","新北市新莊區民安西路252巷31號","121.425083333333","25.0137566666667","6500500","新莊區"
"242025","615-BX","2018/01/06 20:29:46","新北市新莊區五工二路50巷3號","121.461141666667","25.0654716666667","6500500","新莊區"
"242023","613-BX","2018/01/06 20:29:55","新北市新莊區化成路752-8號","121.4654","25.0583766666667","6500500","新莊區"
"242027","612-BX","2018/01/06 20:29:42","新北市新莊區思源路309號","121.459781666667","25.048955","6500500","新莊區"
"242039","566-BX","2018/01/06 20:29:41","新北市新莊區成功街6巷2號","121.42575","25.0218233333333","6500500","新莊區"
"242044","442-UM","2018/01/06 20:29:36","新北市新莊區中正路891-43號","121.414013333333","25.0229583333333","6500500","新莊區"
"242048","441-UM","2018/01/06 20:29:40","新北市新莊區成功街208號","121.421128333333","25.018085","6500500","新莊區"
"242053","440-UM","2018/01/06 20:29:53","新北市新莊區民安西路229巷10號","121.4267","25.0141033333333","6500500","新莊區"
"242034","415-TV","2018/01/06 20:29:47","新北市新莊區中正路317號","121.44796","25.035165","6500500","新莊區"
"242042","400-BY","2018/01/06 20:29:53","新北市新莊區中正路700-38號","121.417473333333","25.0277816666667","6500500","新莊區"
"242061","362-BY","2018/01/06 20:29:50","新北市新莊區新樹路244巷48號","121.431291666667","25.0192016666667","6500500","新莊區"
"242058","353-BY","2018/01/06 20:29:56","新北市新莊區四維路152巷1號","121.422831666667","25.0227666666667","6500500","新莊區"
"242007","132-UY","2018/01/06 20:29:47","新北市新莊區思源路287巷1弄27號","121.459386666667","25.0472233333333","6500500","新莊區"
"242036","133-UY","2018/01/06 20:29:57","新北市新莊區後港一路76巷5弄2號","121.427441666667","25.025405","6500500","新莊區"
"242046","172-VK","2018/01/06 20:29:54","新北市新莊區裕民街54巷27號","121.417608333333","25.0246033333333","6500500","新莊區"
"242009","173-VK","2018/01/06 20:29:40","新北市新莊區昌隆街68號","121.455231666667","25.050755","6500500","新莊區"
"242015","175-VK","2018/01/06 20:29:57","新北市新莊區中平路46巷11號","121.445391666667","25.0438733333333","6500500","新莊區"
"242002","176-VK","2018/01/06 20:29:43","新北市新莊區中正路80號","121.457625","25.0373466666667","6500500","新莊區"
"242013","346-TH","2018/01/06 20:29:49","新北市新莊區中和街155巷24弄77號","121.446113333333","25.0514383333333","6500500","新莊區"
"242019","348-TH","2018/01/06 20:29:54","新北市新莊區民樂街80號","121.458045","25.0437533333333","6500500","新莊區"
"242056","349-TH","2018/01/06 20:29:41","新北市新莊區瓊泰路154號","121.443151666667","25.03243","6500500","新莊區"
"242017","350-TH","2018/01/06 20:29:39","新北市新莊區中港二街99號","121.44927","25.045735","6500500","新莊區"
"242011","351-TH","2018/01/06 20:29:43","新北市新莊區中義街40號","121.449871666667","25.0512","6500500","新莊區"
"221008","489-VK","2018/01/06 20:29:45","新北市汐止區康寧街706-1號","121.638373333333","25.07293","6501100","汐止區"
"221036","130-UY","2018/01/06 20:29:41","新北市汐止區福安街37巷12號","121.663411666667","25.0651416666667","6501100","汐止區"
"221010","269-BY","2018/01/06 20:29:59","新北市汐止區八連路二段337巷3號","121.629746666667","25.10144","6501100","汐止區"
"221012","276-VK","2018/01/06 13:26:57","新北市汐止區汐萬路一段256巷3號","121.653371666667","25.07466","6501100","汐止區"
"221012","278-VK","2018/01/06 20:29:39","新北市汐止區大同路三段279號","121.674221666667","25.0750133333333","6501100","汐止區"
"221023","279-VK","2018/01/06 20:29:55","新北市汐止區湖東街62號","121.634881666667","25.072925","6501100","汐止區"
"221032","280-BY","2018/01/06 20:29:45","新北市汐止區弘道街53巷24號","121.618786666667","25.04957","6501100","汐止區"
"221027","281-BY","2018/01/06 20:29:47","新北市汐止區中正路246號","121.657575","25.0686833333333","6501100","汐止區"
"221029","298-VK","2018/01/06 20:29:47","新北市汐止區樟樹一路135巷31號","121.640863333333","25.0656983333333","6501100","汐止區"
"221021","299-VK","2018/01/06 20:29:39","新北市汐止區水源路一段288號","121.654118333333","25.05818","6501100","汐止區"
"221031","353-TW","2018/01/06 20:29:54","新北市汐止區中興路110巷34號","121.634276666667","25.0646566666667","6501100","汐止區"
"221015","567-BX","2018/01/06 20:29:46","新北市汐止區建成路142巷19弄17號","121.661781666667","25.0739366666667","6501100","汐止區"
"221035","622-UM","2018/01/06 20:29:55","新北市汐止區長江街101-5號","121.658696666667","25.0731716666667","6501100","汐止區"
"221025","623-UM","2018/01/06 20:29:43","新北市汐止區水源路二段110巷1號","121.656668333333","25.055425","6501100","汐止區"
"221038","646-BX","2018/01/06 20:29:57","新北市汐止區忠孝東路9號","121.657785","25.0657233333333","6501100","汐止區"
"221033","647-BX","2018/01/06 20:29:56","新北市汐止區林森街78號","121.62384","25.0406916666667","6501100","汐止區"
"221002","707-TV","2018/01/06 20:29:53","新北市汐止區福德一路6號","121.639085","25.0699033333333","6501100","汐止區"
"221018","753-BX","2018/01/06 20:29:51","新北市汐止區茄苳路225巷11弄28號","121.670755","25.06992","6501100","汐止區"
"220083","286-VK","2018/01/06 20:29:26","新北市板橋區僑中二街102巷14號","121.445536666667","25.00834","6500100","板橋區"
"220081","287-VK","2018/01/06 20:29:46","新北市板橋區僑中二街152號","121.44497","25.0044166666667","6500100","板橋區"
"220061","293-UM","2018/01/06 20:29:44","新北市板橋區四川路二段140巷16弄13號","121.448801666667","24.9935983333333","6500100","板橋區"
"242004","281-VK","2018/01/06 20:29:43","新北市新莊區化成路349巷74號","121.463353333333","25.0565433333333","6500500","新莊區"
"220080","461-BY","2018/01/06 13:39:13","新北市板橋區華東街1-9號","121.448213333333","24.9948016666667","6500100","板橋區"
"220089","487-VK","2018/01/06 20:29:42","新北市板橋區四維路268號","121.463251666667","25.0284933333333","6500100","板橋區"
"242021","280-VK","2018/01/06 20:29:48","新北市新莊區公園路14號","121.448083333333","25.0390183333333","6500500","新莊區"
"220103","561-BX","2018/01/06 20:29:44","新北市板橋區漢生東路23巷41號","121.465836666667","25.0179683333333","6500100","板橋區"
"220055","827-TW","2018/01/06 20:29:50","新北市新莊區中正路384-1號","121.442241666667","25.0354633333333","6500100","板橋區"
"220102","830-TW","2018/01/06 20:29:56","新北市板橋區民生路二段227號","121.468818333333","25.021335","6500100","板橋區"
"220070","AAC-253","2018/01/06 20:29:42","新北市新莊區中正路384號","121.442256666667","25.0343116666667","6500100","板橋區"
