"lineid","car","time","location","longitude","latitude","cityid","cityname"
"234064","337-UY","2018/01/06 21:19:44","新北市永和區福和路1號","121.525395","25.0095583333333","6500400","永和區"
"231059","046-UY","2018/01/06 21:19:43","新北市新店區薏仁坑路自強巷1號","121.49758","24.95783","6500600","新店區"
"231051","107-UY","2018/01/06 21:19:56","新北市新店區中正路700巷73號","121.535938333333","24.9933566666667","6500600","新店區"
"231048","108-UY","2018/01/06 21:19:36","新北市新店區民生路149巷20號","121.52927","24.9799083333333","6500600","新店區"
"231052","187-VK","2018/01/06 21:19:36","新北市新店區安康路二段320巷15弄2號","121.504623333333","24.959885","6500600","新店區"
"231050","KEA-2219","2018/01/06 21:19:44","新北市新店區中華路143號","121.538293333333","24.97015","6500600","新店區"
"231054","AAD-862","2018/01/06 21:19:38","新北市新店區大新街9巷21號","121.544186666667","24.96729","6500600","新店區"
"231040","619-UM","2018/01/06 21:19:48","新北市新店區光明街246號","121.5403","24.963535","6500600","新店區"
"231063","645-TV","2018/01/06 21:19:41","新北市新店區玫瑰路57巷15號","121.496255","24.946275","6500600","新店區"
"241011","013-R5","2018/01/06 21:19:52","新北市三重區龍濱路197號","121.501905","25.0714066666667","6500200","三重區"
"241028","022-UY","2018/01/06 21:19:47","新北市三重區正義南路169號","121.499046666667","25.0574233333333","6500200","三重區"
"241008","059-VK","2018/01/06 21:19:39","新北市三重區自強路一段62號","121.497373333333","25.066565","6500200","三重區"
"241009","060-VK","2018/01/06 21:19:44","新北市三重區三民街206號","121.480893333333","25.0661766666667","6500200","三重區"
"241031","061-VK","2018/01/06 21:19:52","新北市三重區五谷王南街46巷37號","121.475748333333","25.0455183333333","6500200","三重區"
"241017","063-VK","2018/01/06 21:19:40","新北市三重區中正北路25巷25弄2號","121.49323","25.062655","6500200","三重區"
"241024","065-VK","2018/01/06 21:19:55","新北市三重區中正北路145巷8弄2號","121.484073333333","25.0677883333333","6500200","三重區"
"241026","066-VK","2018/01/06 21:19:49","新北市三重區大同南路218號","121.496733333333","25.05623","6500200","三重區"
"241002","090-VK","2018/01/06 21:19:44","新北市三重區自強路五段63號","121.494745","25.08196","6500200","三重區"
"241003","091-VK","2018/01/06 21:19:53","新北市三重區仁義街319號","121.495388333333","25.0843033333333","6500200","三重區"
"241005","262-UM","2018/01/06 21:19:47","新北市三重區仁華街118巷48號","121.485633333333","25.08406","6500200","三重區"
"241016","266-UM","2018/01/06 21:19:35","新北市三重區自強路一段158號","121.495886666667","25.066195","6500200","三重區"
"241018","268-UM","2018/01/06 21:19:53","新北市三重區三民街206號","121.480968333333","25.06608","6500200","三重區"
"241032","269-UM","2018/01/06 21:19:53","新北市三重區光復路二段188號","121.471291666667","25.06271","6500200","三重區"
"241013","270-UM","2018/01/06 21:19:40","新北市三重區仁愛街81號","121.495975","25.0731","6500200","三重區"
"241025","271-UM","2018/01/06 21:19:58","新北市三重區中正北路208巷10弄4號","121.482425","25.066925","6500200","三重區"
"241007","398-BY","2018/01/06 21:19:53","新北市三重區重陽路四段146號","121.492913333333","25.0717116666667","6500200","三重區"
"241004","475-VK","2018/01/06 21:19:45","新北市三重區碧華街213號","121.488693333333","25.0827533333333","6500200","三重區"
"241019","478-VK","2018/01/06 21:19:37","新北市三重區重陽路三段11號","121.489368333333","25.066615","6500200","三重區"
"241030","480-VK","2018/01/06 21:19:39","新北市三重區頂崁街23號","121.476766666667","25.0558233333333","6500200","三重區"
"241014","543-UM","2018/01/06 21:19:52","新北市三重區萬全街15號","121.499471666667","25.0695716666667","6500200","三重區"
"241023","545-UM","2018/01/06 21:19:53","新北市三重區中正北路176巷27號","121.482671666667","25.06596","6500200","三重區"
"241006","AAD-863","2018/01/06 21:19:50","新北市三重區中華路41號","121.4835","25.0617283333333","6500200","三重區"
"241012","941-UM","2018/01/06 21:19:45","新北市三重區龍門路239號","121.50196","25.0740233333333","6500200","三重區"
"241029","942-UM","2018/01/06 20:20:04","新北市三重區重安街81號","121.492496666667","25.0559466666667","6500200","三重區"
"241033","AAC-255","2018/01/06 21:19:48","新北市三重區光復路二段102巷26號","121.470893333333","25.0581383333333","6500200","三重區"
"235010","031-BX","2018/01/06 21:01:27","新北市中和區員山路36巷16-2號","121.485248333333","24.9915883333333","6500300","中和區"
"235026","800-TS","2018/01/06 20:25:31","新北市中和區員山路36巷16-3號","121.484803333333","24.9917366666667","6500300","中和區"
"247022","893-R6","2018/01/06 21:19:39","新北市蘆洲區三民路224號","121.46866","25.0893183333333","6501400","蘆洲區"
"247012","546-UM","2018/01/06 21:19:39","新北市蘆洲區集賢路224巷43號","121.48031","25.0884333333333","6501400","蘆洲區"
"247020","500-BY","2018/01/06 21:19:54","新北市蘆洲區民族路422巷82弄2號","121.473646666667","25.0937266666667","6501400","蘆洲區"
"247010","339-TH","2018/01/06 21:19:55","新北市蘆洲區鷺江街23號","121.478876666667","25.08244","6501400","蘆洲區"
"247002","337-TH","2018/01/06 21:19:50","新北市蘆洲區永樂街92號","121.456621666667","25.0887133333333","6501400","蘆洲區"
"247004","336-TH","2018/01/06 21:19:48","新北市蘆洲區永安南路二段334號","121.456721666667","25.0830466666667","6501400","蘆洲區"
"247006","056-VK","2018/01/06 21:19:56","新北市蘆洲區長安街9號","121.464245","25.0789666666667","6501400","蘆洲區"
"247008","053-VK","2018/01/06 21:19:54","新北市蘆洲區中山一路161號","121.475661666667","25.0812583333333","6501400","蘆洲區"
"247014","007-UY","2018/01/06 21:19:38","新北市蘆洲區保和街50-6號","121.469886666667","25.0863166666667","6501400","蘆洲區"
"247024","002-UY","2018/01/06 21:19:53","新北市蘆洲區光明路98號","121.463155","25.087965","6501400","蘆洲區"
"247018","001-UY","2018/01/06 21:19:48","新北市蘆洲區復興路105巷11號","121.476421666667","25.08839","6501400","蘆洲區"
"251004","009-UM","2018/01/06 21:19:46","新北市淡水區民族路33巷16-19號","121.462475","25.1358733333333","6501000","淡水區"
"251013","179-VK","2018/01/06 21:19:49","新北市淡水區行忠路328號","121.46054","25.1996133333333","6501000","淡水區"
"251014","180-VK","2018/01/06 21:19:45","新北市淡水區六塊厝1-2號","121.45045","25.2427016666667","6501000","淡水區"
"251015","182-VK","2018/01/06 21:19:52","新北市淡水區淡金路四段542巷83弄13號","121.456488333333","25.22669","6501000","淡水區"
"251010","413-VK","2018/01/06 21:19:36","新北市淡水區中正路一段156巷12號","121.42189","25.1807933333333","6501000","淡水區"
"251012","441-VK","2018/01/06 21:19:55","新北市淡水區石頭埔8號","121.452625","25.2345566666667","6501000","淡水區"
"251016","442-VK","2018/01/06 21:19:47","新北市淡水區前洲子28號","121.441035","25.2192166666667","6501000","淡水區"
"251005","443-VK","2018/01/06 21:19:50","新北市淡水區水源街一段122巷40號","121.446916666667","25.1704983333333","6501000","淡水區"
"251001","559-UM","2018/01/06 21:19:45","新北市淡水區中山北路二段227號","121.444158333333","25.1860016666667","6501000","淡水區"
"251006","561-UM","2018/01/06 21:19:42","新北市淡水區中正路382號","121.42996","25.175255","6501000","淡水區"
"251009","575-R6","2018/01/06 21:19:53","新北市淡水區民族路33巷16-11號","121.463245","25.1357466666667","6501000","淡水區"
"251011","650-BX","2018/01/06 21:19:45","新北市淡水區新民街152巷6弄22號","121.438895","25.17869","6501000","淡水區"
"251002","672-BX","2018/01/06 21:19:55","新北市淡水區學府路172巷21號","121.448293333333","25.1749316666667","6501000","淡水區"
"251003","673-BX","2018/01/06 21:19:37","新北市淡水區新春街85巷25弄33號","121.438833333333","25.1843216666667","6501000","淡水區"
"221012","276-VK","2018/01/06 13:26:57","新北市汐止區汐萬路一段256巷3號","121.653371666667","25.07466","6501100","汐止區"
"220080","461-BY","2018/01/06 13:39:13","新北市板橋區華東街1-9號","121.448213333333","24.9948016666667","6500100","板橋區"
"220070","AAC-253","2018/01/06 21:19:42","新北市林口區太平里180號","121.366555","25.134535","6500100","板橋區"
