"lineid","car","time","location","longitude","latitude","cityid","cityname"
"232001","290-BY","2018/01/15 08:19:28","新北市坪林區大粗坑6-1號","121.732271666667","24.94831","6502000","坪林區"
"232012","291-BY","2018/01/15 08:19:39","新北市坪林區九芎根3號","121.666596666667","24.8856666666667","6502000","坪林區"
"232010","375-UM","2018/01/15 08:19:31","新北市坪林區水聳淒坑1號","121.726123333333","24.9253183333333","6502000","坪林區"
"232017","705-BZ","2018/01/15 08:15:10","新北市坪林區柑腳坑16號","121.765733333333","24.9508216666667","6502000","坪林區"
"232005","758-BX","2018/01/15 08:19:36","新北市坪林區鶯子瀨3-7號","121.705926666667","24.9141416666667","6502000","坪林區"
"244012","069-UM","2018/01/15 08:19:38","新北市林口區中正路555號","121.381113333333","25.07692","6501700","林口區"
"244006","080-UY","2018/01/15 08:19:42","新北市林口區菁埔10-15號","121.379786666667","25.0966483333333","6501700","林口區"
"244001","248-BX","2018/01/15 08:19:40","新北市林口區嘉寶里67-5號","121.337511666667","25.1094416666667","6501700","林口區"
"244018","402-UM","2018/01/15 08:19:31","新北市林口區文化一路一段190巷7弄2-1號","121.380285","25.0748583333333","6501700","林口區"
"244024","742-UY","2018/01/15 08:19:32","新北市林口區民族路16巷2號","121.36431","25.0739066666667","6501700","林口區"
"244022","483-VK","2018/01/15 08:19:51","新北市林口區隆林街2號","121.389608333333","25.0754166666667","6501700","林口區"
"244016","485-VK","2018/01/15 08:19:31","新北市林口區文化二路一段260巷10號","121.371126666667","25.0730733333333","6501700","林口區"
"244010","656-BX","2018/01/15 08:19:40","新北市林口區竹林路48號","121.387006666667","25.0776383333333","6501700","林口區"
"244008","837-TS","2018/01/15 08:19:29","新北市林口區中北三街186號","121.38295","25.0824416666667","6501700","林口區"
"244020","838-TS","2018/01/15 08:19:38","新北市林口區粉寮路一段135號","121.398968333333","25.081125","6501700","林口區"
"222005","289-BY","2018/01/15 08:19:42","新北市深坑區萬福路36-1號","121.605458333333","25.0123666666667","6501800","深坑區"
"231007","189-VK","2018/01/15 08:19:38","新北市新店區新潭路一段158-1號","121.529248333333","24.9338916666667","6500600","新店區"
"231008","192-VK","2018/01/15 08:19:32","新北市新店區永興路135號","121.544511666667","24.930165","6500600","新店區"
"235010","031-BX","2018/01/15 08:19:33","新北市中和區民享街97巷15號","121.475686666667","24.9999466666667","6500300","中和區"
"235001","611-BX","2018/01/15 08:19:46","新北市中和區中正路458號","121.490636666667","24.9940366666667","6500300","中和區"
"226005","5620-A6","2018/01/15 08:19:47","新北市平溪區靜安路三段130號","121.773668333333","25.0375633333333","6502400","平溪區"
"226001","8452-VL","2018/01/15 08:19:51","新北市平溪區十分里姜仔坑2號","121.766441666667","25.035215","6502400","平溪區"
"226003","AGD-0702","2018/01/15 08:12:57","新北市平溪區嶺腳里嶺腳寮83-2號","121.750476666667","25.03506","6502400","平溪區"
"223006","022-BY","2018/01/15 08:19:43","新北市深坑區昇高坑路51-1號","121.630446666667","24.99396","6501900","石碇區"
"223002","198-BX","2018/01/15 08:19:46","新北市石碇區半路店5號","121.645108333333","24.9625716666667","6501900","石碇區"
"223008","406-TH","2018/01/15 08:19:46","新北市石碇區串空湖8-2號","121.670115","25.0013633333333","6501900","石碇區"
"223001","437-BY","2018/01/15 08:19:44","新北市石碇區北宜路六段塗潭巷7號","121.646441666667","24.933765","6501900","石碇區"
"223004","660-BX","2018/01/15 08:19:45","新北市石碇區外按16-1號","121.650628333333","24.9975816666667","6501900","石碇區"
"223007","661-BX","2018/01/15 08:19:39","新北市石碇區靜安路一段97號","121.66154","25.0075366666667","6501900","石碇區"
"223005","677-TV","2018/01/15 08:17:21","新北市石碇區外按16-1號","121.650656666667","24.99754","6501900","石碇區"
"227005","282-VK","2018/01/15 08:19:37","新北市雙溪區外柑里三叉坑1-2號","121.825098333333","25.0206783333333","6502500","雙溪區"
"252006","073-UM","2018/01/15 08:19:30","新北市三芝區後厝里大片頭90號","121.45696","25.2468466666667","6502100","三芝區"
"252004","249-BX","2018/01/15 08:19:07","新北市三芝區興華里車埕60號","121.49861","25.1969316666667","6502100","三芝區"
"237001","159-UY","2018/01/15 08:19:43","新北市三峽區大義路189號","121.378103333333","24.9451766666667","6500900","三峽區"
"236007","165-UM","2018/01/15 08:19:36","新北市土城區石門路85-6號","121.468563333333","24.956475","6501300","土城區"
"236001","339-SR","2018/01/15 08:19:48","新北市土城區中央路四段464號","121.409788333333","24.9502966666667","6501300","土城區"
"236005","498-BY","2018/01/15 08:19:41","新北市土城區中央路三段281巷15-1號","121.42591","24.962465","6501300","土城區"
"242030","AAC-296","2018/01/15 08:19:28","新北市新莊區新泰路321巷37號","121.443128333333","25.0412866666667","6500500","新莊區"
"242028","986-R7","2018/01/15 08:19:32","新北市新莊區中平路53號","121.444756666667","25.044245","6500500","新莊區"
"242049","751-BX","2018/01/15 08:19:38","新北市新莊區龍安路496號","121.42636","25.0172","6500500","新莊區"
"242024","615-BX","2018/01/15 08:19:41","新北市新莊區新北大道二段298號","121.465015","25.0611966666667","6500500","新莊區"
"242022","613-BX","2018/01/15 08:19:46","新北市新莊區福壽街24號","121.458095","25.048115","6500500","新莊區"
"242026","612-BX","2018/01/15 08:19:39","新北市新莊區福壽街141號","121.458035","25.0527566666667","6500500","新莊區"
"242038","566-BX","2018/01/15 08:19:44","新北市新莊區民安路119號","121.424846666667","25.0246616666667","6500500","新莊區"
"242043","442-UM","2018/01/15 08:19:51","新北市新莊區雙鳳路25號","121.416605","25.0269933333333","6500500","新莊區"
"242047","441-UM","2018/01/15 08:19:41","新北市新莊區萬安街146巷16號","121.419858333333","25.02177","6500500","新莊區"
"242052","440-UM","2018/01/15 08:19:48","新北市新莊區新樹路699巷29號","121.433011666667","25.00145","6500500","新莊區"
"242033","415-TV","2018/01/15 08:19:44","新北市新莊區景德路467號","121.443581666667","25.0331783333333","6500500","新莊區"
"242040","400-BY","2018/01/15 08:19:37","新北市泰山區貴陽街70號","121.423551666667","25.0322166666667","6500500","新莊區"
"242059","362-BY","2018/01/15 08:19:36","新北市新莊區新樹路485號","121.432648333333","25.0125983333333","6500500","新莊區"
"242057","353-BY","2018/01/15 08:19:32","新北市新莊區雙鳳路134巷8號","121.412838333333","25.0282266666667","6500500","新莊區"
"242006","132-UY","2018/01/15 08:19:31","新北市新莊區自信街81巷1號","121.45593","25.0481033333333","6500500","新莊區"
"242035","133-UY","2018/01/15 08:19:34","新北市新莊區建福路72號","121.426821666667","25.026805","6500500","新莊區"
"242020","135-UY","2018/01/15 08:19:43","新北市新莊區中華路一段6號","121.451963333333","25.0366033333333","6500500","新莊區"
"242045","172-VK","2018/01/15 08:19:42","新北市新莊區福營路125巷2號","121.43311","25.0316283333333","6500500","新莊區"
"242008","173-VK","2018/01/15 08:19:40","新北市新莊區昌平街59巷10號","121.454398333333","25.0533216666667","6500500","新莊區"
"242014","175-VK","2018/01/15 08:19:35","新北市新莊區中平路119巷9號","121.444241666667","25.0466466666667","6500500","新莊區"
"242001","176-VK","2018/01/15 08:19:37","新北市新莊區大觀街42巷31號","121.454611666667","25.0364316666667","6500500","新莊區"
"242012","346-TH","2018/01/15 08:19:48","新北市新莊區中和街82巷7號","121.448261666667","25.0466116666667","6500500","新莊區"
"242003","347-TH","2018/01/15 08:19:45","新北市新莊區福樂街56巷3號","121.458173333333","25.0461033333333","6500500","新莊區"
"242018","348-TH","2018/01/15 08:19:36","新北市新莊區思源路87巷11號","121.458295","25.0413333333333","6500500","新莊區"
"242055","349-TH","2018/01/15 08:19:30","新北市新莊區瓊林路40巷5號","121.447581666667","25.0301683333333","6500500","新莊區"
"242016","350-TH","2018/01/15 08:19:49","新北市新莊區中港路339巷52號","121.450118333333","25.0450416666667","6500500","新莊區"
"242010","351-TH","2018/01/15 08:19:37","新北市新莊區富貴路161號","121.450048333333","25.0569666666667","6500500","新莊區"
"239006","661-UM","2018/01/15 08:19:40","桃園市龜山區宏德司法新村1號","121.331591666667","24.979455","6500800","鶯歌區"
"220064","282-UM","2018/01/15 08:19:45","新北市五股區凌雲路三段24巷21-9號","121.434086666667","25.1075333333333","6500100","板橋區"
