"lineid","car","time","location","longitude","latitude","cityid","cityname"
"232001","290-BY","2018/01/15 08:38:48","新北市坪林區粗石斛4號","121.747336666667","24.95349","6502000","坪林區"
"232012","291-BY","2018/01/15 08:39:39","新北市坪林區金瓜寮24號","121.6787","24.9094783333333","6502000","坪林區"
"232010","375-UM","2018/01/15 08:39:32","新北市坪林區苦苓腳2號","121.713905","24.936805","6502000","坪林區"
"232017","705-BZ","2018/01/15 08:39:30","新北市坪林區中心崙2-1號","121.785303333333","24.95296","6502000","坪林區"
"232005","758-BX","2018/01/15 08:39:40","新北市坪林區石2-1號","121.710071666667","24.9085433333333","6502000","坪林區"
"244012","069-UM","2018/01/15 08:39:38","新北市林口區中山路52號","121.395036666667","25.07849","6501700","林口區"
"244006","080-UY","2018/01/15 08:39:42","新北市林口區林口路190號","121.387418333333","25.0828583333333","6501700","林口區"
"244001","248-BX","2018/01/15 08:39:40","新北市林口區下福里18鄰26號","121.31074","25.1118916666667","6501700","林口區"
"244018","402-UM","2018/01/15 08:39:51","新北市林口區公園路163號","121.370853333333","25.0714016666667","6501700","林口區"
"244024","742-UY","2018/01/15 08:39:32","新北市林口區南勢六街51號","121.355776666667","25.0714083333333","6501700","林口區"
"244022","483-VK","2018/01/15 08:39:33","新北市林口區興林路221巷27號","121.389773333333","25.0717483333333","6501700","林口區"
"244016","485-VK","2018/01/15 08:39:51","新北市林口區八德路48巷5號","121.366725","25.0664633333333","6501700","林口區"
"244010","656-BX","2018/01/15 08:39:40","新北市林口區中正路74巷4號","121.394635","25.07772","6501700","林口區"
"244008","837-TS","2018/01/15 08:39:29","新北市林口區佳林路56巷3號","121.385751666667","25.081745","6501700","林口區"
"244020","838-TS","2018/01/15 08:39:38","新北市林口區自強一街6-1號","121.397823333333","25.0786416666667","6501700","林口區"
"222005","289-BY","2018/01/15 08:37:22","台北市南港區南深路52號","121.623376666667","25.021915","6501800","深坑區"
"231007","189-VK","2018/01/15 08:39:38","新北市新店區新潭路三段130-1號","121.509676666667","24.9099633333333","6500600","新店區"
"231008","192-VK","2018/01/15 08:39:32","新北市新店區新烏路三段165巷12號","121.551865","24.9008233333333","6500600","新店區"
"231054","AAD-862","2018/01/15 08:33:31","新北市新店區安華路28-1號","121.51984","24.9611683333333","6500600","新店區"
"235010","031-BX","2018/01/15 08:39:33","新北市中和區員山路36巷2-1號","121.483293333333","24.9900083333333","6500300","中和區"
"235001","611-BX","2018/01/15 08:39:46","新北市中和區民安街42巷36號","121.478988333333","25.0012316666667","6500300","中和區"
"226005","5620-A6","2018/01/15 08:39:27","新北市平溪區南山里粗坑1-7號","121.802393333333","25.0512016666667","6502400","平溪區"
"226001","8452-VL","2018/01/15 08:39:31","新北市平溪區東勢里芊蓁林48-1號","121.751708333333","25.01069","6502400","平溪區"
"226003","AGD-0702","2018/01/15 08:39:37","新北市平溪區十分里十分街45號","121.774505","25.040775","6502400","平溪區"
"223006","022-BY","2018/01/15 08:39:40","新北市石碇區碇坪路一段49號","121.659138333333","24.9914133333333","6501900","石碇區"
"223002","198-BX","2018/01/15 08:39:46","新北市深坑區文山路一段18號","121.63216","25.0075983333333","6501900","石碇區"
"223008","406-TH","2018/01/15 08:39:46","新北市石碇區碇南路二段松柏崎巷53號","121.67931","25.0264916666667","6501900","石碇區"
"223001","437-BY","2018/01/15 08:39:44","新北市石碇區北宜路六段直潭巷1號","121.65882","24.93763","6501900","石碇區"
"223004","660-BX","2018/01/15 08:39:45","新北市石碇區崩山15號","121.674941666667","24.9706833333333","6501900","石碇區"
"223007","661-BX","2018/01/15 08:39:39","新北市石碇區碇南路二段1-1號","121.670683333333","25.0236116666667","6501900","石碇區"
"223005","677-TV","2018/01/15 08:39:45","新北市石碇區小粗坑(潭邊里)9-2號","121.678961666667","24.9859716666667","6501900","石碇區"
"227005","282-VK","2018/01/15 08:39:37","新北市雙溪區外柑里四分子4號","121.839106666667","25.0013116666667","6502500","雙溪區"
"252006","073-UM","2018/01/15 08:39:30","新北市三芝區後厝里北勢子12-10號","121.474483333333","25.254765","6502100","三芝區"
"252004","249-BX","2018/01/15 08:39:47","新北市三芝區興華里楓子林37-3號","121.490798333333","25.2086533333333","6502100","三芝區"
"237001","159-UY","2018/01/15 08:39:43","新北市三峽區大觀路28號","121.37482","24.9451716666667","6500900","三峽區"
"236007","165-UM","2018/01/15 08:39:36","新北市土城區石門路2巷3弄4號","121.458525","24.9690916666667","6501300","土城區"
"236001","339-SR","2018/01/15 08:39:48","新北市土城區中央路四段55-12號","121.419301666667","24.9567416666667","6501300","土城區"
"236005","498-BY","2018/01/15 08:39:41","新北市土城區永和街5號","121.434646666667","24.9649083333333","6501300","土城區"
"242030","AAC-296","2018/01/15 08:39:47","新北市新莊區新泰路255巷3號","121.445798333333","25.0397683333333","6500500","新莊區"
"242028","986-R7","2018/01/15 08:39:28","新北市新莊區幸福路864號","121.443551666667","25.048935","6500500","新莊區"
"242049","751-BX","2018/01/15 08:39:38","新北市新莊區西盛街141號","121.428323333333","25.018375","6500500","新莊區"
"242024","615-BX","2018/01/15 08:39:41","新北市新莊區五權一路12巷21弄2號","121.457806666667","25.064395","6500500","新莊區"
"242022","613-BX","2018/01/15 08:39:46","新北市新莊區化成路310號","121.465705","25.0481916666667","6500500","新莊區"
"242026","612-BX","2018/01/15 08:39:51","新北市新莊區幸福路589號","121.453618333333","25.04911","6500500","新莊區"
"242038","566-BX","2018/01/15 08:39:44","新北市新莊區民安路309號","121.429878333333","25.0226666666667","6500500","新莊區"
"242043","442-UM","2018/01/15 08:39:31","新北市新莊區鳳山街56巷27號","121.413821666667","25.0264566666667","6500500","新莊區"
"242047","441-UM","2018/01/15 08:39:41","新北市新莊區後港一路13號","121.424193333333","25.02632","6500500","新莊區"
"242052","440-UM","2018/01/15 08:39:48","新北市新莊區光華街62號","121.428335","25.0119333333333","6500500","新莊區"
"242033","415-TV","2018/01/15 08:39:41","新北市新莊區仁愛街2號","121.444241666667","25.0346816666667","6500500","新莊區"
"242040","400-BY","2018/01/15 08:39:37","新北市新莊區雙鳳路116巷15弄1號","121.413553333333","25.0290316666667","6500500","新莊區"
"242059","362-BY","2018/01/15 08:39:51","新北市新莊區後港一路4號","121.424461666667","25.02569","6500500","新莊區"
"242057","353-BY","2018/01/15 08:39:32","桃園市龜山區萬壽路一段117號","121.408548333333","25.0189033333333","6500500","新莊區"
"242006","132-UY","2018/01/15 08:39:30","新北市新莊區思源路593巷5弄1號","121.459211666667","25.0594716666667","6500500","新莊區"
"242035","133-UY","2018/01/15 08:39:34","新北市新莊區後港一路49巷5弄1號","121.425691666667","25.0271166666667","6500500","新莊區"
"242020","135-UY","2018/01/15 08:39:43","新北市新莊區中正路170號","121.450773333333","25.0359533333333","6500500","新莊區"
"242045","172-VK","2018/01/15 08:39:42","新北市新莊區福營路385-2號","121.422533333333","25.0274183333333","6500500","新莊區"
"242008","173-VK","2018/01/15 08:39:40","新北市新莊區中華路二段158號","121.45346","25.0510466666667","6500500","新莊區"
"242014","175-VK","2018/01/15 08:39:35","新北市新莊區中平路184巷10弄8號","121.445558333333","25.048075","6500500","新莊區"
"242001","176-VK","2018/01/15 08:39:39","新北市新莊區新泰路63號","121.449433333333","25.0341666666667","6500500","新莊區"
"242012","346-TH","2018/01/15 08:39:48","新北市新莊區中泰街38巷6號","121.450793333333","25.0472183333333","6500500","新莊區"
"242003","347-TH","2018/01/15 08:39:36","新北市新莊區思源路42巷3號","121.460658333333","25.043455","6500500","新莊區"
"242018","348-TH","2018/01/15 08:39:36","新北市新莊區中港路132巷12號","121.45594","25.0407116666667","6500500","新莊區"
"242055","349-TH","2018/01/15 08:39:32","新北市新莊區豐年街78號","121.446416666667","25.0312566666667","6500500","新莊區"
"242016","350-TH","2018/01/15 08:39:49","新北市新莊區中港路352號","121.451771666667","25.0466766666667","6500500","新莊區"
"242010","351-TH","2018/01/15 08:39:37","新北市新莊區中港路591巷19號","121.450211666667","25.0523966666667","6500500","新莊區"
"239006","661-UM","2018/01/15 08:39:40","桃園市龜山區宏德司法新村1號","121.33158","24.97947","6500800","鶯歌區"
"220064","282-UM","2018/01/15 08:39:26","新北市八里區中山路三段369號","121.373173333333","25.1378833333333","6500100","板橋區"
