"lineid","car","time","location","longitude","latitude","cityid","cityname"
"232001","290-BY","2018/01/15 08:47:48","新北市坪林區九芎坑16-2號","121.74105","24.9497666666667","6502000","坪林區"
"232012","291-BY","2018/01/15 08:47:39","新北市坪林區金瓜寮1-1號","121.682503333333","24.92579","6502000","坪林區"
"232010","375-UM","2018/01/15 08:47:51","新北市坪林區磨壁潭4號","121.72117","24.9386483333333","6502000","坪林區"
"232017","705-BZ","2018/01/15 08:47:30","新北市坪林區中心崙2-1號","121.785271666667","24.953115","6502000","坪林區"
"232005","758-BX","2018/01/15 08:47:36","新北市坪林區魚堀9-2號","121.704383333333","24.90597","6502000","坪林區"
"244012","069-UM","2018/01/15 08:47:38","新北市林口區中山路130號","121.392161666667","25.0786583333333","6501700","林口區"
"244006","080-UY","2018/01/15 08:47:42","新北市林口區竹林路155號","121.38871","25.079855","6501700","林口區"
"244001","248-BX","2018/01/15 08:47:40","新北市林口區下福147-12號","121.300361666667","25.1163433333333","6501700","林口區"
"244018","402-UM","2018/01/15 08:47:31","新北市林口區文化一路一段83巷14弄40號","121.372045","25.0713633333333","6501700","林口區"
"244024","742-UY","2018/01/15 08:47:32","新北市林口區南勢47號","121.355285","25.0749366666667","6501700","林口區"
"244022","483-VK","2018/01/15 08:47:33","新北市林口區東湖路10號","121.388903333333","25.0741333333333","6501700","林口區"
"244016","485-VK","2018/01/15 08:47:31","新北市林口區公園路36號","121.367093333333","25.0679466666667","6501700","林口區"
"244010","656-BX","2018/01/15 08:47:40","新北市林口區仁愛路一段292號","121.392783333333","25.0763733333333","6501700","林口區"
"244008","837-TS","2018/01/15 08:47:49","新北市林口區竹林路614號","121.386471666667","25.0825233333333","6501700","林口區"
"244020","838-TS","2018/01/15 08:47:38","新北市林口區自強二街42-1號","121.398765","25.07742","6501700","林口區"
"222005","289-BY","2018/01/15 08:47:42","新北市深坑區風格街31巷46號","121.626973333333","25.0179833333333","6501800","深坑區"
"231007","189-VK","2018/01/15 08:44:38","新北市新店區新潭路三段236號","121.500968333333","24.90267","6500600","新店區"
"231008","192-VK","2018/01/15 08:47:32","新北市新店區新烏路三段寶島巷4號","121.551026666667","24.8991783333333","6500600","新店區"
"231054","AAD-862","2018/01/15 08:33:31","新北市新店區安華路28-1號","121.51984","24.9611683333333","6500600","新店區"
"235010","031-BX","2018/01/15 08:47:33","新北市新店區安忠路102-1號","121.510576666667","24.9558266666667","6500300","中和區"
"235001","611-BX","2018/01/15 08:47:46","新北市中和區民享街99號","121.474981666667","24.999925","6500300","中和區"
"226005","5620-A6","2018/01/15 08:47:47","新北市平溪區南山里六分13號","121.797851666667","25.0497516666667","6502400","平溪區"
"226001","8452-VL","2018/01/15 08:44:31","新北市平溪區東勢里番仔坑3號","121.74692","25.00022","6502400","平溪區"
"226003","AGD-0702","2018/01/15 08:47:37","新北市平溪區十分里十分街54號","121.77519","25.041425","6502400","平溪區"
"223002","198-BX","2018/01/15 08:47:46","新北市深坑區昇高坑路72號","121.631105","24.98759","6501900","石碇區"
"223008","406-TH","2018/01/15 08:47:46","新北市石碇區石汐路1號","121.678496666667","25.0341783333333","6501900","石碇區"
"223001","437-BY","2018/01/15 08:47:44","新北市石碇區北宜路六段柑腳巷2號","121.659665","24.938075","6501900","石碇區"
"223004","660-BX","2018/01/15 08:47:45","新北市石碇區崩山24-2號","121.678601666667","24.9678666666667","6501900","石碇區"
"223007","661-BX","2018/01/15 08:47:45","新北市石碇區碇南路二段10號","121.666401666667","25.0308866666667","6501900","石碇區"
"223005","677-TV","2018/01/15 08:47:22","新北市石碇區碇坪路一段268號","121.675431666667","24.9777516666667","6501900","石碇區"
"227005","282-VK","2018/01/15 08:47:37","新北市雙溪區泰平里泰平10號","121.845598333333","24.9856266666667","6502500","雙溪區"
"252006","073-UM","2018/01/15 08:47:50","新北市三芝區錫板里海尾14-12號","121.477455","25.2588933333333","6502100","三芝區"
"252004","249-BX","2018/01/15 08:47:47","新北市三芝區興華里田心子15-14號","121.4928","25.2043466666667","6502100","三芝區"
"237001","159-UY","2018/01/15 08:47:44","新北市三峽區大德路493號","121.373458333333","24.94857","6500900","三峽區"
"236007","165-UM","2018/01/15 08:47:36","新北市土城區清水路32巷11號","121.45601","24.981","6501300","土城區"
"236001","339-SR","2018/01/15 08:47:48","新北市土城區中央路三段281巷11弄3號","121.426543333333","24.9628766666667","6501300","土城區"
"236005","498-BY","2018/01/15 08:47:41","新北市土城區永和街63號","121.435713333333","24.9588866666667","6501300","土城區"
"242030","AAC-296","2018/01/15 08:47:47","新北市新莊區新泰路277巷43弄6號","121.443858333333","25.03989","6500500","新莊區"
"242028","986-R7","2018/01/15 08:47:36","新北市新莊區中平路312號","121.444728333333","25.0522716666667","6500500","新莊區"
"242049","751-BX","2018/01/15 08:47:38","新北市新莊區民安西路172巷6號","121.425265","25.016065","6500500","新莊區"
"242024","615-BX","2018/01/15 08:47:43","新北市新莊區五工一路90號","121.461271666667","25.06773","6500500","新莊區"
"242022","613-BX","2018/01/15 08:47:46","新北市新莊區化成路528號","121.466321666667","25.052815","6500500","新莊區"
"242026","612-BX","2018/01/15 08:47:31","新北市新莊區中平路271號","121.444806666667","25.0498633333333","6500500","新莊區"
"242038","566-BX","2018/01/15 08:47:44","新北市新莊區民安路299巷25弄9號","121.428928333333","25.023325","6500500","新莊區"
"242043","442-UM","2018/01/15 08:47:51","新北市新莊區龍安路9-1號","121.414578333333","25.022575","6500500","新莊區"
"242047","441-UM","2018/01/15 08:47:41","新北市新莊區後港一路28巷14號","121.425591666667","25.0250966666667","6500500","新莊區"
"242052","440-UM","2018/01/15 08:47:48","新北市新莊區民安西路334號","121.426836666667","25.0115466666667","6500500","新莊區"
"242033","415-TV","2018/01/15 08:47:49","新北市新莊區公園一路110號","121.444403333333","25.0374216666667","6500500","新莊區"
"242040","400-BY","2018/01/15 08:47:37","新北市新莊區天祥街69號","121.415868333333","25.02902","6500500","新莊區"
"242059","362-BY","2018/01/15 08:47:31","新北市新莊區四維路97巷26號","121.424321666667","25.0233083333333","6500500","新莊區"
"242057","353-BY","2018/01/15 08:47:51","新北市新莊區中正路887-7號","121.416651666667","25.02441","6500500","新莊區"
"242006","132-UY","2018/01/15 08:47:30","新北市新莊區榮華路一段2號","121.457943333333","25.0557333333333","6500500","新莊區"
"242035","133-UY","2018/01/15 08:47:34","新北市新莊區民安路207巷8號","121.426655","25.022595","6500500","新莊區"
"242020","135-UY","2018/01/15 08:47:43","新北市新莊區建中街16巷10號","121.44945","25.0381233333333","6500500","新莊區"
"242045","172-VK","2018/01/15 08:47:46","新北市新莊區中正路831號","121.420833333333","25.027915","6500500","新莊區"
"242008","173-VK","2018/01/15 08:47:40","新北市新莊區昌隆街28號","121.454078333333","25.05077","6500500","新莊區"
"242014","175-VK","2018/01/15 08:47:35","新北市新莊區泰順街52號","121.447393333333","25.0429","6500500","新莊區"
"242001","176-VK","2018/01/15 08:47:37","新北市新莊區中正路217號","121.451188333333","25.0357866666667","6500500","新莊區"
"242012","346-TH","2018/01/15 08:47:48","新北市新莊區中華路二段83-1號","121.452508333333","25.04867","6500500","新莊區"
"242003","347-TH","2018/01/15 08:47:49","新北市新莊區化成路29巷69號","121.462193333333","25.043925","6500500","新莊區"
"242018","348-TH","2018/01/15 08:47:41","新北市新莊區民生街15巷9號","121.455341666667","25.042525","6500500","新莊區"
"242055","349-TH","2018/01/15 08:47:30","新北市新莊區瓊林路51-3號","121.445125","25.027565","6500500","新莊區"
"242016","350-TH","2018/01/15 08:47:49","新北市新莊區中港二街151號","121.447826666667","25.0453883333333","6500500","新莊區"
"242010","351-TH","2018/01/15 08:47:37","新北市新莊區中港路531巷11號","121.451111666667","25.05155","6500500","新莊區"
"239006","661-UM","2018/01/15 08:47:40","桃園市龜山區宏德司法新村1號","121.331861666667","24.9795966666667","6500800","鶯歌區"
"220064","282-UM","2018/01/15 08:46:26","新北市八里區荖阡坑路34-2號","121.40136","25.1299383333333","6500100","板橋區"
