"lineid","car","time","location","longitude","latitude","cityid","cityname"
"232017","705-BZ","2018/01/15 09:09:50","新北市坪林區柑腳坑22號","121.76976","24.961525","6502000","坪林區"
"232005","758-BX","2018/01/15 09:09:36","新北市坪林區鶯子瀨1-2號","121.707958333333","24.918535","6502000","坪林區"
"244012","069-UM","2018/01/15 09:09:38","新北市林口區文化一路二段190號","121.382825","25.0802866666667","6501700","林口區"
"244006","080-UY","2018/01/15 09:09:42","新北市林口區林口路113巷6弄1號","121.388715","25.080565","6501700","林口區"
"244001","248-BX","2018/01/15 09:09:40","新北市林口區嘉溪雅坑20號","121.339798333333","25.108005","6501700","林口區"
"244018","402-UM","2018/01/15 09:09:31","新北市林口區文化一路一段124號","121.374905","25.07222","6501700","林口區"
"244024","742-UY","2018/01/15 09:09:32","新北市林口區中山路585號","121.379946666667","25.082345","6501700","林口區"
"244022","483-VK","2018/01/15 09:09:33","新北市林口區東湖路153巷135號","121.382196666667","25.073555","6501700","林口區"
"244016","485-VK","2018/01/15 09:09:31","新北市林口區文化二路一段120巷7號","121.367858333333","25.0699333333333","6501700","林口區"
"244010","656-BX","2018/01/15 09:09:40","新北市林口區仁愛路一段285巷66號","121.395458333333","25.0742066666667","6501700","林口區"
"244008","837-TS","2018/01/15 09:09:49","新北市林口區民生路87號","121.3769","25.087615","6501700","林口區"
"222005","289-BY","2018/01/15 09:02:42","新北市深坑區土庫尖路75-1號","121.631118333333","25.0181916666667","6501800","深坑區"
"231007","189-VK","2018/01/15 09:09:38","新北市新店區新潭路三段215巷25號","121.50813","24.9040783333333","6500600","新店區"
"231008","192-VK","2018/01/15 09:09:32","新北市新店區廣興路60巷30號","121.541651666667","24.9160966666667","6500600","新店區"
"235010","031-BX","2018/01/15 09:09:33","新北市新店區安和路二段232-1號","121.516896666667","24.9770566666667","6500300","中和區"
"235001","611-BX","2018/01/15 09:09:46","新北市中和區民享街283號","121.471063333333","24.9959233333333","6500300","中和區"
"226005","5620-A6","2018/01/15 09:09:47","新北市平溪區十分里十分街271-2號","121.779086666667","25.0448283333333","6502400","平溪區"
"226001","8452-VL","2018/01/15 09:02:11","新北市平溪區東勢里番仔坑16號","121.755108333333","24.99129","6502400","平溪區"
"226003","AGD-0702","2018/01/15 09:09:37","新北市平溪區十分里十分街259號","121.77825","25.0449616666667","6502400","平溪區"
"223008","406-TH","2018/01/15 09:09:26","新北市石碇區光明路耳空龜巷10-2號","121.690178333333","25.03863","6501900","石碇區"
"223001","437-BY","2018/01/15 09:09:44","新北市石碇區北宜路五段十股寮巷3號","121.64037","24.95193","6501900","石碇區"
"223004","660-BX","2018/01/15 09:09:45","新北市石碇區崩山53號","121.682421666667","24.9686583333333","6501900","石碇區"
"223007","661-BX","2018/01/15 09:04:19","新北市石碇區光明路17-2號","121.685141666667","25.031875","6501900","石碇區"
"223005","677-TV","2018/01/15 09:09:37","新北市石碇區崩山53號","121.68238","24.968855","6501900","石碇區"
"227005","282-VK","2018/01/15 09:09:37","新北市雙溪區泰平里料角坑9號","121.812065","24.9745666666667","6502500","雙溪區"
"252006","073-UM","2018/01/15 09:09:30","新北市三芝區古庄里山豬堀6號","121.495666666667","25.255565","6502100","三芝區"
"252004","249-BX","2018/01/15 09:09:47","新北市三芝區興華里車埕69-4號","121.493398333333","25.1937766666667","6502100","三芝區"
"236007","165-UM","2018/01/15 09:09:36","新北市土城區金安街48巷37號","121.420573333333","24.9654083333333","6501300","土城區"
"236001","339-SR","2018/01/15 09:09:48","新北市土城區中央路二段223-4號","121.440616666667","24.97353","6501300","土城區"
"236005","498-BY","2018/01/15 09:09:49","新北市土城區中央路三段76巷29號","121.435866666667","24.9681633333333","6501300","土城區"
"242030","AAC-296","2018/01/15 09:09:47","新北市新莊區忠孝街66號","121.444005","25.03629","6500500","新莊區"
"242028","986-R7","2018/01/15 09:09:48","新北市新莊區中華路二段201號","121.45228","25.0526766666667","6500500","新莊區"
"242049","751-BX","2018/01/15 09:09:37","新北市新莊區民安西路189巷25號","121.426996666667","25.0154066666667","6500500","新莊區"
"242024","615-BX","2018/01/15 09:09:41","新北市新莊區五工三路62巷9號","121.459925","25.0648083333333","6500500","新莊區"
"242022","613-BX","2018/01/15 09:09:46","新北市新莊區化成路493-2號","121.464895","25.0629933333333","6500500","新莊區"
"242026","612-BX","2018/01/15 09:09:33","新北市新莊區幸福路540號","121.455396666667","25.0494366666667","6500500","新莊區"
"242038","566-BX","2018/01/15 09:09:44","新北市新莊區龍安路437號","121.424185","25.0188183333333","6500500","新莊區"
"242043","442-UM","2018/01/15 09:09:51","新北市新莊區中正路746巷25-1號","121.410521666667","25.02422","6500500","新莊區"
"242047","441-UM","2018/01/15 09:09:41","新北市新莊區四維路152巷32號","121.421976666667","25.022445","6500500","新莊區"
"242052","440-UM","2018/01/15 09:09:48","新北市新莊區西盛街388巷13號","121.42708","25.0130483333333","6500500","新莊區"
"242033","415-TV","2018/01/15 09:09:42","新北市新莊區建中街141號","121.444973333333","25.0364316666667","6500500","新莊區"
"242040","400-BY","2018/01/15 09:09:37","新北市新莊區青山路一段46號","121.410065","25.0276883333333","6500500","新莊區"
"242059","362-BY","2018/01/15 09:09:31","新北市新莊區瓊林路瓊英巷11弄2號","121.443175","25.0276083333333","6500500","新莊區"
"242057","353-BY","2018/01/15 09:09:51","新北市新莊區八德街141號","121.423655","25.0199433333333","6500500","新莊區"
"242006","132-UY","2018/01/15 09:09:50","新北市新莊區福壽街56巷23號","121.459261666667","25.0488366666667","6500500","新莊區"
"242035","133-UY","2018/01/15 09:09:34","新北市新莊區後港一路130巷37號","121.429983333333","25.02598","6500500","新莊區"
"242020","135-UY","2018/01/15 09:09:43","新北市新莊區和興街71號","121.446143333333","25.0413016666667","6500500","新莊區"
"242045","172-VK","2018/01/15 09:09:42","新北市新莊區中正路新生巷62號","121.417405","25.0228316666667","6500500","新莊區"
"242008","173-VK","2018/01/15 09:09:40","新北市新莊區幸福路562號","121.454448333333","25.0494483333333","6500500","新莊區"
"242014","175-VK","2018/01/15 09:09:42","新北市新莊區中平路42號","121.444765","25.0437466666667","6500500","新莊區"
"242001","176-VK","2018/01/15 09:09:37","新北市新莊區中正路60號","121.461756666667","25.0400666666667","6500500","新莊區"
"242012","346-TH","2018/01/15 09:09:48","新北市新莊區中榮街75號","121.44564","25.0525383333333","6500500","新莊區"
"242003","347-TH","2018/01/15 09:09:36","新北市新莊區化成路422號","121.466015","25.051025","6500500","新莊區"
"242018","348-TH","2018/01/15 09:09:36","新北市新莊區復興路二段194號","121.459293333333","25.044255","6500500","新莊區"
"242055","349-TH","2018/01/15 09:09:50","新北市新莊區中正路377巷18號","121.446291666667","25.0336416666667","6500500","新莊區"
"242016","350-TH","2018/01/15 09:09:49","新北市新莊區中正路473-1號","121.442016666667","25.0332866666667","6500500","新莊區"
"242010","351-TH","2018/01/15 09:09:37","新北市新莊區中信街23巷1號","121.451053333333","25.0504583333333","6500500","新莊區"
"239006","661-UM","2018/01/15 09:09:40","桃園市龜山區明興街275-1號","121.332855","24.9813316666667","6500800","鶯歌區"
"220064","282-UM","2018/01/15 09:09:46","新北市板橋區華東街1-9號","121.448171666667","24.9948083333333","6500100","板橋區"
