"lineid","car","time","location","longitude","latitude","cityid","cityname"
"232017","705-BZ","2018/01/15 09:19:50","新北市坪林區坪雙路二段56號","121.740085","24.9667133333333","6502000","坪林區"
"232005","758-BX","2018/01/15 09:19:36","新北市坪林區北宜路八段558號","121.716756666667","24.9088533333333","6502000","坪林區"
"244012","069-UM","2018/01/15 09:19:38","新北市林口區中正路514巷29號","121.382111666667","25.077975","6501700","林口區"
"244006","080-UY","2018/01/15 09:19:42","新北市林口區後湖17-4號","121.386668333333","25.0963866666667","6501700","林口區"
"244001","248-BX","2018/01/15 09:19:40","新北市林口區中華路283號","121.383525","25.0910033333333","6501700","林口區"
"244018","402-UM","2018/01/15 09:19:51","新北市林口區麗園路85號","121.372835","25.0690916666667","6501700","林口區"
"244024","742-UY","2018/01/15 09:19:33","新北市林口區粉寮路二段66-1號","121.404061666667","25.0876866666667","6501700","林口區"
"244022","483-VK","2018/01/15 09:19:33","新北市林口區仁愛路二段62巷13號","121.384145","25.0760466666667","6501700","林口區"
"244016","485-VK","2018/01/15 09:19:51","新北市林口區公園路94號","121.369588333333","25.0705333333333","6501700","林口區"
"244010","656-BX","2018/01/15 09:19:40","新北市林口區仁愛路一段645號","121.388668333333","25.076595","6501700","林口區"
"244008","837-TS","2018/01/15 09:19:49","新北市林口區竹林路320巷1號","121.391146666667","25.0826633333333","6501700","林口區"
"243008","680-BX","2018/01/15 09:19:03","新北市泰山區犁頭窠3-1號","121.421866666667","25.0605083333333","6501600","泰山區"
"222005","289-BY","2018/01/15 09:02:42","新北市深坑區土庫尖路75-1號","121.631118333333","25.0181916666667","6501800","深坑區"
"231007","189-VK","2018/01/15 09:19:38","新北市新店區新潭路三段215巷25號","121.508108333333","24.904115","6500600","新店區"
"231008","192-VK","2018/01/15 09:19:32","新北市新店區廣興路96號","121.537873333333","24.9130033333333","6500600","新店區"
"235010","031-BX","2018/01/15 09:19:33","新北市中和區員山路36巷20號","121.486371666667","24.9899766666667","6500300","中和區"
"235001","611-BX","2018/01/15 09:19:46","新北市中和區中山路三段120-15號","121.474668333333","25.0086383333333","6500300","中和區"
"226005","5620-A6","2018/01/15 09:19:47","新北市平溪區靜安路三段180號","121.775241666667","25.0389216666667","6502400","平溪區"
"226001","8452-VL","2018/01/15 09:02:11","新北市平溪區東勢里番仔坑16號","121.755108333333","24.99129","6502400","平溪區"
"223008","406-TH","2018/01/15 09:19:46","新北市石碇區大湖格4號","121.702466666667","25.0179366666667","6501900","石碇區"
"223001","437-BY","2018/01/15 09:19:44","新北市石碇區北宜路五段58號","121.633345","24.9527566666667","6501900","石碇區"
"223004","660-BX","2018/01/15 09:19:45","新北市石碇區碇坪路二段71號","121.685506666667","24.9653016666667","6501900","石碇區"
"223007","661-BX","2018/01/15 09:19:43","新北市石碇區靜安路一段337號","121.698931666667","25.0146633333333","6501900","石碇區"
"223005","677-TV","2018/01/15 09:19:45","新北市石碇區碇坪路二段71號","121.685521666667","24.9652316666667","6501900","石碇區"
"227005","282-VK","2018/01/15 09:11:57","新北市雙溪區泰平里料角坑19號","121.81218","24.97284","6502500","雙溪區"
"252004","249-BX","2018/01/15 09:19:47","新北市三芝區興華里田心子8-21號","121.49769","25.2037733333333","6502100","三芝區"
"252006","AAC-283","2018/01/15 09:19:41","新北市三芝區埔坪里埔頭坑41號","121.504476666667","25.2644016666667","6502100","三芝區"
"237001","159-UY","2018/01/15 09:19:43","新北市三峽區隆恩街245號","121.357788333333","24.9408766666667","6500900","三峽區"
"236007","165-UM","2018/01/15 09:19:36","新北市土城區中央路四段321巷32-2號","121.411825","24.9511833333333","6501300","土城區"
"236001","339-SR","2018/01/15 09:19:40","新北市土城區中正路5號","121.44245","24.9751516666667","6501300","土城區"
"236005","498-BY","2018/01/15 09:19:42","新北市土城區中央路三段126巷10號","121.43468","24.9667083333333","6501300","土城區"
"242030","AAC-296","2018/01/15 09:19:47","新北市新莊區公園一路77號","121.443148333333","25.03709","6500500","新莊區"
"242028","986-R7","2018/01/15 09:19:48","新北市新莊區昌平街31巷9號","121.45427","25.0513816666667","6500500","新莊區"
"242049","751-BX","2018/01/15 09:19:37","新北市新莊區民安西路103號","121.426898333333","25.0187133333333","6500500","新莊區"
"242024","615-BX","2018/01/15 09:19:41","新北市新莊區化成路565號","121.46508","25.0654966666667","6500500","新莊區"
"242022","613-BX","2018/01/15 09:19:46","新北市新莊區化成路166號","121.46552","25.0453883333333","6500500","新莊區"
"242026","612-BX","2018/01/15 09:19:51","新北市新莊區思源路63號","121.45994","25.0403933333333","6500500","新莊區"
"242038","566-BX","2018/01/15 09:19:44","新北市新莊區民安西路2號","121.426465","25.02193","6500500","新莊區"
"242043","442-UM","2018/01/15 09:19:31","桃園市龜山區萬壽路一段13號","121.410336666667","25.0209183333333","6500500","新莊區"
"242047","441-UM","2018/01/15 09:19:52","新北市新莊區龍安路212號","121.420021666667","25.0198566666667","6500500","新莊區"
"242052","440-UM","2018/01/15 09:19:48","新北市新莊區西盛街323巷7號","121.42851","25.0147366666667","6500500","新莊區"
"242033","415-TV","2018/01/15 09:19:41","新北市新莊區新泰路201號","121.44718","25.0381","6500500","新莊區"
"242040","400-BY","2018/01/15 09:19:40","新北市新莊區壽山路55-1號","121.412106666667","25.0318766666667","6500500","新莊區"
"242059","362-BY","2018/01/15 09:19:31","新北市新莊區新樹路172-13號","121.434523333333","25.0216666666667","6500500","新莊區"
"242057","353-BY","2018/01/15 09:19:31","新北市新莊區龍安路266巷11號","121.421466666667","25.0186966666667","6500500","新莊區"
"242006","132-UY","2018/01/15 09:19:50","新北市新莊區思源路25號","121.460216666667","25.0390433333333","6500500","新莊區"
"242035","133-UY","2018/01/15 09:19:34","新北市新莊區建安街76巷3弄2號","121.426218333333","25.0249433333333","6500500","新莊區"
"242020","135-UY","2018/01/15 09:19:43","新北市新莊區公園路62號","121.449425","25.0393983333333","6500500","新莊區"
"242045","172-VK","2018/01/15 09:19:42","新北市新莊區裕民街54巷27號","121.417586666667","25.0245966666667","6500500","新莊區"
"242014","175-VK","2018/01/15 09:19:35","新北市新莊區中和街44號","121.448155","25.0442533333333","6500500","新莊區"
"242001","176-VK","2018/01/15 09:19:37","新北市新莊區明中街11號","121.458693333333","25.0383566666667","6500500","新莊區"
"242012","346-TH","2018/01/15 09:19:48","新北市新莊區中和街175巷11號","121.447248333333","25.05057","6500500","新莊區"
"242003","347-TH","2018/01/15 09:19:44","新北市新莊區化成路554巷30號","121.467488333333","25.0540516666667","6500500","新莊區"
"242018","348-TH","2018/01/15 09:19:47","新北市新莊區銘德街57號","121.456915","25.0436333333333","6500500","新莊區"
"242055","349-TH","2018/01/15 09:19:50","新北市新莊區豐年街28巷27號","121.445335","25.0322716666667","6500500","新莊區"
"242016","350-TH","2018/01/15 09:19:29","新北市板橋區金門街215巷91弄7號","121.434673333333","24.9882816666667","6500500","新莊區"
"242010","351-TH","2018/01/15 09:19:37","新北市新莊區中榮街106號","121.447201666667","25.0528966666667","6500500","新莊區"
"239006","661-UM","2018/01/15 09:19:40","桃園市龜山區明興街275-1號","121.332793333333","24.981335","6500800","鶯歌區"
