"lineid","car","time","location","longitude","latitude","cityid","cityname"
"244022","483-VK","2018/01/15 10:29:33","新北市林口區文林四街一段33巷21號","121.373758333333","25.08586","6501700","林口區"
"231007","189-VK","2018/01/15 10:29:38","新北市新店區新潭路三段81巷1號","121.505205","24.9109133333333","6500600","新店區"
"231008","192-VK","2018/01/15 10:29:32","新北市新店區小坑一路47號","121.52691","24.9092616666667","6500600","新店區"
"235001","611-BX","2018/01/15 10:29:46","新北市中和區員山路36巷16-2號","121.485226666667","24.9915883333333","6500300","中和區"
"227005","282-VK","2018/01/15 10:06:57","新北市雙溪區泰平里灣潭路36號","121.812095","24.9287266666667","6502500","雙溪區"
"252006","AAC-283","2018/01/15 10:29:41","新北市三芝區新庄里番社后4-4號","121.501516666667","25.26757","6502100","三芝區"
