"lineid","car","time","location","longitude","latitude","cityid","cityname"
"234044","148-BY","2018/01/15 12:39:46","新北市永和區永元路52巷1號","121.522535","25.0011466666667","6500400","永和區"
"234005","207-UY","2018/01/15 12:39:46","新北市永和區竹林路91巷55弄5號","121.521823333333","25.014025","6500400","永和區"
"234078","298-R6","2018/01/15 12:39:39","新北市永和區林森路66號","121.523873333333","25.0040183333333","6500400","永和區"
"234036","336-UY","2018/01/15 12:39:45","新北市永和區福和路1號","121.526615","25.01009","6500400","永和區"
"234062","337-UY","2018/01/15 12:39:47","新北市永和區福和路1號","121.526545","25.01004","6500400","永和區"
"234084","338-UY","2018/01/15 12:39:48","新北市中和區景新街273巷32號","121.510886666667","24.9940566666667","6500400","永和區"
"234015","745-BX","2018/01/15 12:39:53","新北市永和區福和路1號","121.525835","25.00957","6500400","永和區"
"234028","746-BX","2018/01/15 12:39:41","新北市永和區成功路一段89號","121.526915","25.0028866666667","6500400","永和區"
"234040","838-RS","2018/01/15 12:39:45","新北市永和區福和路1號","121.525866666667","25.00953","6500400","永和區"
"234060","AAD-866","2018/01/15 12:39:38","新北市永和區福和路1號","121.526001666667","25.009545","6500400","永和區"
"234048","863-TW","2018/01/15 12:39:38","新北市永和區保安路2號","121.510876666667","25.0176933333333","6500400","永和區"
"234025","9371-KE","2018/01/15 12:39:52","新北市永和區福和路1號","121.526365","25.00979","6500400","永和區"
"234010","9373-KE","2018/01/15 12:39:52","新北市永和區福和路1號","121.52547","25.0097133333333","6500400","永和區"
"234022","9380-KE","2018/01/15 12:39:34","新北市永和區福和路1號","121.525688333333","25.0093583333333","6500400","永和區"
"234076","969-R7","2018/01/15 12:39:36","新北市永和區中正路77號","121.51508","24.99686","6500400","永和區"
"234072","AAC-211","2018/01/15 12:39:49","新北市永和區福和路1號","121.526285","25.00978","6500400","永和區"
"234066","AAC-212","2018/01/15 12:39:50","新北市永和區永和路一段22號","121.512986666667","25.0048083333333","6500400","永和區"
"234001","AAC-295","2018/01/15 12:39:41","新北市永和區福和路1號","121.526708333333","25.009955","6500400","永和區"
"243004","AAD-798","2018/01/15 12:27:20","新北市泰山區黎明路25號","121.422066666667","25.0608066666667","6501600","泰山區"
"231029","106-UY","2018/01/15 12:39:44","新北市新店區安華路28-1號","121.519573333333","24.9607683333333","6500600","新店區"
"231018","107-UY","2018/01/15 12:39:54","新北市新店區安華路28-1號","121.519488333333","24.9610833333333","6500600","新店區"
"231014","KEA-2219","2018/01/15 12:39:51","新北市新店區安華路28-1號","121.51978","24.9610783333333","6500600","新店區"
"231023","AAD-862","2018/01/15 12:39:38","新北市新店區安華路28-1號","121.520198333333","24.9609783333333","6500600","新店區"
"231036","512-UM","2018/01/15 12:39:48","新北市新店區安華路28-1號","121.519395","24.9612166666667","6500600","新店區"
"231035","515-UM","2018/01/15 12:39:52","新北市新店區安華路28-1號","121.520093333333","24.9609316666667","6500600","新店區"
"235022","151-BY","2018/01/15 12:17:14","新北市中和區員山路36巷16-3號","121.484951666667","24.991345","6500300","中和區"
"235031","255-BX","2018/01/15 12:39:47","新北市中和區新生街37號","121.48328","25.00339","6500300","中和區"
"235001","611-BX","2018/01/15 12:39:46","新北市中和區連城路525-8號","121.480863333333","24.9949416666667","6500300","中和區"
"207002","749-BX","2018/01/15 12:39:51","新北市萬里區雙興里太和路7-2號","121.65855","25.17402","6502800","萬里區"
"221032","280-BY","2018/01/15 12:39:54","新北市汐止區康寧街901號","121.65145","25.0750733333333","6501100","汐止區"
