"lineid","car","time","location","longitude","latitude","cityid","cityname"
"234044","148-BY","2018/01/15 13:19:23","新北市永和區得和路317號","121.523291666667","24.9997166666667","6500400","永和區"
"234005","207-UY","2018/01/15 13:19:26","新北市中和區中山路二段63號","121.504195","25.0046516666667","6500400","永和區"
"234078","298-R6","2018/01/15 13:19:19","新北市永和區福和路26號","121.523933333333","25.0084233333333","6500400","永和區"
"234036","336-UY","2018/01/15 13:19:25","新北市永和區民樂街59巷3號","121.527883333333","24.9983583333333","6500400","永和區"
"234062","337-UY","2018/01/15 13:19:27","新北市永和區永元路17巷6弄2號","121.521378333333","25.000725","6500400","永和區"
"234084","338-UY","2018/01/15 13:19:27","新北市永和區永亨路7號","121.519385","25.0057683333333","6500400","永和區"
"234052","553-UM","2018/01/15 13:19:29","新北市永和區中興街67號","121.516836666667","25.0117733333333","6500400","永和區"
"234015","745-BX","2018/01/15 13:19:33","新北市永和區環河西路一段85巷4弄20號","121.512086666667","25.0169433333333","6500400","永和區"
"234028","746-BX","2018/01/15 13:19:20","新北市永和區厚德街54號","121.524725","24.998835","6500400","永和區"
"234040","838-RS","2018/01/15 13:19:25","新北市永和區保平路203巷37號","121.509885","25.004265","6500400","永和區"
"234012","KEA-2591","2018/01/15 13:19:34","新北市永和區仁愛路150號","121.510846666667","25.0130133333333","6500400","永和區"
"234060","AAD-866","2018/01/15 13:19:18","新北市永和區秀朗路一段175號","121.517066666667","25.003695","6500400","永和區"
"234068","847-RS","2018/01/15 13:19:23","新北市永和區中正路696-1號","121.516596666667","25.0098866666667","6500400","永和區"
"234048","863-TW","2018/01/15 13:19:18","新北市永和區仁愛路142號","121.51107","25.0134683333333","6500400","永和區"
"234025","9371-KE","2018/01/15 13:19:12","新北市永和區豫溪街42巷5號","121.515491666667","25.0095133333333","6500400","永和區"
"234010","9373-KE","2018/01/15 13:19:32","新北市永和區文化路90巷32弄9號","121.513488333333","25.0168566666667","6500400","永和區"
"248013","025-BX","2018/01/15 13:19:31","新北市五股區自強路45號","121.433341666667","25.073715","6501500","五股區"
"248015","026-BX","2018/01/15 13:19:13","新北市五股區成泰路三段477巷18號","121.449908333333","25.0989416666667","6501500","五股區"
"248005","077-UY","2018/01/15 13:19:32","新北市五股區中興路一段142-2號","121.464825","25.0738383333333","6501500","五股區"
"248007","095-VK","2018/01/15 13:19:26","新北市五股區更洲路32巷8弄13號","121.459276666667","25.0796833333333","6501500","五股區"
"248019","225-UY","2018/01/15 13:19:20","新北市五股區孝義路47巷24號","121.449585","25.109775","6501500","五股區"
"248011","247-BX","2018/01/15 13:19:19","新北市五股區御成路35號","121.441018333333","25.0912483333333","6501500","五股區"
"248009","272-BY","2018/01/15 13:19:18","新北市五股區成泰路一段139巷2弄2號","121.435096666667","25.0729966666667","6501500","五股區"
"248003","677-BX","2018/01/15 13:19:25","新北市五股區成泰路二段195巷1號","121.440366666667","25.0873","6501500","五股區"
"248001","678-BX","2018/01/15 13:19:28","新北市五股區西雲路66號","121.443728333333","25.09147","6501500","五股區"
"234022","9380-KE","2018/01/15 13:19:14","新北市永和區竹林路105號","121.519921666667","25.0119533333333","6500400","永和區"
"234076","969-R7","2018/01/15 13:19:16","新北市永和區民有街21巷2號","121.516703333333","24.9965216666667","6500400","永和區"
"234072","AAC-211","2018/01/15 13:19:28","新北市永和區竹林路83號","121.519626666667","25.01238","6500400","永和區"
"234066","AAC-212","2018/01/15 13:19:30","新北市永和區永平路81巷12號","121.51169","25.007995","6500400","永和區"
"234001","AAC-295","2018/01/15 13:19:21","新北市永和區中山路一段106號","121.51102","25.0104016666667","6500400","永和區"
"244001","248-BX","2018/01/15 13:19:12","新北市林口區嘉寶里89-1號","121.332486666667","25.1204933333333","6501700","林口區"
"243005","646-TV","2018/01/15 13:19:29","新北市泰山區南林路99巷1-1號","121.41523","25.0510216666667","6501600","泰山區"
"231002","002-UM","2018/01/15 13:19:18","新北市新店區安華路28-1號","121.51974","24.961075","6500600","新店區"
"231025","0291-UT","2018/01/15 13:19:25","新北市新店區安康路二段162號","121.512256666667","24.96074","6500600","新店區"
"231037","0293-UT","2018/01/15 13:19:22","新北市新店區安華路28-1號","121.519508333333","24.960665","6500600","新店區"
"231028","046-UY","2018/01/15 13:19:27","新北市新店區安華路28-1號","121.519613333333","24.9609716666667","6500600","新店區"
"231030","047-UY","2018/01/15 13:19:29","新北市新店區安華路28-1號","121.519355","24.9609083333333","6500600","新店區"
"231029","106-UY","2018/01/15 13:19:24","新北市新店區安華路28-1號","121.519591666667","24.960875","6500600","新店區"
"231018","107-UY","2018/01/15 13:19:34","新北市新店區安康路一段35號","121.53184","24.96074","6500600","新店區"
"231011","108-UY","2018/01/15 13:19:18","新北市新店區秀山路68號","121.530905","24.9609816666667","6500600","新店區"
"231019","187-VK","2018/01/15 13:19:24","新北市新店區安康路一段35-5號","121.531918333333","24.96066","6500600","新店區"
"231014","KEA-2219","2018/01/15 13:19:31","新北市新店區安華路8號","121.519915","24.9617366666667","6500600","新店區"
"231026","256-BX","2018/01/15 13:19:21","新北市新店區安華路28-1號","121.519775","24.9611916666667","6500600","新店區"
"231010","278-BY","2018/01/15 13:19:25","新北市新店區安康路一段50-1號","121.529756666667","24.961305","6500600","新店區"
"231023","AAD-862","2018/01/15 13:19:18","新北市新店區安康路一段105號","121.529026666667","24.961575","6500600","新店區"
"231027","3712-VJ","2018/01/15 13:19:19","新北市新店區環河路27號","121.537328333333","24.9613516666667","6500600","新店區"
"231024","4716-K9","2018/01/15 13:19:24","新北市新店區安康路一段355號","121.519816666667","24.9631316666667","6500600","新店區"
"231038","4715-K9","2018/01/15 13:19:16","新北市新店區安華路28-1號","121.519386666667","24.96061","6500600","新店區"
"231036","512-UM","2018/01/15 13:19:28","新北市新店區安豐路49號","121.50011","24.9540383333333","6500600","新店區"
"231035","515-UM","2018/01/15 13:19:32","新北市新店區安康路一段355-3號","121.519813333333","24.96199","6500600","新店區"
"231001","619-UM","2018/01/15 13:19:16","新北市新店區安華路28-1號","121.519598333333","24.96096","6500600","新店區"
"231003","641-BX","2018/01/15 13:19:19","新北市新店區安華路28-1號","121.519516666667","24.960585","6500600","新店區"
"231034","645-TV","2018/01/15 13:19:18","新北市新店區安華路28-1號","121.51939","24.960715","6500600","新店區"
"231013","719-UM","2018/01/15 13:19:23","新北市新店區安康路一段223號","121.525741666667","24.9630733333333","6500600","新店區"
"231031","720-UM","2018/01/15 13:19:18","新北市新店區安忠路57巷11弄14號","121.515298333333","24.9579816666667","6500600","新店區"
"231005","897-TW","2018/01/15 13:19:25","新北市新店區安華路28-1號","121.519543333333","24.9610016666667","6500600","新店區"
"231006","898-TW","2018/01/15 13:19:14","新北市新店區安華路28-1號","121.519413333333","24.96093","6500600","新店區"
"231004","899-TW","2018/01/15 13:19:21","新北市新店區安華路28-1號","121.519415","24.9609633333333","6500600","新店區"
"235030","003-UY","2018/01/15 13:19:31","新北市中和區中山路二段64巷11號","121.503283333333","25.0055066666667","6500300","中和區"
"235028","005-UY","2018/01/15 13:19:25","新北市中和區中正路130號","121.499448333333","24.9939183333333","6500300","中和區"
"235027","006-UY","2018/01/15 13:19:29","新北市中和區中正路637巷52弄1號","121.485498333333","24.993445","6500300","中和區"
"235003","097-UM","2018/01/15 13:19:13","新北市中和區中正路275號","121.495448333333","24.99376","6500300","中和區"
"235029","098-UM","2018/01/15 13:19:32","新北市中和區莊敬路49巷20弄22號","121.502763333333","25.0059233333333","6500300","中和區"
"235004","150-BY","2018/01/15 13:18:51","新北市中和區中正路51號","121.501855","24.9933016666667","6500300","中和區"
"235022","151-BY","2018/01/15 13:19:27","新北市中和區圓通路367巷19號","121.492506666667","24.98703","6500300","中和區"
"235019","183-VK","2018/01/15 13:19:29","新北市中和區員山路36巷16-3號","121.48509","24.991475","6500300","中和區"
"235002","185-VK","2018/01/15 13:19:19","新北市中和區秀朗路三段128巷12弄1號","121.524666666667","24.9927683333333","6500300","中和區"
"235031","255-BX","2018/01/15 13:19:27","新北市中和區新生街288號","121.483721666667","24.9965716666667","6500300","中和區"
"235036","301-VK","2018/01/15 13:19:23","新北市中和區錦和路103號","121.490166666667","24.9953716666667","6500300","中和區"
"235007","352-BY","2018/01/15 13:19:15","新北市中和區景平路377號","121.5041","24.9932783333333","6500300","中和區"
"235032","377-QA","2018/01/15 13:19:17","新北市中和區員山路36巷16-3號","121.485138333333","24.991095","6500300","中和區"
"235025","378-QA","2018/01/15 13:19:26","新北市中和區國光街215巷24弄13號","121.46675","25.00012","6500300","中和區"
"235014","4979-A6","2018/01/15 13:19:20","新北市中和區捷運路57號","121.509201666667","24.9894566666667","6500300","中和區"
"235033","4980-A6","2018/01/15 13:19:21","新北市中和區連城路127巷7號","121.496365","24.99883","6500300","中和區"
"235006","551-UM","2018/01/15 13:19:15","新北市中和區景平路161-1號","121.512685","24.9923933333333","6500300","中和區"
"235034","558-UM","2018/01/15 13:19:34","新北市中和區中正路192號","121.497528333333","24.9940433333333","6500300","中和區"
"235009","565-BX","2018/01/15 13:19:26","新北市中和區中興街118巷10號","121.499878333333","24.9932","6500300","中和區"
"235001","611-BX","2018/01/15 13:19:26","新北市中和區中正路395號","121.48914","24.9940966666667","6500300","中和區"
"235018","640-BX","2018/01/15 13:19:24","新北市中和區國光街112巷1弄5號","121.469498333333","25.0010733333333","6500300","中和區"
"235011","732-UM","2018/01/15 13:19:16","新北市中和區中興街116號","121.499965","24.993035","6500300","中和區"
"235026","800-TS","2018/01/15 13:19:29","新北市中和區景平路999巷1號","121.495431666667","25.0059933333333","6500300","中和區"
"235021","801-TS","2018/01/15 13:19:20","新北市中和區中正路637巷60弄61號","121.485513333333","24.993265","6500300","中和區"
"235016","805-TS","2018/01/15 13:19:30","新北市中和區錦和路350-1號","121.490478333333","24.993615","6500300","中和區"
"235012","896-TW","2018/01/15 13:19:26","新北市中和區員山路36巷16-2號","121.485006666667","24.9919733333333","6500300","中和區"
"235017","900-TW","2018/01/15 13:19:19","新北市中和區員山路36巷16-2號","121.485046666667","24.9919483333333","6500300","中和區"
"235015","157-BY","2018/01/15 13:19:24","新北市中和區信義街63號","121.511546666667","24.9882233333333","6500300","中和區"
"235001","AAC-213","2018/01/15 13:19:16","新北市中和區景德街31號","121.518666666667","24.991305","6500300","中和區"
"220013","072-UY","2018/01/15 13:19:28","新北市板橋區華東街1-9號","121.448181666667","24.99494","6500100","板橋區"
"235005","251-BX","2018/01/15 13:19:20","新北市中和區景安路68號","121.505841666667","24.99666","6500300","中和區"
"253004","4710-YM","2018/01/15 13:19:26","新北市石門區阿里荖1號","121.616811666667","25.2776983333333","6502200","石門區"
"253003","6232-TK","2018/01/15 13:19:18","新北市石門區內石門45-1號","121.572091666667","25.2652283333333","6502200","石門區"
"253001","6251-TK","2018/01/15 13:19:20","新北市石門區楓林17-2號","121.536028333333","25.2941283333333","6502200","石門區"
"253002","637-UY","2018/01/15 13:19:17","新北市石門區大溪墘11號","121.55463","25.27488","6502200","石門區"
"208004","AAC-292","2018/01/15 13:19:28","新北市金山區南勢湖75號","121.608386666667","25.21067","6502700","金山區"
"207002","749-BX","2018/01/15 13:19:30","新北市萬里區崁腳里崁腳路106-4號","121.646496666667","25.1590666666667","6502800","萬里區"
"252005","073-UM","2018/01/15 13:19:27","新北市三芝區八賢里八連溪35號","121.512348333333","25.2377","6502100","三芝區"
"207001","662-BX","2018/01/15 13:19:23","新北市萬里區龜吼里玉田路56-1號","121.680538333333","25.193075","6502800","萬里區"
"236005","498-BY","2018/01/15 13:19:19","新北市土城區大安路138巷9號","121.433918333333","24.9711766666667","6501300","土城區"
"242045","172-VK","2018/01/15 13:19:14","新北市新莊區中正路400號","121.44201","25.0343533333333","6500500","新莊區"
"221032","280-BY","2018/01/15 13:19:14","新北市汐止區龍安路44號","121.654236666667","25.0636583333333","6501100","汐止區"
"220028","200-UY","2018/01/15 13:19:27","新北市板橋區華東街1-9號","121.448146666667","24.9948516666667","6500100","板橋區"
