"lineid","car","time","location","longitude","latitude","cityid","cityname"
"234044","148-BY","2018/01/15 13:29:43","新北市永和區得和路423號","121.526241666667","24.999195","6500400","永和區"
"234005","207-UY","2018/01/15 13:29:46","新北市永和區中山路一段214號","121.508391666667","25.0084433333333","6500400","永和區"
"234078","298-R6","2018/01/15 13:29:39","新北市永和區環河東路三段48號","121.526595","25.0062616666667","6500400","永和區"
"234036","336-UY","2018/01/15 13:29:25","新北市永和區民樂街38號","121.527446666667","25.00072","6500400","永和區"
"234062","337-UY","2018/01/15 13:29:27","新北市永和區得和路243巷21號","121.520595","25.000895","6500400","永和區"
"234084","338-UY","2018/01/15 13:29:32","新北市永和區林森路46巷1號","121.525043333333","25.0047033333333","6500400","永和區"
"234052","553-UM","2018/01/15 13:29:29","新北市永和區復興街15號","121.516003333333","25.01301","6500400","永和區"
"234015","745-BX","2018/01/15 13:29:33","新北市永和區環河西路一段9號","121.514738333333","25.0180616666667","6500400","永和區"
"234028","746-BX","2018/01/15 13:29:40","新北市永和區民生路83號","121.52257","24.9968616666667","6500400","永和區"
"234040","838-RS","2018/01/15 13:29:45","新北市永和區永貞路304號","121.512045","25.0048733333333","6500400","永和區"
"234012","KEA-2591","2018/01/15 13:29:34","新北市永和區信義路40-1號","121.513941666667","25.0124166666667","6500400","永和區"
"234060","AAD-866","2018/01/15 13:29:39","新北市永和區中正路532號","121.517275","25.0051983333333","6500400","永和區"
"234068","847-RS","2018/01/15 13:29:43","新北市永和區竹林路175號","121.52064","25.0099016666667","6500400","永和區"
"234048","863-TW","2018/01/15 13:29:38","新北市永和區信義路113號","121.512331666667","25.0147466666667","6500400","永和區"
"234025","9371-KE","2018/01/15 13:29:32","新北市永和區中山路一段17巷4弄14號","121.513138333333","25.010205","6500400","永和區"
"234010","9373-KE","2018/01/15 13:29:42","新北市永和區信義路43巷22弄4號","121.512425","25.0122166666667","6500400","永和區"
"248013","025-BX","2018/01/15 13:29:31","新北市五股區成泰路一段106-1號","121.435733333333","25.07188","6501500","五股區"
"248015","026-BX","2018/01/15 13:29:41","新北市五股區凌雲路一段109巷28號","121.449675","25.1009","6501500","五股區"
"248005","077-UY","2018/01/15 13:29:32","新北市五股區四維路25號","121.467121666667","25.0706933333333","6501500","五股區"
"248007","095-VK","2018/01/15 13:29:46","新北市五股區四維路185巷42弄2號","121.463373333333","25.0770783333333","6501500","五股區"
"248019","225-UY","2018/01/15 13:29:39","新北市五股區天乙路114號","121.44725","25.11269","6501500","五股區"
"248011","247-BX","2018/01/15 13:29:46","新北市五股區御史路29號","121.442028333333","25.0914866666667","6501500","五股區"
"248009","272-BY","2018/01/15 13:29:39","新北市五股區明德路12巷22號","121.433108333333","25.0722166666667","6501500","五股區"
"248003","677-BX","2018/01/15 13:29:25","新北市五股區六合街3號","121.432033333333","25.0886066666667","6501500","五股區"
"248001","678-BX","2018/01/15 13:29:28","新北市五股區西雲路163號","121.446073333333","25.0944016666667","6501500","五股區"
"234022","9380-KE","2018/01/15 13:29:34","新北市永和區竹林路91巷43弄2號","121.521306666667","25.0128833333333","6500400","永和區"
"234076","969-R7","2018/01/15 13:29:36","新北市永和區智光街32巷1號","121.517738333333","24.9987","6500400","永和區"
"234072","AAC-211","2018/01/15 13:29:28","新北市永和區永和路二段96號","121.514978333333","25.0117483333333","6500400","永和區"
"234066","AAC-212","2018/01/15 13:29:30","新北市永和區保平路174巷1號","121.510361666667","25.0071316666667","6500400","永和區"
"234001","AAC-295","2018/01/15 13:29:41","新北市永和區保平路12號","121.512513333333","25.0076383333333","6500400","永和區"
"244001","248-BX","2018/01/15 13:29:32","新北市林口區瑞平里12鄰40-2號","121.337491666667","25.117825","6501700","林口區"
"243004","AAD-798","2018/01/15 13:29:40","新北市泰山區犁頭窠3-1號","121.42178","25.06044","6501600","泰山區"
"243005","646-TV","2018/01/15 13:29:29","新北市泰山區錢厝坑13號","121.414728333333","25.0416683333333","6501600","泰山區"
"231002","002-UM","2018/01/15 13:29:38","新北市新店區環河路29巷1號","121.536908333333","24.9613816666667","6500600","新店區"
"231025","0291-UT","2018/01/15 13:29:25","新北市新店區環河路120號","121.53663","24.96831","6500600","新店區"
"231037","0293-UT","2018/01/15 13:29:43","新北市新店區薏仁坑路28-3號","121.495526666667","24.963495","6500600","新店區"
"231028","046-UY","2018/01/15 13:29:27","新北市新店區安康路一段355號","121.519893333333","24.96363","6500600","新店區"
"231030","047-UY","2018/01/15 13:29:29","新北市新店區安康路二段1-5號","121.517281666667","24.9638016666667","6500600","新店區"
"231029","106-UY","2018/01/15 13:29:44","新北市新店區安豐路49號","121.499993333333","24.9540433333333","6500600","新店區"
"231018","107-UY","2018/01/15 13:29:34","新北市新店區中央路137號","121.5302","24.9735916666667","6500600","新店區"
"231011","108-UY","2018/01/15 13:29:38","新北市新店區德正街17巷2號","121.54368","24.9727566666667","6500600","新店區"
"231019","187-VK","2018/01/15 13:29:44","新北市新店區永興路17號","121.544393333333","24.93893","6500600","新店區"
"231014","KEA-2219","2018/01/15 13:29:31","新北市新店區北宜路一段187號","121.547066666667","24.9524316666667","6500600","新店區"
"231026","256-BX","2018/01/15 13:29:41","新北市新店區北新路一段2-16號","121.538396666667","24.9600183333333","6500600","新店區"
"231010","278-BY","2018/01/15 13:29:25","新北市新店區自由街15號","121.535445","24.97476","6500600","新店區"
"231023","AAD-862","2018/01/15 13:29:38","新北市新店區新店路27-1號","121.539978333333","24.952765","6500600","新店區"
"231027","3712-VJ","2018/01/15 13:29:38","新北市新店區新店後街72號","121.537633333333","24.9544133333333","6500600","新店區"
"231024","4716-K9","2018/01/15 13:29:24","新北市新店區北新路一段90號","121.541843333333","24.9685666666667","6500600","新店區"
"231038","4715-K9","2018/01/15 13:29:36","新北市新店區安華路30巷1號","121.51962","24.959295","6500600","新店區"
"231036","512-UM","2018/01/15 13:29:28","新北市新店區建業路96號","121.479773333333","24.955375","6500600","新店區"
"231035","515-UM","2018/01/15 13:29:40","新北市新店區安忠路9號","121.51478","24.9626733333333","6500600","新店區"
"231001","619-UM","2018/01/15 13:29:36","新北市新店區中央路183-3號","121.536411666667","24.9685833333333","6500600","新店區"
"231003","641-BX","2018/01/15 13:29:39","新北市新店區秀山路14號","121.532725","24.9603233333333","6500600","新店區"
"231034","645-TV","2018/01/15 13:29:38","新北市新店區車子路16號","121.505255","24.9535716666667","6500600","新店區"
"231013","719-UM","2018/01/15 13:29:43","新北市新店區中正路454-5號","121.53446","24.9790633333333","6500600","新店區"
"231031","720-UM","2018/01/15 13:29:38","新北市新店區車子路115-11號","121.508185","24.9545533333333","6500600","新店區"
"231005","897-TW","2018/01/15 13:29:25","新北市新店區北新路一段72號","121.541411666667","24.967215","6500600","新店區"
"231006","898-TW","2018/01/15 13:29:34","新北市新店區秀山路20號","121.532481666667","24.9604033333333","6500600","新店區"
"231004","899-TW","2018/01/15 13:29:41","新北市新店區安康路一段89號","121.529191666667","24.961525","6500600","新店區"
"235030","003-UY","2018/01/15 13:29:31","新北市中和區中山路二段110號","121.502885","25.0038733333333","6500300","中和區"
"235028","005-UY","2018/01/15 13:29:44","新北市中和區圓通路141巷37弄1號","121.498893333333","24.9949966666667","6500300","中和區"
"235027","006-UY","2018/01/15 13:29:29","新北市中和區連城路347巷3號","121.48835","24.9954766666667","6500300","中和區"
"235010","031-BX","2018/01/15 13:29:42","新北市中和區中正路501號","121.489073333333","24.9935683333333","6500300","中和區"
"235020","096-UM","2018/01/15 13:29:42","新北市中和區中山路二段586-2號","121.482336666667","25.0054233333333","6500300","中和區"
"235003","097-UM","2018/01/15 13:29:33","新北市中和區景平路155號","121.513633333333","24.99217","6500300","中和區"
"235029","098-UM","2018/01/15 13:29:32","新北市中和區莊敬路49巷20弄8號","121.502063333333","25.0060583333333","6500300","中和區"
"235004","150-BY","2018/01/15 13:29:31","新北市中和區保健路50巷66號","121.509275","24.995205","6500300","中和區"
"235022","151-BY","2018/01/15 13:29:47","新北市中和區圓通路369巷152號","121.487966666667","24.9816083333333","6500300","中和區"
"235019","183-VK","2018/01/15 13:29:29","新北市中和區民享街245號","121.472095","24.9962516666667","6500300","中和區"
"235002","185-VK","2018/01/15 13:29:40","新北市永和區民有街75巷10弄20號","121.519165","24.995885","6500300","中和區"
"235013","186-VK","2018/01/15 13:29:36","新北市中和區景安路142號","121.505033333333","24.993985","6500300","中和區"
"235031","255-BX","2018/01/15 13:29:28","新北市中和區新生街242巷11弄6號","121.482905","24.99762","6500300","中和區"
"235008","293-VK","2018/01/15 13:29:40","新北市中和區復興路301巷23號","121.501916666667","24.9897633333333","6500300","中和區"
"235036","301-VK","2018/01/15 13:29:43","新北市中和區連城路301號","121.489776666667","24.9961566666667","6500300","中和區"
"235007","352-BY","2018/01/15 13:29:35","新北市中和區景平路321號","121.506033333333","24.9932533333333","6500300","中和區"
"235032","377-QA","2018/01/15 13:29:37","新北市中和區圓通路250-1號","121.494435","24.99195","6500300","中和區"
"235025","378-QA","2018/01/15 13:29:46","新北市中和區民享街93號","121.47467","25.0006133333333","6500300","中和區"
"235014","4979-A6","2018/01/15 13:29:39","新北市中和區景新街410巷18弄18號","121.511891666667","24.9897533333333","6500300","中和區"
"235033","4980-A6","2018/01/15 13:29:45","新北市中和區連城路99巷51號","121.497213333333","24.9986466666667","6500300","中和區"
"235006","551-UM","2018/01/15 13:29:36","新北市中和區自立路64巷10號","121.523305","24.991155","6500300","中和區"
"235034","558-UM","2018/01/15 13:27:34","新北市中和區圓通路69號","121.500223333333","24.9968766666667","6500300","中和區"
"235009","565-BX","2018/01/15 13:29:46","新北市中和區復興路36號","121.504918333333","24.99014","6500300","中和區"
"235001","611-BX","2018/01/15 13:29:46","新北市中和區員山路36巷13號","121.484336666667","24.9906933333333","6500300","中和區"
"235018","640-BX","2018/01/15 13:29:44","新北市中和區民享街91-10號","121.474601666667","25.0008066666667","6500300","中和區"
"235024","647-TV","2018/01/15 13:29:41","新北市中和區員山路114號","121.481088333333","24.9956933333333","6500300","中和區"
"235011","732-UM","2018/01/15 13:29:36","新北市中和區南山路300號","121.507868333333","24.98715","6500300","中和區"
"235026","800-TS","2018/01/15 13:29:29","新北市中和區景平路726-2號","121.496693333333","25.0035366666667","6500300","中和區"
"235021","801-TS","2018/01/15 13:29:40","新北市中和區民安街178號","121.476525","24.9999","6500300","中和區"
"235016","805-TS","2018/01/15 13:29:30","新北市中和區興南路二段82號","121.505711666667","24.98456","6500300","中和區"
"235012","896-TW","2018/01/15 13:29:26","新北市中和區中正路525號","121.488021666667","24.99359","6500300","中和區"
"235017","900-TW","2018/01/15 13:29:39","新北市中和區莒光路211-39號","121.470206666667","24.99318","6500300","中和區"
"235015","157-BY","2018/01/15 13:29:44","新北市中和區興南路二段142巷19弄22號","121.502748333333","24.9836266666667","6500300","中和區"
"235001","AAC-213","2018/01/15 13:29:35","新北市中和區景德街95-8號","121.515248333333","24.9912566666667","6500300","中和區"
"235023","AAC-215","2018/01/15 13:29:42","新北市中和區員山路36巷16-3號","121.485108333333","24.9915233333333","6500300","中和區"
"220013","072-UY","2018/01/15 13:29:28","新北市板橋區南雅南路二段100號","121.453468333333","25.000985","6500100","板橋區"
"247007","341-TH","2018/01/15 13:29:38","新北市五股區工商路8號","121.440698333333","25.0826033333333","6501400","蘆洲區"
"235005","251-BX","2018/01/15 13:29:40","新北市永和區中和路443號","121.509708333333","25.0011733333333","6500300","中和區"
"253004","4710-YM","2018/01/15 13:29:26","新北市石門區竹子湖1號","121.615106666667","25.264315","6502200","石門區"
"253003","6232-TK","2018/01/15 13:29:38","新北市石門區內石門21-1號","121.571561666667","25.27354","6502200","石門區"
"253001","6251-TK","2018/01/15 13:29:40","新北市石門區金華新城6號","121.514298333333","25.2761716666667","6502200","石門區"
"253002","637-UY","2018/01/15 13:29:37","新北市石門區九芎林6-1號","121.56112","25.267025","6502200","石門區"
"208004","AAC-292","2018/01/15 13:29:28","新北市金山區南勢湖81號","121.61265","25.212665","6502700","金山區"
"207002","749-BX","2018/01/15 13:29:30","新北市萬里區崁腳里崁腳路166號","121.645105","25.1559033333333","6502800","萬里區"
"252005","073-UM","2018/01/15 13:29:47","新北市三芝區福德里土地公埔67-3號","121.519943333333","25.22781","6502100","三芝區"
"207001","662-BX","2018/01/15 13:29:43","新北市萬里區龜吼里玉田路42號","121.680238333333","25.18853","6502800","萬里區"
"236005","498-BY","2018/01/15 13:29:38","新北市土城區慶祥街124號","121.434858333333","24.9718833333333","6501300","土城區"
"242045","172-VK","2018/01/15 13:29:34","新北市板橋區大觀路三段6-1號","121.435225","24.99595","6500500","新莊區"
"221032","280-BY","2018/01/15 13:29:34","新北市汐止區水源路一段72號","121.656811666667","25.0653016666667","6501100","汐止區"
"220027","145-BY","2018/01/15 13:29:41","新北市板橋區華東街1-10號","121.448361666667","24.9951066666667","6500100","板橋區"
"220028","200-UY","2018/01/15 13:29:27","新北市板橋區華東街1-9號","121.448158333333","24.9948833333333","6500100","板橋區"
"220032","296-UM","2018/01/15 13:29:25","新北市板橋區華東街1-9號","121.448161666667","24.9949716666667","6500100","板橋區"
"220023","303-R5","2018/01/15 13:29:29","新北市板橋區華東街1-10號","121.448251666667","24.9949533333333","6500100","板橋區"
"220012","486-VK","2018/01/15 13:29:45","新北市板橋區南雅南路二段116號","121.452381666667","25.0005966666667","6500100","板橋區"
"220104","560-BX","2018/01/15 13:29:42","新北市板橋區北門街61號","121.456111666667","25.0118383333333","6500100","板橋區"
"220004","630-UY","2018/01/15 13:29:43","新北市板橋區華東街1-9號","121.448123333333","24.995005","6500100","板橋區"
"220025","687-BX","2018/01/15 13:29:42","新北市板橋區篤行路一段37號","121.431956666667","24.9938916666667","6500100","板橋區"
"220002","741-BX","2018/01/15 13:29:47","新北市板橋區華東街1-9號","121.44809","24.99492","6500100","板橋區"
"220003","827-TW","2018/01/15 13:29:30","新北市板橋區華東街1-9號","121.44816","24.9949316666667","6500100","板橋區"
"220022","895-R6","2018/01/15 13:29:43","新北市板橋區華東街1-10號","121.448221666667","24.9949916666667","6500100","板橋區"
"220021","985-R7","2018/01/15 13:29:32","新北市板橋區華東街1-10號","121.448391666667","24.994995","6500100","板橋區"
