"lineid","car","time","location","longitude","latitude","cityid","cityname"
"234005","207-UY","2018/01/15 14:29:46","新北市永和區中正路514號","121.517318333333","25.0047033333333","6500400","永和區"
"234078","298-R6","2018/01/15 14:29:39","新北市永和區永貞路70巷2號","121.520536666667","25.0053883333333","6500400","永和區"
"234036","336-UY","2018/01/15 14:29:25","新北市永和區民樂街31巷17弄6號","121.528453333333","25.0018966666667","6500400","永和區"
"234062","337-UY","2018/01/15 14:29:47","新北市永和區中正路417號","121.517133333333","25.0048066666667","6500400","永和區"
"234084","338-UY","2018/01/15 14:29:48","新北市永和區永和路二段324號","121.516208333333","25.0164116666667","6500400","永和區"
"234052","553-UM","2018/01/15 14:29:49","新北市永和區環河東路一段42號","121.518933333333","25.0170266666667","6500400","永和區"
"234028","746-BX","2018/01/15 14:29:40","新北市永和區民權路51號","121.519916666667","24.997095","6500400","永和區"
"234040","838-RS","2018/01/15 14:29:45","新北市永和區安樂路453號","121.51436","25.00503","6500400","永和區"
"234060","AAD-866","2018/01/15 14:29:38","新北市永和區秀朗路一段175號","121.517033333333","25.0036733333333","6500400","永和區"
"234068","847-RS","2018/01/15 14:29:43","新北市永和區永亨路9號","121.519421666667","25.0057683333333","6500400","永和區"
"234048","863-TW","2018/01/15 14:29:38","新北市永和區新生路22號","121.508866666667","25.016405","6500400","永和區"
"234025","9371-KE","2018/01/15 14:29:32","新北市永和區安樂路66號","121.514891666667","24.99819","6500400","永和區"
"248013","025-BX","2018/01/15 14:29:41","新北市五股區民義路一段157-10號","121.432195","25.0873166666667","6501500","五股區"
"248015","026-BX","2018/01/15 14:29:33","新北市五股區成泰路四段26號","121.454955","25.1082716666667","6501500","五股區"
"248007","095-VK","2018/01/15 14:29:47","新北市五股區中興路一段105號","121.466385","25.0731516666667","6501500","五股區"
"248019","225-UY","2018/01/15 14:15:22","新北市五股區凌雲路三段57號","121.425303333333","25.1250333333333","6501500","五股區"
"248011","247-BX","2018/01/15 14:29:39","新北市五股區蓬萊路24號","121.43389","25.07995","6501500","五股區"
"248009","272-BY","2018/01/15 14:29:39","新北市五股區水碓一路23號","121.430586666667","25.0712933333333","6501500","五股區"
"248003","677-BX","2018/01/15 14:29:45","新北市五股區五福路7-1號","121.434275","25.0882","6501500","五股區"
"248001","678-BX","2018/01/15 14:29:48","新北市五股區成泰路三段487號","121.450748333333","25.0992933333333","6501500","五股區"
"234072","AAC-211","2018/01/15 14:29:49","新北市永和區竹林路39巷33弄1號","121.519871666667","25.0152","6500400","永和區"
"234066","AAC-212","2018/01/15 14:29:30","新北市永和區保平路268巷11號","121.508351666667","25.0055","6500400","永和區"
"234001","AAC-295","2018/01/15 14:29:41","新北市永和區永和路一段125號","121.513996666667","25.0082266666667","6500400","永和區"
"244001","248-BX","2018/01/15 14:26:52","新北市林口區寶斗厝坑83號","121.332631666667","25.1202166666667","6501700","林口區"
"243004","AAD-798","2018/01/15 14:29:42","新北市泰山區全興路18巷1號","121.43202","25.0587833333333","6501600","泰山區"
"243003","297-R6","2018/01/15 14:29:29","新北市泰山區貴子路65號","121.430423333333","25.0397683333333","6501600","泰山區"
"243007","380-SR","2018/01/15 14:29:43","新北市泰山區民權街57號","121.42894","25.0502883333333","6501600","泰山區"
"243006","421-VK","2018/01/15 14:29:38","新北市泰山區中港西路422號","121.43377","25.05393","6501600","泰山區"
"243002","KEA-2215","2018/01/15 14:29:31","新北市泰山區中華街10巷1號","121.427925","25.0525133333333","6501600","泰山區"
"243001","KEA-2216","2018/01/15 14:29:29","新北市泰山區美寧街58號","121.430756666667","25.0646833333333","6501600","泰山區"
"243005","646-TV","2018/01/15 14:29:29","新北市泰山區貴子路9巷6-1號","121.425478333333","25.042255","6501600","泰山區"
"243008","680-BX","2018/01/15 14:29:48","新北市泰山區明志路三段339號","121.422113333333","25.0354083333333","6501600","泰山區"
"231002","002-UM","2018/01/15 14:29:38","新北市新店區中央路119號","121.53076","24.9743416666667","6500600","新店區"
"231025","0291-UT","2018/01/15 14:29:45","新北市新店區民族路161號","121.537673333333","24.97671","6500600","新店區"
"231037","0293-UT","2018/01/15 14:29:43","新北市新店區安康路二段318-1號","121.50474","24.9582483333333","6500600","新店區"
"231028","046-UY","2018/01/15 14:29:47","新北市新店區安康路二段147號","121.511225","24.959955","6500600","新店區"
"231030","047-UY","2018/01/15 14:29:49","新北市新店區安民街65巷6號","121.516101666667","24.96682","6500600","新店區"
"231029","106-UY","2018/01/15 14:29:44","新北市新店區安康路二段416號","121.496461666667","24.9551866666667","6500600","新店區"
"231018","107-UY","2018/01/15 14:29:34","新北市新店區中央二街73-1號","121.526128333333","24.97496","6500600","新店區"
"231011","108-UY","2018/01/15 14:29:38","新北市新店區中興路二段196號","121.548355","24.9738416666667","6500600","新店區"
"231019","187-VK","2018/01/15 14:28:24","新北市新店區桂山路73-1號","121.566415","24.9008166666667","6500600","新店區"
"231014","KEA-2219","2018/01/15 14:29:31","新北市新店區北宜路三段168號","121.586248333333","24.9516233333333","6500600","新店區"
"231023","AAD-862","2018/01/15 14:29:37","新北市新店區光明街174號","121.539575","24.9620466666667","6500600","新店區"
"231027","3712-VJ","2018/01/15 14:29:38","新北市新店區寶橋路85巷35號","121.545191666667","24.976205","6500600","新店區"
"231038","4715-K9","2018/01/15 14:29:36","新北市新店區溪洲路160號","121.530303333333","24.964655","6500600","新店區"
"231036","512-UM","2018/01/15 14:29:48","新北市新店區安祥路109巷126號","121.476413333333","24.9579633333333","6500600","新店區"
"231035","515-UM","2018/01/15 14:29:40","新北市新店區安民街3巷1號","121.514633333333","24.9642383333333","6500600","新店區"
"231001","619-UM","2018/01/15 14:29:36","新北市新店區中正路75巷71號","121.54309","24.96882","6500600","新店區"
"231003","641-BX","2018/01/15 14:29:39","新北市新店區中興路一段269號","121.54507","24.9679883333333","6500600","新店區"
"231034","645-TV","2018/01/15 14:29:38","新北市新店區黎明路55巷1號","121.502386666667","24.9483816666667","6500600","新店區"
"231013","719-UM","2018/01/15 14:29:43","新北市新店區民權路88-5號","121.536273333333","24.983485","6500600","新店區"
"231005","897-TW","2018/01/15 14:29:45","新北市新店區寶強路6號","121.54314","24.9786816666667","6500600","新店區"
"231006","898-TW","2018/01/15 14:29:33","新北市新店區北宜路二段419-2號","121.560271666667","24.954455","6500600","新店區"
"231004","899-TW","2018/01/15 14:29:41","新北市新店區中正路263-2號","121.538443333333","24.973845","6500600","新店區"
"235030","003-UY","2018/01/15 14:29:51","新北市中和區景新街45號","121.504178333333","24.999005","6500300","中和區"
"235028","005-UY","2018/01/15 14:29:44","新北市中和區中和路2號","121.49933","25.00236","6500300","中和區"
"235027","006-UY","2018/01/15 14:29:49","新北市中和區連城路203巷10弄21號","121.495145","24.9967333333333","6500300","中和區"
"235010","031-BX","2018/01/15 14:29:42","新北市中和區興南路一段105巷20弄35號","121.510595","24.9848533333333","6500300","中和區"
"235020","096-UM","2018/01/15 14:29:42","新北市中和區員山路514巷1號","121.47933","25.0096366666667","6500300","中和區"
"235003","097-UM","2018/01/15 14:29:33","新北市中和區秀峰街103巷7弄4號","121.519468333333","24.989","6500300","中和區"
"235029","098-UM","2018/01/15 14:29:32","新北市中和區中山路二段2巷45弄7號","121.502105","25.0065916666667","6500300","中和區"
"235004","150-BY","2018/01/15 14:29:31","新北市中和區安樂路75號","121.512663333333","24.9941416666667","6500300","中和區"
"235022","151-BY","2018/01/15 14:29:47","新北市中和區連城路503號","121.482575","24.9954616666667","6500300","中和區"
"235019","183-VK","2018/01/15 14:29:29","新北市中和區德光路27巷9號","121.470986666667","25.0035916666667","6500300","中和區"
"235002","185-VK","2018/01/15 14:29:39","新北市中和區自立路115號","121.521933333333","24.99448","6500300","中和區"
"235013","186-VK","2018/01/15 14:29:36","新北市中和區景新街295巷2-2號","121.510678333333","24.9933033333333","6500300","中和區"
"235031","255-BX","2018/01/15 14:29:47","新北市中和區連城路302號","121.483885","24.996255","6500300","中和區"
"235008","293-VK","2018/01/15 14:29:40","新北市中和區捷運路102號","121.505791666667","24.9914366666667","6500300","中和區"
"235036","301-VK","2018/01/15 14:29:43","新北市中和區連城路45號","121.498251666667","25.001715","6500300","中和區"
"235007","352-BY","2018/01/15 14:29:35","新北市中和區景平路372號","121.510828333333","24.9928616666667","6500300","中和區"
"235032","377-QA","2018/01/15 14:29:37","新北市中和區圓通路40號","121.501","24.9978416666667","6500300","中和區"
"235025","378-QA","2018/01/15 14:29:46","新北市中和區連城路426號","121.48012","24.994925","6500300","中和區"
"235014","4979-A6","2018/01/15 14:29:39","新北市中和區中正路571巷1弄4號","121.486778333333","24.9938083333333","6500300","中和區"
"235033","4980-A6","2018/01/15 14:29:41","新北市中和區連城路134巷18號","121.495291666667","25.000095","6500300","中和區"
"235006","551-UM","2018/01/15 14:29:36","新北市中和區中安街202-1號","121.511898333333","24.9989783333333","6500300","中和區"
"235034","558-UM","2018/01/15 14:29:14","新北市中和區中和路84號","121.500898333333","25.000305","6500300","中和區"
"235009","565-BX","2018/01/15 14:29:46","新北市中和區景新街399巷11號","121.513028333333","24.989915","6500300","中和區"
"235018","640-BX","2018/01/15 14:29:43","新北市中和區國光街112巷11弄1號","121.469648333333","25.0015983333333","6500300","中和區"
"235024","647-TV","2018/01/15 14:29:41","新北市中和區新生街114巷1號","121.48343","25.00231","6500300","中和區"
"235011","732-UM","2018/01/15 14:29:36","新北市中和區景平路259巷20號","121.507658333333","24.9927016666667","6500300","中和區"
"235026","800-TS","2018/01/15 14:29:49","新北市中和區中山路二段488-1號","121.487451666667","25.0049083333333","6500300","中和區"
"235021","801-TS","2018/01/15 14:29:40","新北市中和區中山路三段33號","121.478975","25.0058566666667","6500300","中和區"
"235016","805-TS","2018/01/15 14:29:30","新北市中和區華新街143巷63弄1-1號","121.50647","24.9793766666667","6500300","中和區"
"235012","896-TW","2018/01/15 14:29:46","新北市中和區忠孝街28號","121.510571666667","24.9830616666667","6500300","中和區"
"235017","900-TW","2018/01/15 14:29:38","新北市中和區華順街2巷6號","121.467555","24.9988933333333","6500300","中和區"
"235015","157-BY","2018/01/15 14:29:44","新北市中和區景平路239巷53弄6號","121.508898333333","24.99195","6500300","中和區"
"235001","AAC-213","2018/01/15 14:29:35","新北市中和區秀朗路三段10巷14弄2號","121.525391666667","24.9965083333333","6500300","中和區"
"235023","AAC-215","2018/01/15 14:29:42","新北市中和區圓通路252巷2-5號","121.493445","24.9914933333333","6500300","中和區"
"220034","015-TV","2018/01/15 14:29:47","新北市板橋區中正路216巷68號","121.457796666667","25.0189466666667","6500100","板橋區"
"220013","072-UY","2018/01/15 14:29:49","新北市板橋區實踐路93巷75號","121.467233333333","25.00527","6500100","板橋區"
"220105","075-UY","2018/01/15 14:29:45","新北市板橋區長江路三段58號","121.473583333333","25.0339716666667","6500100","板橋區"
"220017","AAD-861","2018/01/15 14:29:41","新北市板橋區貴興路39號","121.457518333333","25.00371","6500100","板橋區"
"220045","120-SR","2018/01/15 14:29:44","新北市板橋區大同街5巷3號","121.476766666667","25.0270883333333","6500100","板橋區"
"247021","893-R6","2018/01/15 14:29:41","新北市蘆洲區水湳街70號","121.470501666667","25.089845","6501400","蘆洲區"
"247011","546-UM","2018/01/15 14:29:43","新北市蘆洲區復興路85號","121.47643","25.0873933333333","6501400","蘆洲區"
"247019","500-BY","2018/01/15 14:29:40","新北市蘆洲區水湳街285號","121.469475","25.0931216666667","6501400","蘆洲區"
"247007","341-TH","2018/01/15 14:29:38","新北市蘆洲區民生街43號","121.475125","25.07891","6501400","蘆洲區"
"247009","339-TH","2018/01/15 14:29:46","新北市蘆洲區鷺江街28號","121.477985","25.0824566666667","6501400","蘆洲區"
"247003","336-TH","2018/01/15 14:29:35","新北市蘆洲區中原路81號","121.458141666667","25.0818283333333","6501400","蘆洲區"
"247015","057-VK","2018/01/15 14:29:47","新北市蘆洲區中正路185巷23弄12號","121.467233333333","25.0842816666667","6501400","蘆洲區"
"247005","056-VK","2018/01/15 14:29:42","新北市蘆洲區長安街70號","121.462705","25.080075","6501400","蘆洲區"
"247001","053-VK","2018/01/15 14:29:42","新北市蘆洲區永樂街38巷33弄46號","121.45686","25.0898633333333","6501400","蘆洲區"
"247013","007-UY","2018/01/15 14:29:39","新北市蘆洲區中山二路225號","121.470326666667","25.080195","6501400","蘆洲區"
"247023","002-UY","2018/01/15 14:29:51","新北市蘆洲區中正路263巷2號","121.467278333333","25.08741","6501400","蘆洲區"
"247017","001-UY","2018/01/15 14:29:33","新北市蘆洲區復興路218號","121.479031666667","25.0892716666667","6501400","蘆洲區"
"235005","251-BX","2018/01/15 14:29:40","新北市中和區中安街226號","121.512208333333","24.9986683333333","6500300","中和區"
"253004","4710-YM","2018/01/15 14:28:06","新北市石門區內阿里磅53-2號","121.579955","25.24676","6502200","石門區"
"253003","6232-TK","2018/01/15 14:29:22","新北市石門區尖子鹿19-2號","121.576181666667","25.2772333333333","6502200","石門區"
"253001","6251-TK","2018/01/15 14:29:40","新北市石門區八甲12-2號","121.522401666667","25.2818883333333","6502200","石門區"
"253002","637-UY","2018/01/15 14:29:37","新北市石門區七股20-3號","121.550266666667","25.2702933333333","6502200","石門區"
"208004","AAC-292","2018/01/15 14:29:48","新北市金山區六股里下六股65號","121.614436666667","25.22363","6502700","金山區"
"207002","749-BX","2018/01/15 14:29:30","新北市萬里區溪底里富士坪路27-1號","121.61932","25.1520966666667","6502800","萬里區"
"252005","073-UM","2018/01/15 14:29:47","新北市三芝區橫山里大坑34號","121.526805","25.25567","6502100","三芝區"
"207001","662-BX","2018/01/15 14:29:43","新北市萬里區磺潭里清水13號","121.639188333333","25.1991583333333","6502800","萬里區"
"236064","105-UM","2018/01/15 14:29:44","新北市土城區永豐路255巷21弄2-1號","121.475095","24.9737683333333","6501300","土城區"
"236040","107-UM","2018/01/15 14:29:42","新北市土城區裕民路67巷18號","121.449926666667","24.9882966666667","6501300","土城區"
"236028","253-BX","2018/01/15 14:29:40","新北市土城區水源街54號","121.440331666667","24.9761016666667","6501300","土城區"
"236024","269-VK","2018/01/15 14:18:09","新北市土城區承天路28-1號","121.43968","24.9631266666667","6501300","土城區"
"236012","270-VK","2018/01/15 14:29:31","新北市土城區青雲路39巷7號","121.46037","24.9875616666667","6501300","土城區"
"236032","271-VK","2018/01/15 14:29:43","新北市土城區青雲路451巷13號","121.459493333333","24.9747716666667","6501300","土城區"
"236016","401-BY","2018/01/15 14:29:37","新北市土城區永豐路202巷7號","121.466278333333","24.98325","6501300","土城區"
"236005","498-BY","2018/01/15 14:29:38","新北市土城區日新街33巷8號","121.44256","24.9874583333333","6501300","土城區"
"236056","912-UM","2018/01/15 14:29:43","新北市土城區中央路四段145號","121.415625","24.957155","6501300","土城區"
"236044","913-UM","2018/01/15 14:29:50","新北市土城區青雲路457號","121.458678333333","24.9744833333333","6501300","土城區"
"236060","915-UM","2018/01/15 14:29:33","新北市土城區延壽路109巷25號","121.468316666667","24.9934116666667","6501300","土城區"
"236052","AAC-216","2018/01/15 14:29:46","新北市土城區中華路二段1號","121.439625","24.97899","6501300","土城區"
"220027","145-BY","2018/01/15 14:29:42","新北市板橋區民權路202巷24號","121.4607","25.0169833333333","6500100","板橋區"
"220028","200-UY","2018/01/15 14:29:47","新北市板橋區大觀路二段37巷140號","121.449273333333","25.0015716666667","6500100","板橋區"
"220030","610-BX","2018/01/15 14:29:45","新北市板橋區金門街356號","121.427593333333","24.98413","6500100","板橋區"
"220050","245-BX","2018/01/15 14:29:44","新北市板橋區雙十路二段39-1號","121.476778333333","25.0259833333333","6500100","板橋區"
"220047","257-TC","2018/01/15 14:29:41","新北市板橋區民生路三段281巷2弄6號","121.46359","25.0300966666667","6500100","板橋區"
"220020","277-BY","2018/01/15 14:29:46","新北市板橋區篤行路二段161巷19號","121.430111666667","24.9874366666667","6500100","板橋區"
"220043","283-UM","2018/01/15 14:29:47","新北市板橋區松江街124巷7號","121.469545","25.0302833333333","6500100","板橋區"
"220019","283-VK","2018/01/15 14:29:41","新北市板橋區四川路一段281號","121.45938","25.0017633333333","6500100","板橋區"
"220001","285-VK","2018/01/15 14:29:37","新北市板橋區富山街102號","121.47626","25.021955","6500100","板橋區"
"220031","286-VK","2018/01/15 14:29:38","新北市板橋區龍興街71巷32號","121.442441666667","25.0024783333333","6500100","板橋區"
"220029","287-VK","2018/01/15 14:29:31","新北市板橋區南雅西路一段7巷5號","121.454408333333","25.0040066666667","6500100","板橋區"
"220039","288-VK","2018/01/15 14:29:40","新北市板橋區長江路一段106巷18弄7號","121.460011666667","25.0284783333333","6500100","板橋區"
"220009","293-UM","2018/01/15 14:29:49","新北市板橋區中山路一段273號","121.469005","25.013595","6500100","板橋區"
"220032","296-UM","2018/01/15 14:29:45","新北市板橋區篤行路三段玉平巷70號","121.428176666667","24.9859216666667","6500100","板橋區"
"220023","303-R5","2018/01/15 14:29:29","新北市板橋區南雅西路一段10巷7弄2號","121.454583333333","25.0047133333333","6500100","板橋區"
"220010","305-R5","2018/01/15 14:29:36","新北市板橋區三民路二段181巷5號","121.479848333333","25.0144116666667","6500100","板橋區"
"220041","307-R5","2018/01/15 14:29:40","新北市板橋區光武街6號","121.468065","25.0250333333333","6500100","板橋區"
"220012","486-VK","2018/01/15 14:29:45","新北市板橋區中山路一段88號","121.461985","25.0101083333333","6500100","板橋區"
"220038","487-VK","2018/01/15 14:27:11","新北市板橋區文化路一段110號","121.464761666667","25.0183833333333","6500100","板橋區"
"220037","491-VK","2018/01/15 14:29:43","新北市板橋區雙十路二段37-1號","121.476838333333","25.0259616666667","6500100","板橋區"
"220104","560-BX","2018/01/15 14:29:43","新北市板橋區中正路377號","121.454365","25.0212416666667","6500100","板橋區"
"220052","561-BX","2018/01/15 14:29:50","新北市板橋區文化路一段212巷2弄1號","121.466566666667","25.0200433333333","6500100","板橋區"
"220011","609-BX","2018/01/15 14:29:47","新北市板橋區三民路二段204號","121.478845","25.0122666666667","6500100","板橋區"
"220004","630-UY","2018/01/15 14:29:43","新北市板橋區干城路141號","121.459845","24.9931616666667","6500100","板橋區"
"220040","637-BX","2018/01/15 14:29:42","新北市板橋區文聖街72-5號","121.477191666667","25.03045","6500100","板橋區"
"220005","686-BX","2018/01/15 14:29:43","新北市中和區壽德街26-1號","121.466561666667","24.994435","6500100","板橋區"
"220025","687-BX","2018/01/15 14:29:46","新北市板橋區大觀路一段31號","121.449958333333","25.0085066666667","6500100","板橋區"
"220042","689-BX","2018/01/15 14:29:44","新北市板橋區雨農路27巷2號","121.461285","25.0241783333333","6500100","板橋區"
"220002","741-BX","2018/01/15 14:29:47","新北市板橋區光明街4號","121.459993333333","25.0024733333333","6500100","板橋區"
"220003","827-TW","2018/01/15 14:29:30","新北市板橋區重慶路290巷22弄3號","121.462263333333","24.99912","6500100","板橋區"
"220014","829-TW","2018/01/15 14:29:47","新北市板橋區漢生東路339號","121.472213333333","25.0073016666667","6500100","板橋區"
"220051","830-TW","2018/01/15 14:29:34","新北市板橋區松柏街22巷36號","121.475031666667","25.0289266666667","6500100","板橋區"
"220022","895-R6","2018/01/15 14:29:43","新北市板橋區館前西路145號","121.45628","25.007935","6500100","板橋區"
"220021","985-R7","2018/01/15 14:29:32","新北市板橋區新生街92號","121.458201666667","25.02178","6500100","板橋區"
"220046","AAC-210","2018/01/15 14:29:33","新北市板橋區陽明街29巷1弄42號","121.463143333333","25.0225","6500100","板橋區"
"220018","AAC-253","2018/01/15 14:29:51","新北市板橋區四川路一段159號","121.459991666667","25.0040133333333","6500100","板橋區"
