"lineid","car","time","location","longitude","latitude","cityid","cityname"
"234028","746-BX","2018/01/15 15:09:40","新北市八里區商港路123號","121.389016666667","25.1504683333333","6500400","永和區"
"234025","9371-KE","2018/01/15 15:09:32","新北市永和區福和路1號","121.525546666667","25.0093566666667","6500400","永和區"
"248007","095-VK","2018/01/15 15:09:39","新北市五股區中興路一段1巷12弄5號","121.46934","25.07125","6501500","五股區"
"248003","677-BX","2018/01/15 15:09:38","新北市五股區成泰路一段76號","121.435661666667","25.070225","6501500","五股區"
"244001","248-BX","2018/01/15 15:09:32","新北市林口區竹林路265號","121.389616666667","25.0807583333333","6501700","林口區"
"243004","AAD-798","2018/01/15 15:09:40","新北市泰山區忠孝街19巷1弄2號","121.427558333333","25.0657083333333","6501600","泰山區"
"243003","297-R6","2018/01/15 15:09:29","新北市泰山區台麗街26號","121.426928333333","25.036715","6501600","泰山區"
"243006","421-VK","2018/01/15 15:09:38","新北市泰山區橫窠雅30-1號","121.408275","25.0722816666667","6501600","泰山區"
"243001","KEA-2216","2018/01/15 15:09:29","新北市泰山區泰林路二段542巷3弄1號","121.42328","25.0642","6501600","泰山區"
"243008","680-BX","2018/01/15 15:09:28","新北市泰山區新生路22巷1號","121.428673333333","25.04479","6501600","泰山區"
"231002","002-UM","2018/01/15 15:09:38","新北市新店區中正路501-4號","121.53363","24.9837833333333","6500600","新店區"
"231025","0291-UT","2018/01/15 15:09:25","新北市新店區二十張路33巷2弄2號","121.538393333333","24.9815433333333","6500600","新店區"
"231037","0293-UT","2018/01/15 15:09:22","新北市新店區安興路56號","121.5165","24.9749883333333","6500600","新店區"
"231028","046-UY","2018/01/15 15:09:40","新北市新店區僑信路132巷25號","121.500011666667","24.9454533333333","6500600","新店區"
"231030","047-UY","2018/01/15 15:09:29","新北市新店區安民街339號","121.516898333333","24.97484","6500600","新店區"
"231029","106-UY","2018/01/15 15:09:24","新北市新店區安康路三段740號","121.473766666667","24.942015","6500600","新店區"
"231018","107-UY","2018/01/15 15:09:34","新北市新店區中央六街68號","121.527433333333","24.976155","6500600","新店區"
"231011","108-UY","2018/01/15 15:09:38","新北市新店區寶元路一段65號","121.542141666667","24.9858066666667","6500600","新店區"
"231019","187-VK","2018/01/15 15:09:24","新北市新店區永福路90號","121.561278333333","24.928595","6500600","新店區"
"231014","KEA-2219","2018/01/15 15:08:51","新北市新店區明山路45號","121.563928333333","24.9558633333333","6500600","新店區"
"231026","256-BX","2018/01/15 15:09:32","新北市新店區建興街5號","121.540148333333","24.9764616666667","6500600","新店區"
"231023","AAD-862","2018/01/15 15:09:37","新北市新店區檳榔路150號","121.54438","24.9615","6500600","新店區"
"231024","4716-K9","2018/01/15 15:09:24","新北市新店區中華路42巷32號","121.541088333333","24.9691066666667","6500600","新店區"
"231036","512-UM","2018/01/15 15:09:28","新北市新店區安祥路102巷146號","121.486833333333","24.964545","6500600","新店區"
"231035","515-UM","2018/01/15 15:09:40","新北市新店區安和路三段167號","121.51609","24.985945","6500600","新店區"
"231001","619-UM","2018/01/15 15:09:36","新北市新店區中正路190號","121.540731666667","24.97245","6500600","新店區"
"231003","641-BX","2018/01/15 15:09:19","新北市新店區寶橋路214號","121.551065","24.9785266666667","6500600","新店區"
"231034","645-TV","2018/01/15 15:09:38","新北市新店區玫瑰路4-1號","121.493576666667","24.9514083333333","6500600","新店區"
"231039","718-UY","2018/01/15 15:09:29","新北市新店區民權路8號","121.542438333333","24.9829016666667","6500600","新店區"
"231031","720-UM","2018/01/15 15:09:38","新北市新店區安泰路93-4號","121.486281666667","24.94433","6500600","新店區"
"231005","897-TW","2018/01/15 15:09:25","新北市新店區順安街74號","121.541023333333","24.9866933333333","6500600","新店區"
"231006","898-TW","2018/01/15 15:09:33","新北市新店區新坡一街18巷5弄8-1號","121.550738333333","24.961855","6500600","新店區"
"231004","899-TW","2018/01/15 15:09:21","新北市新店區建國路40號","121.540538333333","24.974825","6500600","新店區"
"235030","003-UY","2018/01/15 15:09:30","新北市中和區水源路127巷1號","121.508073333333","25.0033283333333","6500300","中和區"
"235020","096-UM","2018/01/15 15:09:22","新北市中和區中正路899號","121.48411","25.0050033333333","6500300","中和區"
"235003","097-UM","2018/01/15 15:09:33","新北市中和區安樂路217巷27號","121.51366","24.9982033333333","6500300","中和區"
"235029","098-UM","2018/01/15 15:09:31","新北市中和區永和路122-1號","121.496561666667","25.0065583333333","6500300","中和區"
"235004","150-BY","2018/01/15 15:09:31","新北市中和區保健路31號","121.508655","24.9977816666667","6500300","中和區"
"235007","352-BY","2018/01/15 15:09:35","新北市中和區興南路二段159巷4號","121.505105","24.98334","6500300","中和區"
"235032","377-QA","2018/01/15 15:09:37","新北市中和區勝利路35巷1弄36號","121.500355","25.0079466666667","6500300","中和區"
"235025","378-QA","2018/01/15 15:09:22","新北市中和區員山路174巷24號","121.481853333333","24.9995116666667","6500300","中和區"
"235014","4979-A6","2018/01/15 15:09:36","新北市中和區景新街300號","121.511275","24.9920416666667","6500300","中和區"
"235033","4980-A6","2018/01/15 15:09:41","新北市中和區景新街34巷6號","121.503051666667","24.9991616666667","6500300","中和區"
"235034","558-UM","2018/01/15 15:09:34","新北市中和區圓通路189號","121.497425","24.994645","6500300","中和區"
"235018","640-BX","2018/01/15 15:09:23","新北市中和區民享街34號","121.473895","25.00311","6500300","中和區"
"235012","896-TW","2018/01/15 15:09:25","新北市中和區興南路一段159號","121.508573333333","24.9870283333333","6500300","中和區"
"235015","157-BY","2018/01/15 15:09:24","新北市中和區復興路279-1號","121.502251666667","24.990285","6500300","中和區"
"235001","AAC-213","2018/01/15 15:09:35","新北市中和區自立路193號","121.52417","24.9913116666667","6500300","中和區"
"235023","AAC-215","2018/01/15 15:09:22","新北市中和區圓通路335巷13號","121.49349","24.98951","6500300","中和區"
"220034","015-TV","2018/01/15 15:09:27","新北市板橋區南雅西路二段16號","121.453175","25.00929","6500100","板橋區"
"220105","075-UY","2018/01/15 15:09:30","新北市板橋區文化路二段548巷8弄15號","121.476206666667","25.0331016666667","6500100","板橋區"
"220017","AAD-861","2018/01/15 15:09:40","新北市板橋區大明街27號","121.458355","25.0025716666667","6500100","板橋區"
"220045","120-SR","2018/01/15 15:09:24","新北市板橋區莒光路79巷13-3號","121.471988333333","25.0247083333333","6500100","板橋區"
"253004","4710-YM","2018/01/15 15:09:26","新北市石門區小坑28-2號","121.595675","25.278585","6502200","石門區"
"253003","6232-TK","2018/01/15 15:09:37","新北市石門區小坑9號","121.594383333333","25.28844","6502200","石門區"
"253001","6251-TK","2018/01/15 15:09:40","新北市石門區崁子腳30-1號","121.536166666667","25.2876416666667","6502200","石門區"
"253002","637-UY","2018/01/15 15:09:05","新北市石門區楓林53-2號","121.539728333333","25.2766633333333","6502200","石門區"
"208004","AAC-292","2018/01/15 15:09:28","新北市金山區兩湖里倒照湖21-1號","121.594245","25.2390516666667","6502700","金山區"
"207002","749-BX","2018/01/15 15:09:30","新北市萬里區崁腳里內中福路87號","121.655798333333","25.165975","6502800","萬里區"
"207001","662-BX","2018/01/15 15:09:23","新北市萬里區雙興里豐稟路6-3號","121.650573333333","25.18446","6502800","萬里區"
"236064","105-UM","2018/01/15 15:09:24","新北市土城區學成路147號","121.448743333333","24.9895416666667","6501300","土城區"
"236040","107-UM","2018/01/15 15:09:29","新北市土城區裕民路254號","121.454441666667","24.9828816666667","6501300","土城區"
"236028","253-BX","2018/01/15 15:09:20","新北市土城區中央路二段48-3號","121.442603333333","24.9795583333333","6501300","土城區"
"236024","269-VK","2018/01/15 15:09:34","新北市土城區中正路67巷24號","121.444396666667","24.976415","6501300","土城區"
"236012","270-VK","2018/01/15 15:09:39","新北市土城區學府路一段75巷16弄16號","121.456655","24.987205","6501300","土城區"
"236032","271-VK","2018/01/15 15:09:24","新北市土城區仁愛路54巷2-4號","121.462361666667","24.978775","6501300","土城區"
"236016","401-BY","2018/01/15 15:09:37","新北市土城區延峰街36巷2號","121.469643333333","24.9847283333333","6501300","土城區"
"236056","912-UM","2018/01/15 15:09:23","新北市土城區清水路1號","121.45276","24.980345","6501300","土城區"
"236044","913-UM","2018/01/15 15:09:29","新北市土城區清水路24號","121.454571666667","24.98022","6501300","土城區"
"236052","AAC-216","2018/01/15 15:09:26","新北市土城區學府路一段165號","121.453006666667","24.9856816666667","6501300","土城區"
"238002","755-BX","2018/01/15 15:09:26","新北市樹林區八德街1172號","121.390273333333","24.9684266666667","6500700","樹林區"
"238010","601-UM","2018/01/15 15:09:22","新北市樹林區福德街3號","121.401593333333","24.97558","6500700","樹林區"
"238006","599-UM","2018/01/15 15:09:23","新北市樹林區環河路600-1號","121.403651666667","24.969295","6500700","樹林區"
"238005","571-TV","2018/01/15 15:09:29","新北市樹林區太平路247巷26號","121.421371666667","24.9741983333333","6500700","樹林區"
"238011","5061-A6","2018/01/15 15:09:27","新北市樹林區八德街247巷24-3號","121.419691666667","24.97316","6500700","樹林區"
"238008","KEA-2217","2018/01/15 15:09:23","新北市樹林區西圳街一段165巷20弄11號","121.395681666667","24.9601833333333","6500700","樹林區"
"238009","KEA-2213","2018/01/15 15:09:21","新北市樹林區八德街262-1號","121.417273333333","24.9720083333333","6500700","樹林區"
"238012","303-VK","2018/01/15 15:09:24","新北市樹林區中山路三段27號","121.401596666667","24.975525","6500700","樹林區"
"238004","283-BY","2018/01/15 15:09:24","新北市樹林區中山路二段249巷2號","121.401941666667","24.9757083333333","6500700","樹林區"
"238001","282-BY","2018/01/15 15:09:21","新北市樹林區中山路三段125-1號","121.397358333333","24.97312","6500700","樹林區"
"238007","268-VK","2018/01/15 15:09:22","新北市板橋區大觀路三段131-1號","121.435111666667","24.9921016666667","6500700","樹林區"
"238013","172-UY","2018/01/15 15:09:30","新北市樹林區新興街39號","121.399965","24.9718916666667","6500700","樹林區"
"221002","707-TV","2018/01/15 15:09:34","新北市汐止區莊敬街1號","121.657671666667","25.0617016666667","6501100","汐止區"
"220030","610-BX","2018/01/15 15:09:33","新北市板橋區金門街215號","121.432451666667","24.9899933333333","6500100","板橋區"
"220050","245-BX","2018/01/15 15:09:24","新北市板橋區莒光路182號","121.474076666667","25.0227583333333","6500100","板橋區"
"220020","277-BY","2018/01/15 15:09:26","新北市板橋區金門街109巷25號","121.433821666667","24.9915316666667","6500100","板橋區"
"220043","283-UM","2018/01/15 15:09:27","新北市板橋區陽明街12號","121.466613333333","25.0218416666667","6500100","板橋區"
"220001","285-VK","2018/01/15 15:09:37","新北市板橋區中山路二段214號","121.477961666667","25.0178383333333","6500100","板橋區"
"220031","286-VK","2018/01/15 15:09:38","新北市板橋區僑中二街100巷16號","121.44534","25.0086116666667","6500100","板橋區"
"220029","287-VK","2018/01/15 15:09:31","新北市板橋區僑中一街124巷18弄15號","121.446783333333","25.0136983333333","6500100","板橋區"
"220009","293-UM","2018/01/15 15:09:29","新北市板橋區中山路一段161號","121.465591666667","25.0122133333333","6500100","板橋區"
"220023","303-R5","2018/01/15 15:09:31","新北市板橋區金華街10巷136號","121.460086666667","25.0206266666667","6500100","板橋區"
"220041","307-R5","2018/01/15 15:09:40","新北市板橋區漢生西路89巷4弄12號","121.461205","25.018725","6500100","板橋區"
"220012","486-VK","2018/01/15 15:09:41","新北市板橋區區運路8號","121.465168333333","25.0090983333333","6500100","板橋區"
"220038","487-VK","2018/01/15 15:09:31","新北市板橋區新海路385巷34弄4號","121.457388333333","25.025575","6500100","板橋區"
"220037","491-VK","2018/01/15 15:09:22","新北市板橋區大同街79號","121.479675","25.0281233333333","6500100","板橋區"
"220052","561-BX","2018/01/15 15:09:31","新北市板橋區自由路26巷1號","121.465821666667","25.022785","6500100","板橋區"
"220011","609-BX","2018/01/15 15:09:27","新北市板橋區中山路二段531巷17弄20號","121.482151666667","25.0220533333333","6500100","板橋區"
"220040","637-BX","2018/01/15 15:09:35","新北市板橋區懷德街174巷15號","121.4786","25.0292666666667","6500100","板橋區"
"220005","686-BX","2018/01/15 15:09:23","新北市板橋區四川路二段130巷1號","121.449903333333","24.9936966666667","6500100","板橋區"
"220025","687-BX","2018/01/15 15:09:26","新北市板橋區僑中一街124巷72號","121.446755","25.0169183333333","6500100","板橋區"
"220042","689-BX","2018/01/15 15:09:05","新北市板橋區長江路二段269號","121.46964","25.0329866666667","6500100","板橋區"
"220002","741-BX","2018/01/15 15:09:38","新北市板橋區忠孝路忠義巷9弄1-2號","121.465113333333","25.0045466666667","6500100","板橋區"
"220003","827-TW","2018/01/15 15:09:30","新北市板橋區仁愛路23號","121.458906666667","24.9994533333333","6500100","板橋區"
"220014","829-TW","2018/01/15 15:09:34","新北市板橋區中山路一段206巷89號","121.471956666667","25.0132216666667","6500100","板橋區"
"220051","830-TW","2018/01/15 15:09:33","新北市板橋區懷德街76巷13號","121.477566666667","25.0316633333333","6500100","板橋區"
"220046","AAC-210","2018/01/15 15:09:33","新北市板橋區復興街139號","121.461156666667","25.018135","6500100","板橋區"
"220018","AAC-253","2018/01/15 15:09:22","新北市板橋區實踐路79號","121.463858333333","25.00614","6500100","板橋區"
