"lineid","car","time","location","longitude","latitude","cityid","cityname"
"234025","9371-KE","2018/01/15 15:39:12","新北市永和區福和路1號","121.526318333333","25.0097316666667","6500400","永和區"
"231037","0293-UT","2018/01/15 15:39:22","新北市新店區安興路105-1號","121.514601666667","24.9777033333333","6500600","新店區"
"231028","046-UY","2018/01/15 15:39:27","新北市新店區僑信路14號","121.499691666667","24.9525966666667","6500600","新店區"
"231030","047-UY","2018/01/15 15:39:32","新北市新店區新和街91號","121.52086","24.9866216666667","6500600","新店區"
"231029","106-UY","2018/01/15 15:39:26","新北市新店區安康路三段105號","121.49131","24.9517316666667","6500600","新店區"
"231018","107-UY","2018/01/15 15:39:14","新北市新店區民生路126號","121.529795","24.982575","6500600","新店區"
"231011","108-UY","2018/01/15 15:39:18","新北市新店區文化路92號","121.544975","24.9825833333333","6500600","新店區"
"231019","187-VK","2018/01/15 15:39:24","新北市新店區新烏路一段85巷6-6號","121.549758333333","24.9426466666667","6500600","新店區"
"231014","KEA-2219","2018/01/15 15:39:11","新北市新店區北宜路二段199號","121.552941666667","24.9532783333333","6500600","新店區"
"231026","256-BX","2018/01/15 15:39:23","新北市新店區三民路75巷2弄1號","121.535631666667","24.9710583333333","6500600","新店區"
"231023","AAD-862","2018/01/15 15:39:18","新北市新店區五峰路53號","121.544953333333","24.9687383333333","6500600","新店區"
"231024","4716-K9","2018/01/15 15:39:24","新北市新店區安康路二段414巷2號","121.49587","24.9578066666667","6500600","新店區"
"231038","4715-K9","2018/01/15 15:39:16","新北市新店區安康路一段355號","121.519876666667","24.9637883333333","6500600","新店區"
"231035","515-UM","2018/01/15 15:39:20","新北市新店區安興路83號","121.515275","24.9753033333333","6500600","新店區"
"231003","641-BX","2018/01/15 15:39:19","新北市新店區寶興路49-1號","121.549323333333","24.9730266666667","6500600","新店區"
"231034","645-TV","2018/01/15 15:39:18","新北市新店區玫瑰路58巷12號","121.494801666667","24.9467033333333","6500600","新店區"
"231039","718-UY","2018/01/15 15:39:30","新北市新店區寶元路二段17號","121.546351666667","24.9820833333333","6500600","新店區"
"231013","719-UM","2018/01/15 15:39:20","新北市新店區永業路81巷7弄3號","121.530565","24.9488633333333","6500600","新店區"
"231031","720-UM","2018/01/15 15:39:18","新北市新店區雙城路133號","121.497955","24.9387833333333","6500600","新店區"
"231004","899-TW","2018/01/15 15:39:21","新北市新店區民族路108號","121.538166666667","24.97736","6500600","新店區"
"241011","013-R5","2018/01/15 15:39:16","新北市三重區河邊北街100巷9號","121.50349","25.0704116666667","6500200","三重區"
"241028","022-UY","2018/01/15 15:39:17","新北市三重區重新路四段121號","121.48482","25.052575","6500200","三重區"
"241015","062-VK","2018/01/15 15:39:24","新北市三重區重新路四段121號","121.485148333333","25.0520566666667","6500200","三重區"
"241017","063-VK","2018/01/15 15:39:28","新北市三重區大仁街1號","121.491621666667","25.0635183333333","6500200","三重區"
"241003","091-VK","2018/01/15 15:39:27","新北市三重區成功路110-2號","121.487018333333","25.0518","6500200","三重區"
"241020","156-TC","2018/01/15 15:39:17","新北市三重區忠孝路二段48號","121.485121666667","25.0704433333333","6500200","三重區"
"241005","262-UM","2018/01/15 15:39:16","新北市三重區成功路110-1號","121.487211666667","25.0517966666667","6500200","三重區"
"241013","270-UM","2018/01/15 15:39:16","新北市三重區忠孝路一段163號","121.487831666667","25.071785","6500200","三重區"
"241007","398-BY","2018/01/15 15:39:26","新北市三重區重新路四段121號","121.485231666667","25.0521116666667","6500200","三重區"
"241023","545-UM","2018/01/15 15:39:21","新北市三重區重新路四段121號","121.484818333333","25.052525","6500200","三重區"
"241012","941-UM","2018/01/15 15:39:13","新北市三重區自強路一段66號","121.49709","25.06666","6500200","三重區"
"241029","942-UM","2018/01/15 15:39:26","新北市三重區大同南路196號","121.496775","25.0567683333333","6500200","三重區"
"235020","096-UM","2018/01/15 15:39:21","新北市林口區太平里180號","121.366415","25.1345033333333","6500300","中和區"
"235033","4980-A6","2018/01/15 15:39:21","新北市中和區民樂路18號","121.482346666667","25.00119","6500300","中和區"
"235026","800-TS","2018/01/15 15:39:09","新北市中和區中山路二段488-1號","121.487455","25.00491","6500300","中和區"
"235023","AAC-215","2018/01/15 15:39:22","新北市中和區員山路17號","121.480418333333","24.98495","6500300","中和區"
"208004","AAC-292","2018/01/15 15:39:28","新北市金山區法鼓路555號","121.614248333333","25.2391766666667","6502700","金山區"
"236064","105-UM","2018/01/15 15:39:24","新北市土城區中央路二段376號","121.439571666667","24.9713933333333","6501300","土城區"
"236040","107-UM","2018/01/15 15:39:22","新北市土城區裕民路87號","121.450311666667","24.98722","6501300","土城區"
"236028","253-BX","2018/01/15 15:39:20","新北市土城區中央路一段118巷1弄9號","121.445935","24.9878666666667","6501300","土城區"
"236024","269-VK","2018/01/15 15:39:30","新北市土城區裕生路83巷29弄2號","121.448245","24.983885","6501300","土城區"
"236012","270-VK","2018/01/15 15:39:11","新北市土城區廣明街90巷18號","121.455425","24.9945216666667","6501300","土城區"
"236016","401-BY","2018/01/15 15:39:29","新北市土城區延吉街80號","121.47091","24.9865066666667","6501300","土城區"
"236056","912-UM","2018/01/15 15:39:23","新北市土城區中央路一段191號","121.446156666667","24.9871283333333","6501300","土城區"
"236044","913-UM","2018/01/15 15:39:09","新北市土城區金城路三段97號","121.467231666667","24.9876116666667","6501300","土城區"
"236060","915-UM","2018/01/15 15:39:13","新北市土城區立德路107號","121.46398","24.98765","6501300","土城區"
"236052","AAC-216","2018/01/15 15:39:26","新北市土城區青雲路33號","121.460713333333","24.9883483333333","6501300","土城區"
"238002","755-BX","2018/01/15 15:39:27","新北市樹林區日新街97號","121.421551666667","24.9900933333333","6500700","樹林區"
"238010","601-UM","2018/01/15 15:39:22","新北市樹林區三福街114號","121.406476666667","25.0163066666667","6500700","樹林區"
"238006","599-UM","2018/01/15 15:39:23","新北市樹林區太順街35號","121.418786666667","24.979585","6500700","樹林區"
"238005","571-TV","2018/01/15 15:39:29","新北市樹林區鎮前街160號","121.424456666667","24.9901216666667","6500700","樹林區"
"238011","5061-A6","2018/01/15 15:39:27","新北市樹林區東豐街81號","121.410505","24.9736933333333","6500700","樹林區"
"238008","KEA-2217","2018/01/15 15:39:23","新北市樹林區柑園街一段68號","121.40218","24.9603333333333","6500700","樹林區"
"238009","KEA-2213","2018/01/15 15:39:21","新北市樹林區中華路187巷19號","121.42088","24.9808533333333","6500700","樹林區"
"238012","303-VK","2018/01/15 15:39:24","新北市樹林區中山路二段44號","121.416861666667","24.984765","6500700","樹林區"
"238004","283-BY","2018/01/15 15:39:28","新北市樹林區光榮街3巷9弄2號","121.412658333333","25.0039233333333","6500700","樹林區"
"238001","282-BY","2018/01/15 15:39:22","新北市樹林區潭興街107巷21弄14號","121.423946666667","24.9989633333333","6500700","樹林區"
"238007","268-VK","2018/01/15 15:39:22","新北市樹林區俊英街166巷9號","121.427028333333","25.0072366666667","6500700","樹林區"
"238013","172-UY","2018/01/15 15:39:30","新北市樹林區佳園路一段75巷200號","121.397088333333","24.97064","6500700","樹林區"
"238003","169-UY","2018/01/15 15:39:16","新北市樹林區育英街50號","121.421415","24.9892333333333","6500700","樹林區"
"220050","245-BX","2018/01/15 15:39:24","新北市板橋區漢生東路83巷1號","121.466436666667","25.0158966666667","6500100","板橋區"
"220038","487-VK","2018/01/15 15:39:31","新北市板橋區陽明街162號","121.463336666667","25.0243616666667","6500100","板橋區"
"220052","561-BX","2018/01/15 15:39:25","新北市板橋區漢生東路53巷17號","121.466465","25.017255","6500100","板橋區"
"220018","AAC-253","2018/01/15 15:39:21","新北市板橋區四川路二段245巷14號","121.451003333333","24.993125","6500100","板橋區"
