"lineid","car","time","location","longitude","latitude","cityid","cityname"
"234025","9371-KE","2018/01/15 15:49:12","新北市永和區福和路1號","121.526338333333","25.0097916666667","6500400","永和區"
"231037","0293-UT","2018/01/15 15:49:22","新北市新店區安興路112號","121.5146","24.9776633333333","6500600","新店區"
"231030","047-UY","2018/01/15 15:49:29","新北市新店區永安街22-1號","121.517446666667","24.9865033333333","6500600","新店區"
"231018","107-UY","2018/01/15 15:49:14","新北市新店區中正路663巷1弄4號","121.53301","24.99008","6500600","新店區"
"231011","108-UY","2018/01/15 15:49:18","新北市新店區文化路22-1號","121.543466666667","24.9796766666667","6500600","新店區"
"231019","187-VK","2018/01/15 15:49:24","新北市新店區光明街117號","121.539115","24.9615333333333","6500600","新店區"
"231014","KEA-2219","2018/01/15 15:49:31","新北市新店區中華路52號","121.53957","24.9685783333333","6500600","新店區"
"231026","256-BX","2018/01/15 15:49:23","新北市新店區中正路429號","121.534186666667","24.97808","6500600","新店區"
"231023","AAD-862","2018/01/15 15:49:18","新北市新店區大新街9巷21號","121.544296666667","24.96726","6500600","新店區"
"231024","4716-K9","2018/01/15 15:49:24","新北市新店區安康路二段295-1號","121.502918333333","24.9575933333333","6500600","新店區"
"231038","4715-K9","2018/01/15 15:49:16","新北市新店區安康路二段244號","121.509073333333","24.9593016666667","6500600","新店區"
"231035","515-UM","2018/01/15 15:49:24","新北市新店區安民街379巷20號","121.515841666667","24.9761766666667","6500600","新店區"
"231003","641-BX","2018/01/15 15:49:19","新北市新店區寶興路60巷4號","121.549851666667","24.9719033333333","6500600","新店區"
"231034","645-TV","2018/01/15 15:49:18","新北市新店區玫瑰路57巷2號","121.495751666667","24.9460566666667","6500600","新店區"
"231039","718-UY","2018/01/15 15:49:29","新北市新店區中興路二段192-2號","121.548925","24.97358","6500600","新店區"
"231013","719-UM","2018/01/15 15:49:20","新北市新店區永業路81巷3弄31號","121.530626666667","24.9501233333333","6500600","新店區"
"231031","720-UM","2018/01/15 15:49:18","新北市新店區雙城路60巷16弄13號","121.491705","24.94791","6500600","新店區"
"231004","899-TW","2018/01/15 15:49:21","新北市新店區中正路373號","121.534851666667","24.97662","6500600","新店區"
"241011","013-R5","2018/01/15 15:49:15","新北市三重區文化北路149-1號","121.497581666667","25.0694616666667","6500200","三重區"
"241028","022-UY","2018/01/15 15:49:17","新北市三重區中正南路47號","121.493931666667","25.0596866666667","6500200","三重區"
"241015","062-VK","2018/01/15 15:49:24","新北市三重區重新路四段121號","121.485161666667","25.0520916666667","6500200","三重區"
"241017","063-VK","2018/01/15 15:49:28","新北市三重區大仁街1號","121.491645","25.0635416666667","6500200","三重區"
"241024","065-VK","2018/01/15 15:49:29","新北市三重區新北大道一段250號","121.47987","25.0613916666667","6500200","三重區"
"241026","066-VK","2018/01/15 15:49:16","新北市三重區正義南路181巷1號","121.49937","25.0570266666667","6500200","三重區"
"241003","091-VK","2018/01/15 15:49:27","新北市三重區環河北路353號","121.501931666667","25.0775","6500200","三重區"
"241020","156-TC","2018/01/15 15:49:17","新北市三重區忠孝路二段52號","121.485078333333","25.070425","6500200","三重區"
"241005","262-UM","2018/01/15 15:49:16","新北市三重區環河北路三段86號","121.49665","25.0860666666667","6500200","三重區"
"241022","267-UM","2018/01/15 15:49:18","新北市三重區成功路108巷8號","121.486246666667","25.050415","6500200","三重區"
"241018","268-UM","2018/01/15 15:49:32","新北市三重區成功路97號","121.48796","25.05156","6500200","三重區"
"241013","270-UM","2018/01/15 15:49:16","新北市三重區六張街21號","121.495263333333","25.0706133333333","6500200","三重區"
"241007","398-BY","2018/01/15 15:49:26","新北市三重區成功路106-2號","121.487183333333","25.0515533333333","6500200","三重區"
"241014","543-UM","2018/01/15 15:49:12","新北市三重區重新路四段121號","121.485143333333","25.052105","6500200","三重區"
"241023","545-UM","2018/01/15 15:49:21","新北市三重區新北大道一段250號","121.479676666667","25.0614133333333","6500200","三重區"
"241033","557-UM","2018/01/15 15:49:19","新北市三重區五谷王南街11巷15弄12號","121.47327","25.044135","6500200","三重區"
"241006","AAD-863","2018/01/15 15:49:27","新北市三重區重新路四段121號","121.484655","25.05215","6500200","三重區"
"241012","941-UM","2018/01/15 15:49:13","新北市三重區文化北路156-3號","121.497985","25.0673916666667","6500200","三重區"
"241029","942-UM","2018/01/15 15:49:26","新北市三重區大同南路242號","121.49699","25.0559216666667","6500200","三重區"
"235020","096-UM","2018/01/15 15:49:21","新北市八里區中山路三段409號","121.368585","25.1343166666667","6500300","中和區"
"235033","4980-A6","2018/01/15 15:49:01","新北市中和區員山路359巷2號","121.480903333333","25.0020833333333","6500300","中和區"
"235026","800-TS","2018/01/15 15:49:29","新北市中和區橋和路88-12號","121.490125","25.00529","6500300","中和區"
"235023","AAC-215","2018/01/15 15:49:22","新北市中和區員山路49-7號","121.480901666667","24.991505","6500300","中和區"
"247004","336-TH","2018/01/15 15:49:28","新北市五股區中興路三段163號","121.449168333333","25.0807516666667","6501400","蘆洲區"
"224005","271-BY","2018/01/15 15:49:29","新北市瑞芳區大寮路356號","121.784683333333","25.1030283333333","6501200","瑞芳區"
"227008","642-TC","2018/01/15 15:49:15","新北市雙溪區牡丹里中正路56號","121.86554","25.0404233333333","6502500","雙溪區"
"227001","400-TW","2018/01/15 15:49:30","新北市雙溪區平林里外平林44號","121.852936666667","25.03635","6502500","雙溪區"
"208004","AAC-292","2018/01/15 15:49:28","新北市金山區六股里下六股15-1號","121.625131666667","25.2243716666667","6502700","金山區"
"236064","105-UM","2018/01/15 15:49:24","新北市土城區中山路99號","121.432871666667","24.9709433333333","6501300","土城區"
"236028","253-BX","2018/01/15 15:49:20","新北市土城區學成路128巷11號","121.449513333333","24.9901033333333","6501300","土城區"
"236024","269-VK","2018/01/15 15:49:30","新北市土城區中央路一段211巷6弄2號","121.446376666667","24.9863133333333","6501300","土城區"
"236016","401-BY","2018/01/15 15:49:17","新北市土城區延吉街111巷2號","121.471581666667","24.9863116666667","6501300","土城區"
"236056","912-UM","2018/01/15 15:49:23","新北市土城區中央路二段20-2號","121.442791666667","24.980375","6501300","土城區"
"236044","913-UM","2018/01/15 15:49:29","新北市土城區金城路三段22-1號","121.465126666667","24.9863366666667","6501300","土城區"
"236052","AAC-216","2018/01/15 15:49:26","新北市土城區中華路一段85號","121.444838333333","24.98766","6501300","土城區"
"238002","755-BX","2018/01/15 15:49:27","新北市樹林區樹德街99號","121.42008","24.9922883333333","6500700","樹林區"
"238010","601-UM","2018/01/15 15:49:22","新北市樹林區龍興街14巷23號","121.401905","25.015865","6500700","樹林區"
"238006","599-UM","2018/01/15 15:49:23","新北市樹林區八德街11號","121.420051666667","24.9747833333333","6500700","樹林區"
"238005","571-TV","2018/01/15 15:49:09","新北市樹林區中華路321號","121.416165","24.9801166666667","6500700","樹林區"
"238011","5061-A6","2018/01/15 15:49:27","新北市樹林區山佳街57-1號","121.392908333333","24.972475","6500700","樹林區"
"238008","KEA-2217","2018/01/15 15:49:23","新北市樹林區柑園街二段12號","121.38817","24.9558633333333","6500700","樹林區"
"238009","KEA-2213","2018/01/15 15:49:21","新北市樹林區太順街62巷1弄2號","121.417695","24.9795083333333","6500700","樹林區"
"238012","303-VK","2018/01/15 15:49:27","新北市樹林區中山路一段149-2號","121.422135","24.9892216666667","6500700","樹林區"
"238004","283-BY","2018/01/15 15:49:24","新北市樹林區保安街二段167巷30號","121.414035","25.0027983333333","6500700","樹林區"
"238001","282-BY","2018/01/15 15:49:21","新北市樹林區保安二街55號","121.424655","24.9946883333333","6500700","樹林區"
"238007","268-VK","2018/01/15 15:49:22","新北市樹林區三俊街265號","121.422663333333","25.0143016666667","6500700","樹林區"
"238013","172-UY","2018/01/15 15:49:30","新北市樹林區佳園路一段22號","121.39269","24.9714683333333","6500700","樹林區"
"238003","169-UY","2018/01/15 15:49:16","新北市樹林區復興路375號","121.416846666667","24.9869266666667","6500700","樹林區"
"220050","245-BX","2018/01/15 15:49:24","新北市板橋區民治街61巷33號","121.481538333333","25.0348116666667","6500100","板橋區"
