"lineid","car","time","location","longitude","latitude","cityid","cityname"
"249005","172-UM","2018/01/15 16:59:37","新北市八里區渡船頭1-1號","121.434288333333","25.1523283333333","6502300","八里區"
"249001","173-UM","2018/01/15 16:59:44","新北市八里區下罟子1-11號","121.390086666667","25.1421383333333","6502300","八里區"
"249004","303-UY","2018/01/15 16:59:53","新北市八里區挖子尾街16號","121.41541","25.1647683333333","6502300","八里區"
"249002","305-UY","2018/01/15 16:59:44","新北市八里區牛寮埔10號","121.433013333333","25.1424616666667","6502300","八里區"
"249003","593-UM","2018/01/15 16:59:44","新北市八里區中山路二段370號","121.401008333333","25.148075","6502300","八里區"
"244007","080-UY","2018/01/15 16:59:45","新北市林口區林口路126號","121.388505","25.0816366666667","6501700","林口區"
"244023","483-VK","2018/01/15 16:59:46","新北市林口區粉寮路一段105號","121.397926666667","25.0802916666667","6501700","林口區"
"231046","278-BY","2018/01/15 16:59:49","新北市新店區華潭街1巷49號","121.526673333333","24.9469416666667","6500600","新店區"
"241011","013-R5","2018/01/15 16:59:34","新北市三重區仁愛街55巷124號","121.49889","25.0727733333333","6500200","三重區"
"241028","022-UY","2018/01/15 16:59:38","新北市三重區中正南路40號","121.49375","25.060115","6500200","三重區"
"241008","059-VK","2018/01/15 16:59:49","新北市三重區永福街179巷42號","121.477365","25.074685","6500200","三重區"
"241009","060-VK","2018/01/15 16:59:39","新北市三重區仁美街106號","121.485676666667","25.0807316666667","6500200","三重區"
"241031","061-VK","2018/01/15 16:59:32","新北市三重區三寧街33號","121.489845","25.0600266666667","6500200","三重區"
"241015","062-VK","2018/01/15 16:59:44","新北市三重區三和路二段1-4號","121.501571666667","25.0665716666667","6500200","三重區"
"241017","063-VK","2018/01/15 16:59:48","新北市三重區國隆路12巷1號","121.492948333333","25.0638033333333","6500200","三重區"
"241024","065-VK","2018/01/15 16:59:49","新北市三重區國道路一段58巷20號","121.481203333333","25.072025","6500200","三重區"
"241026","066-VK","2018/01/15 16:59:36","新北市三重區文化南路42號","121.500476666667","25.0602883333333","6500200","三重區"
"241002","090-VK","2018/01/15 16:59:43","新北市三重區仁義街126號","121.497581666667","25.08026","6500200","三重區"
"241003","091-VK","2018/01/15 16:59:46","新北市三重區碧華街408號","121.49195","25.0850066666667","6500200","三重區"
"241020","156-TC","2018/01/15 16:59:37","新北市三重區後竹圍街175巷27號","121.485576666667","25.07294","6500200","三重區"
"241005","262-UM","2018/01/15 16:59:36","新北市三重區仁華街71號","121.485178333333","25.0829116666667","6500200","三重區"
"241016","266-UM","2018/01/15 16:59:39","新北市三重區大智街12號","121.495348333333","25.0644766666667","6500200","三重區"
"241022","267-UM","2018/01/15 16:59:38","新北市三重區中華路77號","121.483748333333","25.0626433333333","6500200","三重區"
"241018","268-UM","2018/01/15 16:59:52","新北市三重區六張街126巷2弄15號","121.492543333333","25.0694216666667","6500200","三重區"
"241032","269-UM","2018/01/15 16:59:50","新北市三重區重陽路一段130巷26號","121.485751666667","25.060395","6500200","三重區"
"241013","270-UM","2018/01/15 16:59:36","新北市三重區仁和街77號","121.497635","25.0740066666667","6500200","三重區"
"241025","271-UM","2018/01/15 16:59:35","新北市三重區中正北路508巷11號","121.472645","25.071045","6500200","三重區"
"241007","398-BY","2018/01/15 16:59:46","新北市三重區三和路四段181巷252號","121.488178333333","25.08067","6500200","三重區"
"241004","475-VK","2018/01/15 16:59:35","新北市三重區五華街92巷2號","121.492613333333","25.0822083333333","6500200","三重區"
"241019","478-VK","2018/01/15 16:59:35","新北市三重區自強路二段74巷19號","121.487958333333","25.0699483333333","6500200","三重區"
"241030","480-VK","2018/01/15 16:59:48","新北市三重區昌隆街50號","121.491373333333","25.05149","6500200","三重區"
"241014","543-UM","2018/01/15 16:59:52","新北市三重區三和路二段173巷149號","121.50122","25.0707183333333","6500200","三重區"
"241023","545-UM","2018/01/15 16:59:41","新北市三重區新北大道一段252號","121.47983","25.06186","6500200","三重區"
"241001","547-UM","2018/01/15 16:59:42","新北市三重區仁政街9號","121.493376666667","25.0763583333333","6500200","三重區"
"241033","557-UM","2018/01/15 16:59:38","新北市三重區中興北街271號","121.46906","25.0606483333333","6500200","三重區"
"241006","AAD-863","2018/01/15 16:59:47","新北市三重區車路頭街126號","121.484115","25.0752433333333","6500200","三重區"
"241012","941-UM","2018/01/15 16:59:52","新北市三重區仁壽街200號","121.500871666667","25.0749616666667","6500200","三重區"
"241029","942-UM","2018/01/15 16:59:46","新北市三重區集美街257號","121.492398333333","25.0556366666667","6500200","三重區"
"235062","800-TS","2018/01/15 16:38:41","新北市中和區員山路36巷16-3號","121.48484","24.99178","6500300","中和區"
"247020","500-BY","2018/01/15 16:59:48","新北市蘆洲區民族路422巷82弄14號","121.473981666667","25.0938766666667","6501400","蘆洲區"
"247008","341-TH","2018/01/15 16:59:50","新北市蘆洲區信義路57號","121.475053333333","25.0799066666667","6501400","蘆洲區"
"247010","339-TH","2018/01/15 16:59:45","新北市蘆洲區三民路26巷67號","121.478548333333","25.0832433333333","6501400","蘆洲區"
"247004","336-TH","2018/01/15 16:59:46","新北市蘆洲區長安街131巷11號","121.460358333333","25.0810033333333","6501400","蘆洲區"
"247016","057-VK","2018/01/15 16:59:52","新北市蘆洲區中正路57號","121.470528333333","25.0828466666667","6501400","蘆洲區"
"247006","056-VK","2018/01/15 16:59:34","新北市蘆洲區長安街99巷22號","121.460933333333","25.080105","6501400","蘆洲區"
"247002","053-VK","2018/01/15 16:59:34","新北市蘆洲區永平街20號","121.45909","25.0905916666667","6501400","蘆洲區"
"247014","007-UY","2018/01/15 16:59:41","新北市蘆洲區中山二路36巷13號","121.474158333333","25.08281","6501400","蘆洲區"
"247024","002-UY","2018/01/15 16:59:48","新北市蘆洲區長興路202號","121.460563333333","25.087425","6501400","蘆洲區"
"247018","001-UY","2018/01/15 16:59:40","新北市蘆洲區民族路304號","121.477545","25.0899366666667","6501400","蘆洲區"
"228003","097-TW","2018/01/15 16:59:48","新北市貢寮區福隆里興隆街24-1號","121.944295","25.0165683333333","6502600","貢寮區"
"228001","212-TW","2018/01/15 16:59:34","新北市貢寮區貢寮里朝陽街1-2號","121.912203333333","25.0213","6502600","貢寮區"
"228002","663-BX","2018/01/15 16:59:41","新北市貢寮區貢寮里朝陽街2號","121.912446666667","25.0216083333333","6502600","貢寮區"
"224006","676-BX","2018/01/15 16:59:40","新北市瑞芳區大寮路356-1號","121.784776666667","25.1031966666667","6501200","瑞芳區"
"224009","285-BY","2018/01/15 16:59:41","新北市瑞芳區濱二路31號","121.835188333333","25.1116533333333","6501200","瑞芳區"
"224008","275-VK","2018/01/15 16:59:48","新北市瑞芳區明燈路一段227號","121.818008333333","25.1081516666667","6501200","瑞芳區"
"224007","273-VK","2018/01/15 16:59:42","新北市瑞芳區瑞竹路46號","121.7636","25.1033383333333","6501200","瑞芳區"
"224005","271-BY","2018/01/15 16:59:32","新北市瑞芳區哩咾路1號","121.877373333333","25.1226633333333","6501200","瑞芳區"
"227008","642-TC","2018/01/15 16:59:35","新北市雙溪區牡丹里聖南31-1號","121.856128333333","25.0537933333333","6502500","雙溪區"
"227001","400-TW","2018/01/15 16:59:50","新北市雙溪區長源里柑腳32號","121.804051666667","25.01371","6502500","雙溪區"
"251009","008-UM","2018/01/15 16:59:51","新北市淡水區中正路257號","121.433231666667","25.17448","6501000","淡水區"
"251004","009-UM","2018/01/15 16:59:39","新北市淡水區中正路二段31號","121.419318333333","25.181795","6501000","淡水區"
"251005","010-UM","2018/01/15 16:59:52","新北市淡水區中正路二段31號","121.4192","25.1817283333333","6501000","淡水區"
"251013","179-VK","2018/01/15 16:59:50","新北市淡水區泉洲厝32號","121.488763333333","25.1928233333333","6501000","淡水區"
"251014","180-VK","2018/01/15 16:59:31","新北市淡水區淡金路四段472巷24號","121.45293","25.22399","6501000","淡水區"
"251008","181-VK","2018/01/15 16:59:37","新北市淡水區樹梅坑9號","121.47269","25.142705","6501000","淡水區"
"251015","182-VK","2018/01/15 16:59:36","新北市淡水區忠愛街12號","121.457476666667","25.1745316666667","6501000","淡水區"
"251010","413-VK","2018/01/15 16:59:37","新北市淡水區沙崙路149號","121.42363","25.1832216666667","6501000","淡水區"
"251012","441-VK","2018/01/15 16:59:49","新北市淡水區沙崙路129號","121.422825","25.182545","6501000","淡水區"
"251016","442-VK","2018/01/15 16:59:47","新北市淡水區瓦坑8-2號","121.477943333333","25.1831966666667","6501000","淡水區"
"251007","577-R6","2018/01/15 16:59:43","新北市淡水區中山路18-1號","121.444535","25.1691983333333","6501000","淡水區"
"251011","650-BX","2018/01/15 16:59:42","新北市淡水區中正東路一段3巷2號","121.450581666667","25.16459","6501000","淡水區"
"252002","178-VK","2018/01/15 16:59:43","新北市三芝區忠孝街173號","121.505413333333","25.261405","6502100","三芝區"
"252001","292-VK","2018/01/15 16:59:50","新北市三芝區淡金路二段47-1號","121.503481666667","25.26059","6502100","三芝區"
"242031","AAC-296","2018/01/15 16:59:40","新北市新莊區新泰路357巷3弄57號","121.442168333333","25.0394283333333","6500500","新莊區"
"242023","613-BX","2018/01/15 16:59:47","新北市新莊區新泰路357巷3弄57號","121.442128333333","25.039175","6500500","新莊區"
"242027","612-BX","2018/01/15 16:59:42","新北市新莊區新泰路357巷3弄57號","121.441966666667","25.0391633333333","6500500","新莊區"
"242048","441-UM","2018/01/15 16:59:48","新北市新莊區三和路12-21號","121.442003333333","25.0383583333333","6500500","新莊區"
"242034","415-TV","2018/01/15 16:59:53","新北市新莊區新泰路357巷3弄57號","121.442041666667","25.0390583333333","6500500","新莊區"
"242060","362-BY","2018/01/15 16:59:45","新北市新莊區新泰路255巷83號","121.442191666667","25.0387916666667","6500500","新莊區"
"242036","133-UY","2018/01/15 16:59:48","新北市新莊區三和路12-21號","121.441983333333","25.0387483333333","6500500","新莊區"
"242015","175-VK","2018/01/15 16:59:46","新北市新莊區三和路12-21號","121.441991666667","25.038745","6500500","新莊區"
"242019","348-TH","2018/01/15 16:59:43","新北市新莊區新泰路357巷3弄57號","121.441986666667","25.0396483333333","6500500","新莊區"
"242011","351-TH","2018/01/15 16:59:47","新北市新莊區新泰路357巷3弄57號","121.442126666667","25.0393916666667","6500500","新莊區"
"238017","283-BY","2018/01/15 16:59:44","新北市樹林區光武街7-3號","121.415791666667","25.0053166666667","6500700","樹林區"
"238001","282-BY","2018/01/15 16:59:41","新北市樹林區中正路22-1號","121.427818333333","24.999655","6500700","樹林區"
"239006","891-R6","2018/01/15 16:59:43","新北市鶯歌區二甲路12-2號","121.34549","24.93481","6500800","鶯歌區"
"239001","417-VK","2018/01/15 16:59:53","新北市鶯歌區二甲路13-16號","121.345511666667","24.9354516666667","6500800","鶯歌區"
