"lineid","car","time","location","longitude","latitude","cityid","cityname"
"234046","148-BY","2018/01/15 19:29:23","新北市永和區秀朗路二段121號","121.524138333333","25.0016233333333","6500400","永和區"
"234042","149-BY","2018/01/15 19:29:20","新北市永和區中和路603號","121.512446666667","25.00431","6500400","永和區"
"234007","207-UY","2018/01/15 19:29:24","新北市永和區永和路二段3號","121.51441","25.0098966666667","6500400","永和區"
"234081","298-R6","2018/01/15 19:29:30","新北市永和區環河東路三段54號","121.526786666667","25.00623","6500400","永和區"
"234038","336-UY","2018/01/15 19:29:37","新北市永和區民樂街41巷1號","121.527485","25.0001283333333","6500400","永和區"
"234064","337-UY","2018/01/15 19:29:28","新北市永和區中正路368巷1弄75號","121.520483333333","25.0008166666667","6500400","永和區"
"234086","338-UY","2018/01/15 19:29:29","新北市永和區永利路152號","121.522505","25.0027766666667","6500400","永和區"
"234054","553-UM","2018/01/15 19:29:39","新北市永和區復興街19巷2號","121.51611","25.0131233333333","6500400","永和區"
"234017","745-BX","2018/01/15 19:29:24","新北市永和區環河西路一段87號","121.51238","25.01788","6500400","永和區"
"234028","746-BX","2018/01/15 19:29:23","新北市永和區民生路63號","121.52264","24.9973266666667","6500400","永和區"
"234013","KEA-2591","2018/01/15 19:29:34","新北市永和區永和路二段50號","121.514758333333","25.0107666666667","6500400","永和區"
"234061","AAD-866","2018/01/15 19:29:30","新北市永和區中正路505號","121.516961666667","25.007045","6500400","永和區"
"234068","847-RS","2018/01/15 19:29:20","新北市永和區警光街5-1號","121.51968","25.0094816666667","6500400","永和區"
"234050","863-TW","2018/01/15 19:29:34","新北市永和區信義路114號","121.512358333333","25.0143866666667","6500400","永和區"
"234026","9371-KE","2018/01/15 19:29:26","新北市中和區安平路222號","121.513988333333","25.0000366666667","6500400","永和區"
"234011","9373-KE","2018/01/15 19:29:23","新北市永和區保福路二段20號","121.510971666667","25.0115916666667","6500400","永和區"
"249003","593-UM","2018/01/15 19:29:34","新北市八里區商港六路11號","121.397023333333","25.1480133333333","6502300","八里區"
"248014","025-BX","2018/01/15 19:29:32","新北市五股區民義路一段161-8號","121.432091666667","25.087695","6501500","五股區"
"248008","095-VK","2018/01/15 19:29:32","新北市五股區中興路一段95巷9號","121.466575","25.0723716666667","6501500","五股區"
"248018","225-UY","2018/01/15 19:29:20","新北市五股區壟路14-8號","121.415388333333","25.08646","6501500","五股區"
"248012","247-BX","2018/01/15 19:29:39","新北市五股區中興路四段48巷16號","121.438621666667","25.0834333333333","6501500","五股區"
"248010","272-BY","2018/01/15 19:29:34","新北市五股區自強路90巷72號","121.430753333333","25.0713133333333","6501500","五股區"
"248004","677-BX","2018/01/15 19:29:25","新北市五股區工商路153-1號","121.434863333333","25.086555","6501500","五股區"
"248002","678-BX","2018/01/15 19:29:37","新北市五股區凌雲路一段158巷14-1號","121.447788333333","25.10346","6501500","五股區"
"234023","9380-KE","2018/01/15 19:29:24","新北市永和區竹林路91巷21弄9號","121.520811666667","25.0125583333333","6500400","永和區"
"234077","969-R7","2018/01/15 19:29:35","新北市永和區民治街29號","121.519623333333","24.9976966666667","6500400","永和區"
"234074","AAC-211","2018/01/15 19:29:32","新北市永和區環河東路二段20號","121.522315","25.0130983333333","6500400","永和區"
"234067","AAC-212","2018/01/15 19:29:26","新北市永和區保平路113號","121.51087","25.0066366666667","6500400","永和區"
"234003","AAC-295","2018/01/15 19:29:21","新北市永和區福和路385號","121.514196666667","25.0076933333333","6500400","永和區"
"244013","069-UM","2018/01/15 19:29:39","新北市林口區麗園一街1號","121.375653333333","25.07256","6501700","林口區"
"244019","402-UM","2018/01/15 19:29:26","新北市林口區文化二路一段575號","121.375696666667","25.0783216666667","6501700","林口區"
"244023","483-VK","2018/01/15 19:29:26","新北市林口區仁愛路二段636號","121.370891666667","25.0795733333333","6501700","林口區"
"243012","AAD-798","2018/01/15 19:29:36","新北市泰山區仁愛路62號","121.43208","25.0549283333333","6501600","泰山區"
"243011","297-R6","2018/01/15 19:29:34","新北市三重區新北大道六段50-1號","121.429128333333","25.040205","6501600","泰山區"
"243015","380-SR","2018/01/15 19:29:30","新北市泰山區明志路二段126號","121.42783","25.0512866666667","6501600","泰山區"
"243014","421-VK","2018/01/15 19:29:36","新北市泰山區仁愛路66號","121.432265","25.0550183333333","6501600","泰山區"
"243010","KEA-2215","2018/01/15 19:29:29","新北市泰山區民權街41號","121.429261666667","25.0508216666667","6501600","泰山區"
"243009","KEA-2216","2018/01/15 19:29:20","新北市泰山區美寧街70號","121.431163333333","25.0646333333333","6501600","泰山區"
"243013","646-TV","2018/01/15 19:29:30","新北市泰山區明志路三段123巷1弄6號","121.425683333333","25.0407766666667","6501600","泰山區"
"243016","680-BX","2018/01/15 19:29:29","新北市泰山區明志路三段352巷10號","121.421351666667","25.035825","6501600","泰山區"
"222003","016-RS","2018/01/15 19:29:33","新北市深坑區深南路88巷1號","121.620973333333","25.0116966666667","6501800","深坑區"
"222002","659-BX","2018/01/15 19:29:30","新北市深坑區北深路一段177號","121.63254","25.0108666666667","6501800","深坑區"
"231041","002-UM","2018/01/15 19:29:31","新北市新店區中正路602號","121.53392","24.9881733333333","6500600","新店區"
"231066","0293-UT","2018/01/15 19:29:29","新北市新店區安康路三段165巷2弄8號","121.489236666667","24.9513966666667","6500600","新店區"
"231059","046-UY","2018/01/15 19:29:36","新北市新店區安和路三段157號","121.516466666667","24.9857466666667","6500600","新店區"
"231061","047-UY","2018/01/15 19:29:17","新北市新店區安民街50號","121.516101666667","24.965755","6500600","新店區"
"231060","106-UY","2018/01/15 19:29:35","新北市新店區安康路二段136號","121.512536666667","24.9620133333333","6500600","新店區"
"231051","107-UY","2018/01/15 19:29:23","新北市新店區中央五街21號","121.529355","24.97453","6500600","新店區"
"231047","108-UY","2018/01/15 19:29:24","新北市新店區中興路一段222號","121.544428333333","24.9656466666667","6500600","新店區"
"231052","187-VK","2018/01/15 19:29:19","新北市新店區屈尺路58號","121.547376666667","24.922675","6500600","新店區"
"231050","KEA-2219","2018/01/15 19:28:55","新北市新店區秀水路11號","121.554873333333","24.9545483333333","6500600","新店區"
"231046","278-BY","2018/01/15 19:29:29","新北市新店區光明街169號","121.539633333333","24.9626066666667","6500600","新店區"
"231054","AAD-862","2018/01/15 19:29:33","新北市新店區文中路40號","121.539725","24.9564416666667","6500600","新店區"
"231058","3712-VJ","2018/01/15 19:29:35","新北市新店區寶橋路85巷23號","121.545213333333","24.97615","6500600","新店區"
"231067","4772-VM","2018/01/15 19:29:34","新北市新店區安德街60巷35號","121.510993333333","24.9637033333333","6500600","新店區"
"231065","512-UM","2018/01/15 19:29:24","新北市新店區安祥路109巷1弄75號","121.478508333333","24.96051","6500600","新店區"
"231064","515-UM","2018/01/15 19:29:21","新北市新店區安忠路40號","121.513278333333","24.9598966666667","6500600","新店區"
"231040","619-UM","2018/01/15 19:29:22","新北市新店區北新路一段40號","121.540941666667","24.9660333333333","6500600","新店區"
"231042","641-BX","2018/01/15 19:29:22","新北市新店區中興路一段195號","121.543426666667","24.9651866666667","6500600","新店區"
"231063","645-TV","2018/01/15 19:29:29","新北市新店區達觀路16號","121.503076666667","24.9408183333333","6500600","新店區"
"231049","719-UM","2018/01/15 19:29:21","新北市新店區二十張路1巷2弄2-1號","121.540201666667","24.98214","6500600","新店區"
"231062","720-UM","2018/01/15 19:29:19","新北市新店區安康路一段71號","121.530225","24.9610783333333","6500600","新店區"
"231044","897-TW","2018/01/15 19:29:33","新北市新店區中興路三段197號","121.543885","24.98148","6500600","新店區"
"231045","898-TW","2018/01/15 19:29:18","新北市新店區北宜路二段209號","121.55318","24.9533466666667","6500600","新店區"
"231043","899-TW","2018/01/15 19:29:30","新北市新店區北新路二段156號","121.543066666667","24.9754966666667","6500600","新店區"
"241028","022-UY","2018/01/15 19:29:34","新北市三重區中寮街50號","121.49282","25.0586383333333","6500200","三重區"
"241008","059-VK","2018/01/15 19:29:33","新北市三重區永福街135巷30號","121.477518333333","25.0770316666667","6500200","三重區"
"241009","060-VK","2018/01/15 19:29:19","新北市三重區溪尾街242巷5號","121.487298333333","25.08185","6500200","三重區"
"241031","061-VK","2018/01/15 19:29:32","新北市三重區集美街100號","121.488511666667","25.054115","6500200","三重區"
"241017","063-VK","2018/01/15 19:29:31","新北市三重區中正北路25巷14號","121.493478333333","25.062935","6500200","三重區"
"241026","066-VK","2018/01/15 19:29:33","新北市三重區文化南路65巷47號","121.498745","25.0606566666667","6500200","三重區"
"241020","156-TC","2018/01/15 19:29:24","新北市三重區三和路四段44巷25號","121.489361666667","25.074095","6500200","三重區"
"241022","267-UM","2018/01/15 19:29:32","新北市三重區三民街163-1號","121.483471666667","25.064815","6500200","三重區"
"241032","269-UM","2018/01/15 19:29:30","新北市三重區三陽路62號","121.484046666667","25.0587166666667","6500200","三重區"
"241013","270-UM","2018/01/15 19:29:32","新北市三重區仁愛街96號","121.495501666667","25.0739633333333","6500200","三重區"
"241025","271-UM","2018/01/15 19:29:23","新北市三重區頂崁街210巷28弄3號","121.475775","25.067665","6500200","三重區"
"241007","398-BY","2018/01/15 19:29:25","新北市三重區溪尾街169號","121.489081666667","25.0799966666667","6500200","三重區"
"241035","462-BY","2018/01/15 19:29:27","新北市三重區長元西街27號","121.498233333333","25.065315","6500200","三重區"
"241030","480-VK","2018/01/15 19:29:28","新北市三重區成功路41巷15號","121.490495","25.051625","6500200","三重區"
"241023","545-UM","2018/01/15 19:29:20","新北市三重區頂崁街99號","121.478013333333","25.063835","6500200","三重區"
"241006","AAD-863","2018/01/15 19:29:30","新北市三重區三和路四段272號","121.485586666667","25.07728","6500200","三重區"
"241029","942-UM","2018/01/15 19:29:28","新北市三重區中正南路262號","121.493286666667","25.052735","6500200","三重區"
"235066","003-UY","2018/01/15 19:29:30","新北市中和區景新街43號","121.504048333333","24.9991133333333","6500300","中和區"
"235064","005-UY","2018/01/15 19:29:21","新北市中和區中和路35號","121.500086666667","25.0014833333333","6500300","中和區"
"235063","006-UY","2018/01/15 19:29:32","新北市中和區連勝街159號","121.494315","24.9965433333333","6500300","中和區"
"235046","031-BX","2018/01/15 19:29:24","新北市中和區忠孝街37巷52號","121.511091666667","24.984905","6500300","中和區"
"235056","096-UM","2018/01/15 19:29:20","新北市中和區民富街7號","121.476595","25.007215","6500300","中和區"
"235039","097-UM","2018/01/15 19:29:21","新北市中和區秀峰街87號","121.521316666667","24.9902266666667","6500300","中和區"
"235065","098-UM","2018/01/15 19:29:34","新北市中和區中山路二段2巷5弄8-1號","121.504301666667","25.0061183333333","6500300","中和區"
"235040","150-BY","2018/01/15 19:29:25","新北市中和區保健路44巷1號","121.509535","24.9971766666667","6500300","中和區"
"235058","151-BY","2018/01/15 19:29:36","新北市中和區連城路326號","121.483276666667","24.9959566666667","6500300","中和區"
"235055","183-VK","2018/01/15 19:29:29","新北市中和區莒光路120巷54號","121.471666666667","25.000985","6500300","中和區"
"235038","185-VK","2018/01/15 19:29:24","新北市中和區立人街3號","121.52178","24.994015","6500300","中和區"
"235049","186-VK","2018/01/15 19:29:34","新北市中和區景新街285巷14號","121.510411666667","24.9935916666667","6500300","中和區"
"235067","255-BX","2018/01/15 19:29:35","新北市中和區中正路733號","121.485026666667","24.9991966666667","6500300","中和區"
"235044","293-VK","2018/01/15 19:29:28","新北市中和區捷運路129號","121.50718","24.9906966666667","6500300","中和區"
"235072","301-VK","2018/01/15 19:29:36","新北市中和區中正路432巷11號","121.490716666667","24.9957816666667","6500300","中和區"
"235043","352-BY","2018/01/15 19:29:27","新北市中和區南山路181號","121.502801666667","24.9951","6500300","中和區"
"235068","377-QA","2018/01/15 19:29:14","新北市中和區連勝街66號","121.497191666667","24.9969733333333","6500300","中和區"
"235061","378-QA","2018/01/15 19:29:33","新北市中和區連城路456巷8號","121.478743333333","24.9951816666667","6500300","中和區"
"235050","4979-A6","2018/01/15 19:29:27","新北市中和區中正路450號","121.490858333333","24.9942366666667","6500300","中和區"
"235069","4980-A6","2018/01/15 19:29:24","新北市中和區景平路736巷1弄4號","121.497175","25.0038983333333","6500300","中和區"
"235042","551-UM","2018/01/15 19:29:32","新北市中和區中安街226號","121.512176666667","24.9987","6500300","中和區"
"235070","558-UM","2018/01/15 19:29:34","新北市中和區中山路二段226號","121.499265","25.00282","6500300","中和區"
"235045","565-BX","2018/01/15 19:29:16","新北市中和區景新街425號","121.513033333333","24.9891816666667","6500300","中和區"
"235054","640-BX","2018/01/15 19:29:20","新北市中和區國光街112巷11弄1號","121.469713333333","25.001685","6500300","中和區"
"235060","647-TV","2018/01/15 19:29:29","新北市中和區員山路268巷5弄8號","121.481925","25.0023366666667","6500300","中和區"
"235047","732-UM","2018/01/15 19:29:32","新北市中和區景平路241巷64弄8號","121.507743333333","24.99262","6500300","中和區"
"235057","801-TS","2018/01/15 19:29:24","新北市中和區員山路423巷2弄1號","121.48057","25.0032933333333","6500300","中和區"
"235052","805-TS","2018/01/15 19:29:24","新北市中和區華新街143巷69弄23號","121.507568333333","24.9789183333333","6500300","中和區"
"235048","896-TW","2018/01/15 19:29:24","新北市中和區四維街7號","121.513413333333","24.98723","6500300","中和區"
"235053","900-TW","2018/01/15 19:29:20","新北市中和區民德路206號","121.4681","24.99841","6500300","中和區"
"235051","157-BY","2018/01/15 19:29:35","新北市中和區景新街162號","121.50579","24.997185","6500300","中和區"
"235037","AAC-213","2018/01/15 19:29:37","新北市中和區秀朗路三段10巷14弄23號","121.524548333333","24.9964216666667","6500300","中和區"
"235059","AAC-215","2018/01/15 19:29:35","新北市中和區圓通路252巷6-1號","121.492985","24.9918383333333","6500300","中和區"
"220065","072-UY","2018/01/15 19:29:29","新北市板橋區國泰街111巷15號","121.466141666667","25.0059966666667","6500100","板橋區"
"220106","075-UY","2018/01/15 19:29:35","新北市板橋區長江路三段58號","121.473623333333","25.0340066666667","6500100","板橋區"
"220069","AAD-861","2018/01/15 19:29:35","新北市板橋區大明街20巷29弄10號","121.457785","25.0034816666667","6500100","板橋區"
"247004","336-TH","2018/01/15 19:29:22","新北市蘆洲區長安街198號","121.458675","25.0840633333333","6501400","蘆洲區"
"226004","205-ST","2018/01/15 19:29:21","新北市平溪區靜安路二段532號","121.74628","25.0278016666667","6502400","平溪區"
"235041","251-BX","2018/01/15 19:29:30","新北市中和區中和路350巷10號","121.510728333333","25.0005","6500300","中和區"
"228003","097-TW","2018/01/15 19:29:28","新北市貢寮區和美里和美街19-2號","121.91281","25.0825933333333","6502600","貢寮區"
"228001","212-TW","2018/01/15 19:29:34","新北市貢寮區真理里延平街68號","121.925335","25.0574466666667","6502600","貢寮區"
"228002","585-TW","2018/01/15 19:29:26","新北市貢寮區龍門里龍門街51-4號","121.932398333333","25.02614","6502600","貢寮區"
"224010","AGQ-8101","2018/01/15 19:29:27","新北市瑞芳區基山街79號","121.845005","25.10827","6501200","瑞芳區"
"224006","676-BX","2018/01/15 19:29:40","新北市瑞芳區三爪子坑路106巷1-11號","121.80816","25.1051433333333","6501200","瑞芳區"
"224002","639-TC","2018/01/15 19:29:23","新北市瑞芳區三爪子坑路13巷25號","121.814073333333","25.1069866666667","6501200","瑞芳區"
"224008","275-VK","2018/01/15 19:29:27","新北市瑞芳區瑞芳街162號","121.80116","25.110625","6501200","瑞芳區"
"224005","271-BY","2018/01/15 19:29:31","新北市瑞芳區員山子路3-9號","121.819698333333","25.1040616666667","6501200","瑞芳區"
"227008","642-TC","2018/01/15 19:29:35","新北市雙溪區新基里新基北街43號","121.86815","25.039695","6502500","雙溪區"
"227001","400-TW","2018/01/15 19:29:30","新北市雙溪區雙溪里光復街18號","121.865131666667","25.0354383333333","6502500","雙溪區"
"253005","032-BX","2018/01/15 19:29:27","新北市石門區小坑9號","121.593653333333","25.2884","6502200","石門區"
"253006","295-VK","2018/01/15 19:29:28","新北市石門區楓林28-2號","121.541895","25.2888533333333","6502200","石門區"
"222001","KEA-2212","2018/01/15 19:29:35","新北市深坑區深坑街10號","121.616001666667","25.00282","6501800","深坑區"
"208002","742-BX","2018/01/15 19:29:21","新北市金山區仁愛路78巷2號","121.63465","25.22153","6502700","金山區"
"208003","665-BX","2018/01/15 19:29:35","新北市金山區中山路263巷14號","121.636398333333","25.2215666666667","6502700","金山區"
"208001","761-BX","2018/01/15 19:29:25","新北市金山區金包里街116號","121.638021666667","25.222085","6502700","金山區"
"251009","008-UM","2018/01/15 19:29:31","新北市淡水區北新路28號","121.445243333333","25.1776933333333","6501000","淡水區"
"251005","010-UM","2018/01/15 19:29:32","新北市淡水區水源街一段71巷12號","121.44438","25.1728933333333","6501000","淡水區"
"251013","179-VK","2018/01/15 19:29:29","新北市淡水區大牛稠6號","121.469876666667","25.2174066666667","6501000","淡水區"
"251014","180-VK","2018/01/15 19:29:31","新北市淡水區小中寮19-7號","121.48472","25.22967","6501000","淡水區"
"251015","182-VK","2018/01/15 19:29:35","新北市淡水區北新路三段66號","121.4852","25.1877033333333","6501000","淡水區"
"251010","413-VK","2018/01/15 19:29:17","新北市淡水區中正路二段142-1號","121.422038333333","25.1874866666667","6501000","淡水區"
"251012","441-VK","2018/01/15 19:29:28","新北市淡水區中山北路三段164號","121.445693333333","25.19655","6501000","淡水區"
"251016","442-VK","2018/01/15 19:29:27","新北市淡水區淡金路三段350巷18號","121.450803333333","25.2083716666667","6501000","淡水區"
"251001","559-UM","2018/01/15 19:29:28","新北市淡水區民權路141號","121.460095","25.1364616666667","6501000","淡水區"
"251006","561-UM","2018/01/15 19:29:25","新北市淡水區大義街31號","121.442496666667","25.17827","6501000","淡水區"
"251007","577-R6","2018/01/15 19:29:23","新北市淡水區八勢一街7-19號","121.460583333333","25.1578316666667","6501000","淡水區"
"251011","650-BX","2018/01/15 19:29:25","新北市淡水區中正東路二段143巷2弄1號","121.460506666667","25.147355","6501000","淡水區"
"251003","673-BX","2018/01/15 19:29:35","新北市淡水區中山北路三段16巷30號","121.4438","25.1897866666667","6501000","淡水區"
"207003","550-UM","2018/01/15 19:29:37","新北市萬里區大鵬里萬里加投148-1號","121.64436","25.2145066666667","6502800","萬里區"
"207004","225-TW","2018/01/15 19:29:26","新北市萬里區萬里里瑪鋉路127-8號","121.688881666667","25.1777533333333","6502800","萬里區"
"252002","178-VK","2018/01/15 19:29:23","新北市三芝區淡金路二段18-1號","121.502606666667","25.2595166666667","6502100","三芝區"
"252001","292-VK","2018/01/15 19:29:29","新北市三芝區長勤街48-1號","121.500283333333","25.25539","6502100","三芝區"
"237004","078-UY","2018/01/15 19:29:35","新北市三峽區有木141號","121.438011666667","24.8524583333333","6500900","三峽區"
"237007","153-BY","2018/01/15 19:29:29","新北市三峽區二鬮路178號","121.35909","24.9068266666667","6500900","三峽區"
"237009","210-TH","2018/01/15 19:29:38","新北市三峽區中山路3號","121.369916666667","24.9339533333333","6500900","三峽區"
"237013","252-BX","2018/01/15 19:29:24","新北市三峽區介壽路一段237號","121.379491666667","24.9301616666667","6500900","三峽區"
"237012","275-BY","2018/01/15 19:29:24","新北市三峽區三樹路222巷236弄8號","121.391553333333","24.9428583333333","6500900","三峽區"
"237008","302-VK","2018/01/15 19:29:28","新北市三峽區光明路48號","121.374335","24.929585","6500900","三峽區"
"237014","433-BY","2018/01/15 19:29:23","新北市三峽區中山路67巷29號","121.366681666667","24.934135","6500900","三峽區"
"237006","5529-G3","2018/01/15 19:29:33","新北市三峽區大同路40-6號","121.376276666667","24.9278283333333","6500900","三峽區"
"237015","649-BX","2018/01/15 19:29:25","新北市三峽區安坑1-5號","121.435263333333","24.9246","6500900","三峽區"
"237005","AKY-6261","2018/01/15 19:29:24","新北市三峽區復興路367巷13號","121.363875","24.93763","6500900","三峽區"
"236069","105-UM","2018/01/15 19:29:34","新北市土城區學府路一段129巷28號","121.454486666667","24.9857516666667","6501300","土城區"
"236078","166-UM","2018/01/15 19:22:06","新北市土城區中央路四段295號","121.41133","24.9522166666667","6501300","土城區"
"236030","253-BX","2018/01/15 19:29:19","新北市土城區中央路一段320號","121.443088333333","24.9816983333333","6501300","土城區"
"236026","269-VK","2018/01/15 19:29:38","新北市土城區中央路二段61巷26號","121.443308333333","24.9786383333333","6501300","土城區"
"236020","401-BY","2018/01/15 19:29:24","新北市土城區峰廷街3號","121.469125","24.98734","6501300","土城區"
"236058","912-UM","2018/01/15 19:29:29","新北市土城區中央路二段63號","121.442708333333","24.9789266666667","6501300","土城區"
"236048","913-UM","2018/01/15 19:29:34","新北市土城區清水路173號","121.459388333333","24.9814883333333","6501300","土城區"
"242009","173-VK","2018/01/15 19:29:20","新北市新莊區三和路12-21號","121.441996666667","25.0386833333333","6500500","新莊區"
"242013","346-TH","2018/01/15 19:29:17","新北市新莊區中和街59巷8號","121.446925","25.0468233333333","6500500","新莊區"
"238015","755-BX","2018/01/15 19:29:39","新北市樹林區復興路231-1號","121.419758333333","24.99055","6500700","樹林區"
"238023","601-UM","2018/01/15 19:29:22","桃園市龜山區萬壽路一段127號","121.408395","25.01861","6500700","樹林區"
"238019","599-UM","2018/01/15 19:29:23","新北市樹林區東榮街57號","121.41736","24.9831666666667","6500700","樹林區"
"238018","571-TV","2018/01/15 19:29:29","新北市樹林區中華路7號","121.424538333333","24.98376","6500700","樹林區"
"238024","5061-A6","2018/01/15 19:29:27","新北市樹林區福德街3號","121.401643333333","24.9756516666667","6500700","樹林區"
"238021","KEA-2217","2018/01/15 19:29:28","新北市樹林區柑園街二段303巷6號","121.371255","24.95055","6500700","樹林區"
"238022","KEA-2213","2018/01/15 19:29:24","新北市樹林區國凱街32-2號","121.419758333333","24.9785433333333","6500700","樹林區"
"238025","303-VK","2018/01/15 19:29:02","新北市樹林區中山路一段2-3號","121.424428333333","24.99322","6500700","樹林區"
"238017","283-BY","2018/01/15 19:29:24","新北市樹林區光興街196號","121.40796","25.004685","6500700","樹林區"
"238014","282-BY","2018/01/15 19:29:21","新北市樹林區保安二街64巷5弄1號","121.424471666667","24.995895","6500700","樹林區"
"238020","268-VK","2018/01/15 19:29:21","新北市樹林區俊英街121巷9號","121.423926666667","25.0101766666667","6500700","樹林區"
"238026","172-UY","2018/01/15 19:29:27","新北市樹林區佳園路二段138號","121.38941","24.9561116666667","6500700","樹林區"
"238016","169-UY","2018/01/15 19:29:34","新北市樹林區復興路410號","121.414376666667","24.9847733333333","6500700","樹林區"
"239007","AAC-297","2018/01/15 19:29:27","新北市鶯歌區大湖路20號","121.342835","24.9610166666667","6500800","鶯歌區"
"239006","891-R6","2018/01/15 19:29:22","新北市鶯歌區鶯桃路91巷33號","121.337991666667","24.9523433333333","6500800","鶯歌區"
"239008","527-UM","2018/01/15 19:29:30","新北市鶯歌區國際二路4巷17號","121.33916","24.9735033333333","6500800","鶯歌區"
"239005","526-UM","2018/01/15 19:29:30","新北市鶯歌區中湖街301巷1號","121.348113333333","24.97714","6500800","鶯歌區"
"239001","417-VK","2018/01/15 19:29:32","新北市鶯歌區建國路489號","121.340355","24.952695","6500800","鶯歌區"
"239003","360-BY","2018/01/15 19:29:27","新北市鶯歌區中山路7號","121.352811666667","24.9569983333333","6500800","鶯歌區"
"239004","193-VK","2018/01/15 19:29:17","新北市鶯歌區二甲路43-3號","121.339873333333","24.9357216666667","6500800","鶯歌區"
"221036","130-UY","2018/01/15 19:29:20","新北市汐止區汐萬路一段256巷1號","121.65173","25.0748383333333","6501100","汐止區"
"221010","269-BY","2018/01/15 19:29:37","新北市汐止區連峰街3巷2號","121.646466666667","25.07662","6501100","汐止區"
"221012","278-VK","2018/01/15 19:29:36","新北市汐止區大同路三段174號","121.67402","25.0750966666667","6501100","汐止區"
"221023","279-VK","2018/01/15 19:29:29","新北市汐止區康寧街611號","121.636173333333","25.070985","6501100","汐止區"
"221027","281-BY","2018/01/15 19:29:23","新北市汐止區忠孝東路9號","121.658303333333","25.0659533333333","6501100","汐止區"
"221029","298-VK","2018/01/15 19:29:17","新北市汐止區康寧街901號","121.65163","25.0749033333333","6501100","汐止區"
"221031","353-TW","2018/01/15 19:25:37","新北市汐止區康寧街901號","121.650946666667","25.07521","6501100","汐止區"
"221008","358-BY","2018/01/15 19:29:19","新北市汐止區明峰街317號","121.625216666667","25.06682","6501100","汐止區"
"221015","567-BX","2018/01/15 19:29:23","新北市汐止區康寧街901號","121.651636666667","25.0749533333333","6501100","汐止區"
"221025","623-UM","2018/01/15 19:29:37","新北市汐止區新台五路二段40號","121.661","25.0653433333333","6501100","汐止區"
"221038","646-BX","2018/01/15 19:29:30","新北市汐止區汐萬路一段39號","121.655328333333","25.0686533333333","6501100","汐止區"
"221033","647-BX","2018/01/15 19:29:21","新北市汐止區南勢街3號","121.627113333333","25.037415","6501100","汐止區"
"221002","707-TV","2018/01/15 19:29:38","新北市汐止區中興路22-1號","121.637083333333","25.0597533333333","6501100","汐止區"
"220079","145-BY","2018/01/15 19:29:35","新北市板橋區建國街23號","121.458043333333","25.0171116666667","6500100","板橋區"
"220080","200-UY","2018/01/15 19:29:29","新北市板橋區大觀路二段37巷89號","121.450333333333","25.0024416666667","6500100","板橋區"
"220101","245-BX","2018/01/15 19:29:23","新北市板橋區萬板路192-2號","121.476733333333","25.0236683333333","6500100","板橋區"
"220096","257-TC","2018/01/15 19:29:39","新北市板橋區大同街35巷21號","121.476843333333","25.0277416666667","6500100","板橋區"
"220072","277-BY","2018/01/15 19:29:37","新北市板橋區篤行路二段154號","121.429456666667","24.9879616666667","6500100","板橋區"
"220071","283-VK","2018/01/15 19:29:22","新北市板橋區忠孝路24巷31號","121.460395","25.0007066666667","6500100","板橋區"
"220094","285-UM","2018/01/15 19:29:40","新北市板橋區吳鳳路38號","121.468431666667","25.0303583333333","6500100","板橋區"
"220053","285-VK","2018/01/15 19:29:22","新北市板橋區永豐街106號","121.476038333333","25.02057","6500100","板橋區"
"220083","286-VK","2018/01/15 19:29:20","新北市板橋區龍興街73巷29號","121.442635","25.0026233333333","6500100","板橋區"
"220081","287-VK","2018/01/15 19:29:22","新北市板橋區南雅南路一段106號","121.454911666667","25.0042866666667","6500100","板橋區"
"220090","288-VK","2018/01/15 19:29:35","新北市板橋區裕民街88號","121.460391666667","25.0281133333333","6500100","板橋區"
"220061","293-UM","2018/01/15 19:29:34","新北市板橋區中山路二段191號","121.476196666667","25.0171483333333","6500100","板橋區"
"220084","296-UM","2018/01/15 19:29:34","新北市板橋區滿平街136巷3弄1號","121.428441666667","24.987715","6500100","板橋區"
"220075","303-R5","2018/01/15 19:29:36","新北市板橋區中正路305巷28弄1號","121.454233333333","25.0185066666667","6500100","板橋區"
"220062","305-R5","2018/01/15 19:29:23","新北市板橋區三民路二段153巷4弄2號","121.479588333333","25.014635","6500100","板橋區"
"220092","307-R5","2018/01/15 19:29:23","新北市板橋區松江街9號","121.468971666667","25.02625","6500100","板橋區"
"220098","317-R6","2018/01/15 19:29:28","新北市板橋區民生路三段263巷10號","121.4637","25.0292383333333","6500100","板橋區"
"220086","461-BY","2018/01/15 19:29:38","新北市板橋區中正路257號","121.455715","25.0184766666667","6500100","板橋區"
"220064","486-VK","2018/01/15 19:29:30","新北市板橋區中山路一段24號","121.460318333333","25.0081716666667","6500100","板橋區"
"220089","487-VK","2018/01/15 19:29:22","新北市板橋區文化路一段123號","121.461876666667","25.0149116666667","6500100","板橋區"
"220088","491-VK","2018/01/15 19:29:32","新北市板橋區縣民大道三段153號","121.4785","25.0239816666667","6500100","板橋區"
"220035","560-BX","2018/01/15 19:29:31","新北市板橋區中正路399巷5號","121.45379","25.0222616666667","6500100","板橋區"
"220103","561-BX","2018/01/15 19:29:31","新北市板橋區文化路一段266號","121.46726","25.0205583333333","6500100","板橋區"
"220063","609-BX","2018/01/15 19:29:32","新北市板橋區三民路一段31巷82號","121.481206666667","25.023315","6500100","板橋區"
"220056","630-UY","2018/01/15 19:29:32","新北市板橋區國慶路49巷19弄14號","121.458896666667","24.9962166666667","6500100","板橋區"
"220091","637-BX","2018/01/15 19:29:28","新北市板橋區文聖街149巷25號","121.479545","25.0286633333333","6500100","板橋區"
"220057","686-BX","2018/01/15 19:29:31","新北市板橋區五權街8-3號","121.464275","24.994145","6500100","板橋區"
"220077","687-BX","2018/01/15 19:29:22","新北市板橋區僑中二街114巷2號","121.44578","25.006875","6500100","板橋區"
"220093","689-BX","2018/01/15 19:29:36","新北市板橋區雨農路30號","121.461281666667","25.0245083333333","6500100","板橋區"
"220054","741-BX","2018/01/15 19:29:31","新北市板橋區光明街86號","121.461888333333","25.0027033333333","6500100","板橋區"
"220055","827-TW","2018/01/15 19:29:38","新北市板橋區重慶路290巷22弄16號","121.46223","24.9995066666667","6500100","板橋區"
"220067","829-TW","2018/01/15 19:29:28","新北市中和區中山路三段120-30號","121.473155","25.00799","6500100","板橋區"
"220102","830-TW","2018/01/15 19:29:38","新北市板橋區雙十路二段130巷2弄3號","121.4743","25.0292016666667","6500100","板橋區"
"220074","895-R6","2018/01/15 19:29:30","新北市板橋區中正路1巷14號","121.455235","25.0117533333333","6500100","板橋區"
"220073","985-R7","2018/01/15 19:29:33","新北市板橋區中正路332號","121.454268333333","25.0222333333333","6500100","板橋區"
"220097","AAC-210","2018/01/15 19:29:33","新北市板橋區陽明街239號","121.463166666667","25.024505","6500100","板橋區"
"220070","AAC-253","2018/01/15 19:29:28","新北市板橋區四川路一段159號","121.459978333333","25.0037983333333","6500100","板橋區"
