"lineid","car","time","location","longitude","latitude","cityid","cityname"
"234046","148-BY","2018/01/15 19:39:23","新北市永和區秀朗路二段231號","121.526453333333","25.000285","6500400","永和區"
"234042","149-BY","2018/01/15 19:39:27","新北市永和區永貞路271號","121.511666666667","25.0047416666667","6500400","永和區"
"234007","207-UY","2018/01/15 19:39:24","新北市中和區中和路464號","121.512383333333","25.0039016666667","6500400","永和區"
"234081","298-R6","2018/01/15 19:39:30","新北市永和區國中路104巷10號","121.524721666667","25.0071183333333","6500400","永和區"
"234038","336-UY","2018/01/15 19:39:22","新北市永和區成功路二段3號","121.526858333333","25.0014733333333","6500400","永和區"
"234064","337-UY","2018/01/15 19:39:28","新北市永和區秀朗路一段192巷6弄14號","121.519235","25.0021966666667","6500400","永和區"
"234086","338-UY","2018/01/15 19:39:29","新北市永和區林森路29巷8號","121.526256666667","25.0048583333333","6500400","永和區"
"234054","553-UM","2018/01/15 19:39:19","新北市永和區竹林路54號","121.517871666667","25.0141116666667","6500400","永和區"
"234017","745-BX","2018/01/15 19:39:24","新北市永和區環河西路一段1號","121.515245","25.0179983333333","6500400","永和區"
"234028","746-BX","2018/01/15 19:39:23","新北市永和區民生路37巷11號","121.523855","24.9980166666667","6500400","永和區"
"234013","KEA-2591","2018/01/15 19:39:14","新北市永和區永平路222號","121.509095","25.0106","6500400","永和區"
"234061","AAD-866","2018/01/15 19:39:25","新北市永和區永貞路190號","121.516073333333","25.0042033333333","6500400","永和區"
"234068","847-RS","2018/01/15 19:39:20","新北市永和區永和路二段233號","121.515585","25.0141433333333","6500400","永和區"
"234050","863-TW","2018/01/15 19:39:31","新北市永和區保福路二段140號","121.5096","25.0144183333333","6500400","永和區"
"234026","9371-KE","2018/01/15 19:39:26","新北市永和區中和路503號","121.510706666667","25.0023233333333","6500400","永和區"
"249004","303-UY","2018/01/15 19:39:24","新北市八里區博物館路29號","121.413901666667","25.1627133333333","6502300","八里區"
"249002","305-UY","2018/01/15 19:39:24","新北市八里區頂寮三街72號","121.45046","25.1251083333333","6502300","八里區"
"249003","593-UM","2018/01/15 19:39:13","新北市八里區華峰三街29號","121.399375","25.14592","6502300","八里區"
"248014","025-BX","2018/01/15 19:39:12","新北市五股區民義路一段172巷11號","121.433513333333","25.0881533333333","6501500","五股區"
"248016","026-BX","2018/01/15 19:39:28","新北市五股區成泰路三段482號","121.45195","25.1016816666667","6501500","五股區"
"248008","095-VK","2018/01/15 19:39:12","新北市五股區四維路116-2號","121.467905","25.074525","6501500","五股區"
"248018","225-UY","2018/01/15 19:32:00","新北市五股區壟路16號","121.415538333333","25.08536","6501500","五股區"
"248012","247-BX","2018/01/15 19:39:19","新北市五股區民義路一段48號","121.436896666667","25.0847983333333","6501500","五股區"
"248010","272-BY","2018/01/15 19:39:14","新北市五股區自強路90巷72號","121.430763333333","25.0712716666667","6501500","五股區"
"248004","677-BX","2018/01/15 19:39:25","新北市五股區成泰路二段7號","121.437035","25.081315","6501500","五股區"
"248002","678-BX","2018/01/15 19:39:17","新北市五股區成泰路三段577巷49號","121.45074","25.10315","6501500","五股區"
"234077","969-R7","2018/01/15 19:39:15","新北市永和區民治街59巷11號","121.518743333333","24.9972233333333","6500400","永和區"
"234074","AAC-211","2018/01/15 19:39:12","新北市永和區福和路174號","121.520961666667","25.0078116666667","6500400","永和區"
"234067","AAC-212","2018/01/15 19:39:26","新北市永和區永貞路406巷28號","121.50976","25.0079366666667","6500400","永和區"
"234003","AAC-295","2018/01/15 19:39:22","新北市永和區永和路一段42號","121.513056666667","25.0055683333333","6500400","永和區"
"243012","AAD-798","2018/01/15 19:39:17","新北市泰山區仁愛路100巷55號","121.433798333333","25.0548466666667","6501600","泰山區"
"243011","297-R6","2018/01/15 19:39:18","新北市泰山區明志路三段204巷12號","121.422031666667","25.0382933333333","6501600","泰山區"
"243015","380-SR","2018/01/15 19:39:10","新北市泰山區民權街51號","121.428968333333","25.05049","6501600","泰山區"
"243014","421-VK","2018/01/15 19:39:16","新北市泰山區泰林路二段33-7號","121.435261666667","25.0564383333333","6501600","泰山區"
"243010","KEA-2215","2018/01/15 19:39:09","新北市泰山區仁義路220巷53號","121.431965","25.0527133333333","6501600","泰山區"
"243009","KEA-2216","2018/01/15 19:39:20","新北市泰山區美寧街58號","121.430868333333","25.0647233333333","6501600","泰山區"
"243013","646-TV","2018/01/15 19:39:30","新北市泰山區應化街13號","121.423865","25.0437016666667","6501600","泰山區"
"243016","680-BX","2018/01/15 19:39:29","新北市泰山區中山路三段114號","121.417908333333","25.0321266666667","6501600","泰山區"
"222003","016-RS","2018/01/15 19:34:06","新北市深坑區深南路51-1號","121.621373333333","25.0096483333333","6501800","深坑區"
"222002","659-BX","2018/01/15 19:39:30","新北市深坑區北深路一段177號","121.632516666667","25.0108533333333","6501800","深坑區"
"231041","002-UM","2018/01/15 19:39:25","新北市新店區中正路500號","121.534005","24.9821866666667","6500600","新店區"
"231059","046-UY","2018/01/15 19:39:16","新北市新店區安和路2段237-1號","121.51689","24.97662","6500600","新店區"
"231061","047-UY","2018/01/15 19:39:18","新北市新店區安民街172號","121.516798333333","24.9707833333333","6500600","新店區"
"231060","106-UY","2018/01/15 19:39:15","新北市新店區安康路二段161號","121.510186666667","24.959335","6500600","新店區"
"231051","107-UY","2018/01/15 19:39:24","新北市新店區中央四街54號","121.52754","24.9750633333333","6500600","新店區"
"231047","108-UY","2018/01/15 19:39:24","新北市新店區中興路一段288巷7號","121.546376666667","24.96881","6500600","新店區"
"231052","187-VK","2018/01/15 19:39:19","新北市新店區新烏路二段336號","121.550616666667","24.91014","6500600","新店區"
"231050","KEA-2219","2018/01/15 19:39:15","新北市新店區郵政路2巷1號","121.557238333333","24.9518033333333","6500600","新店區"
"231046","278-BY","2018/01/15 19:39:15","新北市新店區中正路329巷5弄2號","121.535245","24.9743433333333","6500600","新店區"
"231054","AAD-862","2018/01/15 19:39:13","新北市新店區文中路40號","121.539696666667","24.9564933333333","6500600","新店區"
"231058","3712-VJ","2018/01/15 19:39:15","新北市新店區北新路一段96巷23號","121.542775","24.968975","6500600","新店區"
"231056","3713-VJ","2018/01/15 19:39:19","新北市新店區安民街379巷28號","121.515366666667","24.9760966666667","6500600","新店區"
"231067","4772-VM","2018/01/15 19:39:14","新北市新店區精忠路2號","121.53306","24.959705","6500600","新店區"
"231065","512-UM","2018/01/15 19:39:24","新北市新店區安祥路109巷43號","121.476731666667","24.959545","6500600","新店區"
"231064","515-UM","2018/01/15 19:39:21","新北市新店區安和路一段52巷2號","121.517663333333","24.96624","6500600","新店區"
"231040","619-UM","2018/01/15 19:39:22","新北市新店區北新路一段96巷23號","121.543026666667","24.968765","6500600","新店區"
"231042","641-BX","2018/01/15 19:39:22","新北市新店區中興路一段216號","121.543865","24.96581","6500600","新店區"
"231063","645-TV","2018/01/15 19:39:29","新北市新店區達觀路43號","121.503053333333","24.938055","6500600","新店區"
"231049","719-UM","2018/01/15 19:39:22","新北市新店區大豐路55號","121.539925","24.9796766666667","6500600","新店區"
"231062","720-UM","2018/01/15 19:39:19","新北市新店區碧潭路40號","121.534233333333","24.9565033333333","6500600","新店區"
"231044","897-TW","2018/01/15 19:39:23","新北市新店區北新路三段87號","121.541425","24.98163","6500600","新店區"
"231045","898-TW","2018/01/15 19:39:18","新北市新店區北宜路二段150-1號","121.557811666667","24.9539383333333","6500600","新店區"
"231043","899-TW","2018/01/15 19:39:17","新北市新店區中正路141號","121.541628333333","24.9715366666667","6500600","新店區"
"241011","013-R5","2018/01/15 19:39:14","新北市三重區秀江街166號","121.498195","25.0717166666667","6500200","三重區"
"241028","022-UY","2018/01/15 19:39:14","新北市三重區中正南路165號","121.49381","25.055905","6500200","三重區"
"241008","059-VK","2018/01/15 19:39:13","新北市三重區永福街137號","121.478641666667","25.0767016666667","6500200","三重區"
"241009","060-VK","2018/01/15 19:39:19","新北市三重區永安北路一段105-1號","121.480128333333","25.0793583333333","6500200","三重區"
"241031","061-VK","2018/01/15 19:39:32","新北市三重區重新路四段248號","121.486131666667","25.0534316666667","6500200","三重區"
"241015","062-VK","2018/01/15 19:39:19","新北市三重區福德北路30號","121.502156666667","25.0650183333333","6500200","三重區"
"241017","063-VK","2018/01/15 19:39:28","新北市三重區大同北路184巷10號","121.491441666667","25.065665","6500200","三重區"
"241026","066-VK","2018/01/15 19:39:13","新北市三重區光興街1號","121.500365","25.0604566666667","6500200","三重區"
"241020","156-TC","2018/01/15 19:39:24","新北市三重區三和路四段20巷77號","121.489273333333","25.0734983333333","6500200","三重區"
"241022","267-UM","2018/01/15 19:39:13","新北市三重區中正北路166號","121.48436","25.0661266666667","6500200","三重區"
"241018","268-UM","2018/01/15 19:39:22","新北市三重區大智街59號","121.492681666667","25.0678933333333","6500200","三重區"
"241032","269-UM","2018/01/15 19:39:30","新北市三重區重陽路一段60巷53號","121.484796666667","25.0582333333333","6500200","三重區"
"241013","270-UM","2018/01/15 19:39:11","新北市三重區仁愛街141巷22號","121.496821666667","25.075945","6500200","三重區"
"241025","271-UM","2018/01/15 19:39:23","新北市三重區頂崁街189號","121.477533333333","25.0664","6500200","三重區"
"241007","398-BY","2018/01/15 19:39:25","新北市三重區三和路四段125巷78號","121.487371666667","25.0786533333333","6500200","三重區"
"241035","462-BY","2018/01/15 19:39:27","新北市三重區信義西街48號","121.498145","25.0646966666667","6500200","三重區"
"241019","478-VK","2018/01/15 19:39:27","新北市三重區六張街194巷1弄1號","121.488396666667","25.0682366666667","6500200","三重區"
"241030","480-VK","2018/01/15 19:39:28","新北市三重區新興路28巷14號","121.49178","25.0529216666667","6500200","三重區"
"241014","543-UM","2018/01/15 19:39:12","新北市三重區河邊北街92巷1號","121.504103333333","25.0695316666667","6500200","三重區"
"241023","545-UM","2018/01/15 19:39:20","新北市三重區忠孝路三段99巷23弄3號","121.47942","25.06468","6500200","三重區"
"241006","AAD-863","2018/01/15 19:39:20","新北市三重區聯華街135號","121.484685","25.0750133333333","6500200","三重區"
"241012","941-UM","2018/01/15 19:39:32","新北市三重區河邊北街256巷39號","121.500413333333","25.0758816666667","6500200","三重區"
"241029","942-UM","2018/01/15 19:39:28","新北市三重區同安街139號","121.493265","25.056075","6500200","三重區"
"235066","003-UY","2018/01/15 19:39:30","新北市中和區景新街135號","121.505845","24.9970916666667","6500300","中和區"
"235064","005-UY","2018/01/15 19:39:29","新北市中和區南山路75號","121.502048333333","24.9981683333333","6500300","中和區"
"235063","006-UY","2018/01/15 19:39:12","新北市中和區連城路203巷10弄6號","121.494823333333","24.9972816666667","6500300","中和區"
"235046","031-BX","2018/01/15 19:39:24","新北市中和區信義街115號","121.512111666667","24.9868316666667","6500300","中和區"
"235056","096-UM","2018/01/15 19:39:20","新北市中和區員山路581巷2弄26號","121.477476666667","25.0100033333333","6500300","中和區"
"235039","097-UM","2018/01/15 19:39:21","新北市中和區秀峰街119巷8弄9號","121.519056666667","24.9898866666667","6500300","中和區"
"235065","098-UM","2018/01/15 19:39:15","新北市中和區永和路66巷1-1號","121.498628333333","25.0046666666667","6500300","中和區"
"235040","150-BY","2018/01/15 19:39:25","新北市中和區保健路44巷28號","121.508836666667","24.9964883333333","6500300","中和區"
"235058","151-BY","2018/01/15 19:39:21","新北市中和區員山路124巷26號","121.482288333333","24.995985","6500300","中和區"
"235055","183-VK","2018/01/15 19:39:29","新北市中和區中山路三段183號","121.47273","25.006115","6500300","中和區"
"235038","185-VK","2018/01/15 19:39:24","新北市中和區自立路139巷8號","121.522573333333","24.9938","6500300","中和區"
"235049","186-VK","2018/01/15 19:39:17","新北市中和區景新街269號","121.509098333333","24.9939633333333","6500300","中和區"
"235067","255-BX","2018/01/15 19:39:15","新北市中和區新生街242巷11弄1號","121.482956666667","24.997575","6500300","中和區"
"235044","293-VK","2018/01/15 19:39:08","新北市中和區南山路316號","121.507935","24.9867533333333","6500300","中和區"
"235043","352-BY","2018/01/15 19:39:31","新北市中和區興南路一段9號","121.511415","24.991065","6500300","中和區"
"235068","377-QA","2018/01/15 19:38:54","新北市中和區中和路53號","121.500448333333","25.0014666666667","6500300","中和區"
"235061","378-QA","2018/01/15 19:39:30","新北市中和區民利街52號","121.479273333333","24.9987516666667","6500300","中和區"
"235050","4979-A6","2018/01/15 19:39:27","新北市中和區中正路637巷52弄1號","121.485478333333","24.9934733333333","6500300","中和區"
"235042","551-UM","2018/01/15 19:39:12","新北市中和區中和路262巷43弄6號","121.509755","24.99956","6500300","中和區"
"235070","558-UM","2018/01/15 19:38:54","新北市中和區景平路634-5號","121.499305","24.999255","6500300","中和區"
"235045","565-BX","2018/01/15 19:39:16","新北市中和區景新街462號","121.513385","24.9877133333333","6500300","中和區"
"235054","640-BX","2018/01/15 19:39:20","新北市中和區國光街85巷10號","121.470453333333","24.9999466666667","6500300","中和區"
"235060","647-TV","2018/01/15 19:39:29","新北市中和區新生街52號","121.483143333333","25.00292","6500300","中和區"
"235047","732-UM","2018/01/15 19:39:12","新北市中和區景平路371號","121.50422","24.9932133333333","6500300","中和區"
"235057","801-TS","2018/01/15 19:39:24","新北市中和區員山路437-3號","121.480786666667","25.003945","6500300","中和區"
"235052","805-TS","2018/01/15 19:39:24","新北市中和區華新街206巷20號","121.506203333333","24.982745","6500300","中和區"
"235048","896-TW","2018/01/15 19:39:24","新北市中和區忠孝街46號","121.51096","24.983385","6500300","中和區"
"235053","900-TW","2018/01/15 19:39:20","新北市中和區華順街30巷10號","121.467186666667","24.9989483333333","6500300","中和區"
"235051","157-BY","2018/01/15 19:39:15","新北市中和區南山路231號","121.503583333333","24.9932916666667","6500300","中和區"
"235037","AAC-213","2018/01/15 19:39:18","新北市中和區秀朗路三段10巷29弄5號","121.525055","24.9959983333333","6500300","中和區"
"235059","AAC-215","2018/01/15 19:39:15","新北市中和區錦和路366號","121.49065","24.9911583333333","6500300","中和區"
"220065","072-UY","2018/01/15 19:39:29","新北市板橋區國泰街2號","121.46927","25.0068783333333","6500100","板橋區"
"220106","075-UY","2018/01/15 19:39:15","新北市板橋區文化路二段331號","121.472545","25.0301383333333","6500100","板橋區"
"220069","AAD-861","2018/01/15 19:39:15","新北市板橋區縣民大道一段64巷2號","121.455225","25.0039366666667","6500100","板橋區"
"247008","341-TH","2018/01/15 19:39:10","新北市蘆洲區中山一路121號","121.476076666667","25.0816383333333","6501400","蘆洲區"
"247004","336-TH","2018/01/15 19:39:29","新北市蘆洲區中華街38號","121.4624","25.0811516666667","6501400","蘆洲區"
"226004","205-ST","2018/01/15 19:39:21","新北市平溪區南山里南山坪11-2號","121.764898333333","25.032205","6502400","平溪區"
"235041","251-BX","2018/01/15 19:39:30","新北市中和區永貞路249巷12號","121.512496666667","25.0036533333333","6500300","中和區"
"228003","097-TW","2018/01/15 19:39:28","新北市貢寮區真理里美艷山街15-3號","121.923758333333","25.0679616666667","6502600","貢寮區"
"228001","212-TW","2018/01/15 19:39:14","新北市貢寮區真理里延平街49號","121.92458","25.0556216666667","6502600","貢寮區"
"224010","AGQ-8101","2018/01/15 19:39:27","新北市瑞芳區基山街271號","121.840878333333","25.107635","6501200","瑞芳區"
"224002","639-TC","2018/01/15 19:39:23","新北市瑞芳區民享新村22號","121.817033333333","25.1055266666667","6501200","瑞芳區"
"224008","275-VK","2018/01/15 19:39:27","新北市瑞芳區一坑路189號","121.801818333333","25.109055","6501200","瑞芳區"
"227008","642-TC","2018/01/15 19:39:15","新北市雙溪區新基里新基北街20號","121.86722","25.0388616666667","6502500","雙溪區"
"227001","400-TW","2018/01/15 19:39:30","新北市雙溪區雙溪里太平路7號","121.864093333333","25.0351233333333","6502500","雙溪區"
"222001","KEA-2212","2018/01/15 19:39:15","新北市深坑區深坑街158號","121.61283","25.0014116666667","6501800","深坑區"
"208002","742-BX","2018/01/15 19:39:21","新北市金山區三民街5號","121.634781666667","25.222455","6502700","金山區"
"208003","665-BX","2018/01/15 19:39:15","新北市金山區仁愛路15號","121.63771","25.21929","6502700","金山區"
"208001","761-BX","2018/01/15 19:39:20","新北市金山區六股里下六股35-1號","121.620031666667","25.22139","6502700","金山區"
"251009","008-UM","2018/01/15 19:39:11","新北市淡水區中山北路一段198巷13號","121.44537","25.1792766666667","6501000","淡水區"
"251004","009-UM","2018/01/15 19:39:11","新北市淡水區中正東路二段88巷41號","121.45968","25.142865","6501000","淡水區"
"251005","010-UM","2018/01/15 19:39:32","新北市淡水區原德路108巷1號","121.443438333333","25.17374","6501000","淡水區"
"251013","179-VK","2018/01/15 19:39:29","新北市淡水區頂田寮路143號","121.461268333333","25.2161616666667","6501000","淡水區"
"251014","180-VK","2018/01/15 19:39:11","新北市淡水區桂竹圍4-1號","121.47459","25.231975","6501000","淡水區"
"251008","181-VK","2018/01/15 19:39:17","新北市淡水區中正路一段8巷1弄11號","121.428253333333","25.176105","6501000","淡水區"
"251015","182-VK","2018/01/15 19:39:15","新北市淡水區北新路三段168號","121.492611666667","25.192445","6501000","淡水區"
"251010","413-VK","2018/01/15 19:39:17","新北市淡水區崁頂三路135號","121.431403333333","25.20095","6501000","淡水區"
"251012","441-VK","2018/01/15 19:39:28","新北市淡水區中山北路三段162號","121.445671666667","25.196385","6501000","淡水區"
"251016","442-VK","2018/01/15 19:39:27","新北市淡水區淡金路三段350巷18號","121.4508","25.2083666666667","6501000","淡水區"
"251001","559-UM","2018/01/15 19:39:29","新北市淡水區民權路49號","121.459695","25.1392533333333","6501000","淡水區"
"251006","561-UM","2018/01/15 19:39:25","新北市淡水區中山北路一段207巷66號","121.441801666667","25.1793683333333","6501000","淡水區"
"251007","577-R6","2018/01/15 19:39:23","新北市淡水區中正東路一段111巷28-1號","121.45567","25.1608116666667","6501000","淡水區"
"251011","650-BX","2018/01/15 19:39:33","新北市淡水區八勢路50巷7號","121.463608333333","25.1513933333333","6501000","淡水區"
"251002","672-BX","2018/01/15 19:39:14","新北市淡水區下圭柔山90-8號","121.431251666667","25.2102716666667","6501000","淡水區"
"207003","550-UM","2018/01/15 19:39:17","新北市萬里區大鵬里萬里加投301-2號","121.645443333333","25.2204466666667","6502800","萬里區"
"207004","225-TW","2018/01/15 19:39:26","新北市萬里區萬里里瑪鋉路21號","121.687256666667","25.1753283333333","6502800","萬里區"
"252002","178-VK","2018/01/15 19:39:23","新北市三芝區三民街29號","121.504518333333","25.2585383333333","6502100","三芝區"
"252001","292-VK","2018/01/15 19:39:29","新北市三芝區公正街9號","121.49974","25.2574766666667","6502100","三芝區"
"237004","078-UY","2018/01/15 19:39:15","新北市三峽區插角128號","121.407675","24.8703533333333","6500900","三峽區"
"237007","153-BY","2018/01/15 19:39:09","新北市三峽區中正路二段584巷4弄5號","121.35909","24.9067816666667","6500900","三峽區"
"237009","210-TH","2018/01/15 19:39:18","新北市三峽區中園街47號","121.368203333333","24.9261483333333","6500900","三峽區"
"237013","252-BX","2018/01/15 19:39:24","新北市三峽區介壽路二段30號","121.390885","24.9352166666667","6500900","三峽區"
"237012","275-BY","2018/01/15 19:39:24","新北市三峽區三樹路17號","121.377533333333","24.9374733333333","6500900","三峽區"
"237008","302-VK","2018/01/15 19:39:23","新北市三峽區永安街151號","121.373401666667","24.9278716666667","6500900","三峽區"
"237014","433-BY","2018/01/15 19:39:23","新北市三峽區大利路18號","121.366838333333","24.9116566666667","6500900","三峽區"
"237006","5529-G3","2018/01/15 19:39:13","新北市三峽區中正路一段336巷15弄2號","121.369958333333","24.9249133333333","6500900","三峽區"
"237015","649-BX","2018/01/15 19:39:25","新北市三峽區成福路102號","121.421001666667","24.9299383333333","6500900","三峽區"
"237005","AKY-6261","2018/01/15 19:39:24","新北市三峽區中山路167-1號","121.364453333333","24.93653","6500900","三峽區"
"236069","105-UM","2018/01/15 19:39:14","新北市土城區明德路二段8巷5號","121.45184","24.9812433333333","6501300","土城區"
"236042","107-UM","2018/01/15 19:39:24","新北市土城區學士路13號","121.453645","24.9828033333333","6501300","土城區"
"236078","166-UM","2018/01/15 19:22:06","新北市土城區中央路四段295號","121.41133","24.9522166666667","6501300","土城區"
"236030","253-BX","2018/01/15 19:39:19","新北市土城區福祥街73號","121.441116666667","24.9807916666667","6501300","土城區"
"236026","269-VK","2018/01/15 19:39:18","新北市土城區中央路二段61巷26號","121.443315","24.978645","6501300","土城區"
"236036","271-VK","2018/01/15 19:39:21","新北市土城區清水路98巷3弄45號","121.458565","24.9808483333333","6501300","土城區"
"236020","401-BY","2018/01/15 19:39:24","新北市土城區峰廷街3號","121.469168333333","24.98734","6501300","土城區"
"236058","912-UM","2018/01/15 19:39:29","新北市土城區中央路二段63號","121.442681666667","24.97893","6501300","土城區"
"236048","913-UM","2018/01/15 19:39:23","新北市土城區明德路一段51號","121.465325","24.9848866666667","6501300","土城區"
"236062","915-UM","2018/01/15 19:39:12","新北市土城區延平街56號","121.467916666667","24.992465","6501300","土城區"
"236053","AAC-216","2018/01/15 19:39:30","新北市土城區學府路一段117號","121.455481666667","24.987395","6501300","土城區"
"242031","AAC-296","2018/01/15 19:39:23","新北市新莊區新泰路213巷46號","121.445373333333","25.038435","6500500","新莊區"
"242027","612-BX","2018/01/15 19:39:19","新北市新莊區新泰路357巷3弄57號","121.442196666667","25.039305","6500500","新莊區"
"242048","441-UM","2018/01/15 19:39:27","新北市新莊區民安路37巷3號","121.423811666667","25.0268616666667","6500500","新莊區"
"242004","413-TV","2018/01/15 19:39:31","新北市新莊區復興路三段48號","121.461676666667","25.0444916666667","6500500","新莊區"
"242036","133-UY","2018/01/15 19:39:27","新北市新莊區民安路181巷2弄9號","121.42652","25.022655","6500500","新莊區"
"242009","173-VK","2018/01/15 19:39:20","新北市新莊區三和路12-21號","121.442013333333","25.0386983333333","6500500","新莊區"
"242013","346-TH","2018/01/15 19:39:17","新北市新莊區中誠街121巷7號","121.44944","25.0471883333333","6500500","新莊區"
"242019","348-TH","2018/01/15 19:39:15","新北市新莊區三和路12-16號","121.442268333333","25.0374633333333","6500500","新莊區"
"242017","350-TH","2018/01/15 19:39:29","新北市新莊區公園路24號","121.448491666667","25.0391033333333","6500500","新莊區"
"238015","755-BX","2018/01/15 19:39:24","新北市樹林區日新街109號","121.421403333333","24.9898683333333","6500700","樹林區"
"238023","601-UM","2018/01/15 19:39:22","新北市樹林區三福街38號","121.408115","25.0164583333333","6500700","樹林區"
"238019","599-UM","2018/01/15 19:39:23","新北市樹林區中山路三段210-2號","121.381313333333","24.96565","6500700","樹林區"
"238024","5061-A6","2018/01/15 19:39:27","新北市樹林區山佳街5號","121.394296666667","24.972875","6500700","樹林區"
"238021","KEA-2217","2018/01/15 19:39:23","新北市樹林區大成路155-1號","121.381603333333","24.9489583333333","6500700","樹林區"
"238022","KEA-2213","2018/01/15 19:39:24","新北市樹林區名園街65號","121.420141666667","24.9778166666667","6500700","樹林區"
"238025","303-VK","2018/01/15 19:39:22","新北市樹林區中山路二段64號","121.416038333333","24.984275","6500700","樹林區"
"238017","283-BY","2018/01/15 19:39:24","新北市樹林區光興街8號","121.412478333333","25.0028666666667","6500700","樹林區"
"238014","282-BY","2018/01/15 19:39:21","新北市樹林區千歲街30巷26弄9號","121.426308333333","24.9958283333333","6500700","樹林區"
"238020","268-VK","2018/01/15 19:39:21","新北市樹林區俊英街83巷2號","121.425713333333","25.00826","6500700","樹林區"
"238026","172-UY","2018/01/15 19:39:27","新北市樹林區佳園路二段15巷9弄6號","121.39419","24.9634016666667","6500700","樹林區"
"238016","169-UY","2018/01/15 19:39:19","新北市樹林區東和街18巷6號","121.404145","24.98136","6500700","樹林區"
"239007","AAC-297","2018/01/15 19:39:27","新北市鶯歌區大湖路326巷30號","121.34618","24.969715","6500800","鶯歌區"
"239006","891-R6","2018/01/15 19:39:22","新北市鶯歌區建國路512巷1號","121.340465","24.95104","6500800","鶯歌區"
"239008","527-UM","2018/01/15 19:39:30","新北市鶯歌區大湖路468巷8號","121.33971","24.9725416666667","6500800","鶯歌區"
"239004","193-VK","2018/01/15 19:39:17","新北市鶯歌區二甲路61號","121.335385","24.933355","6500800","鶯歌區"
"221036","130-UY","2018/01/15 19:39:20","新北市汐止區汐萬路一段256巷1號","121.651776666667","25.07487","6501100","汐止區"
"221010","269-BY","2018/01/15 19:39:17","新北市汐止區汐萬路二段37巷1號","121.64945","25.081225","6501100","汐止區"
"221012","278-VK","2018/01/15 19:39:24","新北市汐止區汐平路一段5號","121.680783333333","25.0712","6501100","汐止區"
"221023","279-VK","2018/01/15 19:39:29","新北市汐止區中興路286巷1號","121.628221666667","25.0695566666667","6501100","汐止區"
"221032","280-BY","2018/01/15 19:39:22","新北市汐止區新台五路一段116號","121.649121666667","25.06145","6501100","汐止區"
"221027","281-BY","2018/01/15 19:39:24","新北市汐止區忠孝東路9號","121.658308333333","25.0659416666667","6501100","汐止區"
"221029","298-VK","2018/01/15 19:39:17","新北市汐止區康寧街901號","121.65158","25.0749116666667","6501100","汐止區"
"221021","299-VK","2018/01/15 19:39:16","新北市汐止區大同路二段175號","121.65155","25.0641016666667","6501100","汐止區"
"221031","353-TW","2018/01/15 19:39:21","新北市汐止區康寧街901號","121.650948333333","25.0752016666667","6501100","汐止區"
"221008","358-BY","2018/01/15 19:39:19","新北市汐止區康寧街139號","121.621353333333","25.0666866666667","6501100","汐止區"
"221015","567-BX","2018/01/15 19:39:23","新北市汐止區康寧街901號","121.650958333333","25.0751866666667","6501100","汐止區"
"221025","623-UM","2018/01/15 19:39:18","新北市汐止區福安街20巷22號","121.66187","25.0646566666667","6501100","汐止區"
"221038","646-BX","2018/01/15 19:39:30","新北市汐止區忠孝東路225號","121.662333333333","25.0669433333333","6501100","汐止區"
"221033","647-BX","2018/01/15 19:39:21","新北市汐止區南勢街3號","121.627095","25.037375","6501100","汐止區"
"221002","707-TV","2018/01/15 19:39:27","新北市汐止區大同路一段219巷14號","121.633355","25.058155","6501100","汐止區"
"220079","145-BY","2018/01/15 19:39:16","新北市板橋區建國街101號","121.459986666667","25.0174216666667","6500100","板橋區"
"220080","200-UY","2018/01/15 19:39:24","新北市板橋區大觀路二段37巷266號","121.449865","25.0015616666667","6500100","板橋區"
"220101","245-BX","2018/01/15 19:39:28","新北市板橋區縣民大道三段33巷15號","121.473848333333","25.021135","6500100","板橋區"
"220096","257-TC","2018/01/15 19:39:19","新北市板橋區民生路二段226巷8弄1號","121.470401666667","25.02172","6500100","板橋區"
"220072","277-BY","2018/01/15 19:39:27","新北市板橋區金門街253巷12號","121.432891666667","24.988235","6500100","板橋區"
"220071","283-VK","2018/01/15 19:39:22","新北市板橋區信義路107-1號","121.457546666667","24.993465","6500100","板橋區"
"220094","285-UM","2018/01/15 19:39:19","新北市板橋區銘傳街106號","121.469985","25.031785","6500100","板橋區"
"220053","285-VK","2018/01/15 19:39:21","新北市板橋區民享街91號","121.47698","25.015975","6500100","板橋區"
"220083","286-VK","2018/01/15 19:39:19","新北市板橋區龍興街71巷5號","121.443558333333","25.0018766666667","6500100","板橋區"
"220081","287-VK","2018/01/15 19:39:22","新北市板橋區大觀路一段75巷17號","121.447945","25.00439","6500100","板橋區"
"220090","288-VK","2018/01/15 19:39:15","新北市板橋區長江路一段48巷12號","121.45945","25.0279666666667","6500100","板橋區"
"220061","293-UM","2018/01/15 19:39:12","新北市板橋區中山路一段265巷36弄1號","121.469071666667","25.01521","6500100","板橋區"
"220084","296-UM","2018/01/15 19:39:14","新北市板橋區滿平街84巷110弄26號","121.425898333333","24.985755","6500100","板橋區"
"220075","303-R5","2018/01/15 19:39:16","新北市板橋區南雅西路二段301巷50弄23號","121.452358333333","25.0171233333333","6500100","板橋區"
"220062","305-R5","2018/01/15 19:39:23","新北市板橋區三民路二段81巷23號","121.480381666667","25.0167566666667","6500100","板橋區"
"220092","307-R5","2018/01/15 19:39:31","新北市板橋區文化路一段387巷25號","121.465821666667","25.0222316666667","6500100","板橋區"
"220098","317-R6","2018/01/15 19:39:26","新北市板橋區四維路269巷39號","121.461616666667","25.02748","6500100","板橋區"
"220086","461-BY","2018/01/15 19:39:29","新北市板橋區國光路12號","121.456826666667","25.0173883333333","6500100","板橋區"
"220064","486-VK","2018/01/15 19:39:30","新北市板橋區中山路一段72號","121.461686666667","25.00993","6500100","板橋區"
"220089","487-VK","2018/01/15 19:39:21","新北市板橋區雨農路19號","121.461635","25.0243833333333","6500100","板橋區"
"220088","491-VK","2018/01/15 19:39:12","新北市板橋區文化路二段331號","121.472648333333","25.030375","6500100","板橋區"
"220035","560-BX","2018/01/15 19:39:29","新北市板橋區金華街85巷19號","121.458386666667","25.0214133333333","6500100","板橋區"
"220103","561-BX","2018/01/15 19:39:30","新北市板橋區文化路一段290號","121.467525","25.021385","6500100","板橋區"
"220063","609-BX","2018/01/15 19:39:32","新北市板橋區中山路二段539巷16號","121.483105","25.0223816666667","6500100","板橋區"
"220056","630-UY","2018/01/15 19:39:12","新北市板橋區四川路二段47巷2弄1號","121.454058333333","24.9949633333333","6500100","板橋區"
"220091","637-BX","2018/01/15 19:39:28","新北市板橋區懷德街139巷21號","121.479951666667","25.0308816666667","6500100","板橋區"
"220057","686-BX","2018/01/15 19:39:31","新北市板橋區國慶路18號","121.459463333333","24.9948716666667","6500100","板橋區"
"220077","687-BX","2018/01/15 19:39:22","新北市板橋區僑中二街90巷2號","121.446436666667","25.0091466666667","6500100","板橋區"
"220093","689-BX","2018/01/15 19:39:14","新北市板橋區長江路一段1號","121.457515","25.028565","6500100","板橋區"
"220054","741-BX","2018/01/15 19:39:11","新北市板橋區忠孝路190號","121.46504","25.0026416666667","6500100","板橋區"
"220055","827-TW","2018/01/15 19:39:23","新北市板橋區國慶路149巷13弄1-2號","121.460906666667","24.99713","6500100","板橋區"
"220067","829-TW","2018/01/15 19:39:28","新北市板橋區漢生東路299巷30號","121.472653333333","25.00873","6500100","板橋區"
"220102","830-TW","2018/01/15 19:39:25","新北市板橋區文化路二段410巷21號","121.474578333333","25.0307316666667","6500100","板橋區"
"220074","895-R6","2018/01/15 19:39:30","新北市板橋區府中路34號","121.457771666667","25.0095616666667","6500100","板橋區"
"220073","985-R7","2018/01/15 19:39:13","新北市板橋區國光路49巷17號","121.458885","25.01882","6500100","板橋區"
"220097","AAC-210","2018/01/15 19:39:15","新北市板橋區幸福路32巷2弄3號","121.461903333333","25.0210066666667","6500100","板橋區"
"220070","AAC-253","2018/01/15 19:39:28","新北市板橋區民族路201號","121.469016666667","25.0073783333333","6500100","板橋區"
