"lineid","car","time","location","longitude","latitude","cityid","cityname"
"247008","341-TH","2018/01/15 21:59:10","新北市八里區中山路三段383號","121.372056666667","25.1375383333333","6501400","蘆洲區"
"251004","009-UM","2018/01/15 21:59:31","新北市淡水區自強路51號","121.459198333333","25.1299833333333","6501000","淡水區"
"251005","010-UM","2018/01/15 21:59:32","新北市淡水區鄧公路30巷1弄65號","121.454503333333","25.1696533333333","6501000","淡水區"
"251010","413-VK","2018/01/15 21:59:36","新北市淡水區中正路二段211號","121.426186666667","25.1891166666667","6501000","淡水區"
"251006","561-UM","2018/01/15 21:59:25","新北市淡水區中正路11巷3號","121.437906666667","25.17074","6501000","淡水區"
"251007","577-R6","2018/01/15 21:59:22","新北市淡水區北新路184巷60號","121.451101666667","25.1776133333333","6501000","淡水區"
"251011","650-BX","2018/01/15 21:59:24","新北市淡水區中山北路一段249號","121.444765","25.1806366666667","6501000","淡水區"
