"lineid","car","time","location","longitude","latitude","cityid","cityname"
"247008","341-TH","2018/01/15 22:09:30","新北市五股區孝義路9-17號","121.449181666667","25.1068666666667","6501400","蘆洲區"
"251004","009-UM","2018/01/15 22:09:31","新北市淡水區民族路33號","121.462356666667","25.135865","6501000","淡水區"
"251010","413-VK","2018/01/15 22:09:37","新北市淡水區沙崙路200號","121.424746666667","25.183945","6501000","淡水區"
"251007","577-R6","2018/01/15 22:09:22","新北市淡水區北新路133號","121.449258333333","25.1789366666667","6501000","淡水區"
"251011","650-BX","2018/01/15 22:09:44","新北市淡水區水碓街7號","121.443221666667","25.1771766666667","6501000","淡水區"
