"lineid","car","time","location","longitude","latitude","cityid","cityname"
"247003","336-TH","2018/01/15 22:27:03","新北市五股區中興路三段163號","121.449221666667","25.0809666666667","6501400","蘆洲區"
"251004","009-UM","2018/01/15 22:29:11","新北市淡水區民族路65巷5號","121.463178333333","25.1352916666667","6501000","淡水區"
"251010","413-VK","2018/01/15 22:29:36","新北市淡水區沙崙路200號","121.424725","25.1839433333333","6501000","淡水區"
"251007","577-R6","2018/01/15 22:29:22","新北市淡水區北新路137號","121.449481666667","25.1788066666667","6501000","淡水區"
"251011","650-BX","2018/01/15 22:29:25","新北市淡水區水碓街15-1號","121.443178333333","25.17723","6501000","淡水區"
