"lineid","car","time","location","longitude","latitude","cityid","cityname"
"248005","653-BX","2018/01/16 06:59:41","新北市五股區中興路二段83巷26-6號","121.459873333333","25.0752066666667","6501500","五股區"
"232002","290-BY","2018/01/16 06:59:47","新北市坪林區下坑子口15-1號","121.717263333333","24.9477233333333","6502000","坪林區"
"232013","291-BY","2018/01/16 06:59:35","新北市坪林區灣潭1-1號","121.676271666667","24.9335016666667","6502000","坪林區"
"232006","758-BX","2018/01/16 06:59:36","新北市坪林區北宜路九段86號","121.736833333333","24.894335","6502000","坪林區"
"244002","248-BX","2018/01/16 06:59:54","新北市林口區中山路416號","121.380561666667","25.0822516666667","6501700","林口區"
"235001","611-BX","2018/01/16 06:59:31","新北市中和區圓通路367巷4號","121.491395","24.989345","6500300","中和區"
"226002","8452-VL","2018/01/16 06:59:34","新北市平溪區石底里公園街18-3號","121.733375","25.025745","6502400","平溪區"
"223006","022-BY","2018/01/16 06:59:48","新北市石碇區崩山3-2號","121.675373333333","24.97364","6501900","石碇區"
"223002","198-BX","2018/01/16 06:59:40","新北市石碇區半路店5號","121.643826666667","24.9629016666667","6501900","石碇區"
"223008","406-TH","2018/01/16 06:59:38","新北市石碇區十八重溪45號","121.675466666667","25.01256","6501900","石碇區"
"223001","437-BY","2018/01/16 06:59:47","新北市石碇區石崁33-3號","121.659668333333","24.9926016666667","6501900","石碇區"
"223004","660-BX","2018/01/16 06:59:47","新北市石碇區碇坪路一段58號","121.657045","24.99141","6501900","石碇區"
"223007","661-BX","2018/01/16 06:59:45","新北市石碇區十八重溪45號","121.67554","25.0124916666667","6501900","石碇區"
"223005","677-TV","2018/01/16 06:59:49","新北市石碇區碇坪路一段62號","121.65717","24.9915166666667","6501900","石碇區"
"227006","282-VK","2018/01/16 06:59:39","新北市雙溪區新基里自強路7號","121.866268333333","25.0390433333333","6502500","雙溪區"
"252004","249-BX","2018/01/16 06:59:50","新北市三芝區埔坪里埔頭坑41號","121.50453","25.2644333333333","6502100","三芝區"
"252007","AAC-283","2018/01/16 06:59:31","新北市三芝區埔坪里埔頭坑46號","121.504471666667","25.2627916666667","6502100","三芝區"
"236008","165-UM","2018/01/16 06:59:35","新北市土城區永平街51號","121.42799","24.9591733333333","6501300","土城區"
