"lineid","car","time","location","longitude","latitude","cityid","cityname"
"244022","069-UM","2018/12/10 09:29:05","新北市林口區仁愛路二段50號","121.384866666667","25.0757883333333","6501700","林口區"
"244018","402-UM","2018/12/10 09:29:17","新北市林口區麗園二街25號","121.379836666667","25.06959","6501700","林口區"
"244012","KEA-2802","2018/12/10 09:29:06","新北市林口區麗園二街1巷6號","121.377798333333","25.0703183333333","6501700","林口區"
"244016","485-VK","2018/12/10 09:29:14","新北市林口區文化二路一段68巷2號","121.366105","25.0687716666667","6501700","林口區"
"244008","656-BX","2018/12/10 09:29:13","新北市林口區竹林路344號","121.391415","25.0837066666667","6501700","林口區"
"244010","701-TV","2018/12/10 09:29:07","新北市林口區仁愛路一段384號","121.387666666667","25.0769083333333","6501700","林口區"
"222005","289-BY","2018/12/10 09:29:18","新北市深坑區土庫尖路62-1號","121.635778333333","25.01768","6501800","深坑區"
"231008","192-VK","2018/12/10 09:27:18","新北市新店區平廣路一段221號","121.511521666667","24.888885","6500600","新店區"
"231007","260-TV","2018/12/10 09:29:15","新北市新店區新潭路三段215巷25號","121.507926666667","24.90398","6500600","新店區"
"231007","515-UM","2018/12/10 09:29:12","新北市新店區翠峰路70巷15號","121.576976666667","24.9372566666667","6500600","新店區"
"226003","AGD-0702","2018/12/10 09:29:16","新北市平溪區平溪里三坑路1-2號","121.741318333333","25.0287533333333","6502400","平溪區"
"223006","022-BY","2018/12/10 09:29:19","新北市石碇區碇坪路一段66號","121.657228333333","24.9914516666667","6501900","石碇區"
"223003","205-TH","2018/12/10 09:29:23","新北市石碇區北宜路四段26號","121.623148333333","24.9578683333333","6501900","石碇區"
"223008","406-TH","2018/12/10 09:28:25","新北市石碇區光明路耳空龜巷12號","121.691581666667","25.0355933333333","6501900","石碇區"
"223004","437-BY","2018/12/10 09:29:17","新北市石碇區磨石坑7-2號","121.689861666667","24.9757516666667","6501900","石碇區"
"223001","592-UM","2018/12/10 09:29:13","新北市石碇區北宜路四段30號","121.623875","24.9562766666667","6501900","石碇區"
"223005","677-TV","2018/12/10 09:29:09","新北市石碇區華梵路2號","121.691371666667","24.9772716666667","6501900","石碇區"
"227005","282-VK","2018/12/10 09:29:21","新北市雙溪區泰平里溪尾寮45號","121.82061","24.9667183333333","6502500","雙溪區"
"252004","292-VK","2018/12/10 09:29:20","新北市三芝區店子里店子112-4號","121.510458333333","25.2096416666667","6502100","三芝區"
"252006","AAC-283","2018/12/10 09:29:10","新北市三芝區光明街17號","121.52132","25.26312","6502100","三芝區"
"237001","159-UY","2018/12/10 09:29:13","新北市三峽區三樹路201號","121.37802","24.94223","6500900","三峽區"
"242057","986-R7","2018/12/10 09:29:23","新北市新莊區四維路150巷1號","121.422938333333","25.0230133333333","6500500","新莊區"
"242024","613-BX","2018/12/10 09:29:20","新北市新莊區中原東路10號","121.46555","25.054665","6500500","新莊區"
"242028","612-BX","2018/12/10 09:29:05","新北市新莊區公園路116號","121.45135","25.0399716666667","6500500","新莊區"
"242043","566-BX","2018/12/10 09:29:17","新北市新莊區中正路新建巷28弄14號","121.413835","25.0215516666667","6500500","新莊區"
"242047","497-BY","2018/12/10 09:29:10","新北市新莊區新樹路178號","121.434366666667","25.0212933333333","6500500","新莊區"
"242052","442-UM","2018/12/10 09:29:12","新北市新莊區西盛街343號","121.428048333333","25.01415","6500500","新莊區"
"242001","440-UM","2018/12/10 09:29:04","新北市新莊區中港路11號","121.455","25.0371566666667","6500500","新莊區"
"242038","415-TV","2018/12/10 09:29:22","新北市新莊區民安路294號","121.428105","25.02175","6500500","新莊區"
"242045","400-BY","2018/12/10 09:29:20","新北市新莊區裕民街80號","121.418488333333","25.0239083333333","6500500","新莊區"
"242059","353-BY","2018/12/10 09:29:17","新北市新莊區瓊林北路55號","121.43879","25.0207783333333","6500500","新莊區"
"242010","132-UY","2018/12/10 09:29:19","新北市新莊區中義街51號","121.449293333333","25.0511333333333","6500500","新莊區"
"242033","135-UY","2018/12/10 09:29:04","新北市新莊區中正路309號","121.44821","25.03498","6500500","新莊區"
"242055","346-TH","2018/12/10 09:29:04","新北市新莊區新莊路751巷50號","121.442736666667","25.0315616666667","6500500","新莊區"
"242030","348-TH","2018/12/10 09:29:18","新北市新莊區三和路20-6號","121.439453333333","25.0374666666667","6500500","新莊區"
"242003","349-TH","2018/12/10 09:29:11","新北市新莊區化成路648號","121.46601","25.0555683333333","6500500","新莊區"
