"lineid","car","time","location","longitude","latitude","cityid","cityname"
"244022","069-UM","2018/12/10 10:19:05","新北市林口區民族路288號","121.370583333333","25.0786733333333","6501700","林口區"
"243006","680-BX","2018/12/10 10:19:07","新北市泰山區犁頭窠3-1號","121.422085","25.0603466666667","6501600","泰山區"
"231008","192-VK","2018/12/10 10:19:18","新北市新店區成功路43號","121.544265","24.9017683333333","6500600","新店區"
"231007","260-TV","2018/12/10 10:19:15","新北市新店區新潭路三段200號","121.506286666667","24.90478","6500600","新店區"
"231007","515-UM","2018/12/10 10:19:08","新北市新店區薏仁坑路自強巷1號","121.497035","24.9579983333333","6500600","新店區"
"227005","282-VK","2018/12/10 09:56:21","新北市雙溪區泰平里灣潭路35-1號","121.812856666667","24.9291033333333","6502500","雙溪區"
"252006","AAC-283","2018/12/10 10:19:10","新北市三芝區新庄里番社后18號","121.496795","25.2744183333333","6502100","三芝區"
"237001","159-UY","2018/12/10 10:19:13","新北市三峽區國際二街61號","121.37106","24.9425633333333","6500900","三峽區"
