"lineid","car","time","location","longitude","latitude","cityid","cityname"
"234044","148-BY","2018/12/10 12:49:40","新北市永和區秀朗路二段96號","121.52372","25.001735","6500400","永和區"
"234005","207-UY","2018/12/10 12:49:47","新北市永和區永和路二段243號","121.515718333333","25.0147683333333","6500400","永和區"
"234036","336-UY","2018/12/10 12:49:37","新北市永和區成功路二段177-1號","121.526601666667","24.9968516666667","6500400","永和區"
"234062","337-UY","2018/12/10 12:49:48","新北市永和區福和路1號","121.52651","25.0099716666667","6500400","永和區"
"234068","552-UM","2018/12/10 12:49:38","新北市永和區豫溪街146號","121.52164","25.0103316666667","6500400","永和區"
"234078","553-UM","2018/12/10 12:49:37","新北市永和區永利路130號","121.52172","25.0029583333333","6500400","永和區"
"234015","745-BX","2018/12/10 12:49:43","新北市永和區環河西路一段1號","121.515238333333","25.017885","6500400","永和區"
"234028","746-BX","2018/12/10 12:49:43","新北市永和區得和路321號","121.52333","24.9996366666667","6500400","永和區"
"234052","KEA-2590","2018/12/10 12:49:39","新北市永和區竹林路41號","121.517995","25.0141666666667","6500400","永和區"
"234012","KEA-2591","2018/12/10 12:49:42","新北市永和區仁愛路202巷34號","121.508958333333","25.01319","6500400","永和區"
"234060","AAD-866","2018/12/10 12:49:47","新北市永和區福和路313號","121.51615","25.0071866666667","6500400","永和區"
"234084","748-BX","2018/12/10 12:49:35","新北市永和區中正路13號","121.514023333333","24.99578","6500400","永和區"
"234040","862-TW","2018/12/10 12:49:50","新北市永和區永貞路267號","121.511795","25.0047216666667","6500400","永和區"
"234048","863-TW","2018/12/10 12:49:45","新北市永和區福和路1號","121.526418333333","25.0100083333333","6500400","永和區"
"234025","9371-KE","2018/12/10 12:49:37","新北市永和區中正路637號","121.515373333333","25.0099833333333","6500400","永和區"
"234010","9373-KE","2018/12/10 12:49:35","新北市永和區保福路二段158巷1號","121.509135","25.015","6500400","永和區"
"248015","026-BX","2018/12/10 12:49:38","新北市五股區中興路二段83巷26-6號","121.459841666667","25.0753483333333","6501500","五股區"
"248007","095-VK","2018/12/10 12:49:53","新北市五股區中興路二段37巷28號","121.460236666667","25.0751416666667","6501500","五股區"
"248019","225-UY","2018/12/10 12:49:51","新北市五股區中興路二段83巷26-3號","121.460106666667","25.0754466666667","6501500","五股區"
"248013","261-SL","2018/12/10 12:49:47","新北市五股區中興路二段83巷26-3號","121.459986666667","25.0756266666667","6501500","五股區"
"234022","9380-KE","2018/12/10 12:49:51","新北市永和區竹林路119巷35號","121.521818333333","25.0118616666667","6500400","永和區"
"234076","969-R7","2018/12/10 12:49:49","新北市中和區安樂路69號","121.512431666667","24.993855","6500400","永和區"
"234066","AAC-212","2018/12/10 12:49:50","新北市永和區中和路625號","121.513015","25.00505","6500400","永和區"
"234001","AAC-295","2018/12/10 12:49:35","新北市永和區中正路688號","121.516608333333","25.0094783333333","6500400","永和區"
"243004","646-TV","2018/12/10 12:24:10","新北市泰山區黎明路25號","121.422083333333","25.0608216666667","6501600","泰山區"
"231028","046-UY","2018/12/10 12:49:36","新北市新店區安華路28-1號","121.51955","24.9608516666667","6500600","新店區"
"231001","047-UY","2018/12/10 12:49:36","新北市新店區安一路一段1-1號","121.51932","24.96101","6500600","新店區"
"231005","106-UY","2018/12/10 12:49:42","新北市新店區安華路28-1號","121.519623333333","24.9608483333333","6500600","新店區"
"231010","107-UY","2018/12/10 12:49:31","新北市新店區安一路一段1-1號","121.519453333333","24.9613233333333","6500600","新店區"
"231011","187-VK","2018/12/10 12:49:36","新北市新店區安一路一段1-1號","121.519568333333","24.961155","6500600","新店區"
"231003","268-BY","2018/12/10 12:49:31","新北市新店區安華路28-1號","121.519363333333","24.960555","6500600","新店區"
"231018","278-BY","2018/12/10 12:49:30","新北市新店區安一路一段1-1號","121.519801666667","24.9611166666667","6500600","新店區"
"231014","AAD-862","2018/12/10 12:49:37","新北市新店區安一路一段1-1號","121.519726666667","24.9611766666667","6500600","新店區"
"231036","512-UM","2018/12/10 12:49:39","新北市新店區安華路28-1號","121.519345","24.960605","6500600","新店區"
"231013","513-UM","2018/12/10 12:49:36","新北市新店區安一路一段1-1號","121.519641666667","24.96116","6500600","新店區"
"231030","619-UM","2018/12/10 12:49:41","新北市新店區安華路28-1號","121.519831666667","24.960795","6500600","新店區"
"231035","719-UM","2018/12/10 12:49:48","新北市新店區安一路一段1-1號","121.519585","24.9612483333333","6500600","新店區"
"231031","720-UM","2018/12/10 12:49:40","新北市新店區安一路一段1-1號","121.518998333333","24.961175","6500600","新店區"
"235002","185-VK","2018/12/10 12:49:48","新北市中和區中正路501號","121.488803333333","24.9941066666667","6500300","中和區"
"235031","255-BX","2018/12/10 12:49:43","新北市中和區新民街12-3號","121.48197","25.0072333333333","6500300","中和區"
"235001","611-BX","2018/12/10 12:49:44","新北市中和區中山路三段120-17號","121.474258333333","25.0086233333333","6500300","中和區"
"235018","640-BX","2018/12/10 12:49:48","新北市中和區員山路36巷16-2號","121.485041666667","24.9918866666667","6500300","中和區"
"235035","783-BX","2018/12/10 12:49:43","新北市中和區員山路36巷16-2號","121.48518","24.9914866666667","6500300","中和區"
"235026","800-TS","2018/12/10 12:49:39","新北市中和區員山路36巷16-3號","121.484976666667","24.991805","6500300","中和區"
"235016","805-TS","2018/12/10 12:49:48","新北市中和區員山路36巷16號","121.484461666667","24.9914083333333","6500300","中和區"
"235029","911-UM","2018/12/10 12:49:35","新北市中和區中正路506號","121.48866","24.994275","6500300","中和區"
"207002","749-BX","2018/12/10 12:49:42","新北市萬里區雙興里二坪路31號","121.645301666667","25.1685616666667","6502800","萬里區"
"252005","073-UM","2018/12/10 12:49:47","新北市三芝區埔坪里埔頭坑41號","121.504586666667","25.2646283333333","6502100","三芝區"
"207001","662-BX","2018/12/10 12:49:50","新北市萬里區萬里里獅頭路23號","121.693521666667","25.1782416666667","6502800","萬里區"
"221010","269-BY","2018/12/10 12:49:45","新北市汐止區康寧街445-1號","121.630865","25.06822","6501100","汐止區"
"221032","280-BY","2018/12/10 12:49:45","新北市汐止區汐萬路一段81號","121.654783333333","25.0699533333333","6501100","汐止區"
"221033","647-BX","2018/12/10 12:49:41","新北市汐止區康寧街901號","121.65138","25.0750383333333","6501100","汐止區"
"235025","KEA-2875","2018/12/10 12:20:15","新北市中和區員山路36巷16-2號","121.485308333333","24.991625","6500300","中和區"
"235005","KEA-2876","2018/12/10 12:49:44","新北市中和區和城路一段271巷1號","121.485501666667","24.9919016666667","6500300","中和區"
