"lineid","car","time","location","longitude","latitude","cityid","cityname"
"234044","148-BY","2018/12/10 13:39:20","新北市永和區永元路94號","121.522555","25.0016733333333","6500400","永和區"
"234005","207-UY","2018/12/10 13:39:07","新北市永和區永和路一段116號","121.51363","25.007505","6500400","永和區"
"234036","336-UY","2018/12/10 13:39:17","新北市永和區民樂街31巷10弄2號","121.528158333333","25.0006666666667","6500400","永和區"
"234062","337-UY","2018/12/10 13:39:08","新北市永和區秀朗路二段24巷28弄8號","121.519908333333","25.0019733333333","6500400","永和區"
"234068","552-UM","2018/12/10 13:39:18","新北市永和區永和路二段233號","121.515551666667","25.0141866666667","6500400","永和區"
"234078","553-UM","2018/12/10 13:39:17","新北市永和區國中路104巷8弄11號","121.525135","25.0066","6500400","永和區"
"234015","745-BX","2018/12/10 13:39:23","新北市永和區永和路二段423號","121.51523","25.0176083333333","6500400","永和區"
"234028","746-BX","2018/12/10 13:39:23","新北市永和區民權路23號","121.52017","24.9978233333333","6500400","永和區"
"234052","KEA-2590","2018/12/10 13:39:19","新北市永和區竹林路39巷26號","121.519061666667","25.0147833333333","6500400","永和區"
"234012","KEA-2591","2018/12/10 13:39:16","新北市永和區仁愛路200號","121.509381666667","25.0123333333333","6500400","永和區"
"234060","AAD-866","2018/12/10 13:39:07","新北市永和區中正路295-1號","121.517496666667","25.0016566666667","6500400","永和區"
"234084","748-BX","2018/12/10 13:39:15","新北市永和區永亨路165巷1號","121.525935","25.004005","6500400","永和區"
"234040","862-TW","2018/12/10 13:39:10","新北市永和區水源街34號","121.511036666667","25.0045566666667","6500400","永和區"
"234048","863-TW","2018/12/10 13:39:06","新北市永和區保福路二段158巷1號","121.509103333333","25.0151066666667","6500400","永和區"
"234025","9371-KE","2018/12/10 13:39:17","新北市永和區和平街95巷19號","121.511131666667","25.00916","6500400","永和區"
"234010","9373-KE","2018/12/10 13:39:15","新北市永和區保福路二段23巷19號","121.51011","25.01121","6500400","永和區"
"248015","026-BX","2018/12/10 13:39:19","新北市五股區凌雲路一段149巷42號","121.448595","25.10089","6501500","五股區"
"248005","077-UY","2018/12/10 13:39:21","新北市五股區中興路一段52號","121.46799","25.0726133333333","6501500","五股區"
"248007","095-VK","2018/12/10 13:39:13","新北市五股區中興路一段161號","121.464913333333","25.0736916666667","6501500","五股區"
"248019","225-UY","2018/12/10 13:39:11","新北市五股區孝義路102號","121.445356666667","25.1196216666667","6501500","五股區"
"248011","247-BX","2018/12/10 13:39:18","新北市五股區成泰路三段2巷1-20號","121.441023333333","25.0865566666667","6501500","五股區"
"248013","261-SL","2018/12/10 13:39:07","新北市五股區中興路四段70號","121.437071666667","25.083355","6501500","五股區"
"248003","677-BX","2018/12/10 13:39:10","新北市五股區民義路一段206號","121.430351666667","25.0891116666667","6501500","五股區"
"248001","678-BX","2018/12/10 13:34:25","新北市五股區西雲路197號","121.447911666667","25.095825","6501500","五股區"
"248009","682-TV","2018/12/10 13:39:12","新北市五股區水碓一路92號","121.431746666667","25.0736483333333","6501500","五股區"
"234022","9380-KE","2018/12/10 13:39:11","新北市永和區福和路1號","121.526238333333","25.0094916666667","6500400","永和區"
"234076","969-R7","2018/12/10 13:39:17","新北市永和區得和路198號","121.520305","25","6500400","永和區"
"234072","AAC-211","2018/12/10 13:39:06","新北市永和區福和路76巷1號","121.522993333333","25.0083333333333","6500400","永和區"
"234066","AAC-212","2018/12/10 13:39:10","新北市永和區永貞路406巷23號","121.509548333333","25.008055","6500400","永和區"
"234001","AAC-295","2018/12/10 13:38:55","新北市永和區秀朗路一段10巷2號","121.513811666667","25.0071016666667","6500400","永和區"
"244001","248-BX","2018/12/10 13:39:13","新北市林口區嘉寶里89-1號","121.33308","25.1218383333333","6501700","林口區"
"243008","KEA-2801","2018/12/10 13:39:08","新北市泰山區黎明路3號","121.421183333333","25.0633183333333","6501600","泰山區"
"243005","539-UM","2018/12/10 13:37:11","新北市泰山區明志路三段206巷3號","121.423306666667","25.03794","6501600","泰山區"
"243004","646-TV","2018/12/10 13:37:10","新北市泰山區泰林路二段47號","121.435483333333","25.057475","6501600","泰山區"
"231002","002-UM","2018/12/10 13:39:17","新北市新店區中央三街127號","121.52404","24.97692","6500600","新店區"
"231027","0293-UT","2018/12/10 13:39:17","新北市新店區新店後街40號","121.537875","24.9536683333333","6500600","新店區"
"231028","046-UY","2018/12/10 13:39:21","新北市新店區安和路一段39號","121.517125","24.9652766666667","6500600","新店區"
"231001","047-UY","2018/12/10 13:39:16","新北市新店區中正路434號","121.53421","24.9782183333333","6500600","新店區"
"231005","106-UY","2018/12/10 13:39:02","新北市新店區寶中路72號","121.547928333333","24.9806416666667","6500600","新店區"
"231010","107-UY","2018/12/10 13:39:20","新北市新店區中正路307巷11號","121.535991666667","24.9739083333333","6500600","新店區"
"231019","108-UY","2018/12/10 13:39:21","新北市新店區永興路88-1號","121.544028333333","24.933765","6500600","新店區"
"231011","187-VK","2018/12/10 13:39:16","新北市新店區德正街23巷12-1號","121.544641666667","24.9722216666667","6500600","新店區"
"231023","KEA-2219","2018/12/10 13:39:10","新北市新店區新店路97號","121.537283333333","24.9537166666667","6500600","新店區"
"231026","256-BX","2018/12/10 13:39:05","新北市新店區北新路一段142號","121.542541666667","24.9707766666667","6500600","新店區"
"231003","268-BY","2018/12/10 13:39:11","新北市新店區中正路69號","121.543646666667","24.9702116666667","6500600","新店區"
"231018","278-BY","2018/12/10 13:39:11","新北市新店區百忍街36號","121.533826666667","24.9758433333333","6500600","新店區"
"231014","AAD-862","2018/12/10 13:39:17","新北市新店區竹林路30巷1號","121.552238333333","24.9513433333333","6500600","新店區"
"231038","3712-VJ","2018/12/10 13:39:21","新北市新店區安華路28-1號","121.519313333333","24.9606483333333","6500600","新店區"
"231037","4716-K9","2018/12/10 13:38:57","新北市新店區薏仁坑路57號","121.490601666667","24.9646666666667","6500600","新店區"
"231025","4715-K9","2018/12/10 13:39:19","新北市新店區中央五街37號","121.52858","24.9750183333333","6500600","新店區"
"231036","512-UM","2018/12/10 13:39:19","新北市新店區安祥路145巷2號","121.474785","24.955445","6500600","新店區"
"231013","513-UM","2018/12/10 13:39:16","新北市新店區中正路454-5號","121.53445","24.97904","6500600","新店區"
"231034","616-UM","2018/12/10 13:39:06","新北市新店區車子路109號","121.505246666667","24.9521066666667","6500600","新店區"
"231006","617-UM","2018/12/10 13:39:09","新北市新店區光明街1-1號","121.538066666667","24.9590916666667","6500600","新店區"
"231030","619-UM","2018/12/10 13:39:21","新北市新店區安康路一段226號","121.523573333333","24.963565","6500600","新店區"
"231035","719-UM","2018/12/10 13:39:15","新北市新店區安忠路57巷1-2號","121.513471666667","24.9599883333333","6500600","新店區"
"231031","720-UM","2018/12/10 13:39:21","新北市新店區安康路一段104號","121.527298333333","24.962465","6500600","新店區"
"231029","897-TW","2018/12/10 13:39:13","新北市新店區安康路二段338號","121.503578333333","24.957765","6500600","新店區"
"231004","899-TW","2018/12/10 13:39:10","新北市新店區北新路二段7號","121.542655","24.9713333333333","6500600","新店區"
"231024","AKT-0513","2018/12/10 13:39:11","新北市新店區華興街40號","121.537051666667","24.9691783333333","6500600","新店區"
"235028","005-UY","2018/12/10 13:39:20","新北市中和區連城路109巷22號","121.4968","24.9987416666667","6500300","中和區"
"235027","006-UY","2018/12/10 13:39:17","新北市中和區連城路403巷2弄2號","121.486173333333","24.9959183333333","6500300","中和區"
"235020","096-UM","2018/12/10 13:39:12","新北市中和區新民街12-3號","121.48194","25.0073316666667","6500300","中和區"
"235003","097-UM","2018/12/10 13:39:04","新北市中和區景平路278巷14弄17號","121.514838333333","24.9932166666667","6500300","中和區"
"235004","150-BY","2018/12/10 13:39:19","新北市中和區保健路50巷62-1號","121.509283333333","24.99528","6500300","中和區"
"235022","151-BY","2018/12/10 13:39:17","新北市中和區員山路7-3號","121.482808333333","24.9852066666667","6500300","中和區"
"235019","183-VK","2018/12/10 13:39:10","新北市中和區莒光路120巷56號","121.471681666667","25.000905","6500300","中和區"
"235002","185-VK","2018/12/10 13:39:08","新北市中和區立人街14巷52號","121.5185","24.995655","6500300","中和區"
"235013","186-VK","2018/12/10 13:39:07","新北市中和區景安路179號","121.505121666667","24.9940533333333","6500300","中和區"
"235031","255-BX","2018/12/10 13:39:22","新北市中和區新生街220巷4號","121.482913333333","24.9986533333333","6500300","中和區"
"235008","293-VK","2018/12/10 13:39:12","新北市中和區復興路276號","121.50278","24.990625","6500300","中和區"
"235036","301-VK","2018/12/10 13:39:05","新北市中和區連城路139巷56號","121.496751666667","24.997205","6500300","中和區"
"235007","352-BY","2018/12/10 13:39:21","新北市中和區景平路155號","121.513346666667","24.9923783333333","6500300","中和區"
"235006","KEA-2878","2018/12/10 13:39:07","新北市中和區秀朗路三段135巷16號","121.525395","24.992015","6500300","中和區"
"235014","4979-A6","2018/12/10 13:39:11","新北市中和區景新街496巷28弄6號","121.5132","24.9859466666667","6500300","中和區"
"235033","4980-A6","2018/12/10 13:39:11","新北市中和區連城路65巷3號","121.497791666667","25.001165","6500300","中和區"
"235034","558-UM","2018/12/10 13:39:04","新北市中和區景平路590號","121.501081666667","24.9960266666667","6500300","中和區"
"235009","565-BX","2018/12/10 13:39:10","新北市中和區復興路49巷2號","121.504608333333","24.9898283333333","6500300","中和區"
"235018","640-BX","2018/12/10 13:39:16","新北市中和區民享街32巷2號","121.473896666667","25.003335","6500300","中和區"
"235024","647-TV","2018/12/10 13:39:09","新北市中和區中山路二段612號","121.481651666667","25.0054366666667","6500300","中和區"
"235011","732-UM","2018/12/10 13:39:23","新北市中和區南山路320巷10弄21號","121.506823333333","24.9867116666667","6500300","中和區"
"235035","783-BX","2018/12/10 13:39:23","新北市中和區立德街57號","121.487751666667","25.007625","6500300","中和區"
"235026","800-TS","2018/12/10 13:39:19","新北市中和區中山路二段310號","121.495685","25.0025616666667","6500300","中和區"
"235021","801-TS","2018/12/10 13:39:19","新北市中和區員山路327巷22號","121.480748333333","25.0014916666667","6500300","中和區"
"235016","805-TS","2018/12/10 13:39:12","新北市中和區興南路三段52巷2-5號","121.494521666667","24.9758883333333","6500300","中和區"
"235012","896-TW","2018/12/10 13:39:20","新北市中和區中正路83號","121.5007","24.99345","6500300","中和區"
"235017","900-TW","2018/12/10 13:39:12","新北市中和區民德路264號","121.468015","24.9966933333333","6500300","中和區"
"235029","911-UM","2018/12/10 13:39:15","新北市中和區莊敬路49巷29弄2號","121.501361666667","25.0062366666667","6500300","中和區"
"235015","157-BY","2018/12/10 13:39:22","新北市中和區華新街143巷106弄28號","121.506085","24.9787516666667","6500300","中和區"
"235001","AAC-213","2018/12/10 13:39:19","新北市中和區景德街95-14號","121.51486","24.9911283333333","6500300","中和區"
"235023","AAC-215","2018/12/10 13:39:09","新北市中和區中正路527號","121.487763333333","24.9935883333333","6500300","中和區"
"220013","072-UY","2018/12/10 13:39:22","新北市板橋區成都街76號","121.463595","25.0052933333333","6500100","板橋區"
"220034","073-UY","2018/12/10 13:39:16","新北市板橋區華東街298號","121.452681666667","25.00262","6500100","板橋區"
"220105","075-UY","2018/12/10 13:39:09","新北市板橋區民生路二段161巷1號","121.470273333333","25.019935","6500100","板橋區"
"220017","AAD-861","2018/12/10 13:39:10","新北市板橋區南雅南路二段116號","121.452485","25.0003333333333","6500100","板橋區"
"247009","056-VK","2018/12/10 13:39:15","新北市五股區中興路三段2巷10號","121.449165","25.0809716666667","6501400","蘆洲區"
"247021","001-UY","2018/12/10 13:39:16","新北市五股區中興路三段163號","121.449083333333","25.0808116666667","6501400","蘆洲區"
"253003","6232-TK","2018/12/10 13:39:16","新北市石門區內石門17-1號","121.574415","25.2751066666667","6502200","石門區"
"253004","6251-TK","2018/12/10 13:39:12","新北市石門區五爪崙8-16號","121.60848","25.26141","6502200","石門區"
"253002","637-UY","2018/12/10 13:39:16","新北市石門區九芎林35-1號","121.566775","25.2551383333333","6502200","石門區"
"253001","KEC-0718","2018/12/10 13:39:08","新北市三芝區新庄里新庄子51-30號","121.508135","25.2782666666667","6502200","石門區"
"207002","749-BX","2018/12/10 13:39:22","新北市萬里區崁腳里崁腳路166號","121.645085","25.1558566666667","6502800","萬里區"
"252005","073-UM","2018/12/10 13:39:07","新北市三芝區圓山里內柑宅27號","121.536283333333","25.2204016666667","6502100","三芝區"
"207001","662-BX","2018/12/10 13:39:10","新北市萬里區大鵬里萬里加投46-1號","121.641891666667","25.2111183333333","6502800","萬里區"
"236074","166-UM","2018/12/10 13:39:18","新北市土城區城林路6巷80號","121.438605","24.9797583333333","6501300","土城區"
"236029","253-BX","2018/12/10 13:39:06","新北市土城區城林路6巷80號","121.438595","24.9798033333333","6501300","土城區"
"236012","270-VK","2018/12/10 13:39:05","新北市土城區城林路6巷80號","121.438546666667","24.9797983333333","6501300","土城區"
"236032","271-VK","2018/12/10 13:39:19","新北市土城區城林路6巷80號","121.43849","24.979885","6501300","土城區"
"236016","401-BY","2018/12/10 13:39:04","新北市土城區城林路6巷80號","121.438545","24.97981","6501300","土城區"
"236045","913-UM","2018/12/10 13:39:22","新北市土城區城林路6巷80號","121.438526666667","24.979755","6501300","土城區"
"236060","915-UM","2018/12/10 13:39:07","新北市土城區城林路6巷80號","121.438523333333","24.97966","6501300","土城區"
"236054","AAC-216","2018/12/10 13:39:13","新北市土城區城林路6巷80號","121.438723333333","24.9795816666667","6501300","土城區"
"221010","269-BY","2018/12/10 13:39:05","新北市汐止區康寧街445號","121.63107","25.0682283333333","6501100","汐止區"
"221023","279-VK","2018/12/10 13:39:20","新北市汐止區汐萬路一段256巷3號","121.653375","25.0747883333333","6501100","汐止區"
"221032","280-BY","2018/12/10 13:39:05","新北市汐止區秀峰路57號","121.659593333333","25.0653366666667","6501100","汐止區"
"221033","647-BX","2018/12/10 13:39:21","新北市新店區車子路10-2號","121.504663333333","24.954725","6501100","汐止區"
"220027","145-BY","2018/12/10 13:39:12","新北市板橋區南雅西路二段207號","121.451616666667","25.0135033333333","6500100","板橋區"
"220028","200-UY","2018/12/10 13:39:16","新北市板橋區大觀路二段265巷76弄35號","121.441158333333","24.996725","6500100","板橋區"
"220030","610-BX","2018/12/10 13:39:21","新北市板橋區篤行路一段33號","121.43203","24.9943683333333","6500100","板橋區"
"220020","277-BY","2018/12/10 13:39:09","新北市板橋區大觀路二段443-2號","121.44052","24.995055","6500100","板橋區"
"220019","283-VK","2018/12/10 13:39:06","新北市板橋區四川路一段467號","121.457325","24.9976133333333","6500100","板橋區"
"220043","285-UM","2018/12/10 13:39:12","新北市板橋區民生路二段161巷1號","121.470113333333","25.01983","6500100","板橋區"
"220031","286-VK","2018/12/10 13:39:10","新北市板橋區大觀路二段107號","121.446208333333","25.0016683333333","6500100","板橋區"
"220029","287-VK","2018/12/10 13:39:14","新北市板橋區大觀路二段103號","121.446233333333","25.00188","6500100","板橋區"
"220039","288-VK","2018/12/10 13:39:18","新北市板橋區民生路二段161巷5號","121.47029","25.01976","6500100","板橋區"
"220009","293-UM","2018/12/10 13:39:11","新北市板橋區民生路二段56-6號","121.470881666667","25.018575","6500100","板橋區"
"220032","296-UM","2018/12/10 13:39:25","新北市板橋區大觀路二段148巷1-1號","121.4418","24.9991","6500100","板橋區"
"220023","303-R5","2018/12/10 13:39:20","新北市板橋區華東街328號","121.452785","25.0034316666667","6500100","板橋區"
"220010","305-R5","2018/12/10 13:39:15","新北市板橋區民生路二段161巷5號","121.47029","25.0197983333333","6500100","板橋區"
"220041","307-R5","2018/12/10 13:39:12","新北市板橋區民生路二段120號","121.470558333333","25.0195083333333","6500100","板橋區"
"220047","317-R6","2018/12/10 13:39:04","新北市板橋區民生路二段161巷3號","121.470265","25.0198383333333","6500100","板橋區"
"220038","487-VK","2018/12/10 13:39:11","新北市板橋區民生路二段188號","121.470286666667","25.020185","6500100","板橋區"
"220037","491-VK","2018/12/10 13:39:05","新北市板橋區民生路二段177號","121.469798333333","25.02025","6500100","板橋區"
"220104","560-BX","2018/12/10 13:39:01","新北市板橋區南雅西路二段145巷6號","121.451601666667","25.0118766666667","6500100","板橋區"
"220052","561-BX","2018/12/10 13:39:15","新北市板橋區民生路二段161巷5號","121.470273333333","25.0197983333333","6500100","板橋區"
"220011","609-BX","2018/12/10 13:39:04","新北市板橋區民生路二段120號","121.47049","25.02003","6500100","板橋區"
"220040","637-BX","2018/12/10 13:39:14","新北市板橋區民生路二段161巷1號","121.4699","25.0199166666667","6500100","板橋區"
"220025","687-BX","2018/12/10 13:39:17","新北市板橋區大觀路三段229號","121.430788333333","24.9923633333333","6500100","板橋區"
"220042","689-BX","2018/12/10 13:39:20","新北市板橋區民生路二段188號","121.470093333333","25.0203683333333","6500100","板橋區"
"220002","741-BX","2018/12/10 13:39:22","新北市板橋區南雅南路二段120-12號","121.452238333333","24.9994283333333","6500100","板橋區"
"220051","KEA-2699","2018/12/10 13:39:21","新北市板橋區民生路二段161巷1號","121.470051666667","25.020035","6500100","板橋區"
"220003","827-TW","2018/12/10 13:39:12","新北市板橋區忠孝路23號","121.460486666667","25.001955","6500100","板橋區"
"220014","831-TW","2018/12/10 13:39:03","新北市板橋區民生路二段161巷1號","121.470273333333","25.019855","6500100","板橋區"
"220022","895-R6","2018/12/10 13:39:23","新北市板橋區南雅東路1號","121.455538333333","25.005515","6500100","板橋區"
"220021","985-R7","2018/12/10 13:39:09","新北市土城區四川路22號","121.454885","24.9960783333333","6500100","板橋區"
"220012","AAC-253","2018/12/10 13:39:10","新北市板橋區縣民大道一段312號","121.461506666667","25.0108816666667","6500100","板橋區"
"235032","KEA-2873","2018/12/10 13:38:52","新北市中和區中正路211巷38號","121.497756666667","24.9926766666667","6500300","中和區"
"235025","KEA-2875","2018/12/10 13:39:16","新北市中和區民享街32巷2號","121.4739","25.0033233333333","6500300","中和區"
"235005","KEA-2876","2018/12/10 13:39:14","新北市中和區中安街76號","121.512156666667","25.0020066666667","6500300","中和區"
