"lineid","car","time","location","longitude","latitude","cityid","cityname"
"234044","148-BY","2018/12/10 14:19:20","新北市永和區成功路一段2號","121.527066666667","25.005705","6500400","永和區"
"234005","207-UY","2018/12/10 14:19:07","新北市永和區中正路682號","121.516731666667","25.00932","6500400","永和區"
"234036","336-UY","2018/12/10 14:19:23","新北市永和區成功路一段26號","121.527008333333","25.0047833333333","6500400","永和區"
"234062","337-UY","2018/12/10 14:19:13","新北市永和區得和路211號","121.5192","25.0001683333333","6500400","永和區"
"234068","552-UM","2018/12/10 14:19:18","新北市永和區福和路263巷20號","121.51799","25.006495","6500400","永和區"
"234078","553-UM","2018/12/10 14:19:17","新北市永和區福和路19巷1弄5號","121.52429","25.0079","6500400","永和區"
"234028","746-BX","2018/12/10 14:19:23","新北市永和區民權路49巷3號","121.520431666667","24.99727","6500400","永和區"
"234052","KEA-2590","2018/12/10 14:19:19","新北市永和區光復街2巷16弄1號","121.517143333333","25.0164233333333","6500400","永和區"
"234012","KEA-2591","2018/12/10 14:19:16","新北市永和區保生路55-1號","121.50477","25.0115083333333","6500400","永和區"
"234060","AAD-866","2018/12/10 14:19:07","新北市永和區安樂路166號","121.514668333333","25.0008066666667","6500400","永和區"
"234084","748-BX","2018/12/10 14:19:22","新北市永和區永和路二段61號","121.51473","25.0110683333333","6500400","永和區"
"234040","862-TW","2018/12/10 14:19:10","新北市中和區中安街226號","121.512295","24.9986533333333","6500400","永和區"
"234048","863-TW","2018/12/10 14:19:05","新北市永和區新生路2號","121.509173333333","25.0166916666667","6500400","永和區"
"234025","9371-KE","2018/12/10 14:19:17","新北市永和區安樂路144巷19號","121.514676666667","25.0001216666667","6500400","永和區"
"248015","026-BX","2018/12/10 14:19:19","新北市五股區成洲五路12號","121.452315","25.1015983333333","6501500","五股區"
"248007","095-VK","2018/12/10 14:19:13","新北市五股區中興路二段63巷17號","121.46029","25.075305","6501500","五股區"
"248019","225-UY","2018/12/10 14:05:33","新北市五股區凌雲路三段57號","121.425306666667","25.1250366666667","6501500","五股區"
"248011","247-BX","2018/12/10 14:19:23","新北市五股區工商路85巷6號","121.437881666667","25.084835","6501500","五股區"
"248003","677-BX","2018/12/10 14:19:09","新北市五股區五福路7-2號","121.43425","25.0879383333333","6501500","五股區"
"248001","678-BX","2018/12/10 14:19:05","新北市五股區成泰路四段3號","121.452636666667","25.1060366666667","6501500","五股區"
"248009","682-TV","2018/12/10 14:19:12","新北市五股區水碓一路23號","121.430666666667","25.07126","6501500","五股區"
"234022","9380-KE","2018/12/10 14:19:21","新北市永和區竹林路39巷19弄2號","121.518741666667","25.0148866666667","6500400","永和區"
"234076","969-R7","2018/12/10 14:19:09","新北市永和區民族街81巷60號","121.520161666667","24.996595","6500400","永和區"
"234072","AAC-211","2018/12/10 14:19:25","新北市永和區竹林路119巷40號","121.522666666667","25.0116083333333","6500400","永和區"
"234066","AAC-212","2018/12/10 14:19:10","新北市永和區保平路268巷16號","121.507941666667","25.0060833333333","6500400","永和區"
"234001","AAC-295","2018/12/10 14:19:15","新北市永和區中正路624巷2號","121.517101666667","25.0078783333333","6500400","永和區"
"244001","248-BX","2018/12/10 14:16:53","新北市八里區中山路三段409號","121.368811666667","25.1343666666667","6501700","林口區"
"243001","297-R6","2018/12/10 14:19:17","新北市泰山區明志路一段19巷5弄9號","121.434188333333","25.06617","6501600","泰山區"
"243008","KEA-2801","2018/12/10 14:19:08","新北市泰山區明志路三段146號","121.424545","25.0397016666667","6501600","泰山區"
"243007","421-VK","2018/12/10 14:19:15","新北市泰山區明志路二段6號","121.430065","25.05386","6501600","泰山區"
"243005","539-UM","2018/12/10 14:19:14","新北市泰山區明志路三段145巷11弄2號","121.425818333333","25.0397366666667","6501600","泰山區"
"243003","KEA-2215","2018/12/10 14:19:17","新北市泰山區貴子路13-2號","121.426256666667","25.0417616666667","6501600","泰山區"
"243002","KEA-2216","2018/12/10 14:19:10","新北市泰山區明志路二段9號","121.430193333333","25.05358","6501600","泰山區"
"243004","646-TV","2018/12/10 14:19:15","新北市泰山區仁義路195號","121.433078333333","25.05394","6501600","泰山區"
"243006","680-BX","2018/12/10 14:19:15","新北市泰山區泰林路二段158號","121.433936666667","25.0603666666667","6501600","泰山區"
"231002","002-UM","2018/12/10 14:19:20","新北市新店區中央路200號","121.530475","24.974295","6500600","新店區"
"231027","0293-UT","2018/12/10 14:19:17","新北市新店區光明街286巷6-2號","121.540668333333","24.9636516666667","6500600","新店區"
"231028","046-UY","2018/12/10 14:19:16","新北市新店區安和路二段216號","121.517563333333","24.9756566666667","6500600","新店區"
"231001","047-UY","2018/12/10 14:19:16","新北市新店區中正路75巷71號","121.543171666667","24.9688666666667","6500600","新店區"
"231005","106-UY","2018/12/10 14:19:07","新北市新店區中興路三段217號","121.543575","24.98226","6500600","新店區"
"231019","108-UY","2018/12/10 14:19:21","新北市新店區新烏路二段301號","121.549558333333","24.9113083333333","6500600","新店區"
"231011","187-VK","2018/12/10 14:19:16","新北市新店區五峰路63巷6號","121.5464","24.96844","6500600","新店區"
"231023","KEA-2219","2018/12/10 14:19:10","新北市新店區光明街35號","121.538555","24.9596916666667","6500600","新店區"
"231003","268-BY","2018/12/10 14:19:11","新北市新店區中興路一段191號","121.54315","24.9651433333333","6500600","新店區"
"231018","278-BY","2018/12/10 14:19:11","新北市新店區中央四街47號","121.527793333333","24.97509","6500600","新店區"
"231014","AAD-862","2018/12/10 14:19:17","新北市新店區北宜路三段275巷8號","121.603023333333","24.9553416666667","6500600","新店區"
"231038","3712-VJ","2018/12/10 14:19:21","新北市新店區溪洲路6巷20號","121.533843333333","24.9626416666667","6500600","新店區"
"231037","4716-K9","2018/12/10 14:19:16","新北市新店區安康路二段341巷48號","121.496705","24.954345","6500600","新店區"
"231036","512-UM","2018/12/10 14:19:19","新北市新店區安祥路109巷53號","121.476961666667","24.9597533333333","6500600","新店區"
"231013","513-UM","2018/12/10 14:19:16","新北市新店區大豐路80號","121.538858333333","24.9793266666667","6500600","新店區"
"231034","616-UM","2018/12/10 14:19:06","新北市新店區車子路11號","121.503091666667","24.9520783333333","6500600","新店區"
"231006","617-UM","2018/12/10 14:19:09","新北市新店區北宜路二段599號","121.568176666667","24.9556283333333","6500600","新店區"
"231030","619-UM","2018/12/10 14:19:21","新北市新店區安民街3巷1號","121.51458","24.9642016666667","6500600","新店區"
"231035","719-UM","2018/12/10 14:19:08","新北市新店區安和路二段113巷3弄5號","121.518065","24.9699383333333","6500600","新店區"
"231031","720-UM","2018/12/10 14:19:21","新北市新店區溪洲路123號","121.530305","24.9636916666667","6500600","新店區"
"231029","897-TW","2018/12/10 14:19:13","新北市新店區安康路二段161號","121.5103","24.9593983333333","6500600","新店區"
"231004","899-TW","2018/12/10 14:19:10","新北市新店區中正路153號","121.541323333333","24.9717683333333","6500600","新店區"
"235030","003-UY","2018/12/10 14:19:16","新北市中和區中和路102號","121.502706666667","24.99972","6500300","中和區"
"235028","005-UY","2018/12/10 14:19:20","新北市中和區連城路2號","121.49934","25.0024516666667","6500300","中和區"
"235027","006-UY","2018/12/10 14:19:10","新北市中和區連勝街135號","121.494848333333","24.9956833333333","6500300","中和區"
"235020","096-UM","2018/12/10 14:19:11","新北市中和區民富街36號","121.476738333333","25.006625","6500300","中和區"
"235003","097-UM","2018/12/10 14:19:24","新北市中和區秀峰街125號","121.51985","24.990865","6500300","中和區"
"235004","150-BY","2018/12/10 14:19:19","新北市中和區宜安路120號","121.510171666667","24.9980216666667","6500300","中和區"
"235022","151-BY","2018/12/10 14:19:17","新北市中和區員山路36巷16-2號","121.485418333333","24.9915183333333","6500300","中和區"
"235019","183-VK","2018/12/10 14:19:10","新北市中和區莒光路3巷6號","121.47239","25.0061166666667","6500300","中和區"
"235002","185-VK","2018/12/10 14:19:08","新北市中和區自強路19號","121.520356666667","24.9932066666667","6500300","中和區"
"235013","186-VK","2018/12/10 14:19:07","新北市中和區景新街228-6號","121.50815","24.994275","6500300","中和區"
"235031","255-BX","2018/12/10 14:19:03","新北市中和區連城路280號","121.484413333333","24.9962916666667","6500300","中和區"
"235008","293-VK","2018/12/10 14:19:12","新北市中和區中興街250號","121.4994","24.9880533333333","6500300","中和區"
"235036","301-VK","2018/12/10 14:19:20","新北市中和區福美路314號","121.496701666667","25.0048833333333","6500300","中和區"
"235007","352-BY","2018/12/10 14:19:21","新北市中和區景平路288號","121.513286666667","24.993195","6500300","中和區"
"235006","KEA-2878","2018/12/10 14:19:07","新北市中和區安樂路143巷2弄5號","121.514063333333","24.9977833333333","6500300","中和區"
"247011","KEA-2869","2018/12/10 14:19:16","新北市蘆洲區民權路3巷16號","121.475686666667","25.0853766666667","6501400","蘆洲區"
"247005","KED-0682","2018/12/10 14:19:18","新北市蘆洲區長安街26號","121.46406","25.07922","6501400","蘆洲區"
"235014","4979-A6","2018/12/10 14:19:11","新北市中和區景安路208巷2號","121.503776666667","24.991025","6500300","中和區"
"235033","4980-A6","2018/12/10 14:19:11","新北市中和區景平路736巷3弄9號","121.497538333333","25.00381","6500300","中和區"
"235034","558-UM","2018/12/10 14:19:04","新北市中和區中和路30號","121.49983","25.0016983333333","6500300","中和區"
"235009","565-BX","2018/12/10 14:19:10","新北市中和區景新街467巷35弄20-3號","121.514006666667","24.9888983333333","6500300","中和區"
"235018","640-BX","2018/12/10 14:19:16","新北市中和區國光街109巷4-1號","121.469896666667","25.0003216666667","6500300","中和區"
"235024","647-TV","2018/12/10 14:19:25","新北市中和區新生街114巷14號","121.482833333333","25.0024466666667","6500300","中和區"
"235011","732-UM","2018/12/10 14:19:03","新北市中和區和平街54巷10弄2號","121.508995","24.9914483333333","6500300","中和區"
"235010","733-UM","2018/12/10 14:19:10","新北市中和區工專路111號","121.507645","24.9823333333333","6500300","中和區"
"235035","783-BX","2018/12/10 14:19:03","新北市中和區連城路352號","121.482265","24.9954966666667","6500300","中和區"
"235026","800-TS","2018/12/10 14:19:19","新北市中和區中山路二段436號","121.48935","25.0041883333333","6500300","中和區"
"235021","801-TS","2018/12/10 14:19:19","新北市中和區員山路352號","121.481086666667","25.00363","6500300","中和區"
"235016","805-TS","2018/12/10 14:19:08","新北市中和區興南路二段128巷1號","121.503946666667","24.9836866666667","6500300","中和區"
"235012","896-TW","2018/12/10 14:19:20","新北市中和區華新街111號","121.508613333333","24.9816816666667","6500300","中和區"
"235017","900-TW","2018/12/10 14:19:12","新北市中和區華安街17巷21號","121.467211666667","24.9982616666667","6500300","中和區"
"235029","911-UM","2018/12/10 14:19:24","新北市中和區中山路二段64巷16弄5號","121.503426666667","25.006135","6500300","中和區"
"235015","157-BY","2018/12/10 14:19:22","新北市中和區和平街29-1號","121.507356666667","24.9910433333333","6500300","中和區"
"235001","AAC-213","2018/12/10 14:19:19","新北市中和區秀朗路三段50巷12弄6號","121.524085","24.995345","6500300","中和區"
"235023","AAC-215","2018/12/10 14:19:10","新北市中和區圓通路286巷1號","121.491486666667","24.9911916666667","6500300","中和區"
"220013","072-UY","2018/12/10 14:19:22","新北市板橋區國泰街76巷34號","121.467135","25.0071466666667","6500100","板橋區"
"220034","073-UY","2018/12/10 14:19:20","新北市板橋區金華街10巷48弄20號","121.45767","25.0198316666667","6500100","板橋區"
"220105","075-UY","2018/12/10 14:19:08","新北市板橋區文化路二段417巷12-2號","121.474315","25.0335966666667","6500100","板橋區"
"220017","AAD-861","2018/12/10 14:19:21","新北市板橋區華興街21巷23號","121.458893333333","25.003595","6500100","板橋區"
"247001","893-R6","2018/12/10 14:19:13","新北市蘆洲區永樂街83號","121.45592","25.08869","6501400","蘆洲區"
"247023","500-BY","2018/12/10 14:19:15","新北市蘆洲區長榮路500號","121.459458333333","25.0897516666667","6501400","蘆洲區"
"247019","057-VK","2018/12/10 14:19:21","新北市蘆洲區仁愛街35巷10號","121.471635","25.0927166666667","6501400","蘆洲區"
"247009","056-VK","2018/12/10 14:19:15","新北市蘆洲區三民路26巷26弄1號","121.477766666667","25.082995","6501400","蘆洲區"
"247013","053-VK","2018/12/10 14:19:22","新北市蘆洲區中山一路214號","121.473051666667","25.080775","6501400","蘆洲區"
"247017","007-UY","2018/12/10 14:19:19","新北市蘆洲區民權路73號","121.473455","25.088485","6501400","蘆洲區"
"247003","002-UY","2018/12/10 14:19:20","新北市蘆洲區中原路22號","121.460388333333","25.082945","6501400","蘆洲區"
"247021","001-UY","2018/12/10 14:19:16","新北市蘆洲區民族路528號","121.468961666667","25.0898433333333","6501400","蘆洲區"
"253003","6232-TK","2018/12/10 14:19:16","新北市石門區尖子鹿31-1號","121.579378333333","25.2669816666667","6502200","石門區"
"253004","6251-TK","2018/12/10 14:19:12","新北市石門區內阿里磅1號","121.592275","25.2545783333333","6502200","石門區"
"253002","637-UY","2018/12/10 14:19:16","新北市石門區大溪墘2-4號","121.548893333333","25.2892516666667","6502200","石門區"
"253001","KEC-0718","2018/12/10 14:18:48","新北市石門區八甲27-2號","121.527265","25.277695","6502200","石門區"
"207002","749-BX","2018/12/10 14:19:22","新北市萬里區溪底里瑞泉路9號","121.605345","25.1439333333333","6502800","萬里區"
"252005","073-UM","2018/12/10 14:19:07","新北市三芝區橫山里橫山21號","121.540113333333","25.26275","6502100","三芝區"
"207001","662-BX","2018/12/10 14:19:10","新北市萬里區磺潭里清水18號","121.63783","25.1976716666667","6502800","萬里區"
"236064","105-UM","2018/12/10 14:19:17","新北市土城區明德路一段95號","121.465573333333","24.9830866666667","6501300","土城區"
"236040","KED-0685","2018/12/10 14:19:23","新北市土城區裕生路21巷6弄23號","121.448716666667","24.9868033333333","6501300","土城區"
"236074","166-UM","2018/12/10 14:19:20","新北市土城區永安街115巷38弄2號","121.428791666667","24.9628866666667","6501300","土城區"
"236029","253-BX","2018/12/10 14:19:06","新北市土城區順風路66號","121.440323333333","24.9775883333333","6501300","土城區"
"236024","269-VK","2018/12/10 14:19:13","新北市土城區承天路18號","121.439508333333","24.96345","6501300","土城區"
"236012","270-VK","2018/12/10 14:19:25","新北市土城區青雲路39巷7號","121.46035","24.9875883333333","6501300","土城區"
"236032","271-VK","2018/12/10 14:19:19","新北市土城區青雲路483巷9號","121.459356666667","24.9735383333333","6501300","土城區"
"247007","KED-0683","2018/12/10 14:19:10","新北市蘆洲區信義路35號","121.47441","25.0795766666667","6501400","蘆洲區"
"236016","401-BY","2018/12/10 14:19:24","新北市土城區明德路一段134號","121.463605","24.9788966666667","6501300","土城區"
"236057","912-UM","2018/12/10 14:19:06","新北市土城區中央路四段270號","121.414671666667","24.95661","6501300","土城區"
"236045","913-UM","2018/12/10 14:19:22","新北市土城區明德路一段280-1號","121.457278333333","24.9774833333333","6501300","土城區"
"236060","915-UM","2018/12/10 14:19:07","新北市土城區金城路三段202-3號","121.469451666667","24.9885733333333","6501300","土城區"
"236054","AAC-216","2018/12/10 14:19:13","新北市土城區中華路二段120號","121.43781","24.9738616666667","6501300","土城區"
"221010","269-BY","2018/12/10 14:19:05","新北市汐止區長青路210巷64號","121.615775","25.115835","6501100","汐止區"
"221033","647-BX","2018/12/10 14:19:21","新北市汐止區橫科路221巷19-1號","121.621596666667","25.04954","6501100","汐止區"
"220027","145-BY","2018/12/10 14:19:12","新北市板橋區民權路202巷13弄1號","121.460568333333","25.0158933333333","6500100","板橋區"
"220028","200-UY","2018/12/10 14:19:17","新北市板橋區大觀路二段19巷83號","121.449195","25.0028783333333","6500100","板橋區"
"220030","610-BX","2018/12/10 14:19:21","新北市板橋區溪崑二街134號","121.425966666667","24.9877366666667","6500100","板橋區"
"220050","245-BX","2018/12/10 14:19:20","新北市板橋區縣民大道三段127巷25號","121.47689","25.02382","6500100","板橋區"
"220004","276-BY","2018/12/10 14:19:05","新北市板橋區信義路279巷21號","121.464336666667","24.9902466666667","6500100","板橋區"
"220020","277-BY","2018/12/10 14:19:09","新北市板橋區金門街339-2號","121.429211666667","24.9856183333333","6500100","板橋區"
"220019","283-VK","2018/12/10 14:19:11","新北市板橋區忠孝路48巷7弄1-3號","121.461033333333","25.0004416666667","6500100","板橋區"
"220043","285-UM","2018/12/10 14:19:12","新北市板橋區吳鳳路50巷87號","121.47041","25.03046","6500100","板橋區"
"220001","285-VK","2018/12/10 14:19:12","新北市板橋區縣民大道三段270巷12號","121.478441666667","25.02296","6500100","板橋區"
"220031","286-VK","2018/12/10 14:19:10","新北市板橋區大觀路一段38巷164號","121.442095","25.004565","6500100","板橋區"
"220029","287-VK","2018/12/10 14:19:14","新北市板橋區南雅西路一段88號","121.453296666667","25.00591","6500100","板橋區"
"220039","288-VK","2018/12/10 14:19:18","新北市板橋區長江路一段106巷18弄7號","121.460018333333","25.0284433333333","6500100","板橋區"
"220009","293-UM","2018/12/10 14:19:11","新北市板橋區中山路一段275號","121.469028333333","25.0135666666667","6500100","板橋區"
"220032","296-UM","2018/12/10 14:19:05","新北市板橋區滿平街136巷6弄11號","121.427585","24.9877916666667","6500100","板橋區"
"220023","303-R5","2018/12/10 14:19:20","新北市板橋區南雅西路一段96號","121.453158333333","25.005965","6500100","板橋區"
"220010","305-R5","2018/12/10 14:19:15","新北市板橋區三民路二段153巷8弄1號","121.480943333333","25.0150366666667","6500100","板橋區"
"220041","307-R5","2018/12/10 14:19:12","新北市板橋區光武街2巷25號","121.468661666667","25.025585","6500100","板橋區"
"220047","317-R6","2018/12/10 14:19:17","新北市板橋區四維路103巷10號","121.464813333333","25.0242216666667","6500100","板橋區"
"220038","487-VK","2018/12/10 14:19:14","新北市板橋區英士路151號","121.459756666667","25.02416","6500100","板橋區"
"220037","491-VK","2018/12/10 14:19:05","新北市板橋區文化路二段182巷3弄63號","121.472585","25.0290233333333","6500100","板橋區"
"220104","560-BX","2018/12/10 14:19:21","新北市板橋區中正路360巷22號","121.455288333333","25.023405","6500100","板橋區"
"220052","561-BX","2018/12/10 14:19:15","新北市板橋區文化路一段288號","121.467446666667","25.02159","6500100","板橋區"
"220011","609-BX","2018/12/10 14:19:04","新北市板橋區三民路二段241號","121.479031666667","25.012595","6500100","板橋區"
"220040","637-BX","2018/12/10 14:19:14","新北市板橋區縣民大道三段247巷7號","121.48158","25.0262133333333","6500100","板橋區"
"220005","686-BX","2018/12/10 14:19:04","新北市板橋區五權街30巷1號","121.464811666667","24.993365","6500100","板橋區"
"220025","687-BX","2018/12/10 14:19:16","新北市板橋區龍興街12號","121.442805","24.9997633333333","6500100","板橋區"
"220042","689-BX","2018/12/10 14:19:20","新北市板橋區雨農路32號","121.46125","25.0243666666667","6500100","板橋區"
"220002","741-BX","2018/12/10 14:19:18","新北市板橋區光明街116號","121.463231666667","25.0031183333333","6500100","板橋區"
"220051","KEA-2699","2018/12/10 14:19:21","新北市板橋區雙十路二段130巷2弄2號","121.474275","25.02915","6500100","板橋區"
"220003","827-TW","2018/12/10 14:19:12","新北市板橋區新民街13號","121.463996666667","25.009875","6500100","板橋區"
"220016","830-TW","2018/12/10 14:19:10","新北市板橋區三民路一段31巷96號","121.482125","25.0240183333333","6500100","板橋區"
"220014","831-TW","2018/12/10 14:19:23","新北市板橋區長安街138巷7弄59號","121.474156666667","25.00933","6500100","板橋區"
"220022","895-R6","2018/12/10 14:19:23","新北市板橋區府中路44號","121.457233333333","25.009595","6500100","板橋區"
"220021","985-R7","2018/12/10 14:19:24","新北市板橋區中正路229號","121.455993333333","25.01787","6500100","板橋區"
"220046","AAC-210","2018/12/10 14:19:14","新北市板橋區幸福路32巷1弄1號","121.461418333333","25.0204166666667","6500100","板橋區"
"220012","AAC-253","2018/12/10 14:19:10","新北市板橋區中山路一段51號","121.460898333333","25.0092566666667","6500100","板橋區"
"235032","KEA-2873","2018/12/10 14:19:13","新北市中和區中和路143號","121.502191666667","24.99982","6500300","中和區"
"235025","KEA-2875","2018/12/10 14:19:26","新北市中和區民利街71號","121.478675","24.9982166666667","6500300","中和區"
"235005","KEA-2876","2018/12/10 14:19:14","新北市中和區中安街178巷13弄3號","121.510371666667","24.998705","6500300","中和區"
