"lineid","car","time","location","longitude","latitude","cityid","cityname"
"231002","002-UM","2018/12/10 15:29:17","新北市新店區環河路121-2號","121.530193333333","24.9713316666667","6500600","新店區"
"231028","046-UY","2018/12/10 15:29:16","新北市新店區僑信路104號","121.500083333333","24.9472166666667","6500600","新店區"
"231005","106-UY","2018/12/10 15:29:22","新北市新店區建國路276號","121.537228333333","24.9837033333333","6500600","新店區"
"231019","108-UY","2018/12/10 15:29:21","新北市新店區永福路80號","121.561058333333","24.9276216666667","6500600","新店區"
"231011","187-VK","2018/12/10 15:29:16","新北市新店區寶元路一段109號","121.545718333333","24.9831383333333","6500600","新店區"
"231023","KEA-2219","2018/12/10 15:29:15","新北市新店區行政街17巷3號","121.542795","24.96703","6500600","新店區"
"231026","256-BX","2018/12/10 15:29:06","新北市新店區三民路117巷7弄1號","121.534098333333","24.9710766666667","6500600","新店區"
"231003","268-BY","2018/12/10 15:29:11","新北市新店區寶高路120巷1號","121.554616666667","24.976085","6500600","新店區"
"231018","278-BY","2018/12/10 15:29:11","新北市新店區民生路130號","121.529703333333","24.9820566666667","6500600","新店區"
"231014","AAD-862","2018/12/10 15:29:17","新北市新店區明山路45號","121.563841666667","24.9558916666667","6500600","新店區"
"231038","3712-VJ","2018/12/10 15:29:21","新北市新店區安一路一段1-1號","121.519786666667","24.961065","6500600","新店區"
"231037","4716-K9","2018/12/10 15:29:16","新北市新店區安興路83-3號","121.515383333333","24.9755833333333","6500600","新店區"
"231025","4715-K9","2018/12/10 15:29:19","新北市新店區薏仁坑路6號","121.500428333333","24.9580716666667","6500600","新店區"
"231036","512-UM","2018/12/10 15:29:19","新北市新店區安祥路69巷41弄82號","121.482561666667","24.962","6500600","新店區"
"231034","616-UM","2018/12/10 15:29:26","新北市新店區富貴街10巷1號","121.494161666667","24.9495233333333","6500600","新店區"
"231030","619-UM","2018/12/10 15:29:21","新北市新店區安和路二段209號","121.517611666667","24.975325","6500600","新店區"
"231039","718-UY","2018/12/10 15:29:23","新北市新店區寶元路一段85巷8號","121.543071666667","24.9858166666667","6500600","新店區"
"231035","719-UM","2018/12/10 15:29:08","新北市新店區安興路81號","121.515413333333","24.975325","6500600","新店區"
"231031","720-UM","2018/12/10 15:29:21","新北市新店區和成街15巷31號","121.488806666667","24.94725","6500600","新店區"
"231029","897-TW","2018/12/10 15:29:13","新北市新店區安康路三段529-1號","121.481813333333","24.9485133333333","6500600","新店區"
"231004","899-TW","2018/12/10 15:29:25","新北市新店區民族路161號","121.537613333333","24.9767383333333","6500600","新店區"
"241011","013-R5","2018/12/10 15:29:19","新北市三重區河邊北街23號","121.504578333333","25.0660466666667","6500200","三重區"
"241028","022-UY","2018/12/10 15:29:18","新北市三重區重新路四段121號","121.484491666667","25.05261","6500200","三重區"
"241017","063-VK","2018/12/10 15:29:08","新北市三重區重新路四段121號","121.484736666667","25.05199","6500200","三重區"
"241024","065-VK","2018/12/10 15:29:13","新北市三重區重新路四段121號","121.484786666667","25.052565","6500200","三重區"
"241018","268-UM","2018/12/10 15:29:08","新北市三重區重新路四段121號","121.484788333333","25.0520083333333","6500200","三重區"
"241013","270-UM","2018/12/10 15:29:08","新北市三重區成功路106-2號","121.487246666667","25.0516833333333","6500200","三重區"
"241020","478-VK","2018/12/10 15:29:20","新北市三重區重新路四段121號","121.485121666667","25.0520633333333","6500200","三重區"
"235030","003-UY","2018/12/10 15:29:16","新北市中和區保平路362巷11號","121.505845","25.0039766666667","6500300","中和區"
"235020","096-UM","2018/12/10 15:29:11","新北市中和區中山路三段168號","121.47295","25.0065816666667","6500300","中和區"
"247011","KEA-2869","2018/12/10 15:29:15","新北市林口區太平里180號","121.366591666667","25.1346416666667","6501400","蘆洲區"
"235014","4979-A6","2018/12/10 15:29:11","新北市中和區景新街129號","121.505793333333","24.9973483333333","6500300","中和區"
"235033","4980-A6","2018/12/10 15:29:10","新北市中和區連城路347巷18弄2號","121.488555","24.9947583333333","6500300","中和區"
"235018","640-BX","2018/12/10 15:28:16","新北市五股區中直路13-7號","121.424601666667","25.11061","6500300","中和區"
"235023","AAC-215","2018/12/10 15:29:09","新北市中和區員山路28-6號","121.482446666667","24.987125","6500300","中和區"
"253003","6232-TK","2018/12/10 15:29:16","新北市石門區小坑9號","121.59435","25.2884066666667","6502200","石門區"
"253001","KEC-0718","2018/12/10 15:29:08","新北市石門區小坑9號","121.594485","25.2891533333333","6502200","石門區"
"207001","662-BX","2018/12/10 15:29:10","新北市萬里區龜吼里玉田路46-10號","121.683088333333","25.18921","6502800","萬里區"
"236064","105-UM","2018/12/10 15:29:17","新北市土城區水源街32巷14號","121.441223333333","24.9758916666667","6501300","土城區"
"236040","KED-0685","2018/12/10 15:29:03","新北市土城區學府路一段145號","121.453615","24.986095","6501300","土城區"
"236074","166-UM","2018/12/10 15:29:17","新北市土城區中央路四段464號","121.409876666667","24.9504033333333","6501300","土城區"
"236029","253-BX","2018/12/10 15:29:06","新北市土城區中央路一段238號","121.444678333333","24.9849816666667","6501300","土城區"
"236024","269-VK","2018/12/10 15:29:13","新北市土城區中央路二段89號","121.442455","24.9781483333333","6501300","土城區"
"236012","270-VK","2018/12/10 15:29:25","新北市土城區廣明街1號","121.455973333333","24.99185","6501300","土城區"
"236032","271-VK","2018/12/10 15:29:19","新北市土城區明德路一段103號","121.465578333333","24.982725","6501300","土城區"
"236016","401-BY","2018/12/10 15:29:24","新北市土城區延吉街135號","121.470731666667","24.9861466666667","6501300","土城區"
"236057","912-UM","2018/12/10 15:29:06","新北市土城區中央路二段187號","121.44208","24.975675","6501300","土城區"
"236045","913-UM","2018/12/10 15:29:22","新北市土城區青雲路178號","121.459125","24.9823916666667","6501300","土城區"
"236060","915-UM","2018/12/10 15:29:07","新北市土城區延和路122號","121.467646666667","24.9901483333333","6501300","土城區"
"236054","AAC-216","2018/12/10 15:29:13","新北市土城區延和路19號","121.464368333333","24.9883133333333","6501300","土城區"
"238002","755-BX","2018/12/10 15:29:22","新北市樹林區復興路197號","121.420515","24.9915633333333","6500700","樹林區"
"238010","601-UM","2018/12/10 15:29:16","新北市樹林區三福街30號","121.408343333333","25.0166183333333","6500700","樹林區"
"238006","599-UM","2018/12/10 15:29:19","新北市樹林區太平路161號","121.418761666667","24.9794883333333","6500700","樹林區"
"238005","571-TV","2018/12/10 15:29:11","新北市樹林區保安街一段1號","121.427425","24.9933183333333","6500700","樹林區"
"238011","5061-A6","2018/12/10 15:29:17","新北市樹林區八德街216-2號","121.416616666667","24.9727933333333","6500700","樹林區"
"238009","KEA-2213","2018/12/10 15:29:09","新北市樹林區仁愛街67號","121.423051666667","24.9824966666667","6500700","樹林區"
"238008","KEA-2539","2018/12/10 15:29:19","新北市樹林區柑園街一段64號","121.402518333333","24.9605216666667","6500700","樹林區"
"238012","303-VK","2018/12/10 15:29:14","新北市樹林區中山路一段336號","121.419603333333","24.9862083333333","6500700","樹林區"
"238004","283-BY","2018/12/10 15:29:13","新北市樹林區保安街二段333巷2號","121.412303333333","25.007615","6500700","樹林區"
"238001","282-BY","2018/12/10 15:29:18","新北市樹林區中正路103號","121.42529","25.0007783333333","6500700","樹林區"
"238007","268-VK","2018/12/10 15:29:25","新北市樹林區俊英街116巷29弄2號","121.428253333333","25.0064","6500700","樹林區"
"238013","172-UY","2018/12/10 15:29:14","新北市樹林區中山路三段27巷3弄12-5號","121.401996666667","24.9734883333333","6500700","樹林區"
"238003","169-UY","2018/12/10 15:27:31","新北市樹林區日新街6號","121.423558333333","24.9933666666667","6500700","樹林區"
"220019","283-VK","2018/12/10 15:29:05","新北市樹林區中山路三段210-2號","121.38148","24.9656","6500100","板橋區"
"220031","286-VK","2018/12/10 15:29:10","新北市新莊區新泰路421-7號","121.442276666667","25.0450266666667","6500100","板橋區"
"220012","AAC-253","2018/12/10 15:29:09","新北市板橋區長安街331巷81號","121.472351666667","25.012885","6500100","板橋區"
