"lineid","car","time","location","longitude","latitude","cityid","cityname"
"234001","149-BY","2018/12/10 16:29:21","新北市永和區福和路1號","121.526248333333","25.009905","6500400","永和區"
"249002","305-UY","2018/12/10 16:29:26","新北市八里區挖子尾街10號","121.41552","25.164395","6502300","八里區"
"244019","402-UM","2018/12/10 16:29:12","新北市林口區粉寮路二段160巷28號","121.40517","25.09076","6501700","林口區"
"243012","646-TV","2018/12/10 16:01:08","新北市泰山區黎明路25號","121.42221","25.0607616666667","6501600","泰山區"
"243014","680-BX","2018/12/10 16:00:08","新北市泰山區黎明路25號","121.422068333333","25.06063","6501600","泰山區"
"231027","0291-UT","2018/12/10 16:27:18","新北市新店區安華路28-1號","121.51915","24.960615","6500600","新店區"
"231046","107-UY","2018/12/10 16:29:20","新北市新店區灣潭路3-2號","121.538315","24.95079","6500600","新店區"
"241011","013-R5","2018/12/10 16:29:19","新北市三重區秀江街49號","121.501055","25.0726116666667","6500200","三重區"
"241028","022-UY","2018/12/10 16:29:18","新北市三重區同安街104-1號","121.494515","25.056325","6500200","三重區"
"241008","059-VK","2018/12/10 16:29:23","新北市三重區力行路二段136巷45弄12號","121.479056666667","25.0753633333333","6500200","三重區"
"241022","060-VK","2018/12/10 16:29:11","新北市三重區重陽路二段18巷2號","121.486385","25.06225","6500200","三重區"
"241031","061-VK","2018/12/10 16:29:17","新北市三重區重陽路一段77號","121.486673333333","25.0588216666667","6500200","三重區"
"241015","062-VK","2018/12/10 16:29:17","新北市三重區福德北路40號","121.50196","25.0653416666667","6500200","三重區"
"241017","063-VK","2018/12/10 16:29:08","新北市三重區大同北路91號","121.494663333333","25.0636483333333","6500200","三重區"
"241024","065-VK","2018/12/10 16:29:14","新北市三重區中正北路229號","121.476171666667","25.0705483333333","6500200","三重區"
"241002","090-VK","2018/12/10 16:29:16","新北市三重區五華街8號","121.495065","25.080075","6500200","三重區"
"241003","091-VK","2018/12/10 16:29:13","新北市三重區仁義街230巷14號","121.494216666667","25.08465","6500200","三重區"
"251014","742-BX","2018/12/10 16:29:22","新北市淡水區新市一路一段6號","121.429243333333","25.1872966666667","6501000","淡水區"
"241005","262-UM","2018/12/10 16:29:12","新北市三重區溪尾街300-2號","121.487506666667","25.0836233333333","6500200","三重區"
"241026","265-UM","2018/12/10 16:29:08","新北市三重區文化南路42號","121.500418333333","25.0602416666667","6500200","三重區"
"241016","266-UM","2018/12/10 16:29:23","新北市三重區自強路一段160巷2弄29號","121.494738333333","25.0658133333333","6500200","三重區"
"241009","267-UM","2018/12/10 16:29:16","新北市三重區三和路四段191巷76號","121.484263333333","25.0798033333333","6500200","三重區"
"241018","268-UM","2018/12/10 16:29:08","新北市三重區重陽路四段77號","121.492528333333","25.0707883333333","6500200","三重區"
"241032","269-UM","2018/12/10 16:29:25","新北市三重區三陽路100巷3弄13號","121.483026666667","25.0581583333333","6500200","三重區"
"241013","270-UM","2018/12/10 16:29:08","新北市三重區三和路三段83巷140號","121.4982","25.0732116666667","6500200","三重區"
"241025","271-UM","2018/12/10 16:29:20","新北市三重區中正北路560巷100弄18號","121.4726","25.0687333333333","6500200","三重區"
"241007","398-BY","2018/12/10 16:29:22","新北市三重區三和路四段167巷158號","121.487498333333","25.080185","6500200","三重區"
"241004","475-VK","2018/12/10 16:29:20","新北市三重區仁愛街377巷23號","121.492598333333","25.0809133333333","6500200","三重區"
"241020","478-VK","2018/12/10 16:29:20","新北市三重區車路頭街37巷18號","121.484315","25.0718233333333","6500200","三重區"
"241030","480-VK","2018/12/10 16:29:11","新北市三重區成功路96號","121.487645","25.0513283333333","6500200","三重區"
"241014","543-UM","2018/12/10 16:29:14","新北市三重區河邊北街70-3號","121.504328333333","25.0684183333333","6500200","三重區"
"241023","545-UM","2018/12/10 16:29:19","新北市三重區忠孝路三段50巷82號","121.48301","25.0644966666667","6500200","三重區"
"241001","547-UM","2018/12/10 16:29:23","新北市三重區福隆路97號","121.492365","25.07823","6500200","三重區"
"241019","KEA-2593","2018/12/10 16:29:17","新北市三重區重陽路三段93號","121.490215","25.0678383333333","6500200","三重區"
"241006","AAD-863","2018/12/10 16:29:24","新北市三重區力行路二段131號","121.483213333333","25.07684","6500200","三重區"
"241012","941-UM","2018/12/10 16:29:27","新北市三重區仁興街3巷63號","121.501966666667","25.0745","6500200","三重區"
"241029","942-UM","2018/12/10 16:29:22","新北市三重區集美街126巷23號","121.489876666667","25.0537633333333","6500200","三重區"
"235026","800-TS","2018/12/10 16:29:18","新北市中和區連城路222巷9號","121.490571666667","24.9978233333333","6500300","中和區"
"235065","911-UM","2018/12/10 16:29:15","新北市中和區員山路36巷16-2號","121.485288333333","24.991835","6500300","中和區"
"224007","275-VK","2018/12/10 16:29:18","新北市瑞芳區大埔路183號","121.763365","25.1020483333333","6501200","瑞芳區"
"224005","271-BY","2018/12/10 16:28:46","新北市瑞芳區阿美家園7號","121.821618333333","25.1160933333333","6501200","瑞芳區"
"227001","642-TC","2018/12/10 16:29:17","新北市雙溪區上林里內平林111號","121.826138333333","25.02696","6502500","雙溪區"
"227008","400-TW","2018/12/10 16:29:11","新北市雙溪區三港里雙澳路37-5號","121.872775","25.050185","6502500","雙溪區"
"251013","KEA-2871","2018/12/10 16:29:11","新北市淡水區北新路三段162號","121.492375","25.1915016666667","6501000","淡水區"
"251016","179-VK","2018/12/10 16:29:07","新北市淡水區中正路二段31號","121.419605","25.1811833333333","6501000","淡水區"
"251008","181-VK","2018/12/10 16:29:14","新北市淡水區民生路6號","121.46075","25.13785","6501000","淡水區"
"252001","292-VK","2018/12/10 16:29:07","新北市三芝區埔坪里埔頭坑41號","121.504561666667","25.264515","6502100","三芝區"
"247008","KED-0683","2018/12/10 16:29:20","新北市五股區中興路三段163號","121.449301666667","25.08064","6501400","蘆洲區"
"238002","755-BX","2018/12/10 16:28:21","新北市樹林區中山路三段210-2號","121.38093","24.967005","6500700","樹林區"
"238012","303-VK","2018/12/10 16:10:36","新北市樹林區中正路22-1號","121.427923333333","24.99941","6500700","樹林區"
"238004","283-BY","2018/12/10 16:29:13","新北市樹林區中正路433-1號","121.414603333333","25.0082533333333","6500700","樹林區"
"238001","282-BY","2018/12/10 16:29:18","新北市樹林區中正路22-1號","121.42773","24.9995133333333","6500700","樹林區"
"238003","169-UY","2018/12/10 16:28:10","新北市樹林區中山路二段10號","121.417688333333","24.9851983333333","6500700","樹林區"
"220012","AAC-253","2018/12/10 16:29:09","新北市板橋區華東街1-10號","121.448611666667","24.9948883333333","6500100","板橋區"
