"lineid","car","time","location","longitude","latitude","cityid","cityname"
"234001","149-BY","2018/12/10 16:58:52","新北市永和區福和路1號","121.526321666667","25.009885","6500400","永和區"
"249005","172-UM","2018/12/10 16:59:05","新北市八里區渡船頭3-5號","121.432428333333","25.1543733333333","6502300","八里區"
"249001","173-UM","2018/12/10 16:59:28","新北市八里區中山路三段106號","121.391798333333","25.1427416666667","6502300","八里區"
"249004","303-UY","2018/12/10 16:59:26","新北市八里區挖子尾街6號","121.415686666667","25.1645016666667","6502300","八里區"
"249002","305-UY","2018/12/10 16:58:26","新北市八里區牛寮埔28-1號","121.432475","25.1432966666667","6502300","八里區"
"249003","593-UM","2018/12/10 16:59:19","新北市八里區中山路二段370號","121.401013333333","25.1480816666667","6502300","八里區"
"244023","069-UM","2018/12/10 16:59:08","新北市林口區粉寮1號","121.39752","25.07998","6501700","林口區"
"244019","402-UM","2018/12/10 16:59:12","新北市林口區中山路152-1號","121.39102","25.078735","6501700","林口區"
"244009","656-BX","2018/12/10 16:59:22","新北市林口區粉寮路37-1號","121.400975","25.0847833333333","6501700","林口區"
"244025","837-TS","2018/12/10 16:59:12","新北市林口區粉寮69號","121.405038333333","25.0908683333333","6501700","林口區"
"244021","838-TS","2018/12/10 16:59:21","新北市林口區粉寮一街17巷12號","121.404658333333","25.08514","6501700","林口區"
"231046","107-UY","2018/12/10 16:59:20","新北市新店區直潭十街20號","121.533526666667","24.93869","6500600","新店區"
"241011","013-R5","2018/12/10 16:59:19","新北市三重區龍門路219號","121.500326666667","25.0734516666667","6500200","三重區"
"241028","022-UY","2018/12/10 16:59:18","新北市三重區中正南路50號","121.493903333333","25.05991","6500200","三重區"
"241008","059-VK","2018/12/10 16:59:23","新北市三重區永福街179巷42號","121.477413333333","25.0746933333333","6500200","三重區"
"241022","060-VK","2018/12/10 16:59:11","新北市三重區中華路132號","121.483523333333","25.06405","6500200","三重區"
"241031","061-VK","2018/12/10 16:59:17","新北市三重區三寧街50號","121.490075","25.0603066666667","6500200","三重區"
"241015","062-VK","2018/12/10 16:59:13","新北市三重區福德北路82-3號","121.501446666667","25.0662666666667","6500200","三重區"
"241017","063-VK","2018/12/10 16:59:08","新北市三重區國隆路12巷1號","121.492881666667","25.0637816666667","6500200","三重區"
"241024","065-VK","2018/12/10 16:59:13","新北市三重區力行路二段27號","121.48184","25.072695","6500200","三重區"
"241002","090-VK","2018/12/10 16:59:16","新北市三重區仁義街101巷2號","121.497575","25.0802133333333","6500200","三重區"
"241003","091-VK","2018/12/10 16:59:13","新北市三重區集賢路87-1號","121.493651666667","25.0868433333333","6500200","三重區"
"251014","742-BX","2018/12/10 16:59:22","新北市淡水區淡金路四段472巷22號","121.452811666667","25.2240433333333","6501000","淡水區"
"241005","262-UM","2018/12/10 16:59:13","新北市三重區仁華街82號","121.485298333333","25.0831166666667","6500200","三重區"
"241026","265-UM","2018/12/10 16:59:08","新北市三重區文化南路42號","121.500421666667","25.0602283333333","6500200","三重區"
"241016","266-UM","2018/12/10 16:59:28","新北市三重區信義西街51號","121.495088333333","25.0637833333333","6500200","三重區"
"241009","267-UM","2018/12/10 16:59:16","新北市三重區仁美街108巷26號","121.484683333333","25.0805016666667","6500200","三重區"
"241018","268-UM","2018/12/10 16:59:08","新北市三重區六張街126巷4弄2號","121.49226","25.069055","6500200","三重區"
"241032","269-UM","2018/12/10 16:59:25","新北市三重區新北大道一段57巷11號","121.48545","25.0608366666667","6500200","三重區"
"241013","270-UM","2018/12/10 16:59:28","新北市三重區仁壽街12號","121.496541666667","25.07334","6500200","三重區"
"241025","271-UM","2018/12/10 16:59:20","新北市三重區中正北路361號","121.472673333333","25.0717916666667","6500200","三重區"
"241007","398-BY","2018/12/10 16:59:21","新北市三重區三和路四段145巷211號","121.488753333333","25.0793666666667","6500200","三重區"
"241024","KEA-2210","2018/12/10 16:59:26","新北市三重區重新路四段121號","121.484506666667","25.052225","6500200","三重區"
"241004","475-VK","2018/12/10 16:59:20","新北市三重區五華街106號","121.492538333333","25.0825666666667","6500200","三重區"
"241020","478-VK","2018/12/10 16:59:20","新北市三重區後竹圍街175巷29號","121.485526666667","25.0730633333333","6500200","三重區"
"241030","480-VK","2018/12/10 16:59:11","新北市三重區昌隆街64號","121.49116","25.0509883333333","6500200","三重區"
"241014","543-UM","2018/12/10 16:59:14","新北市三重區介壽路39巷94號","121.500735","25.07058","6500200","三重區"
"241023","545-UM","2018/12/10 16:59:19","新北市三重區新北大道一段252號","121.480176666667","25.0617216666667","6500200","三重區"
"241001","547-UM","2018/12/10 16:59:23","新北市三重區仁政街1號","121.4936","25.076035","6500200","三重區"
"241019","KEA-2593","2018/12/10 16:59:17","新北市三重區自強路二段74巷21號","121.487936666667","25.0698616666667","6500200","三重區"
"241006","AAD-863","2018/12/10 16:59:24","新北市三重區車路頭街131巷8號","121.484613333333","25.07583","6500200","三重區"
"241012","941-UM","2018/12/10 16:59:07","新北市三重區公園街35號","121.498765","25.074355","6500200","三重區"
"241029","942-UM","2018/12/10 16:59:22","新北市三重區重安街111號","121.494513333333","25.0549666666667","6500200","三重區"
"247012","KEA-2869","2018/12/10 16:59:25","新北市蘆洲區復興路83號","121.476381666667","25.08743","6501400","蘆洲區"
"247006","KED-0682","2018/12/10 16:59:24","新北市蘆洲區長安街99巷31號","121.460761666667","25.0796233333333","6501400","蘆洲區"
"235046","733-UM","2018/12/10 16:35:01","新北市中和區員山路36巷13號","121.484186666667","24.9907866666667","6500300","中和區"
"235062","800-TS","2018/12/10 16:37:56","新北市中和區員山路36巷16-3號","121.484976666667","24.9915183333333","6500300","中和區"
"235065","911-UM","2018/12/10 16:59:15","新北市中和區和城路一段271巷1號","121.485371666667","24.991855","6500300","中和區"
"247016","546-UM","2018/12/10 16:59:22","新北市蘆洲區中正路69號","121.470331666667","25.0827066666667","6501400","蘆洲區"
"247024","500-BY","2018/12/10 16:59:14","新北市蘆洲區長興路245號","121.4605","25.0874566666667","6501400","蘆洲區"
"247020","057-VK","2018/12/10 16:59:13","新北市蘆洲區民族路422巷35號","121.473436666667","25.0936116666667","6501400","蘆洲區"
"247010","056-VK","2018/12/10 16:59:20","新北市蘆洲區三民路26巷75號","121.478866666667","25.0833","6501400","蘆洲區"
"247014","053-VK","2018/12/10 16:59:28","新北市蘆洲區三民路81-5號","121.474356666667","25.0838716666667","6501400","蘆洲區"
"247018","007-UY","2018/12/10 16:59:24","新北市蘆洲區復興路105巷11號","121.476365","25.0884333333333","6501400","蘆洲區"
"247004","002-UY","2018/12/10 16:59:09","新北市蘆洲區中原路6號","121.461463333333","25.0835933333333","6501400","蘆洲區"
"247022","001-UY","2018/12/10 16:59:14","新北市蘆洲區三民路128巷166-1號","121.468415","25.0925583333333","6501400","蘆洲區"
"228003","097-TW","2018/12/10 16:59:22","新北市貢寮區福隆里興隆街23號","121.942625","25.016535","6502600","貢寮區"
"228002","585-TW","2018/12/10 16:59:21","新北市貢寮區貢寮里長泰路28號","121.900615","25.02406","6502600","貢寮區"
"224006","676-BX","2018/12/10 16:59:11","新北市瑞芳區大寮路2號","121.784765","25.099685","6501200","瑞芳區"
"224008","285-BY","2018/12/10 16:59:19","新北市瑞芳區明燈路一段265號","121.817056666667","25.1084183333333","6501200","瑞芳區"
"224007","275-VK","2018/12/10 16:59:13","新北市瑞芳區瑞竹路80號","121.763178333333","25.1034866666667","6501200","瑞芳區"
"224009","273-VK","2018/12/10 16:59:17","新北市瑞芳區濱二路28-2號","121.839321666667","25.1135466666667","6501200","瑞芳區"
"224005","271-BY","2018/12/10 16:59:19","新北市瑞芳區明里路54號","121.86961","25.1231633333333","6501200","瑞芳區"
"227001","642-TC","2018/12/10 16:59:14","新北市雙溪區長源里土地公山46號","121.79957","25.0128683333333","6502500","雙溪區"
"227008","400-TW","2018/12/10 16:59:11","新北市雙溪區牡丹里聖南31-1號","121.855588333333","25.0543566666667","6502500","雙溪區"
"251009","008-UM","2018/12/10 16:59:08","新北市淡水區中正路二段28號","121.419835","25.181635","6501000","淡水區"
"251004","009-UM","2018/12/10 16:59:14","新北市淡水區中正路二段31號","121.419335","25.18167","6501000","淡水區"
"251005","010-UM","2018/12/10 16:59:20","新北市淡水區中正路253號","121.433448333333","25.1744266666667","6501000","淡水區"
"251013","KEA-2871","2018/12/10 16:59:11","新北市淡水區泉洲厝32號","121.489271666667","25.1925616666667","6501000","淡水區"
"251016","179-VK","2018/12/10 16:59:07","新北市淡水區瓦坑6-1號","121.477655","25.1811433333333","6501000","淡水區"
"251015","180-VK","2018/12/10 16:59:20","新北市淡水區忠愛街5-2號","121.460388333333","25.1718066666667","6501000","淡水區"
"251008","181-VK","2018/12/10 16:59:14","新北市淡水區樹梅坑9號","121.472761666667","25.1426933333333","6501000","淡水區"
"251010","413-VK","2018/12/10 16:59:08","新北市淡水區中正路二段31號","121.419471666667","25.1814783333333","6501000","淡水區"
"251012","441-VK","2018/12/10 16:59:18","新北市淡水區沙崙路341號","121.427886666667","25.1878516666667","6501000","淡水區"
"251007","442-VK","2018/12/10 16:59:10","新北市淡水區中正東路一段2號","121.452025","25.1630733333333","6501000","淡水區"
"251006","561-UM","2018/12/10 16:59:14","新北市淡水區中正路二段31號","121.419261666667","25.1822316666667","6501000","淡水區"
"251011","650-BX","2018/12/10 16:59:22","新北市淡水區中山路36號","121.444296666667","25.169875","6501000","淡水區"
"252002","178-VK","2018/12/10 16:59:08","新北市三芝區忠孝街171號","121.505698333333","25.261155","6502100","三芝區"
"252001","292-VK","2018/12/10 16:59:15","新北市三芝區淡金路二段89號","121.50387","25.2607966666667","6502100","三芝區"
"247008","KED-0683","2018/12/10 16:59:20","新北市蘆洲區中山一路197巷17號","121.474805","25.0803216666667","6501400","蘆洲區"
"242029","612-BX","2018/12/10 16:59:18","新北市新莊區新泰路357巷3弄57號","121.44231","25.0392933333333","6500500","新莊區"
"242048","497-BY","2018/12/10 16:59:14","新北市新莊區三和路19巷19號","121.43671","25.03787","6500500","新莊區"
"242039","415-TV","2018/12/10 16:59:07","新北市新莊區新泰路255巷83號","121.442155","25.0390283333333","6500500","新莊區"
"242046","400-BY","2018/12/10 16:59:10","新北市新莊區新泰路357巷3弄57號","121.441886666667","25.0396433333333","6500500","新莊區"
"242007","176-VK","2018/12/10 16:59:24","新北市新莊區三和路12-21號","121.441856666667","25.038765","6500500","新莊區"
"242017","233-RS","2018/12/10 16:59:16","新北市新莊區三和路12-21號","121.442245","25.0381033333333","6500500","新莊區"
"242056","346-TH","2018/12/10 16:59:27","新北市新莊區三和路12-21號","121.442038333333","25.03829","6500500","新莊區"
"242031","348-TH","2018/12/10 16:59:09","新北市新莊區三泰路512號","121.431998333333","25.0383333333333","6500500","新莊區"
"242019","350-TH","2018/12/10 16:59:10","新北市新莊區公園一路75巷13號","121.44261","25.0384066666667","6500500","新莊區"
"242015","351-TH","2018/12/10 16:59:20","新北市新莊區新泰路357巷3弄57號","121.442106666667","25.039505","6500500","新莊區"
"238005","571-TV","2018/12/10 16:59:08","新北市樹林區八德街1014號","121.39131","24.968455","6500700","樹林區"
"238022","KEA-2213","2018/12/10 16:59:09","新北市樹林區八德街263-1號","121.419285","24.9738533333333","6500700","樹林區"
"238017","283-BY","2018/12/10 16:59:13","新北市樹林區光武街3-1號","121.415086666667","25.0044","6500700","樹林區"
"238001","282-BY","2018/12/10 16:59:18","新北市樹林區中正路22-1號","121.427825","24.9996033333333","6500700","樹林區"
"238020","268-VK","2018/12/10 16:59:25","新北市樹林區八德街660號","121.396355","24.968995","6500700","樹林區"
"238003","169-UY","2018/12/10 16:59:10","新北市樹林區中山路二段34號","121.417415","24.9848833333333","6500700","樹林區"
"239007","AAC-297","2018/12/10 16:59:18","新北市鶯歌區二甲路13-16號","121.345426666667","24.935155","6500800","鶯歌區"
"239006","891-R6","2018/12/10 16:59:27","新北市鶯歌區二甲路12-2號","121.345546666667","24.9351266666667","6500800","鶯歌區"
"239001","417-VK","2018/12/10 16:59:22","新北市鶯歌區二甲路13-16號","121.345395","24.935095","6500800","鶯歌區"
"239004","193-VK","2018/12/10 16:59:21","新北市鶯歌區環河路177-3號","121.345978333333","24.9351933333333","6500800","鶯歌區"
