"lineid","car","time","location","longitude","latitude","cityid","cityname"
"234001","149-BY","2018/12/10 16:58:52","新北市永和區福和路1號","121.526321666667","25.009885","6500400","永和區"
"249005","172-UM","2018/12/10 17:19:25","新北市五股區凌雲路三段130號","121.418058333333","25.12885","6502300","八里區"
"249001","173-UM","2018/12/10 17:19:08","新北市八里區中華路二段165巷3號","121.407628333333","25.1509","6502300","八里區"
"249004","303-UY","2018/12/10 17:19:16","新北市八里區賢三街23號","121.418875","25.1590466666667","6502300","八里區"
"249002","305-UY","2018/12/10 17:19:26","新北市八里區龍米路二段117巷18號","121.445131666667","25.1429","6502300","八里區"
"249003","593-UM","2018/12/10 17:19:19","新北市八里區中山路二段453號","121.396418333333","25.1455666666667","6502300","八里區"
"244023","069-UM","2018/12/10 17:19:08","新北市林口區隆林街48-1號","121.387485","25.075405","6501700","林口區"
"244007","080-UY","2018/12/10 17:19:23","新北市林口區湖子10-2號","121.387986666667","25.0901733333333","6501700","林口區"
"244019","402-UM","2018/12/10 17:19:12","新北市林口區公園路231-3號","121.375461666667","25.0753216666667","6501700","林口區"
"244013","KEA-2802","2018/12/10 17:19:16","新北市林口區粉寮69號","121.404788333333","25.0908216666667","6501700","林口區"
"244017","485-VK","2018/12/10 17:19:14","新北市林口區粉寮1號","121.39741","25.0799266666667","6501700","林口區"
"244009","656-BX","2018/12/10 17:19:22","新北市林口區文化北路二段550巷20弄37號","121.378063333333","25.091495","6501700","林口區"
"244011","701-TV","2018/12/10 17:19:16","新北市林口區粉寮1號","121.397366666667","25.0798583333333","6501700","林口區"
"244025","837-TS","2018/12/10 17:19:12","新北市林口區文化三路一段470號","121.369526666667","25.0753533333333","6501700","林口區"
"244021","838-TS","2018/12/10 17:19:21","新北市林口區粉寮路二段338號","121.404688333333","25.0972316666667","6501700","林口區"
"243016","KEA-2801","2018/12/10 17:19:12","新北市泰山區犁頭窠3-1號","121.422366666667","25.0604266666667","6501600","泰山區"
"243012","646-TV","2018/12/10 17:19:09","新北市泰山區黎明路31號","121.421805","25.060625","6501600","泰山區"
"231046","107-UY","2018/12/10 17:19:20","新北市新店區直潭路92號","121.530943333333","24.9376266666667","6500600","新店區"
"241011","013-R5","2018/12/10 17:19:19","新北市三重區河邊北街100巷1號","121.503855","25.07057","6500200","三重區"
"241028","022-UY","2018/12/10 17:19:18","新北市三重區中正南路77號","121.494055","25.05885","6500200","三重區"
"241008","059-VK","2018/12/10 17:19:23","新北市三重區下竹圍街14號","121.480906666667","25.07581","6500200","三重區"
"241022","060-VK","2018/12/10 17:19:11","新北市三重區中正北路64巷12號","121.486405","25.0640383333333","6500200","三重區"
"241015","062-VK","2018/12/10 17:19:13","新北市三重區長元街82-1號","121.501828333333","25.0662766666667","6500200","三重區"
"241017","063-VK","2018/12/10 17:19:27","新北市三重區大同北路91號","121.494675","25.0635916666667","6500200","三重區"
"241024","065-VK","2018/12/10 17:19:13","新北市三重區中正北路193巷21弄43號","121.479026666667","25.071065","6500200","三重區"
"241002","090-VK","2018/12/10 17:19:16","新北市三重區仁愛街357巷5號","121.492271666667","25.080135","6500200","三重區"
"241003","091-VK","2018/12/10 17:19:13","新北市三重區五華街148號","121.491145","25.083925","6500200","三重區"
"251014","742-BX","2018/12/10 17:19:22","新北市淡水區公埔子45號","121.463921666667","25.2301883333333","6501000","淡水區"
"241005","262-UM","2018/12/10 17:19:12","新北市蘆洲區重陽一街1號","121.48183","25.08136","6500200","三重區"
"241026","265-UM","2018/12/10 17:19:28","新北市三重區正義南路20號","121.498283333333","25.061455","6500200","三重區"
"241016","266-UM","2018/12/10 17:19:23","新北市三重區大同北路54巷1號","121.494188333333","25.0635016666667","6500200","三重區"
"241009","267-UM","2018/12/10 17:19:17","新北市三重區三和路四段143-1號","121.48431","25.078285","6500200","三重區"
"241018","268-UM","2018/12/10 17:19:28","新北市三重區正義北路278-1號","121.495486666667","25.06908","6500200","三重區"
"241032","269-UM","2018/12/10 17:19:24","新北市三重區興華街122號","121.483466666667","25.0597683333333","6500200","三重區"
"241013","270-UM","2018/12/10 17:19:28","新北市三重區仁愛街99號","121.49568","25.0736683333333","6500200","三重區"
"241025","271-UM","2018/12/10 17:19:20","新北市三重區中正北路291號","121.474731666667","25.07121","6500200","三重區"
"241007","398-BY","2018/12/10 17:19:21","新北市三重區慈愛街10號","121.48455","25.078385","6500200","三重區"
"241024","KEA-2210","2018/12/10 17:19:26","新北市三重區國道路一段58巷20號","121.48116","25.07211","6500200","三重區"
"241004","475-VK","2018/12/10 17:19:20","新北市三重區碧華街371號","121.49252","25.0854016666667","6500200","三重區"
"241020","478-VK","2018/12/10 17:19:20","新北市三重區自強路三段7巷9號","121.48897","25.072445","6500200","三重區"
"241030","480-VK","2018/12/10 17:19:11","新北市三重區成功路73巷9號","121.48941","25.051855","6500200","三重區"
"241014","543-UM","2018/12/10 17:19:14","新北市三重區長榮路3號","121.50016","25.0683666666667","6500200","三重區"
"241023","545-UM","2018/12/10 17:19:19","新北市三重區三民街195號","121.482106666667","25.0657033333333","6500200","三重區"
"241001","547-UM","2018/12/10 17:19:23","新北市三重區仁愛街269巷6-1號","121.493303333333","25.078935","6500200","三重區"
"241019","KEA-2593","2018/12/10 17:19:17","新北市三重區自強路二段74巷6號","121.488348333333","25.0697766666667","6500200","三重區"
"241012","941-UM","2018/12/10 17:19:27","新北市三重區仁昌街90號","121.49923","25.0748616666667","6500200","三重區"
"247012","KEA-2869","2018/12/10 17:19:24","新北市蘆洲區信義路321號","121.47821","25.0863866666667","6501400","蘆洲區"
"247006","KED-0682","2018/12/10 17:19:24","新北市蘆洲區長安街73巷22-2號","121.46179","25.07938","6501400","蘆洲區"
"235065","911-UM","2018/12/10 17:19:15","新北市中和區和城路一段271巷1號","121.485371666667","24.9918033333333","6500300","中和區"
"247002","893-R6","2018/12/10 17:19:17","新北市蘆洲區永樂街38巷39號","121.458278333333","25.0895633333333","6501400","蘆洲區"
"247024","500-BY","2018/12/10 17:19:14","新北市蘆洲區長榮路98號","121.462198333333","25.0838116666667","6501400","蘆洲區"
"247020","057-VK","2018/12/10 17:19:12","新北市蘆洲區民族路440號","121.473205","25.0919933333333","6501400","蘆洲區"
"247010","056-VK","2018/12/10 17:19:18","新北市蘆洲區中山一路120巷7弄26號","121.477271666667","25.0820683333333","6501400","蘆洲區"
"247014","053-VK","2018/12/10 17:19:28","新北市蘆洲區得勝街110號","121.471103333333","25.08292","6501400","蘆洲區"
"247018","007-UY","2018/12/10 17:19:24","新北市蘆洲區民權路82巷1弄12號","121.474448333333","25.0882666666667","6501400","蘆洲區"
"247004","002-UY","2018/12/10 17:19:29","新北市蘆洲區永安南路二段282號","121.457896666667","25.0810816666667","6501400","蘆洲區"
"247022","001-UY","2018/12/10 17:19:14","新北市蘆洲區民義街9巷14號","121.471091666667","25.08896","6501400","蘆洲區"
"228003","097-TW","2018/12/10 17:19:22","新北市貢寮區福隆里興隆街2號","121.945638333333","25.0168983333333","6502600","貢寮區"
"228001","212-TW","2018/12/10 17:19:24","新北市貢寮區仁理村尖山腳街18-3號","121.925588333333","25.0483883333333","6502600","貢寮區"
"228002","585-TW","2018/12/10 17:19:21","新北市貢寮區雙玉里下雙溪街14號","121.91523","25.0125966666667","6502600","貢寮區"
"224006","676-BX","2018/12/10 17:19:11","新北市瑞芳區傑魚坑路309號","121.786318333333","25.1046033333333","6501200","瑞芳區"
"224008","285-BY","2018/12/10 17:19:19","新北市瑞芳區侯硐路48號","121.825791666667","25.083005","6501200","瑞芳區"
"224009","273-VK","2018/12/10 17:19:17","新北市瑞芳區汽車路29號","121.844475","25.10987","6501200","瑞芳區"
"224005","271-BY","2018/12/10 17:19:20","新北市瑞芳區鼻頭路113號","121.916276666667","25.122785","6501200","瑞芳區"
"227001","642-TC","2018/12/10 17:19:14","新北市雙溪區上林里內平林90號","121.827596666667","25.02749","6502500","雙溪區"
"251009","008-UM","2018/12/10 17:19:28","新北市淡水區三民街20號","121.438986666667","25.17167","6501000","淡水區"
"251004","009-UM","2018/12/10 17:19:28","新北市淡水區中正東路二段88巷15號","121.459078333333","25.150495","6501000","淡水區"
"251005","010-UM","2018/12/10 17:19:20","新北市淡水區鄧公路29巷2號","121.45174","25.1698833333333","6501000","淡水區"
"251013","KEA-2871","2018/12/10 17:19:11","新北市淡水區演戲埔腳8號","121.473748333333","25.1953616666667","6501000","淡水區"
"251016","179-VK","2018/12/10 17:19:07","新北市淡水區鄒厝崙14號","121.461658333333","25.1904616666667","6501000","淡水區"
"251015","180-VK","2018/12/10 17:19:20","新北市淡水區樹林口25號","121.476226666667","25.1692833333333","6501000","淡水區"
"251008","181-VK","2018/12/10 17:19:14","新北市淡水區大同路257號","121.466523333333","25.1422616666667","6501000","淡水區"
"251010","413-VK","2018/12/10 17:19:08","新北市淡水區淡海路100號","121.422608333333","25.1822883333333","6501000","淡水區"
"251012","441-VK","2018/12/10 17:19:18","新北市淡水區中山北路一段158號","121.444356666667","25.177905","6501000","淡水區"
"251007","442-VK","2018/12/10 17:19:10","新北市淡水區民生路56號","121.462045","25.1379333333333","6501000","淡水區"
"251006","561-UM","2018/12/10 17:19:14","新北市淡水區新生街53號","121.44052","25.1747383333333","6501000","淡水區"
"251011","650-BX","2018/12/10 17:19:22","新北市淡水區坪頂路128號","121.465135","25.16112","6501000","淡水區"
"251002","672-BX","2018/12/10 17:19:08","新北市淡水區中正路二段31號","121.419366666667","25.18168","6501000","淡水區"
"251003","766-UM","2018/12/10 17:19:22","新北市淡水區中正路二段31號","121.419376666667","25.1814516666667","6501000","淡水區"
"207003","550-UM","2018/12/10 17:19:10","新北市萬里區萬里里獅頭路23號","121.69349","25.1781716666667","6502800","萬里區"
"252002","178-VK","2018/12/10 17:19:08","新北市三芝區忠孝街1-14號","121.505551666667","25.253955","6502100","三芝區"
"252001","292-VK","2018/12/10 17:19:27","新北市三芝區長安街119號","121.498063333333","25.2596633333333","6502100","三芝區"
"247008","KED-0683","2018/12/10 17:19:20","新北市蘆洲區信義路30巷159號","121.475511666667","25.0762083333333","6501400","蘆洲區"
"242036","AAC-296","2018/12/10 17:19:24","新北市新莊區中正路402號","121.441451666667","25.0338916666667","6500500","新莊區"
"242058","986-R7","2018/12/10 17:19:23","新北市新莊區中正路400號","121.441676666667","25.0338933333333","6500500","新莊區"
"242025","613-BX","2018/12/10 17:19:24","新北市新莊區中和街6號","121.448525","25.0429533333333","6500500","新莊區"
"242029","612-BX","2018/12/10 17:19:18","新北市新莊區幸福路608號","121.451798333333","25.0492733333333","6500500","新莊區"
"242044","566-BX","2018/12/10 17:19:16","新北市新莊區中正路481號","121.44143","25.0338216666667","6500500","新莊區"
"242048","497-BY","2018/12/10 17:19:14","新北市新莊區中正路855巷9號","121.419913333333","25.0272733333333","6500500","新莊區"
"242053","442-UM","2018/12/10 17:19:18","新北市新莊區環河路636-7號","121.436708333333","25.01082","6500500","新莊區"
"242002","440-UM","2018/12/10 17:19:12","新北市新莊區瓊林路46-9號","121.447183333333","25.0290533333333","6500500","新莊區"
"242039","415-TV","2018/12/10 17:19:27","新北市新莊區新樹路133號","121.436896666667","25.025865","6500500","新莊區"
"242009","413-TV","2018/12/10 17:19:16","新北市新莊區新泰路488號","121.442461666667","25.0457983333333","6500500","新莊區"
"242046","400-BY","2018/12/10 17:19:10","新北市新莊區新泰路357巷2號","121.44227","25.0416066666667","6500500","新莊區"
"242023","362-BY","2018/12/10 17:19:14","新北市新莊區中華路一段162號","121.452633333333","25.0415333333333","6500500","新莊區"
"242060","353-BY","2018/12/10 17:19:26","新北市新莊區三和路12-13號","121.441831666667","25.0371216666667","6500500","新莊區"
"242011","132-UY","2018/12/10 17:19:13","新北市新莊區新泰路486號","121.442621666667","25.0457783333333","6500500","新莊區"
"242034","135-UY","2018/12/10 17:19:19","新北市新莊區中正路473-1號","121.441898333333","25.033075","6500500","新莊區"
"242050","172-VK","2018/12/10 17:19:16","新北市新莊區新樹路449巷23號","121.434776666667","25.014305","6500500","新莊區"
"242013","173-VK","2018/12/10 17:19:07","新北市新莊區三和路12-21號","121.441893333333","25.038735","6500500","新莊區"
"242007","176-VK","2018/12/10 17:19:24","新北市新莊區中港一街140號","121.447915","25.0451483333333","6500500","新莊區"
"242017","KED-0687","2018/12/10 17:19:16","新北市新莊區新泰路488號","121.442423333333","25.0457616666667","6500500","新莊區"
"242056","346-TH","2018/12/10 17:19:27","新北市新莊區新泰路357巷3弄37號","121.442046666667","25.0404483333333","6500500","新莊區"
"242031","348-TH","2018/12/10 17:19:10","新北市新莊區新泰路466號","121.44332","25.0450166666667","6500500","新莊區"
"242004","349-TH","2018/12/10 17:19:16","新北市新莊區復興路一段15號","121.445868333333","25.0416616666667","6500500","新莊區"
"242019","350-TH","2018/12/10 17:19:10","新北市新莊區公園路218號","121.455871666667","25.0405016666667","6500500","新莊區"
"242015","351-TH","2018/12/10 17:19:20","新北市新莊區新泰路488號","121.442458333333","25.04577","6500500","新莊區"
"238019","599-UM","2018/12/10 17:19:19","新北市樹林區太平路273巷23號","121.421195","24.9763516666667","6500700","樹林區"
"238018","571-TV","2018/12/10 17:19:08","新北市樹林區樹中街1號","121.420621666667","24.9861233333333","6500700","樹林區"
"238024","5061-A6","2018/12/10 17:19:16","新北市樹林區樹新路79巷11號","121.427126666667","24.9956266666667","6500700","樹林區"
"238022","KEA-2213","2018/12/10 17:19:09","新北市樹林區仁愛街73巷1號","121.423535","24.9827533333333","6500700","樹林區"
"238021","KEA-2539","2018/12/10 17:19:24","新北市樹林區西圳街一段116巷1號","121.399483333333","24.9646033333333","6500700","樹林區"
"238025","303-VK","2018/12/10 17:19:23","新北市樹林區保安二街163號","121.422098333333","24.99553","6500700","樹林區"
"238017","283-BY","2018/12/10 17:19:13","新北市樹林區光武街35號","121.416621666667","25.0065666666667","6500700","樹林區"
"238014","282-BY","2018/12/10 17:19:18","新北市樹林區長壽街70巷19-1號","121.421913333333","24.994735","6500700","樹林區"
"238020","268-VK","2018/12/10 17:19:25","新北市樹林區中正路22-1號","121.427966666667","24.999315","6500700","樹林區"
"238026","172-UY","2018/12/10 17:19:28","新北市樹林區東豐街76-6號","121.408633333333","24.9745716666667","6500700","樹林區"
"238016","169-UY","2018/12/10 17:19:10","新北市樹林區中山路二段34號","121.417445","24.984995","6500700","樹林區"
"239007","AAC-297","2018/12/10 17:19:18","新北市鶯歌區行政路7號","121.351218333333","24.9555366666667","6500800","鶯歌區"
"239006","891-R6","2018/12/10 17:19:27","新北市鶯歌區福昌街30號","121.332728333333","24.9610083333333","6500800","鶯歌區"
"239008","527-UM","2018/12/10 17:19:26","新北市鶯歌區中山路124號","121.35046","24.957025","6500800","鶯歌區"
"239005","526-UM","2018/12/10 17:19:14","新北市鶯歌區鶯桃路559號","121.33015","24.9682166666667","6500800","鶯歌區"
"239001","417-VK","2018/12/10 17:19:22","新北市鶯歌區黃厝街31巷39-1號","121.342635","24.945515","6500800","鶯歌區"
"239003","360-BY","2018/12/10 17:19:18","新北市鶯歌區德昌二街3巷1-1號","121.333201666667","24.959495","6500800","鶯歌區"
"239002","359-BY","2018/12/10 17:19:21","新北市鶯歌區文昌街2號","121.350503333333","24.9541166666667","6500800","鶯歌區"
"239004","193-VK","2018/12/10 17:19:22","新北市鶯歌區文化路300號","121.352436666667","24.9467666666667","6500800","鶯歌區"
"242042","281-VK","2018/12/10 17:19:19","新北市新莊區新樹路48號","121.43769","25.0273166666667","6500500","新莊區"
"242021","280-VK","2018/12/10 17:19:24","新北市新莊區中港路282號","121.453153333333","25.0442216666667","6500500","新莊區"
