"lineid","car","time","location","longitude","latitude","cityid","cityname"
"249005","172-UM","2018/12/10 17:29:45","新北市八里區荖阡坑路69號","121.406871666667","25.1262133333333","6502300","八里區"
"249001","173-UM","2018/12/10 17:29:48","新北市八里區大崁腳47-2號","121.424365","25.1589516666667","6502300","八里區"
"249004","303-UY","2018/12/10 17:29:56","新北市八里區民治街173號","121.41342","25.1568133333333","6502300","八里區"
"249002","305-UY","2018/12/10 17:29:46","新北市八里區龍米路一段197號","121.45137","25.1310933333333","6502300","八里區"
"249003","593-UM","2018/12/10 17:29:59","新北市八里區中山路二段315號","121.400633333333","25.1477983333333","6502300","八里區"
"232011","375-UM","2018/12/10 17:29:51","新北市坪林區水柳腳33號","121.710388333333","24.9357516666667","6502000","坪林區"
"244023","069-UM","2018/12/10 17:29:49","新北市林口區東明三街360號","121.391336666667","25.070445","6501700","林口區"
"244007","080-UY","2018/12/10 17:29:43","新北市林口區中湖47號","121.382758333333","25.095285","6501700","林口區"
"244019","402-UM","2018/12/10 17:29:52","新北市林口區文化一路一段125-1號","121.373523333333","25.0714966666667","6501700","林口區"
"244013","KEA-2802","2018/12/10 17:29:56","新北市林口區粉寮路37-1號","121.40108","25.0848616666667","6501700","林口區"
"244017","485-VK","2018/12/10 17:29:54","新北市林口區文化一路一段237號","121.380013333333","25.0767683333333","6501700","林口區"
"244009","656-BX","2018/12/10 17:29:42","新北市林口區文化一路二段305號","121.38575","25.0858583333333","6501700","林口區"
"244011","701-TV","2018/12/10 17:29:36","新北市林口區仁愛路一段641號","121.38893","25.07667","6501700","林口區"
"244025","837-TS","2018/12/10 17:29:52","新北市林口區文化三路一段376-99號","121.365255","25.0727183333333","6501700","林口區"
"244021","838-TS","2018/12/10 17:29:41","新北市林口區粉寮路一段77-2號","121.39716","25.07953","6501700","林口區"
"243014","680-BX","2018/12/10 17:29:59","新北市泰山區犁頭窠3-1號","121.422303333333","25.060615","6501600","泰山區"
"231046","107-UY","2018/12/10 17:29:40","新北市新店區直潭路92號","121.530933333333","24.937625","6500600","新店區"
"241015","062-VK","2018/12/10 17:29:54","新北市三重區三和路一段47巷18-1號","121.503853333333","25.0657283333333","6500200","三重區"
"241017","063-VK","2018/12/10 17:29:48","新北市三重區中正北路25巷17號","121.492965","25.062445","6500200","三重區"
"241024","065-VK","2018/12/10 17:29:54","新北市三重區大勇街82巷15弄8號","121.480028333333","25.071675","6500200","三重區"
"241003","091-VK","2018/12/10 17:29:53","新北市三重區集賢路87-1號","121.493651666667","25.0868316666667","6500200","三重區"
"251014","742-BX","2018/12/10 17:29:42","新北市淡水區公埔子18號","121.473596666667","25.227675","6501000","淡水區"
"241005","262-UM","2018/12/10 17:29:52","新北市三重區永安北路二段33號","121.482438333333","25.0822016666667","6500200","三重區"
"241016","266-UM","2018/12/10 17:29:43","新北市三重區信義西街41號","121.495275","25.0639933333333","6500200","三重區"
"241018","268-UM","2018/12/10 17:29:52","新北市三重區大智街49號","121.492853333333","25.06744","6500200","三重區"
"241032","269-UM","2018/12/10 17:29:44","新北市三重區名源街31號","121.481833333333","25.0605316666667","6500200","三重區"
"241013","270-UM","2018/12/10 17:29:48","新北市三重區三和路三段107巷25號","121.49521","25.0730783333333","6500200","三重區"
"241025","271-UM","2018/12/10 17:29:40","新北市三重區中正北路392-1號","121.476025","25.070165","6500200","三重區"
"241007","398-BY","2018/12/10 17:29:41","新北市三重區三和路四段145巷211號","121.488691666667","25.07951","6500200","三重區"
"241024","KEA-2210","2018/12/10 17:29:46","新北市三重區國道路一段58巷20號","121.481191666667","25.0720783333333","6500200","三重區"
"241020","478-VK","2018/12/10 17:29:40","新北市三重區忠孝路二段90號","121.483673333333","25.06946","6500200","三重區"
"241030","480-VK","2018/12/10 17:29:51","新北市三重區新興路7號","121.492563333333","25.0531033333333","6500200","三重區"
"241014","543-UM","2018/12/10 17:29:54","新北市三重區安和路13號","121.501375","25.06837","6500200","三重區"
"241023","545-UM","2018/12/10 17:29:39","新北市三重區三民街146巷3弄2號","121.481578333333","25.0645883333333","6500200","三重區"
"241001","547-UM","2018/12/10 17:29:43","新北市三重區集賢路87-1號","121.493645","25.08678","6500200","三重區"
"241019","KEA-2593","2018/12/10 17:29:37","新北市三重區自強路二段17號","121.489961666667","25.0691266666667","6500200","三重區"
"241012","941-UM","2018/12/10 17:29:47","新北市三重區仁義街12號","121.499778333333","25.0759683333333","6500200","三重區"
"247012","KEA-2869","2018/12/10 17:29:45","新北市蘆洲區民族路31-12號","121.477963333333","25.0850666666667","6501400","蘆洲區"
"247006","KED-0682","2018/12/10 17:29:54","新北市蘆洲區九芎街90巷31號","121.464495","25.0814816666667","6501400","蘆洲區"
"235065","911-UM","2018/12/10 17:29:55","新北市中和區員山路36巷16-2號","121.485271666667","24.9917866666667","6500300","中和區"
"247002","893-R6","2018/12/10 17:29:58","新北市蘆洲區永樂街38巷67弄16號","121.457803333333","25.09088","6501400","蘆洲區"
"247016","546-UM","2018/12/10 17:29:42","新北市蘆洲區光華路22巷24號","121.468818333333","25.0843733333333","6501400","蘆洲區"
"247024","500-BY","2018/12/10 17:29:54","新北市蘆洲區長榮路707號","121.460991666667","25.0928083333333","6501400","蘆洲區"
"247020","057-VK","2018/12/10 17:29:52","新北市蘆洲區水湳街126號","121.469863333333","25.093465","6501400","蘆洲區"
"247010","056-VK","2018/12/10 17:29:49","新北市蘆洲區信義路132-1號","121.479665","25.0828133333333","6501400","蘆洲區"
"247014","053-VK","2018/12/10 17:29:47","新北市蘆洲區復興路56-1號","121.473371666667","25.0854666666667","6501400","蘆洲區"
"247018","007-UY","2018/12/10 17:29:44","新北市蘆洲區民義街15號","121.47158","25.0888066666667","6501400","蘆洲區"
"247004","002-UY","2018/12/10 17:29:49","新北市蘆洲區中原路35號","121.46","25.082685","6501400","蘆洲區"
"247022","001-UY","2018/12/10 17:29:54","新北市蘆洲區三民路297號","121.466318333333","25.0905283333333","6501400","蘆洲區"
"228003","097-TW","2018/12/10 17:29:47","新北市貢寮區仁理村仁和路2-2號","121.923315","25.0484733333333","6502600","貢寮區"
"228001","212-TW","2018/12/10 17:29:44","新北市貢寮區仁理村仁愛路34號","121.925028333333","25.0532433333333","6502600","貢寮區"
"228002","585-TW","2018/12/10 17:29:41","新北市貢寮區福隆里興隆街21-2號","121.93263","25.0184083333333","6502600","貢寮區"
"224010","AGQ-8101","2018/12/10 17:29:53","新北市瑞芳區明燈路二段2巷14號","121.814488333333","25.1088383333333","6501200","瑞芳區"
"224006","676-BX","2018/12/10 17:29:51","新北市瑞芳區靜安路四段94號","121.79324","25.1102383333333","6501200","瑞芳區"
"224008","285-BY","2018/12/10 17:29:39","新北市瑞芳區侯硐路314號","121.83242","25.0896616666667","6501200","瑞芳區"
"224009","273-VK","2018/12/10 17:29:37","新北市瑞芳區山尖路172-1號","121.847968333333","25.1119066666667","6501200","瑞芳區"
"224005","271-BY","2018/12/10 17:29:39","","121.90219","25.1214383333333","6501200","瑞芳區"
"227001","642-TC","2018/12/10 17:29:54","新北市雙溪區平林里外平林61號","121.845296666667","25.0347983333333","6502500","雙溪區"
"251009","008-UM","2018/12/10 17:29:48","新北市淡水區新生街30巷20號","121.439298333333","25.1731616666667","6501000","淡水區"
"251004","009-UM","2018/12/10 17:19:28","新北市淡水區中正東路二段88巷15號","121.459078333333","25.150495","6501000","淡水區"
"251005","010-UM","2018/12/10 17:29:40","新北市淡水區鄧公路31巷16號","121.451883333333","25.1706333333333","6501000","淡水區"
"251013","KEA-2871","2018/12/10 17:29:51","新北市淡水區大竹圍5號","121.466586666667","25.19524","6501000","淡水區"
"251016","179-VK","2018/12/10 17:29:47","新北市淡水區埤島72號","121.456655","25.1929516666667","6501000","淡水區"
"251015","180-VK","2018/12/10 17:29:40","新北市淡水區三空泉21號","121.46882","25.1671483333333","6501000","淡水區"
"251008","181-VK","2018/12/10 17:29:54","新北市淡水區竹林路151號","121.46271","25.1427916666667","6501000","淡水區"
"251010","413-VK","2018/12/10 17:29:48","新北市淡水區中正路二段215號","121.426225","25.1891733333333","6501000","淡水區"
"251012","441-VK","2018/12/10 17:29:58","新北市淡水區北新路126號","121.448105","25.1783033333333","6501000","淡水區"
"251007","442-VK","2018/12/10 17:29:50","新北市淡水區民生路60號","121.462115","25.1379766666667","6501000","淡水區"
"251006","561-UM","2018/12/10 17:29:54","新北市淡水區大仁街22號","121.442505","25.175065","6501000","淡水區"
"251011","650-BX","2018/12/10 17:29:42","新北市淡水區坪頂路718號","121.482548333333","25.1585183333333","6501000","淡水區"
"251002","672-BX","2018/12/10 17:29:48","新北市淡水區中正路437號","121.431986666667","25.1747783333333","6501000","淡水區"
"251003","766-UM","2018/12/10 17:29:42","新北市淡水區中山路157號","121.440746666667","25.172885","6501000","淡水區"
"207003","550-UM","2018/12/10 17:29:50","新北市萬里區龜吼里翡翠路17號","121.683413333333","25.1872566666667","6502800","萬里區"
"207004","225-TW","2018/12/10 17:29:54","新北市萬里區萬里里景美路6-1號","121.684061666667","25.172685","6502800","萬里區"
"252002","178-VK","2018/12/10 17:29:48","新北市三芝區忠孝街1-15號","121.50563","25.25399","6502100","三芝區"
"252001","292-VK","2018/12/10 17:29:47","新北市三芝區長安街119號","121.498058333333","25.2596466666667","6502100","三芝區"
"237016","649-BX","2018/12/10 17:29:59","新北市三峽區中山路133號","121.365253333333","24.936065","6500900","三峽區"
"247008","KED-0683","2018/12/10 17:29:40","新北市蘆洲區信義路34巷80號","121.475336666667","25.07753","6501400","蘆洲區"
"242036","AAC-296","2018/12/10 17:29:44","新北市新莊區新樹路132-3號","121.435115","25.02384","6500500","新莊區"
"242058","986-R7","2018/12/10 17:29:43","新北市新莊區中正路530號","121.430981666667","25.031605","6500500","新莊區"
"242025","613-BX","2018/12/10 17:29:44","新北市新莊區復興路二段20-2號","121.454298333333","25.0439766666667","6500500","新莊區"
"242029","612-BX","2018/12/10 17:29:58","新北市新莊區復興路二段150號","121.457731666667","25.0442483333333","6500500","新莊區"
"242044","566-BX","2018/12/10 17:29:56","新北市新莊區富國路91號","121.42061","25.02577","6500500","新莊區"
"242048","497-BY","2018/12/10 17:29:54","新北市新莊區四維路212巷20號","121.42094","25.02029","6500500","新莊區"
"242053","442-UM","2018/12/10 17:29:58","新北市新莊區新樹路697號","121.432193333333","25.0024433333333","6500500","新莊區"
"242002","440-UM","2018/12/10 17:29:52","新北市新莊區新莊路211號","121.455286666667","25.035445","6500500","新莊區"
"242039","415-TV","2018/12/10 17:29:47","新北市新莊區民安路284號","121.427888333333","25.02157","6500500","新莊區"
"242009","413-TV","2018/12/10 17:29:57","新北市新莊區中原路105號","121.456025","25.0543316666667","6500500","新莊區"
"242046","400-BY","2018/12/10 17:29:50","新北市新莊區新樹路63號","121.439998333333","25.03174","6500500","新莊區"
"242023","362-BY","2018/12/10 17:29:54","新北市新莊區公園路152號","121.453201666667","25.0400683333333","6500500","新莊區"
"242060","353-BY","2018/12/10 17:29:45","新北市新莊區瓊林路190-2號","121.439505","25.02102","6500500","新莊區"
"242011","132-UY","2018/12/10 17:29:53","新北市新莊區中港路400號","121.452198333333","25.0498683333333","6500500","新莊區"
"242034","135-UY","2018/12/10 17:29:40","新北市新莊區新莊路475號","121.449053333333","25.0333766666667","6500500","新莊區"
"242050","172-VK","2018/12/10 17:29:56","新北市新莊區新樹路413號","121.432691666667","25.0142833333333","6500500","新莊區"
"242013","173-VK","2018/12/10 17:29:46","新北市新莊區中誠街63號","121.450826666667","25.0478766666667","6500500","新莊區"
"242007","176-VK","2018/12/10 17:29:44","新北市新莊區自強街61號","121.454711666667","25.0471983333333","6500500","新莊區"
"242017","KED-0687","2018/12/10 17:29:56","新北市新莊區建豐街26號","121.451558333333","25.0439733333333","6500500","新莊區"
"242056","346-TH","2018/12/10 17:29:47","新北市新莊區新莊路362號","121.449551666667","25.0335983333333","6500500","新莊區"
"242031","348-TH","2018/12/10 17:29:50","新北市新莊區新泰路401巷13號","121.443013333333","25.0440133333333","6500500","新莊區"
"242004","349-TH","2018/12/10 17:29:56","新北市新莊區中港路288巷22號","121.4537","25.04461","6500500","新莊區"
"242019","350-TH","2018/12/10 17:29:50","新北市新莊區中港路73號","121.455371666667","25.03885","6500500","新莊區"
"242015","351-TH","2018/12/10 17:29:40","新北市新莊區新泰路197號","121.44723","25.0379833333333","6500500","新莊區"
"238023","601-UM","2018/12/10 17:29:56","新北市樹林區三福街77號","121.40741","25.0163483333333","6500700","樹林區"
"238019","599-UM","2018/12/10 17:29:44","新北市樹林區八德街77號","121.419693333333","24.9818983333333","6500700","樹林區"
"238018","571-TV","2018/12/10 17:29:48","新北市樹林區鎮前街194號","121.423975","24.9892433333333","6500700","樹林區"
"238024","5061-A6","2018/12/10 17:29:56","新北市樹林區博愛街215號","121.423943333333","24.986935","6500700","樹林區"
"238022","KEA-2213","2018/12/10 17:29:49","新北市樹林區仁愛街3號","121.421431666667","24.9816483333333","6500700","樹林區"
"238021","KEA-2539","2018/12/10 17:29:44","新北市樹林區西圳街一段203巷25-3號","121.39437","24.9587483333333","6500700","樹林區"
"238025","303-VK","2018/12/10 17:29:45","新北市樹林區保安二街二段6-7號","121.415918333333","25.0012283333333","6500700","樹林區"
"238017","283-BY","2018/12/10 17:29:53","新北市樹林區三德街8號","121.413276666667","25.0128083333333","6500700","樹林區"
"238014","282-BY","2018/12/10 17:29:38","新北市樹林區長壽街94號","121.41973","24.9963333333333","6500700","樹林區"
"238020","268-VK","2018/12/10 17:29:45","新北市樹林區俊英街48-2號","121.428501666667","25.0033466666667","6500700","樹林區"
"238026","172-UY","2018/12/10 17:29:47","新北市樹林區味王街30號","121.403938333333","24.9750633333333","6500700","樹林區"
"238016","169-UY","2018/12/10 17:27:10","新北市樹林區日新街6號","121.423646666667","24.9932616666667","6500700","樹林區"
"239007","AAC-297","2018/12/10 17:29:58","新北市鶯歌區行政路97號","121.353971666667","24.9561766666667","6500800","鶯歌區"
"239006","891-R6","2018/12/10 17:29:47","新北市鶯歌區鳳鳴路73號","121.334073333333","24.9658266666667","6500800","鶯歌區"
"239008","527-UM","2018/12/10 17:29:46","新北市鶯歌區西湖街289巷5-14號","121.339113333333","24.97075","6500800","鶯歌區"
"239005","526-UM","2018/12/10 17:29:54","桃園市八德區桃鶯路64號","121.327236666667","24.97089","6500800","鶯歌區"
"239001","417-VK","2018/12/10 17:29:42","新北市鶯歌區高職西街14號","121.338141666667","24.9423866666667","6500800","鶯歌區"
"239003","360-BY","2018/12/10 17:29:36","新北市鶯歌區德昌街142-1號","121.331825","24.9605166666667","6500800","鶯歌區"
"239002","359-BY","2018/12/10 17:29:41","新北市鶯歌區國慶街58號","121.34975","24.9550633333333","6500800","鶯歌區"
"239004","193-VK","2018/12/10 17:29:41","新北市三峽區復興路557號","121.356433333333","24.94055","6500800","鶯歌區"
"221008","489-VK","2018/12/10 17:29:43","新北市汐止區康寧街901號","121.651415","25.07505","6501100","汐止區"
"221010","269-BY","2018/12/10 17:29:43","新北市汐止區汐萬路一段256巷3號","121.652086666667","25.0747016666667","6501100","汐止區"
"242042","281-VK","2018/12/10 17:29:39","新北市新莊區新樹路115號","121.437395","25.0266416666667","6500500","新莊區"
"242021","280-VK","2018/12/10 17:29:43","新北市新莊區中華路一段3號","121.45192","25.0371166666667","6500500","新莊區"
"235061","KEA-2875","2018/12/10 17:20:20","新北市中和區員山路36巷16-2號","121.485343333333","24.9916716666667","6500300","中和區"
