"lineid","car","time","location","longitude","latitude","cityid","cityname"
"234026","9372-KE","2018/12/10 17:59:26","新北市永和區永平路9號","121.513626666667","25.0087433333333","6500400","永和區"
"249005","172-UM","2018/12/10 17:59:05","新北市八里區荖阡坑路20-9號","121.398475","25.13693","6502300","八里區"
"249001","173-UM","2018/12/10 17:59:28","新北市八里區龍米路二段36號","121.448573333333","25.1400883333333","6502300","八里區"
"249004","303-UY","2018/12/10 17:59:16","新北市八里區龍米路二段159巷2-10號","121.43887","25.1531583333333","6502300","八里區"
"249002","305-UY","2018/12/10 17:59:26","新北市八里區龍米路一段259號","121.450775","25.1337033333333","6502300","八里區"
"249003","593-UM","2018/12/10 17:59:19","新北市八里區中山路二段306號","121.404658333333","25.15016","6502300","八里區"
"248016","026-BX","2018/12/10 17:59:22","新北市五股區中興路二段161號","121.457801666667","25.0771733333333","6501500","五股區"
"248008","095-VK","2018/12/10 17:59:18","新北市五股區更洲路40號","121.457495","25.07943","6501500","五股區"
"248018","225-UY","2018/12/10 17:59:22","新北市五股區中興路二段83巷26-3號","121.460055","25.0753266666667","6501500","五股區"
"248014","261-SL","2018/12/10 17:59:15","新北市五股區中興路三段163號","121.44726","25.0804266666667","6501500","五股區"
"248004","677-BX","2018/12/10 17:59:22","新北市五股區中興路二段37巷28號","121.460111666667","25.0747083333333","6501500","五股區"
"248002","678-BX","2018/12/10 17:57:44","新北市五股區中興路二段37巷28號","121.460181666667","25.0747283333333","6501500","五股區"
"248010","682-TV","2018/12/10 17:59:24","新北市五股區中興路二段163號","121.45759","25.0776833333333","6501500","五股區"
"232011","375-UM","2018/12/10 17:59:31","新北市坪林區北宜路八段167號","121.707626666667","24.9346216666667","6502000","坪林區"
"244023","069-UM","2018/12/10 17:59:09","新北市林口區東湖路55巷42號","121.385566666667","25.072545","6501700","林口區"
"244007","080-UY","2018/12/10 17:59:23","新北市林口區竹林路548號","121.387431666667","25.0845183333333","6501700","林口區"
"244019","402-UM","2018/12/10 17:59:11","新北市林口區文化一路一段126號","121.375436666667","25.0728166666667","6501700","林口區"
"244013","KEA-2802","2018/12/10 17:59:16","新北市林口區中山路73號","121.393113333333","25.0784933333333","6501700","林口區"
"244017","485-VK","2018/12/10 17:59:14","新北市林口區忠孝路372號","121.369218333333","25.0713566666667","6501700","林口區"
"244009","656-BX","2018/12/10 17:59:22","新北市林口區佳林路56巷39號","121.38521","25.0808016666667","6501700","林口區"
"244011","701-TV","2018/12/10 17:59:16","新北市林口區中正路114號","121.393595","25.0772133333333","6501700","林口區"
"244025","837-TS","2018/12/10 17:59:12","新北市林口區八德路470號","121.356706666667","25.06613","6501700","林口區"
"244021","838-TS","2018/12/10 17:59:21","新北市林口區新寮29-1號","121.399583333333","25.0662866666667","6501700","林口區"
"243013","539-UM","2018/12/10 17:59:21","新北市泰山區黎明路25號","121.421736666667","25.061075","6501600","泰山區"
"243014","680-BX","2018/12/10 17:48:25","新北市泰山區黎明路25號","121.421923333333","25.0607166666667","6501600","泰山區"
"222003","436-BY","2018/12/10 17:59:13","新北市深坑區炮子崙20-2號","121.606708333333","24.9899616666667","6501800","深坑區"
"222002","659-BX","2018/12/10 17:59:13","新北市深坑區文化街102號","121.616663333333","25.0018816666667","6501800","深坑區"
"231027","0291-UT","2018/12/10 17:59:10","新北市新店區安華路28-1號","121.51918","24.960665","6500600","新店區"
"231046","107-UY","2018/12/10 17:59:20","新北市新店區康雅崙路3號","121.539611666667","24.92545","6500600","新店區"
"231058","3713-VJ","2018/12/10 17:59:18","新北市新店區安華路28-1號","121.519218333333","24.9606666666667","6500600","新店區"
"251014","742-BX","2018/12/10 17:59:22","新北市淡水區公埔子16-6號","121.48044","25.2241283333333","6501000","淡水區"
"241016","266-UM","2018/12/10 17:59:23","新北市五股區五工一路103號","121.458635","25.069365","6500200","三重區"
"241024","KEA-2210","2018/12/10 17:59:26","新北市三重區後竹圍街260號","121.483911666667","25.0712583333333","6500200","三重區"
"241019","KEA-2593","2018/12/10 17:59:17","新北市八里區商港路120號","121.392798333333","25.1501366666667","6500200","三重區"
"235064","005-UY","2018/12/10 17:59:19","新北市中和區員山路36巷16-3號","121.485066666667","24.99134","6500300","中和區"
"235056","096-UM","2018/12/10 17:59:17","新北市中和區員山路36巷13號","121.484253333333","24.9913116666667","6500300","中和區"
"235058","151-BY","2018/12/10 17:59:29","新北市中和區圓通路367巷8號","121.491538333333","24.989125","6500300","中和區"
"235038","185-VK","2018/12/10 17:59:13","新北市中和區中正路271號","121.495931666667","24.99372","6500300","中和區"
"235067","255-BX","2018/12/10 17:59:24","新北市中和區和城路一段271巷1號","121.48574","24.99171","6500300","中和區"
"247012","KEA-2869","2018/12/10 17:59:24","新北市蘆洲區民族路167巷1弄1號","121.47895","25.08817","6501400","蘆洲區"
"247006","KED-0682","2018/12/10 17:59:24","新北市蘆洲區長榮路262號","121.460383333333","25.0861033333333","6501400","蘆洲區"
"235054","640-BX","2018/12/10 17:59:18","新北市中和區和城路一段271巷1號","121.485378333333","24.9919683333333","6500300","中和區"
"235071","783-BX","2018/12/10 17:59:08","新北市中和區員山路36巷16-3號","121.485226666667","24.991125","6500300","中和區"
"235062","800-TS","2018/12/10 17:59:21","新北市中和區連城路469巷16號","121.483528333333","24.99524","6500300","中和區"
"235053","900-TW","2018/12/10 17:59:13","新北市中和區員山路36巷16-3號","121.484943333333","24.9917616666667","6500300","中和區"
"235065","911-UM","2018/12/10 17:59:15","新北市中和區中山路二段383號","121.487025","25.00486","6500300","中和區"
"235051","157-BY","2018/12/10 17:59:13","新北市中和區員山路36巷12號","121.483993333333","24.99081","6500300","中和區"
"235037","AAC-213","2018/12/10 17:59:19","新北市中和區錦和路350-1號","121.490421666667","24.9936066666667","6500300","中和區"
"247002","893-R6","2018/12/10 17:59:17","新北市蘆洲區永平街32巷57弄6-1號","121.45953","25.09295","6501400","蘆洲區"
"247016","546-UM","2018/12/10 17:59:22","新北市蘆洲區中正路185巷78弄19號","121.465645","25.084895","6501400","蘆洲區"
"247024","500-BY","2018/12/10 17:59:14","新北市蘆洲區光復路41巷8號","121.462851666667","25.0851083333333","6501400","蘆洲區"
"247014","053-VK","2018/12/10 17:59:27","新北市蘆洲區三民路155號","121.47142","25.08677","6501400","蘆洲區"
"247018","007-UY","2018/12/10 17:59:24","新北市蘆洲區復興路262號","121.480168333333","25.0896733333333","6501400","蘆洲區"
"226004","312-R5","2018/12/10 17:59:18","新北市平溪區石底里公園街18-3號","121.733318333333","25.025765","6502400","平溪區"
"228003","097-TW","2018/12/10 17:59:22","新北市貢寮區真理里美艷山街6-2號","121.92883","25.06075","6502600","貢寮區"
"228001","212-TW","2018/12/10 17:59:23","新北市貢寮區仁理村仁愛路106巷36號","121.928973333333","25.0534666666667","6502600","貢寮區"
"228002","585-TW","2018/12/10 17:59:21","新北市貢寮區福隆里桂安街17號","121.964596666667","25.0213533333333","6502600","貢寮區"
"224006","676-BX","2018/12/10 17:59:11","新北市瑞芳區大寮路356-1號","121.784885","25.1032","6501200","瑞芳區"
"224008","285-BY","2018/12/10 17:59:19","新北市瑞芳區明燈路一段50號","121.820136666667","25.1070116666667","6501200","瑞芳區"
"224009","273-VK","2018/12/10 17:59:16","新北市瑞芳區金光路288號","121.851845","25.10674","6501200","瑞芳區"
"224005","271-BY","2018/12/10 17:59:19","新北市瑞芳區建基路一段50巷51號","121.817948333333","25.128085","6501200","瑞芳區"
"227001","642-TC","2018/12/10 17:37:30","新北市雙溪區共和里東榮街52號","121.866335","25.0336833333333","6502500","雙溪區"
"253006","032-BX","2018/12/10 17:59:24","新北市石門區大丘田45-1號","121.549775","25.27519","6502200","石門區"
"253005","295-VK","2018/12/10 17:59:28","新北市石門區中山路62-11號","121.567545","25.28967","6502200","石門區"
"222001","KEA-2212","2018/12/10 17:59:27","新北市深坑區北深路二段187號","121.612208333333","25.001165","6501800","深坑區"
"208002","KEA-2872","2018/12/10 17:59:29","新北市金山區三界壇路44號","121.623711666667","25.2290033333333","6502700","金山區"
"208003","665-BX","2018/12/10 17:59:23","新北市金山區磺港里磺港路314號","121.64461","25.2278433333333","6502700","金山區"
"208001","761-BX","2018/12/10 17:59:16","新北市金山區磺港里社寮16-1號","121.639278333333","25.2260916666667","6502700","金山區"
"251009","008-UM","2018/12/10 17:59:28","新北市淡水區大智街27號","121.44234","25.174605","6501000","淡水區"
"251004","009-UM","2018/12/10 17:59:15","新北市淡水區民權路119號","121.460066666667","25.1369766666667","6501000","淡水區"
"251005","010-UM","2018/12/10 17:59:20","新北市淡水區英專路116號","121.445845","25.1722333333333","6501000","淡水區"
"251001","011-UM","2018/12/10 17:59:10","新北市淡水區民權路94巷1號","121.463138333333","25.12479","6501000","淡水區"
"251013","KEA-2871","2018/12/10 17:59:11","新北市淡水區泉洲厝31號","121.47959","25.191035","6501000","淡水區"
"251016","179-VK","2018/12/10 17:59:07","新北市淡水區淡金路三段30號","121.447701666667","25.1983083333333","6501000","淡水區"
"251015","180-VK","2018/12/10 17:59:20","新北市淡水區興福寮88巷1號","121.485335","25.1649633333333","6501000","淡水區"
"251008","181-VK","2018/12/10 17:59:14","新北市淡水區八勢一街37號","121.46203","25.1563766666667","6501000","淡水區"
"251010","413-VK","2018/12/10 17:59:08","新北市淡水區中正路一段87巷1號","121.421751666667","25.17915","6501000","淡水區"
"251012","441-VK","2018/12/10 17:59:18","新北市淡水區北新路三段38巷5號","121.484488333333","25.1870233333333","6501000","淡水區"
"251007","442-VK","2018/12/10 17:59:30","新北市淡水區中正東路二段143巷2弄1號","121.460643333333","25.1473083333333","6501000","淡水區"
"251006","561-UM","2018/12/10 17:59:14","新北市淡水區新生街88號","121.439528333333","25.17481","6501000","淡水區"
"251011","650-BX","2018/12/10 17:59:28","新北市淡水區三空泉6-3號","121.476973333333","25.1623766666667","6501000","淡水區"
"251002","672-BX","2018/12/10 17:59:28","新北市淡水區中正東路1號","121.447246666667","25.16722","6501000","淡水區"
"251003","766-UM","2018/12/10 17:59:22","新北市淡水區大忠街45號","121.44476","25.17627","6501000","淡水區"
"207003","550-UM","2018/12/10 17:59:10","新北市萬里區港東路野柳風景區攤販66號","121.691318333333","25.2058416666667","6502800","萬里區"
"207004","225-TW","2018/12/10 17:59:13","新北市萬里區中幅里中福路48號","121.683356666667","25.17404","6502800","萬里區"
"252002","178-VK","2018/12/10 17:59:28","新北市三芝區中山路二段45號","121.503008333333","25.25475","6502100","三芝區"
"252001","292-VK","2018/12/10 17:59:07","新北市三芝區中興街二段2號","121.498413333333","25.2566","6502100","三芝區"
"237004","KEA-2597","2018/12/10 17:59:28","新北市三峽區中園街227號","121.366996666667","24.9197933333333","6500900","三峽區"
"237007","153-BY","2018/12/10 17:59:29","新北市三峽區中正路二段46-1號","121.366723333333","24.9190583333333","6500900","三峽區"
"237009","210-TH","2018/12/10 17:59:21","新北市三峽區中山路106巷3號","121.366033333333","24.936035","6500900","三峽區"
"237013","252-BX","2018/12/10 17:59:22","新北市三峽區介壽路一段53號","121.37566","24.93294","6500900","三峽區"
"237012","275-BY","2018/12/10 17:59:24","新北市三峽區民生街27巷30號","121.37601","24.9361366666667","6500900","三峽區"
"237008","302-VK","2018/12/10 17:59:19","新北市三峽區正義街193號","121.368078333333","24.91447","6500900","三峽區"
"237014","433-BY","2018/12/10 17:59:10","新北市三峽區復興路141-1號","121.37095","24.9377233333333","6500900","三峽區"
"237006","5529-G3","2018/12/10 17:59:13","新北市三峽區介壽路二段138巷1弄90-7號","121.397355","24.9320866666667","6500900","三峽區"
"237011","KEA-2596","2018/12/10 17:59:12","新北市三峽區光明路62號","121.374973333333","24.9292166666667","6500900","三峽區"
"237015","649-BX","2018/12/10 17:59:18","新北市三峽區詩朗139號","121.404343333333","24.9099916666667","6500900","三峽區"
"237010","706-TV","2018/12/10 17:59:14","新北市三峽區民權街168號","121.367933333333","24.9301483333333","6500900","三峽區"
"237005","AKY-6261","2018/12/10 17:59:12","新北市三峽區復興路237巷38號","121.36909","24.93782","6500900","三峽區"
"236069","105-UM","2018/12/10 17:59:29","新北市土城區城林路6巷80號","121.438455","24.97973","6501300","土城區"
"236042","KED-0685","2018/12/10 17:59:08","新北市土城區城林路6巷80號","121.438508333333","24.9796183333333","6501300","土城區"
"236078","166-UM","2018/12/10 17:59:13","新北市土城區永寧路36-1號","121.428816666667","24.9591266666667","6501300","土城區"
"236030","253-BX","2018/12/10 17:59:20","新北市土城區城林路6巷80號","121.438675","24.979635","6501300","土城區"
"236026","269-VK","2018/12/10 17:59:00","新北市土城區中央路三段92號","121.436011666667","24.9666733333333","6501300","土城區"
"236014","270-VK","2018/12/10 17:59:26","新北市土城區城林路6巷80號","121.438465","24.9796016666667","6501300","土城區"
"236039","271-VK","2018/12/10 17:59:09","新北市土城區中華路二段2號","121.439441666667","24.9795566666667","6501300","土城區"
"247008","KED-0683","2018/12/10 17:59:20","新北市蘆洲區中山一路263號","121.472758333333","25.080045","6501400","蘆洲區"
"236020","401-BY","2018/12/10 17:59:24","新北市土城區城林路6巷80號","121.438471666667","24.9797883333333","6501300","土城區"
"236059","912-UM","2018/12/10 17:59:17","新北市土城區中央路三段231-9號","121.428456666667","24.96428","6501300","土城區"
"236048","913-UM","2018/12/10 17:59:27","新北市土城區城林路6巷80號","121.438655","24.9796633333333","6501300","土城區"
"236063","915-UM","2018/12/10 17:59:27","新北市土城區城林路6巷80號","121.438503333333","24.9796166666667","6501300","土城區"
"236055","AAC-216","2018/12/10 17:59:13","新北市土城區中央路二段280號","121.440676666667","24.97402","6501300","土城區"
"242036","AAC-296","2018/12/10 17:59:24","新北市新莊區建福路38號","121.426453333333","25.02821","6500500","新莊區"
"242058","986-R7","2018/12/10 17:59:23","新北市新莊區雙鳳路134巷6號","121.41284","25.0281083333333","6500500","新莊區"
"242025","613-BX","2018/12/10 17:59:24","新北市新莊區五工路58號","121.458798333333","25.0628783333333","6500500","新莊區"
"242029","612-BX","2018/12/10 17:59:18","新北市新莊區中平路92巷2號","121.444811666667","25.0453133333333","6500500","新莊區"
"242044","566-BX","2018/12/10 17:59:16","新北市新莊區雙鳳路101號","121.414606666667","25.0278766666667","6500500","新莊區"
"242048","497-BY","2018/12/10 17:59:14","新北市新莊區萬安街6號","121.42159","25.02504","6500500","新莊區"
"242053","442-UM","2018/12/10 17:59:18","新北市新莊區西盛街395巷25弄13號","121.428283333333","25.0120466666667","6500500","新莊區"
"242002","440-UM","2018/12/10 17:59:12","新北市新莊區中正路153-2號","121.455925","25.0367283333333","6500500","新莊區"
"242039","415-TV","2018/12/10 17:59:07","新北市新莊區民安路138號","121.424331666667","25.02532","6500500","新莊區"
"242009","413-TV","2018/12/10 17:59:19","新北市新莊區中華路二段252號","121.452673333333","25.05295","6500500","新莊區"
"242046","400-BY","2018/12/10 17:59:30","新北市新莊區福營路187號","121.431295","25.0307516666667","6500500","新莊區"
"242023","362-BY","2018/12/10 17:59:14","新北市新莊區福壽街74號","121.458255","25.0493383333333","6500500","新莊區"
"242060","353-BY","2018/12/10 17:59:26","新北市新莊區新樹路497巷1號","121.43272","25.0122016666667","6500500","新莊區"
"242011","132-UY","2018/12/10 17:59:19","新北市新莊區中港路699號","121.450505","25.056945","6500500","新莊區"
"242034","135-UY","2018/12/10 17:59:19","新北市新莊區景德路382號","121.446221666667","25.0334833333333","6500500","新莊區"
"242050","172-VK","2018/12/10 17:59:16","新北市新莊區龍安路496號","121.426463333333","25.0172416666667","6500500","新莊區"
"242013","173-VK","2018/12/10 17:59:26","新北市新莊區中和街125巷3號","121.447095","25.0485883333333","6500500","新莊區"
"242007","176-VK","2018/12/10 17:59:28","新北市新莊區自信街2號","121.453176666667","25.0481316666667","6500500","新莊區"
"242017","KED-0687","2018/12/10 17:58:56","新北市新莊區中和街60巷13號","121.448485","25.0448283333333","6500500","新莊區"
"242056","346-TH","2018/12/10 17:59:27","新北市新莊區豐年街124巷7號","121.445991666667","25.029805","6500500","新莊區"
"242031","348-TH","2018/12/10 17:59:10","新北市新莊區新泰路289巷21號","121.444583333333","25.0405016666667","6500500","新莊區"
"242004","349-TH","2018/12/10 17:59:16","新北市新莊區自由街6號","121.455735","25.0478633333333","6500500","新莊區"
"242019","350-TH","2018/12/10 17:59:10","新北市新莊區明中街51巷4號","121.456473333333","25.0394233333333","6500500","新莊區"
"242015","351-TH","2018/12/10 17:59:20","新北市新莊區中平路87巷8號","121.444253333333","25.0457716666667","6500500","新莊區"
"238015","755-BX","2018/12/10 17:59:29","新北市樹林區大安路323巷2號","121.417528333333","24.991615","6500700","樹林區"
"238023","601-UM","2018/12/10 17:59:16","新北市樹林區龍興街46巷36號","121.40184","25.0152183333333","6500700","樹林區"
"238019","599-UM","2018/12/10 17:59:19","新北市樹林區太平路255-1號","121.418815","24.9745866666667","6500700","樹林區"
"238018","571-TV","2018/12/10 17:59:28","新北市樹林區中正路241號","121.430258333333","24.9986316666667","6500700","樹林區"
"238022","KEA-2213","2018/12/10 17:59:09","新北市樹林區太平路150巷25號","121.417506666667","24.9775183333333","6500700","樹林區"
"238021","KEA-2539","2018/12/10 17:59:23","新北市樹林區柑園街一段73號","121.401788333333","24.9602133333333","6500700","樹林區"
"238025","303-VK","2018/12/10 17:59:23","新北市樹林區三俊街14號","121.41111","25.0153883333333","6500700","樹林區"
"238017","283-BY","2018/12/10 17:59:13","新北市樹林區中正路644號","121.409935","25.0161716666667","6500700","樹林區"
"238014","282-BY","2018/12/10 17:59:18","新北市樹林區大安路121號","121.422353333333","24.9976366666667","6500700","樹林區"
"238020","268-VK","2018/12/10 17:59:25","新北市樹林區三俊街201號","121.42011","25.015665","6500700","樹林區"
"238026","172-UY","2018/12/10 17:59:28","新北市樹林區中洲街51巷4號","121.396706666667","24.9709816666667","6500700","樹林區"
"238016","169-UY","2018/12/10 17:59:10","新北市樹林區育英街135巷5弄24號","121.419633333333","24.9886883333333","6500700","樹林區"
"239007","AAC-297","2018/12/10 17:59:18","新北市鶯歌區永樂街22號","121.341913333333","24.9532816666667","6500800","鶯歌區"
"239006","891-R6","2018/12/10 17:59:27","新北市鶯歌區鶯桃路455巷10弄12號","121.331121666667","24.9640816666667","6500800","鶯歌區"
"239008","527-UM","2018/12/10 17:59:26","新北市鶯歌區香賓街11巷1號","121.336745","24.97945","6500800","鶯歌區"
"239005","526-UM","2018/12/10 17:59:14","新北市鶯歌區鶯桃路609號","121.328938333333","24.9692133333333","6500800","鶯歌區"
"239001","417-VK","2018/12/10 17:59:22","新北市鶯歌區中正三路111號","121.337988333333","24.9407716666667","6500800","鶯歌區"
"239003","360-BY","2018/12/10 17:59:16","新北市鶯歌區永吉街45號","121.335503333333","24.9571133333333","6500800","鶯歌區"
"239002","359-BY","2018/12/10 17:59:21","新北市鶯歌區育英街17巷1弄3號","121.347536666667","24.9551833333333","6500800","鶯歌區"
"239004","193-VK","2018/12/10 17:59:02","新北市鶯歌區環河路167號","121.346321666667","24.9366","6500800","鶯歌區"
"221008","489-VK","2018/12/10 17:59:22","新北市汐止區明峰街21號","121.634565","25.071405","6501100","汐止區"
"221036","130-UY","2018/12/10 17:59:16","新北市汐止區大同路三段263號","121.673505","25.0758033333333","6501100","汐止區"
"221015","131-UY","2018/12/10 17:59:24","新北市汐止區長江街317號","121.666295","25.0815683333333","6501100","汐止區"
"221010","269-BY","2018/12/10 17:59:23","新北市汐止區汐萬路二段245巷36號","121.644148333333","25.087885","6501100","汐止區"
"221012","278-VK","2018/12/10 17:59:25","新北市汐止區長興街二段32號","121.673325","25.0814766666667","6501100","汐止區"
"221023","279-VK","2018/12/10 17:59:17","新北市汐止區明峰街115號","121.631203333333","25.07111","6501100","汐止區"
"221032","280-BY","2018/12/10 17:59:26","新北市汐止區民權街一段211巷6-2號","121.62031","25.05204","6501100","汐止區"
"221027","281-BY","2018/12/10 17:59:23","新北市汐止區大同路二段374號","121.657891666667","25.06714","6501100","汐止區"
"221029","298-VK","2018/12/10 17:59:23","新北市汐止區樟樹二路338號","121.641536666667","25.07049","6501100","汐止區"
"221021","299-VK","2018/12/10 17:59:14","新北市汐止區新興路18號","121.656421666667","25.064625","6501100","汐止區"
"221031","353-TW","2018/12/10 17:59:22","新北市汐止區中興路145號","121.63136","25.0658116666667","6501100","汐止區"
"221035","622-UM","2018/12/10 17:59:27","新北市汐止區新江北路30巷22弄7號","121.65125","25.0697583333333","6501100","汐止區"
"221025","623-UM","2018/12/10 17:59:28","新北市汐止區仁愛路10號","121.659316666667","25.0636716666667","6501100","汐止區"
"221038","646-BX","2018/12/10 17:59:18","新北市汐止區連興街128巷7弄5號","121.653513333333","25.0613616666667","6501100","汐止區"
"221033","647-BX","2018/12/10 17:59:27","新北市汐止區合順街42號","121.620375","25.043125","6501100","汐止區"
"221002","707-TV","2018/12/10 17:59:28","新北市汐止區中興路62號","121.635483333333","25.0614933333333","6501100","汐止區"
"221018","753-BX","2018/12/10 17:59:20","新北市汐止區招商街11巷1號","121.666505","25.0688816666667","6501100","汐止區"
"224002","257-TC","2018/12/10 17:59:25","新北市瑞芳區三爪子坑路32巷112號","121.809785","25.1058416666667","6501200","瑞芳區"
"242042","281-VK","2018/12/10 17:59:19","新北市新莊區丹鳳街36號","121.421606666667","25.0295583333333","6500500","新莊區"
"242021","280-VK","2018/12/10 17:59:24","新北市新莊區建興街41巷2號","121.449988333333","25.0372866666667","6500500","新莊區"
"235061","KEA-2875","2018/12/10 17:59:26","新北市中和區連城路523巷13弄10號","121.481945","24.9936016666667","6500300","中和區"
