"lineid","car","time","location","longitude","latitude","cityid","cityname"
"234007","207-UY","2018/12/10 18:09:12","新北市永和區環河東路二段56號","121.52348","25.011505","6500400","永和區"
"234026","9372-KE","2018/12/10 18:09:26","新北市永和區永和路一段155-4號","121.51431","25.0094366666667","6500400","永和區"
"234011","9373-KE","2018/12/10 18:09:16","新北市永和區福和路1號","121.525481666667","25.0094733333333","6500400","永和區"
"249005","172-UM","2018/12/10 18:09:25","新北市八里區荖阡坑路15-40號","121.401725","25.1397833333333","6502300","八里區"
"249001","173-UM","2018/12/10 18:09:08","新北市八里區龍米路二段26號","121.448696666667","25.1395316666667","6502300","八里區"
"249004","303-UY","2018/12/10 18:09:16","新北市八里區龍米路二段206巷7號","121.43285","25.1593016666667","6502300","八里區"
"249002","305-UY","2018/12/10 18:09:26","新北市八里區龍米路一段356巷38號","121.452175","25.1306016666667","6502300","八里區"
"249003","593-UM","2018/12/10 18:09:19","新北市八里區中華路二段165巷2-1號","121.407566666667","25.150905","6502300","八里區"
"248016","026-BX","2018/12/10 18:09:23","新北市五股區成泰路三段223號","121.44612","25.0930566666667","6501500","五股區"
"248006","077-UY","2018/12/10 18:09:17","新北市五股區中興路二段70號","121.461216666667","25.076985","6501500","五股區"
"248008","095-VK","2018/12/10 18:09:18","新北市五股區更洲路32巷15弄5號","121.45848","25.0803716666667","6501500","五股區"
"248018","225-UY","2018/12/10 18:09:22","新北市五股區工商路63號","121.438963333333","25.084395","6501500","五股區"
"248012","247-BX","2018/12/10 18:09:21","新北市五股區中興路三段198號","121.441233333333","25.0820983333333","6501500","五股區"
"248014","261-SL","2018/12/10 18:09:15","新北市五股區成泰路一段197號","121.435101666667","25.0766833333333","6501500","五股區"
"248004","677-BX","2018/12/10 18:09:22","新北市五股區工商路42號","121.439276666667","25.0838116666667","6501500","五股區"
"248002","678-BX","2018/12/10 18:08:44","新北市五股區中興路三段198號","121.441148333333","25.082215","6501500","五股區"
"248010","682-TV","2018/12/10 18:09:25","新北市五股區成泰路一段219-19號","121.434506666667","25.0777233333333","6501500","五股區"
"232011","375-UM","2018/12/10 18:09:11","新北市坪林區國中路4號","121.713455","24.9387533333333","6502000","坪林區"
"244023","069-UM","2018/12/10 18:09:29","新北市林口區東湖路117巷22號","121.383286666667","25.07245","6501700","林口區"
"244007","080-UY","2018/12/10 18:09:24","新北市林口區佳林路101巷50號","121.387641666667","25.0795166666667","6501700","林口區"
"244019","402-UM","2018/12/10 18:09:11","新北市林口區忠孝路561-1號","121.37293","25.0681533333333","6501700","林口區"
"244013","KEA-2802","2018/12/10 18:09:16","新北市林口區中山路138-1號","121.39169","25.0787016666667","6501700","林口區"
"244017","485-VK","2018/12/10 18:09:14","新北市林口區文化一路一段57-2號","121.370998333333","25.0698883333333","6501700","林口區"
"244009","656-BX","2018/12/10 18:09:22","新北市林口區文化二路二段126號","121.37995","25.0829033333333","6501700","林口區"
"244011","701-TV","2018/12/10 18:09:16","新北市林口區中正路79號","121.394823333333","25.0773533333333","6501700","林口區"
"244025","837-TS","2018/12/10 18:09:12","新北市林口區文化北路一段293-2號","121.360141666667","25.07289","6501700","林口區"
"244021","838-TS","2018/12/10 18:09:29","新北市林口區自強八街23號","121.39989","25.0758516666667","6501700","林口區"
"243013","539-UM","2018/12/10 18:09:21","新北市泰山區南林路93號","121.415483333333","25.051185","6501600","泰山區"
"243011","KEA-2215","2018/12/10 18:06:57","新北市泰山區黎明路25號","121.421975","25.060735","6501600","泰山區"
"243014","680-BX","2018/12/10 17:48:25","新北市泰山區黎明路25號","121.421923333333","25.0607166666667","6501600","泰山區"
"222003","436-BY","2018/12/10 18:09:13","新北市深坑區阿柔洋47號","121.612235","24.9976466666667","6501800","深坑區"
"222002","659-BX","2018/12/10 18:09:27","新北市深坑區文化街52號","121.618953333333","25.0015633333333","6501800","深坑區"
"231041","002-UM","2018/12/10 18:09:14","新北市新店區安華路28-1號","121.519671666667","24.9608783333333","6500600","新店區"
"231027","0291-UT","2018/12/10 18:07:20","新北市新店區安華路28-1號","121.519155","24.9606766666667","6500600","新店區"
"231059","046-UY","2018/12/10 18:09:15","新北市新店區安華路28-1號","121.519571666667","24.9609633333333","6500600","新店區"
"231040","047-UY","2018/12/10 18:09:19","新北市新店區安華路28-1號","121.519166666667","24.9609716666667","6500600","新店區"
"231044","106-UY","2018/12/10 18:09:22","新北市新店區安華路28-1號","121.51973","24.960705","6500600","新店區"
"231046","107-UY","2018/12/10 18:09:20","新北市新店區直潭路109號","121.531795","24.936595","6500600","新店區"
"231057","256-BX","2018/12/10 18:09:27","新北市新店區安一路一段1-1號","121.519661666667","24.961045","6500600","新店區"
"231042","268-BY","2018/12/10 18:09:23","新北市新店區安華路1-1號","121.519408333333","24.9603733333333","6500600","新店區"
"231050","AAD-862","2018/12/10 18:09:17","新北市新店區安華路28-1號","121.520161666667","24.9610233333333","6500600","新店區"
"231058","3713-VJ","2018/12/10 18:09:18","新北市新店區安華路28-1號","121.519161666667","24.960655","6500600","新店區"
"231066","4716-K9","2018/12/10 18:09:22","新北市新店區安一路一段1-1號","121.51934","24.9612716666667","6500600","新店區"
"231056","4715-K9","2018/12/10 18:09:25","新北市新店區安康路一段70號","121.528338333333","24.961795","6500600","新店區"
"231049","513-UM","2018/12/10 18:09:11","新北市新店區安一路一段1-1號","121.519661666667","24.9611","6500600","新店區"
"231063","616-UM","2018/12/10 18:09:30","新北市新店區安華路28-1號","121.519436666667","24.9605883333333","6500600","新店區"
"231045","617-UM","2018/12/10 18:09:31","新北市新店區安華路28-1號","121.519398333333","24.961","6500600","新店區"
"231061","619-UM","2018/12/10 18:09:27","新北市新店區安華路28-1號","121.519415","24.9607783333333","6500600","新店區"
"231064","719-UM","2018/12/10 18:09:12","新北市新店區安一路一段1-1號","121.51943","24.9614016666667","6500600","新店區"
"231062","720-UM","2018/12/10 18:09:29","新北市新店區安一路一段1-1號","121.519283333333","24.961135","6500600","新店區"
"231060","897-TW","2018/12/10 18:09:08","新北市新店區安華路28-1號","121.519566666667","24.9608316666667","6500600","新店區"
"231043","899-TW","2018/12/10 18:09:14","新北市新店區安華路28-1號","121.519363333333","24.9607833333333","6500600","新店區"
"231055","AKT-0513","2018/12/10 18:09:17","新北市新店區安華路28-1號","121.519355","24.9606066666667","6500600","新店區"
"251014","742-BX","2018/12/10 18:09:22","新北市淡水區南平15號","121.488483333333","25.2190516666667","6501000","淡水區"
"241024","KEA-2210","2018/12/10 18:09:26","新北市三重區中正北路193巷35弄15號","121.476761666667","25.0709533333333","6500200","三重區"
"241019","KEA-2593","2018/12/10 18:09:17","新北市林口區太平里180號","121.368231666667","25.1347633333333","6500200","三重區"
"235064","005-UY","2018/12/10 18:09:19","新北市中和區中正路209號","121.497121666667","24.9936233333333","6500300","中和區"
"235063","006-UY","2018/12/10 18:09:21","新北市中和區員山路36巷16-3號","121.484808333333","24.9914816666667","6500300","中和區"
"235056","096-UM","2018/12/10 18:09:17","新北市中和區新生街29號","121.483246666667","25.0037366666667","6500300","中和區"
"235039","097-UM","2018/12/10 18:09:25","新北市中和區中正路637巷60弄61號","121.48547","24.992915","6500300","中和區"
"235058","151-BY","2018/12/10 18:09:29","新北市中和區圓通路367巷62-8號","121.493138333333","24.9831333333333","6500300","中和區"
"235038","185-VK","2018/12/10 18:09:13","新北市中和區景平路180號","121.51662","24.9922016666667","6500300","中和區"
"235067","255-BX","2018/12/10 18:09:24","新北市中和區和城路一段271巷1號","121.485696666667","24.9917533333333","6500300","中和區"
"235042","KEA-2878","2018/12/10 18:09:17","新北市中和區中正路637巷52弄1號","121.485546666667","24.9933516666667","6500300","中和區"
"247012","KEA-2869","2018/12/10 18:09:24","新北市蘆洲區民族路96號","121.478071666667","25.08512","6501400","蘆洲區"
"235050","4979-A6","2018/12/10 18:09:17","新北市中和區中正路273號","121.495645","24.9937166666667","6500300","中和區"
"235045","565-BX","2018/12/10 18:09:13","新北市中和區中正路275號","121.4954","24.9936566666667","6500300","中和區"
"235054","640-BX","2018/12/10 18:09:18","新北市土城區金城路三段257號","121.471875","24.99005","6500300","中和區"
"235047","732-UM","2018/12/10 18:09:14","新北市中和區中正路637巷60弄61號","121.485423333333","24.9927283333333","6500300","中和區"
"235071","783-BX","2018/12/10 18:09:28","新北市中和區員山路36巷16-3號","121.485096666667","24.9913016666667","6500300","中和區"
"235062","800-TS","2018/12/10 18:09:21","新北市中和區橋和路60號","121.489533333333","25.00525","6500300","中和區"
"235057","801-TS","2018/12/10 18:09:18","新北市中和區連城路523巷13弄10號","121.481946666667","24.993595","6500300","中和區"
"235048","896-TW","2018/12/10 18:09:22","新北市中和區員山路36巷16-3號","121.485028333333","24.9915","6500300","中和區"
"235053","900-TW","2018/12/10 18:09:13","新北市中和區員山路36巷16-3號","121.484871666667","24.99186","6500300","中和區"
"235065","911-UM","2018/12/10 18:09:15","新北市中和區莊敬路49巷18號","121.501715","25.0061016666667","6500300","中和區"
"235051","157-BY","2018/12/10 18:09:13","新北市中和區南山路273號","121.503973333333","24.99241","6500300","中和區"
"235037","AAC-213","2018/12/10 18:09:19","新北市中和區景平路149號","121.513883333333","24.9920516666667","6500300","中和區"
"226004","312-R5","2018/12/10 18:09:04","新北市平溪區菁桐里菁桐街165號","121.723003333333","25.0231416666667","6502400","平溪區"
"228003","097-TW","2018/12/10 18:09:22","新北市貢寮區真理里美艷山街6-2號","121.928841666667","25.0607216666667","6502600","貢寮區"
"228001","212-TW","2018/12/10 18:09:23","新北市貢寮區真理里新港街26巷55弄2-1號","121.927388333333","25.0528133333333","6502600","貢寮區"
"228002","585-TW","2018/12/10 18:09:21","新北市貢寮區福連里福連街35號","121.988945","25.0103483333333","6502600","貢寮區"
"224006","676-BX","2018/12/10 18:09:11","新北市瑞芳區中山路67號","121.804128333333","25.10611","6501200","瑞芳區"
"224008","285-BY","2018/12/10 18:09:19","新北市瑞芳區明燈路一段45巷100號","121.820656666667","25.1044133333333","6501200","瑞芳區"
"224007","275-VK","2018/12/10 18:09:13","新北市瑞芳區四腳亭坑路3-1號","121.776775","25.1093666666667","6501200","瑞芳區"
"224009","273-VK","2018/12/10 18:09:16","新北市瑞芳區金光路115號","121.853638333333","25.1062583333333","6501200","瑞芳區"
"224005","271-BY","2018/12/10 18:09:19","新北市瑞芳區深澳路59號","121.817751666667","25.129435","6501200","瑞芳區"
"227001","642-TC","2018/12/10 18:09:31","新北市雙溪區共和里東榮街52號","121.866306666667","25.033675","6502500","雙溪區"
"253006","032-BX","2018/12/10 18:09:24","新北市石門區老梅路52巷25弄2-1號","121.546698333333","25.2873866666667","6502200","石門區"
"253005","295-VK","2018/12/10 18:09:08","新北市石門區福安街39號","121.56856","25.2921133333333","6502200","石門區"
"222001","KEA-2212","2018/12/10 18:09:27","新北市深坑區北深路二段188號","121.613991666667","25.00223","6501800","深坑區"
"208002","KEA-2872","2018/12/10 18:09:22","新北市金山區三界壇路111巷16號","121.618733333333","25.2316033333333","6502700","金山區"
"208003","665-BX","2018/12/10 18:09:23","新北市金山區磺港里磺港路171號","121.64357","25.2243183333333","6502700","金山區"
"208001","761-BX","2018/12/10 18:09:16","新北市金山區磺港里磺港路104號","121.646888333333","25.2270866666667","6502700","金山區"
"251009","008-UM","2018/12/10 18:09:28","新北市淡水區大忠街34巷23號","121.444298333333","25.1758133333333","6501000","淡水區"
"251004","009-UM","2018/12/10 18:09:15","新北市淡水區民權路187巷35號","121.461216666667","25.133535","6501000","淡水區"
"251005","010-UM","2018/12/10 18:09:20","新北市淡水區學府路96號","121.449268333333","25.17113","6501000","淡水區"
"251001","011-UM","2018/12/10 18:09:10","新北市淡水區自立路10號","121.463051666667","25.129745","6501000","淡水區"
"251013","KEA-2871","2018/12/10 18:09:11","新北市淡水區口湖子6號","121.476216666667","25.1913983333333","6501000","淡水區"
"251016","179-VK","2018/12/10 18:09:27","新北市淡水區下圭柔山13號","121.451323333333","25.2009133333333","6501000","淡水區"
"251015","180-VK","2018/12/10 18:09:20","新北市淡水區興福寮88巷1號","121.485365","25.1649883333333","6501000","淡水區"
"251008","181-VK","2018/12/10 18:09:14","新北市淡水區淡金路8號","121.457435","25.1594533333333","6501000","淡水區"
"251010","413-VK","2018/12/10 18:09:28","新北市淡水區中正路二段52號","121.419823333333","25.1833416666667","6501000","淡水區"
"251012","441-VK","2018/12/10 18:09:18","新北市淡水區北新路三段174號","121.492845","25.192795","6501000","淡水區"
"251006","561-UM","2018/12/10 18:09:14","新北市淡水區馬偕街30-1號","121.436806666667","25.1742333333333","6501000","淡水區"
"251011","650-BX","2018/12/10 18:09:22","新北市淡水區三空泉9-2號","121.474181666667","25.1635016666667","6501000","淡水區"
"251002","672-BX","2018/12/10 18:09:28","新北市淡水區中正東路一段64-2號","121.452836666667","25.161855","6501000","淡水區"
"251003","766-UM","2018/12/10 18:09:22","新北市淡水區大忠街113巷24號","121.447418333333","25.177415","6501000","淡水區"
"207003","550-UM","2018/12/10 18:09:30","新北市萬里區野柳里港西路64號","121.68514","25.204025","6502800","萬里區"
"207004","225-TW","2018/12/10 18:09:13","新北市萬里區中幅里中福路93號","121.675708333333","25.1697","6502800","萬里區"
"252002","178-VK","2018/12/10 18:09:08","新北市三芝區中山路二段39號","121.502958333333","25.2551","6502100","三芝區"
"252003","249-BX","2018/12/10 18:09:28","新北市三芝區埔坪里埔頭坑41號","121.504763333333","25.264165","6502100","三芝區"
"252001","292-VK","2018/12/10 18:09:27","新北市三芝區中興街二段2號","121.498493333333","25.256635","6502100","三芝區"
"237004","KEA-2597","2018/12/10 18:09:28","新北市三峽區大埔路150-2號","121.365006666667","24.8971466666667","6500900","三峽區"
"237007","153-BY","2018/12/10 18:09:09","新北市三峽區中正路二段370巷26號","121.3647","24.9109733333333","6500900","三峽區"
"237009","210-TH","2018/12/10 18:09:21","新北市三峽區大仁路50巷22號","121.365365","24.93831","6500900","三峽區"
"237013","252-BX","2018/12/10 18:09:22","新北市三峽區長泰街5巷14號","121.377861666667","24.9313016666667","6500900","三峽區"
"237012","275-BY","2018/12/10 18:09:24","新北市三峽區民生街19巷7弄38號","121.377361666667","24.935425","6500900","三峽區"
"237008","302-VK","2018/12/10 18:09:19","新北市三峽區白雞44-50號","121.378685","24.9104583333333","6500900","三峽區"
"237014","433-BY","2018/12/10 18:09:30","新北市三峽區復興路80巷22號","121.373698333333","24.937855","6500900","三峽區"
"237006","5529-G3","2018/12/10 18:09:13","新北市三峽區溪東路34巷13號","121.400375","24.934265","6500900","三峽區"
"237011","KEA-2596","2018/12/10 18:09:12","新北市三峽區大同路24號","121.377818333333","24.9293816666667","6500900","三峽區"
"237015","649-BX","2018/12/10 18:09:18","新北市三峽區紫新路21號","121.42317","24.9209466666667","6500900","三峽區"
"237010","706-TV","2018/12/10 18:09:14","新北市三峽區民族街153號","121.368788333333","24.92798","6500900","三峽區"
"237005","AKY-6261","2018/12/10 18:09:12","新北市三峽區和平街79巷1號","121.36996","24.9372816666667","6500900","三峽區"
"236069","105-UM","2018/12/10 18:09:09","新北市土城區明德路一段280號","121.457481666667","24.9774066666667","6501300","土城區"
"236042","KED-0685","2018/12/10 18:09:28","新北市土城區城林路6巷80號","121.43852","24.9796066666667","6501300","土城區"
"236078","166-UM","2018/12/10 18:09:13","新北市土城區永寧路27巷2號","121.430753333333","24.963725","6501300","土城區"
"236030","253-BX","2018/12/10 18:09:20","新北市土城區城林路6巷80號","121.438388333333","24.9796816666667","6501300","土城區"
"236026","269-VK","2018/12/10 18:09:20","新北市土城區承天路18號","121.439505","24.9634383333333","6501300","土城區"
"236014","270-VK","2018/12/10 18:09:26","新北市土城區學府路一段214號","121.452291666667","24.9853166666667","6501300","土城區"
"236039","271-VK","2018/12/10 18:09:29","新北市土城區青雲路449號","121.458876666667","24.9749733333333","6501300","土城區"
"236020","401-BY","2018/12/10 18:09:24","新北市土城區城林路6巷80號","121.438476666667","24.979795","6501300","土城區"
"236059","912-UM","2018/12/10 18:09:17","新北市土城區中央路四段196-1號","121.416233333333","24.9576533333333","6501300","土城區"
"236048","913-UM","2018/12/10 18:09:27","新北市土城區中正路82號","121.445138333333","24.9756316666667","6501300","土城區"
"236063","915-UM","2018/12/10 18:09:27","新北市土城區中正路82號","121.445225","24.9756233333333","6501300","土城區"
"236055","AAC-216","2018/12/10 18:09:13","新北市土城區中華路二段92號","121.438208333333","24.9747583333333","6501300","土城區"
"242036","AAC-296","2018/12/10 18:09:21","新北市新莊區後港一路49巷3弄2號","121.42567","25.0269116666667","6500500","新莊區"
"242058","986-R7","2018/12/10 18:09:23","新北市新莊區壽山路160巷21號","121.417425","25.031955","6500500","新莊區"
"242025","613-BX","2018/12/10 18:09:24","新北市新莊區五權一路11-3號","121.459295","25.0676666666667","6500500","新莊區"
"242029","612-BX","2018/12/10 18:09:28","新北市新莊區中平路158號","121.444785","25.0475016666667","6500500","新莊區"
"242044","566-BX","2018/12/10 18:09:16","新北市新莊區中正路887號","121.416841666667","25.02488","6500500","新莊區"
"242053","442-UM","2018/12/10 18:09:18","新北市新莊區光華街82號","121.427663333333","25.0124583333333","6500500","新莊區"
"242002","440-UM","2018/12/10 18:09:12","新北市新莊區新莊路90號","121.456693333333","25.0362266666667","6500500","新莊區"
"242039","415-TV","2018/12/10 18:09:27","新北市新莊區民安西路88巷19號","121.425893333333","25.020005","6500500","新莊區"
"242009","413-TV","2018/12/10 18:09:16","新北市新莊區中華路二段254號","121.452566666667","25.0530616666667","6500500","新莊區"
"242046","400-BY","2018/12/10 18:09:10","新北市新莊區福營路226號","121.427286666667","25.0293233333333","6500500","新莊區"
"242023","362-BY","2018/12/10 18:09:14","新北市新莊區幸福路914號","121.442468333333","25.0490066666667","6500500","新莊區"
"242060","353-BY","2018/12/10 18:09:26","新北市新莊區新樹路210號","121.433951666667","25.0203416666667","6500500","新莊區"
"242011","132-UY","2018/12/10 18:09:13","新北市新莊區中榮街56巷13弄2號","121.4491","25.0535033333333","6500500","新莊區"
"242034","135-UY","2018/12/10 18:09:19","新北市新莊區景德路266號","121.44838","25.0336333333333","6500500","新莊區"
"242050","172-VK","2018/12/10 18:09:16","新北市新莊區民本街25巷17號","121.429158333333","25.0195216666667","6500500","新莊區"
"242007","176-VK","2018/12/10 18:09:24","新北市新莊區自強街37巷14弄13號","121.45413","25.0470066666667","6500500","新莊區"
"242056","346-TH","2018/12/10 18:09:27","新北市新莊區泰豐街11巷9號","121.448013333333","25.031275","6500500","新莊區"
"242031","348-TH","2018/12/10 18:09:22","新北市新莊區新泰路258號","121.446168333333","25.0398783333333","6500500","新莊區"
"242004","349-TH","2018/12/10 18:09:16","新北市新莊區中華路二段36-1號","121.453798333333","25.0453916666667","6500500","新莊區"
"242019","350-TH","2018/12/10 18:09:29","新北市新莊區公園路210號","121.455516666667","25.0404533333333","6500500","新莊區"
"242015","351-TH","2018/12/10 18:09:20","新北市新莊區中平路152巷36號","121.44622","25.047295","6500500","新莊區"
"238015","755-BX","2018/12/10 18:09:29","新北市樹林區啟智街82-2號","121.41902","24.9908","6500700","樹林區"
"238023","601-UM","2018/12/10 18:09:16","新北市樹林區忠愛街15號","121.408016666667","25.01551","6500700","樹林區"
"238019","599-UM","2018/12/10 18:09:19","新北市樹林區水源街15號","121.425123333333","24.983055","6500700","樹林區"
"238018","571-TV","2018/12/10 18:09:28","新北市板橋區大觀路三段236-6號","121.429153333333","24.99242","6500700","樹林區"
"238022","KEA-2213","2018/12/10 18:09:09","新北市樹林區太平路150巷70號","121.41721","24.977455","6500700","樹林區"
"238021","KEA-2539","2018/12/10 18:09:23","新北市樹林區柑園街二段88-1號","121.386441666667","24.9550566666667","6500700","樹林區"
"238025","303-VK","2018/12/10 18:09:23","新北市樹林區保安街二段57號","121.41606","25.0004016666667","6500700","樹林區"
"238017","283-BY","2018/12/10 18:09:15","新北市樹林區中正路815號","121.409478333333","25.0169433333333","6500700","樹林區"
"238014","282-BY","2018/12/10 18:09:18","新北市樹林區千歲街61巷40弄7號","121.425895","24.9989233333333","6500700","樹林區"
"238020","268-VK","2018/12/10 18:09:25","新北市樹林區三龍街118巷3號","121.41543","25.0180966666667","6500700","樹林區"
"238026","172-UY","2018/12/10 18:09:07","新北市樹林區佳園路一段2-8號","121.392646666667","24.9717683333333","6500700","樹林區"
"238016","169-UY","2018/12/10 18:07:50","新北市樹林區中山路一段276號","121.42052","24.9871266666667","6500700","樹林區"
"239007","AAC-297","2018/12/10 18:09:18","新北市鶯歌區育英街91號","121.347413333333","24.95146","6500800","鶯歌區"
"239006","891-R6","2018/12/10 18:09:27","新北市鶯歌區鶯桃路367號","121.333825","24.96299","6500800","鶯歌區"
"239008","527-UM","2018/12/10 18:09:26","新北市鶯歌區朝陽街55號","121.337953333333","24.9781483333333","6500800","鶯歌區"
"239001","417-VK","2018/12/10 18:09:22","新北市鶯歌區高職東街19巷30號","121.340796666667","24.9419266666667","6500800","鶯歌區"
"239003","360-BY","2018/12/10 18:09:16","新北市鶯歌區鶯桃路392號","121.334011666667","24.9637733333333","6500800","鶯歌區"
"239002","359-BY","2018/12/10 18:09:21","新北市鶯歌區中山路329巷24弄2號","121.344683333333","24.9564783333333","6500800","鶯歌區"
"239004","193-VK","2018/12/10 18:09:21","新北市鶯歌區尖山路137巷25弄1號","121.34748","24.9477066666667","6500800","鶯歌區"
"221008","489-VK","2018/12/10 18:09:22","新北市汐止區康寧街315號","121.627081666667","25.0679283333333","6501100","汐止區"
"221036","130-UY","2018/12/10 18:09:16","新北市汐止區大同路三段101號","121.668298333333","25.0775216666667","6501100","汐止區"
"221015","131-UY","2018/12/10 18:09:24","新北市汐止區鄉長路二段31號","121.668161666667","25.0832283333333","6501100","汐止區"
"221010","269-BY","2018/12/10 18:09:24","新北市汐止區汐萬路二段267號","121.646148333333","25.08877","6501100","汐止區"
"221012","278-VK","2018/12/10 18:09:25","新北市汐止區保一街39號","121.674243333333","25.0799716666667","6501100","汐止區"
"221023","279-VK","2018/12/10 18:09:17","新北市汐止區民族五街69號","121.628171666667","25.0704516666667","6501100","汐止區"
"221032","280-BY","2018/12/10 18:09:26","新北市汐止區橫科路73巷2-2號","121.619413333333","25.0506533333333","6501100","汐止區"
"221027","281-BY","2018/12/10 18:09:23","新北市汐止區大同路二段585號","121.66369","25.0702733333333","6501100","汐止區"
"221029","298-VK","2018/12/10 18:09:23","新北市汐止區樟樹二路108號","121.639733333333","25.0644166666667","6501100","汐止區"
"221021","299-VK","2018/12/10 18:09:14","新北市汐止區龍安路24號","121.655436666667","25.0640616666667","6501100","汐止區"
"221031","353-TW","2018/12/10 18:09:22","新北市汐止區中興路179-3號","121.630591666667","25.06678","6501100","汐止區"
"221035","622-UM","2018/12/10 18:09:27","新北市汐止區大同路二段208號","121.653498333333","25.065215","6501100","汐止區"
"221025","623-UM","2018/12/10 18:09:28","新北市汐止區勤進路1號","121.660493333333","25.0621183333333","6501100","汐止區"
"221038","646-BX","2018/12/10 18:09:18","新北市汐止區莊敬街131巷9號","121.654878333333","25.0602333333333","6501100","汐止區"
"221033","647-BX","2018/12/10 18:09:07","新北市汐止區宜興街20巷21號","121.622266666667","25.0408933333333","6501100","汐止區"
"221002","707-TV","2018/12/10 18:09:28","新北市汐止區福德一路190號","121.635281666667","25.0656433333333","6501100","汐止區"
"221018","753-BX","2018/12/10 18:09:20","新北市汐止區忠孝東路384號","121.665531666667","25.070175","6501100","汐止區"
"224002","257-TC","2018/12/10 18:09:25","新北市瑞芳區三爪子坑路201號","121.81159","25.105815","6501200","瑞芳區"
"242042","281-VK","2018/12/10 18:09:19","新北市新莊區天祥街29號","121.417318333333","25.0284116666667","6500500","新莊區"
"242021","280-VK","2018/12/10 18:09:24","新北市新莊區新興街74號","121.45073","25.0380616666667","6500500","新莊區"
"235068","KEA-2873","2018/12/10 18:09:27","新北市中和區員山路36巷16-3號","121.485121666667","24.991185","6500300","中和區"
"235061","KEA-2875","2018/12/10 18:09:26","新北市中和區民德路270號","121.468051666667","24.99651","6500300","中和區"
