"lineid","car","time","location","longitude","latitude","cityid","cityname"
"234046","148-BY","2018/12/10 18:29:23","新北市永和區福和路1號","121.525905","25.00963","6500400","永和區"
"234007","207-UY","2018/12/10 18:29:12","新北市永和區新生路24巷11號","121.508661666667","25.0165766666667","6500400","永和區"
"234038","336-UY","2018/12/10 18:29:24","新北市永和區福和路1號","121.526483333333","25.010155","6500400","永和區"
"234081","553-UM","2018/12/10 18:29:09","新北市永和區豫溪街217巷29號","121.524576666667","25.01039","6500400","永和區"
"234086","748-BX","2018/12/10 18:29:29","新北市永和區豫溪街217巷29號","121.52456","25.01049","6500400","永和區"
"234026","9372-KE","2018/12/10 18:29:26","新北市永和區福和路362號","121.514598333333","25.0077066666667","6500400","永和區"
"234011","9373-KE","2018/12/10 18:29:16","新北市永和區保福路二段158巷1號","121.509125","25.0150266666667","6500400","永和區"
"249005","172-UM","2018/12/10 18:29:25","新北市八里區中華路三段134號","121.391393333333","25.13406","6502300","八里區"
"249001","173-UM","2018/12/10 18:29:28","新北市八里區龍米路一段140號","121.45296","25.1255983333333","6502300","八里區"
"249004","303-UY","2018/12/10 18:29:16","新北市八里區忠孝路55號","121.428076666667","25.1601716666667","6502300","八里區"
"249002","305-UY","2018/12/10 18:29:26","新北市八里區龍形三街17號","121.44916","25.1315616666667","6502300","八里區"
"248016","026-BX","2018/12/10 18:29:25","新北市五股區凌雲路一段83巷11號","121.449496666667","25.1009116666667","6501500","五股區"
"248008","095-VK","2018/12/10 18:29:18","新北市五股區四維路185巷41號","121.463941666667","25.0777266666667","6501500","五股區"
"248018","225-UY","2018/12/10 18:29:22","新北市五股區御史路269號","121.42185","25.1061433333333","6501500","五股區"
"248012","247-BX","2018/12/10 18:29:21","新北市五股區御史路1巷1號","121.442143333333","25.0903266666667","6501500","五股區"
"248014","261-SL","2018/12/10 18:29:15","新北市五股區明德路7巷35號","121.43467","25.0708283333333","6501500","五股區"
"248004","677-BX","2018/12/10 18:29:23","新北市五股區工商路104號","121.437518333333","25.0853266666667","6501500","五股區"
"248002","678-BX","2018/12/10 18:29:24","新北市五股區西雲路116-5號","121.444745","25.0934116666667","6501500","五股區"
"248010","682-TV","2018/12/10 18:29:25","新北市五股區明德路12巷3號","121.433301666667","25.0718383333333","6501500","五股區"
"244023","069-UM","2018/12/10 18:29:08","新北市林口區仁愛路二段62巷82號","121.383825","25.0755783333333","6501700","林口區"
"244007","080-UY","2018/12/10 18:29:23","新北市林口區後湖25號","121.387535","25.0992466666667","6501700","林口區"
"244019","402-UM","2018/12/10 18:29:11","新北市林口區忠孝路646巷14號","121.379055","25.067755","6501700","林口區"
"244013","KEA-2802","2018/12/10 18:29:16","新北市林口區中山路299號","121.384141666667","25.0801883333333","6501700","林口區"
"244017","485-VK","2018/12/10 18:28:54","新北市林口區八德路78號","121.365491666667","25.0656616666667","6501700","林口區"
"244009","656-BX","2018/12/10 18:29:22","新北市林口區寶林路123號","121.38297","25.085405","6501700","林口區"
"244011","701-TV","2018/12/10 18:29:16","新北市林口區中山路150號","121.391178333333","25.078735","6501700","林口區"
"244025","837-TS","2018/12/10 18:29:12","新北市林口區南勢四街347號","121.356946666667","25.0753833333333","6501700","林口區"
"244021","838-TS","2018/12/10 18:29:21","新北市林口區自強二街46號","121.399033333333","25.0771116666667","6501700","林口區"
"243013","539-UM","2018/12/10 18:27:09","新北市泰山區明志路三段206巷5號","121.423185","25.03795","6501600","泰山區"
"243011","KEA-2215","2018/12/10 18:06:57","新北市泰山區黎明路25號","121.421975","25.060735","6501600","泰山區"
"243014","680-BX","2018/12/10 18:29:15","新北市泰山區黎明路25號","121.422196666667","25.06067","6501600","泰山區"
"222003","436-BY","2018/12/10 18:29:13","新北市深坑區翠谷街21巷1號","121.627033333333","25.008355","6501800","深坑區"
"222002","659-BX","2018/12/10 18:29:27","新北市深坑區雲鄉路133號","121.622688333333","24.9981","6501800","深坑區"
"231041","002-UM","2018/12/10 18:29:14","新北市新店區安華路28-1號","121.519716666667","24.9608166666667","6500600","新店區"
"231027","0291-UT","2018/12/10 18:07:20","新北市新店區安華路28-1號","121.519155","24.9606766666667","6500600","新店區"
"231059","046-UY","2018/12/10 18:29:15","新北市新店區安華路28-1號","121.51949","24.960985","6500600","新店區"
"231040","047-UY","2018/12/10 18:29:20","新北市新店區安華路28-1號","121.519148333333","24.9609733333333","6500600","新店區"
"231044","106-UY","2018/12/10 18:29:22","新北市新店區安華路28-1號","121.519573333333","24.9608333333333","6500600","新店區"
"231046","107-UY","2018/12/10 18:29:20","新北市新店區直潭七街60號","121.532256666667","24.93976","6500600","新店區"
"231052","108-UY","2018/12/10 18:29:25","新北市新店區新烏路一段50-2號","121.54563","24.9491583333333","6500600","新店區"
"231047","187-VK","2018/12/10 18:29:25","新北市新店區安一路一段1-1號","121.51962","24.9611566666667","6500600","新店區"
"231054","KEA-2219","2018/12/10 18:29:17","新北市新店區安華路28-1號","121.520265","24.9610466666667","6500600","新店區"
"231057","256-BX","2018/12/10 18:29:27","新北市新店區北宜路一段175號","121.544676666667","24.9530916666667","6500600","新店區"
"231042","268-BY","2018/12/10 18:29:23","新北市新店區安華路28-1號","121.519306666667","24.9606233333333","6500600","新店區"
"231051","278-BY","2018/12/10 18:29:17","新北市新店區安一路一段1-1號","121.51998","24.9611916666667","6500600","新店區"
"231050","AAD-862","2018/12/10 18:29:16","新北市新店區安華路28-1號","121.519848333333","24.960745","6500600","新店區"
"231058","3713-VJ","2018/12/10 18:29:18","新北市新店區環河路19巷7弄2號","121.537655","24.9606283333333","6500600","新店區"
"231066","4716-K9","2018/12/10 18:29:22","新北市新店區安一路一段1-1號","121.519283333333","24.9614116666667","6500600","新店區"
"231056","4715-K9","2018/12/10 18:29:25","新北市新店區自立街45巷1號","121.537065","24.9799183333333","6500600","新店區"
"231067","4772-VM","2018/12/10 18:29:17","新北市新店區安華路1-1號","121.519226666667","24.96051","6500600","新店區"
"231065","512-UM","2018/12/10 18:29:10","新北市新店區安一路一段1-1號","121.518905","24.9612883333333","6500600","新店區"
"231049","513-UM","2018/12/10 18:29:11","新北市新店區安華路28-1號","121.51954","24.9609783333333","6500600","新店區"
"231063","616-UM","2018/12/10 18:29:30","新北市新店區安華路1-1號","121.519451666667","24.9605033333333","6500600","新店區"
"231045","617-UM","2018/12/10 18:29:11","新北市新店區安華路28-1號","121.519223333333","24.9609516666667","6500600","新店區"
"231061","619-UM","2018/12/10 18:29:27","新北市新店區安華路28-1號","121.51964","24.960655","6500600","新店區"
"231064","719-UM","2018/12/10 18:29:11","新北市新店區安一路一段1-1號","121.519441666667","24.9612716666667","6500600","新店區"
"231062","720-UM","2018/12/10 18:29:09","新北市新店區安一路一段1-1號","121.519241666667","24.9611483333333","6500600","新店區"
"231060","897-TW","2018/12/10 18:29:08","新北市新店區安華路28-1號","121.519491666667","24.9605566666667","6500600","新店區"
"231043","899-TW","2018/12/10 18:29:14","新北市新店區安華路28-1號","121.51939","24.9608133333333","6500600","新店區"
"231055","AKT-0513","2018/12/10 18:29:17","新北市新店區中正路128巷17號","121.542505","24.972475","6500600","新店區"
"251014","742-BX","2018/12/10 18:29:22","新北市淡水區南平26-2號","121.493613333333","25.2146283333333","6501000","淡水區"
"235064","005-UY","2018/12/10 18:29:19","新北市中和區圓通路141巷17號","121.498976666667","24.99536","6500300","中和區"
"235063","006-UY","2018/12/10 18:29:21","新北市中和區連城路347巷16弄29號","121.487501666667","24.9950666666667","6500300","中和區"
"235056","096-UM","2018/12/10 18:29:17","新北市中和區員山路611巷1號","121.47787","25.0112416666667","6500300","中和區"
"235039","097-UM","2018/12/10 18:29:25","新北市中和區安平路161號","121.512416666667","24.9984416666667","6500300","中和區"
"235040","150-BY","2018/12/10 18:29:13","新北市中和區安平路59號","121.509518333333","24.9950783333333","6500300","中和區"
"235058","151-BY","2018/12/10 18:29:09","新北市中和區圓通路369巷30弄88號","121.488665","24.98489","6500300","中和區"
"235055","183-VK","2018/12/10 18:29:14","新北市中和區莒光路51號","121.472143333333","25.0045716666667","6500300","中和區"
"235038","185-VK","2018/12/10 18:29:13","新北市中和區自立路141巷1號","121.522283333333","24.993475","6500300","中和區"
"235049","186-VK","2018/12/10 18:29:19","新北市中和區景安路142號","121.505081666667","24.9941833333333","6500300","中和區"
"235067","255-BX","2018/12/10 18:29:24","新北市中和區新生街37號","121.48327","25.00344","6500300","中和區"
"235072","301-VK","2018/12/10 18:29:21","新北市中和區連城路144巷4弄11號","121.495666666667","24.9987583333333","6500300","中和區"
"235043","352-BY","2018/12/10 18:29:16","新北市中和區景平路305號","121.506518333333","24.9932216666667","6500300","中和區"
"235042","KEA-2878","2018/12/10 18:29:17","新北市中和區大仁街20巷25弄14號","121.519088333333","24.9935816666667","6500300","中和區"
"247012","KEA-2869","2018/12/10 18:29:24","新北市八里區荖阡坑路41-3號","121.399601666667","25.132995","6501400","蘆洲區"
"235050","4979-A6","2018/12/10 18:29:17","新北市中和區景新街362巷5號","121.511956666667","24.9900966666667","6500300","中和區"
"235069","4980-A6","2018/12/10 18:29:26","新北市中和區連城路127巷25號","121.497011666667","24.997765","6500300","中和區"
"235070","558-UM","2018/12/10 18:29:23","新北市中和區南華路30號","121.503263333333","24.9961366666667","6500300","中和區"
"235045","565-BX","2018/12/10 18:29:13","新北市中和區南山路236巷36弄5號","121.504083333333","24.9883466666667","6500300","中和區"
"235054","640-BX","2018/12/10 18:29:18","新北市中和區民享街87號","121.474408333333","25.0015966666667","6500300","中和區"
"235060","647-TV","2018/12/10 18:29:23","新北市中和區員山路477巷1號","121.480115","25.0050733333333","6500300","中和區"
"235047","732-UM","2018/12/10 18:29:13","新北市中和區南山路429號","121.507685","24.9891533333333","6500300","中和區"
"235046","733-UM","2018/12/10 18:29:23","新北市中和區南山路273號","121.503961666667","24.9923533333333","6500300","中和區"
"235071","783-BX","2018/12/10 18:29:28","新北市中和區員山路36巷16-3號","121.485136666667","24.9912566666667","6500300","中和區"
"235062","800-TS","2018/12/10 18:29:21","新北市中和區景平路726-2號","121.49669","25.0034566666667","6500300","中和區"
"235057","801-TS","2018/12/10 18:29:28","新北市中和區民安街42巷12號","121.479881666667","25.00068","6500300","中和區"
"235052","805-TS","2018/12/10 18:29:17","新北市中和區興南路二段96號","121.505095","24.98414","6500300","中和區"
"235048","896-TW","2018/12/10 18:29:22","新北市中和區中正路83號","121.500686666667","24.9934133333333","6500300","中和區"
"235053","900-TW","2018/12/10 18:29:13","新北市中和區連城路569巷9弄22號","121.479945","24.9935916666667","6500300","中和區"
"235065","911-UM","2018/12/10 18:29:15","新北市中和區中山路二段64巷12號","121.50355","25.0051666666667","6500300","中和區"
"235051","157-BY","2018/12/10 18:29:13","新北市中和區興南路二段142巷25弄32號","121.502601666667","24.9841966666667","6500300","中和區"
"235037","AAC-213","2018/12/10 18:29:19","新北市中和區景德街95-1號","121.515648333333","24.99128","6500300","中和區"
"220065","072-UY","2018/12/10 18:29:22","新北市板橋區南雅南路二段4巷6號","121.45401","25.0037533333333","6500100","板橋區"
"220034","073-UY","2018/12/10 18:29:22","新北市板橋區華東街1-10號","121.448261666667","24.9950433333333","6500100","板橋區"
"226004","312-R5","2018/12/10 18:29:18","新北市平溪區靜安路二段271號","121.726055","25.0221183333333","6502400","平溪區"
"228003","097-TW","2018/12/10 18:29:32","新北市貢寮區和美里和美街48號","121.915181666667","25.09354","6502600","貢寮區"
"228001","212-TW","2018/12/10 18:29:23","新北市貢寮區仁理村仁和路166號","121.923383333333","25.0521783333333","6502600","貢寮區"
"228002","585-TW","2018/12/10 18:29:21","新北市貢寮區福連里福興街37-1號","121.99189","25.0113666666667","6502600","貢寮區"
"224010","AGQ-8101","2018/12/10 18:29:13","新北市瑞芳區崙頂路99號","121.84476","25.1068733333333","6501200","瑞芳區"
"224006","676-BX","2018/12/10 18:29:11","新北市瑞芳區逢甲路1號","121.810153333333","25.1083066666667","6501200","瑞芳區"
"224008","285-BY","2018/12/10 18:29:19","新北市瑞芳區瑞芳街2號","121.806821666667","25.1100833333333","6501200","瑞芳區"
"224007","275-VK","2018/12/10 18:29:13","新北市瑞芳區大埔路吉慶公園城27號","121.764725","25.0998116666667","6501200","瑞芳區"
"224009","273-VK","2018/12/10 18:29:16","新北市瑞芳區五號路96號","121.854661666667","25.1104083333333","6501200","瑞芳區"
"224005","271-BY","2018/12/10 18:28:59","新北市瑞芳區台電新村88號","121.811666666667","25.127185","6501200","瑞芳區"
"227001","642-TC","2018/12/10 18:29:24","新北市雙溪區魚行里坤溪35號","121.870506666667","25.03036","6502500","雙溪區"
"227008","400-TW","2018/12/10 18:29:11","新北市雙溪區牡丹里牡丹131號","121.850926666667","25.0591383333333","6502500","雙溪區"
"253006","032-BX","2018/12/10 18:29:25","新北市石門區老梅路41號","121.545001666667","25.289385","6502200","石門區"
"253005","295-VK","2018/12/10 18:29:08","新北市石門區老崩山10-7號","121.552476666667","25.2909416666667","6502200","石門區"
"222001","KEA-2212","2018/12/10 18:29:07","新北市深坑區北深路一段199號","121.630405","25.0090333333333","6501800","深坑區"
"208002","KEA-2872","2018/12/10 18:29:22","新北市金山區民生路83號","121.639951666667","25.219485","6502700","金山區"
"208003","665-BX","2018/12/10 18:29:24","新北市金山區中山路204號","121.637598333333","25.2217066666667","6502700","金山區"
"208001","761-BX","2018/12/10 18:29:16","新北市金山區環金路19號","121.640826666667","25.2174733333333","6502700","金山區"
"251004","009-UM","2018/12/10 18:29:21","新北市淡水區民族路33巷16-19號","121.462406666667","25.1359533333333","6501000","淡水區"
"251005","010-UM","2018/12/10 18:29:20","新北市淡水區中正東路35巷13號","121.44659","25.16878","6501000","淡水區"
"251001","011-UM","2018/12/10 18:29:30","新北市淡水區自強路122巷1號","121.464533333333","25.1331266666667","6501000","淡水區"
"251013","KEA-2871","2018/12/10 18:29:11","新北市淡水區椿子林19-3號","121.480191666667","25.2032383333333","6501000","淡水區"
"251016","179-VK","2018/12/10 18:29:27","新北市淡水區下圭柔山115-16號","121.446825","25.2105166666667","6501000","淡水區"
"251015","180-VK","2018/12/10 18:29:20","新北市淡水區興福寮88巷218號","121.486003333333","25.166555","6501000","淡水區"
"251008","181-VK","2018/12/10 18:29:14","新北市淡水區北投子87-2號","121.46821","25.178515","6501000","淡水區"
"251010","413-VK","2018/12/10 18:29:28","新北市淡水區沙崙路181巷1號","121.424175","25.1842066666667","6501000","淡水區"
"251012","441-VK","2018/12/10 18:29:18","新北市淡水區北新路一段128號","121.45832","25.1822683333333","6501000","淡水區"
"251006","561-UM","2018/12/10 18:29:14","新北市淡水區新生街29號","121.439493333333","25.174915","6501000","淡水區"
"251011","650-BX","2018/12/10 18:29:22","新北市淡水區中正東路8-1號","121.447785","25.1668116666667","6501000","淡水區"
"251002","672-BX","2018/12/10 18:29:08","新北市淡水區竿蓁二街21號","121.453231666667","25.162975","6501000","淡水區"
"251003","766-UM","2018/12/10 18:29:22","新北市淡水區北新路169巷16-1號","121.449885","25.1802366666667","6501000","淡水區"
"207003","550-UM","2018/12/10 18:29:10","新北市萬里區野柳里港東路74-2號","121.688808333333","25.2050516666667","6502800","萬里區"
"207004","225-TW","2018/12/10 18:29:24","新北市萬里區萬里里瑪鋉路252號","121.689003333333","25.18069","6502800","萬里區"
"252002","178-VK","2018/12/10 18:29:28","新北市三芝區中山路二段43號","121.502958333333","25.25506","6502100","三芝區"
"252003","249-BX","2018/12/10 18:29:28","新北市三芝區後厝里北勢子45-32號","121.469416666667","25.2508766666667","6502100","三芝區"
"252001","292-VK","2018/12/10 18:29:26","新北市三芝區中興街二段2號","121.498473333333","25.2566216666667","6502100","三芝區"
"237004","KEA-2597","2018/12/10 18:29:28","新北市三峽區五寮89-7號","121.359595","24.856435","6500900","三峽區"
"237007","153-BY","2018/12/10 18:29:29","新北市三峽區中正路三段170巷2號","121.352603333333","24.9039266666667","6500900","三峽區"
"237009","210-TH","2018/12/10 18:29:21","新北市三峽區民權街231號","121.368066666667","24.9279283333333","6500900","三峽區"
"237013","252-BX","2018/12/10 18:29:22","新北市三峽區光明路69巷25號","121.376586666667","24.9291616666667","6500900","三峽區"
"237012","275-BY","2018/12/10 18:29:24","新北市三峽區三樹路76號","121.378078333333","24.9383833333333","6500900","三峽區"
"237008","302-VK","2018/12/10 18:29:19","新北市三峽區白雞68-269號","121.391283333333","24.908555","6500900","三峽區"
"237014","433-BY","2018/12/10 18:29:10","新北市三峽區文化路101號","121.371148333333","24.9361266666667","6500900","三峽區"
"237006","5529-G3","2018/12/10 18:29:13","新北市三峽區溪東路240號","121.408376666667","24.9316566666667","6500900","三峽區"
"237011","KEA-2596","2018/12/10 18:29:12","新北市三峽區溪東路307號","121.409698333333","24.9308533333333","6500900","三峽區"
"237015","649-BX","2018/12/10 18:29:19","新北市三峽區竹崙路144號","121.435056666667","24.9087633333333","6500900","三峽區"
"237010","706-TV","2018/12/10 18:29:14","新北市三峽區中山路307號","121.361263333333","24.937825","6500900","三峽區"
"237005","AKY-6261","2018/12/10 18:29:12","新北市三峽區長福街12號","121.370378333333","24.9337466666667","6500900","三峽區"
"236069","105-UM","2018/12/10 18:29:24","新北市土城區永豐路360號","121.4744","24.9748566666667","6501300","土城區"
"236042","KED-0685","2018/12/10 18:29:28","新北市土城區學成路99巷11號","121.450003333333","24.9883333333333","6501300","土城區"
"236078","166-UM","2018/12/10 18:29:13","新北市土城區中央路四段27巷10弄2號","121.424785","24.9617983333333","6501300","土城區"
"236030","253-BX","2018/12/10 18:29:20","新北市土城區福仁街10號","121.440183333333","24.97617","6501300","土城區"
"236026","269-VK","2018/12/10 18:29:20","新北市土城區南天母路135巷24號","121.449171666667","24.9544883333333","6501300","土城區"
"236014","270-VK","2018/12/10 18:29:26","新北市土城區青雲路39巷7號","121.4603","24.9874","6501300","土城區"
"236039","271-VK","2018/12/10 18:29:29","新北市土城區明德路一段323號","121.459093333333","24.9770583333333","6501300","土城區"
"236020","401-BY","2018/12/10 18:29:24","新北市土城區永豐路202巷14號","121.466246666667","24.9835133333333","6501300","土城區"
"236059","912-UM","2018/12/10 18:29:18","新北市土城區中央路四段71號","121.41731","24.9583016666667","6501300","土城區"
"236048","913-UM","2018/12/10 18:29:27","新北市土城區明德路一段315號","121.459376666667","24.97709","6501300","土城區"
"236063","915-UM","2018/12/10 18:29:30","新北市土城區延壽路77巷5-2號","121.468616666667","24.99263","6501300","土城區"
"236055","AAC-216","2018/12/10 18:29:13","新北市土城區中華路二段1號","121.439603333333","24.9789766666667","6501300","土城區"
"242058","986-R7","2018/12/10 18:29:23","桃園市龜山區萬壽路一段78號","121.408303333333","25.0190683333333","6500500","新莊區"
"242025","613-BX","2018/12/10 18:29:24","新北市新莊區中央路230號","121.4546","25.0596783333333","6500500","新莊區"
"242044","566-BX","2018/12/10 18:29:16","新北市新莊區中正路887-19號","121.415958333333","25.0240533333333","6500500","新莊區"
"242053","442-UM","2018/12/10 18:29:18","新北市新莊區樹新路120巷42號","121.430011666667","24.9959966666667","6500500","新莊區"
"242009","413-TV","2018/12/10 18:29:16","新北市新莊區新泰路357巷2號","121.442326666667","25.0414583333333","6500500","新莊區"
"242046","400-BY","2018/12/10 18:29:13","新北市新莊區中正路803巷57號","121.422206666667","25.0276083333333","6500500","新莊區"
"242060","353-BY","2018/12/10 18:29:26","新北市新莊區後港一路74號","121.42702","25.0265466666667","6500500","新莊區"
"242011","132-UY","2018/12/10 18:29:13","新北市新莊區中港路615巷17號","121.450368333333","25.05305","6500500","新莊區"
"242056","346-TH","2018/12/10 18:29:27","新北市新莊區瓊泰路63巷19號","121.442105","25.02854","6500500","新莊區"
"238015","755-BX","2018/12/10 18:29:29","新北市樹林區備內街3號","121.413038333333","24.9868133333333","6500700","樹林區"
"238023","601-UM","2018/12/10 18:29:16","新北市樹林區三福街114號","121.406495","25.0163566666667","6500700","樹林區"
"238019","599-UM","2018/12/10 18:29:19","新北市樹林區八德街82號","121.42015","24.9811733333333","6500700","樹林區"
"238018","571-TV","2018/12/10 18:29:28","新北市樹林區樹新路50巷5弄7號","121.42962","24.99696","6500700","樹林區"
"238024","5061-A6","2018/12/10 18:29:16","新北市樹林區中山路一段35號","121.424646666667","24.99265","6500700","樹林區"
"238022","KEA-2213","2018/12/10 18:29:09","新北市樹林區中山路三段182號","121.388088333333","24.9694583333333","6500700","樹林區"
"238017","283-BY","2018/12/10 18:29:13","新北市樹林區光榮街21號","121.412021666667","25.0037683333333","6500700","樹林區"
"238020","268-VK","2018/12/10 18:29:25","新北市樹林區三龍街15號","121.413041666667","25.01909","6500700","樹林區"
"238026","172-UY","2018/12/10 18:29:28","新北市樹林區佳園路一段75巷10-1號","121.395775","24.97064","6500700","樹林區"
"239007","AAC-297","2018/12/10 18:29:18","新北市鶯歌區中正一路420號","121.361088333333","24.9570283333333","6500800","鶯歌區"
"239008","527-UM","2018/12/10 18:29:26","新北市鶯歌區國際一路179號","121.336278333333","24.976555","6500800","鶯歌區"
"239001","417-VK","2018/12/10 18:29:22","新北市鶯歌區二甲路光照巷1-2號","121.338568333333","24.9403783333333","6500800","鶯歌區"
"239003","360-BY","2018/12/10 18:29:16","新北市鶯歌區永和街100號","121.334266666667","24.9688616666667","6500800","鶯歌區"
"239002","359-BY","2018/12/10 18:29:21","新北市鶯歌區中正一路253號","121.35469","24.957085","6500800","鶯歌區"
"239004","193-VK","2018/12/10 18:29:21","新北市鶯歌區尖山路240巷19號","121.342331666667","24.9474533333333","6500800","鶯歌區"
"221008","489-VK","2018/12/10 18:29:22","新北市汐止區康寧街901號","121.651441666667","25.075085","6501100","汐止區"
"221036","130-UY","2018/12/10 18:29:16","新北市汐止區南昌街29號","121.663205","25.069115","6501100","汐止區"
"221015","131-UY","2018/12/10 18:29:24","新北市汐止區鄉友街26號","121.668716666667","25.0811816666667","6501100","汐止區"
"221010","269-BY","2018/12/10 18:29:23","新北市汐止區汐萬路三段64號","121.64406","25.0934116666667","6501100","汐止區"
"221012","278-VK","2018/12/10 18:29:25","新北市汐止區保長路37巷8號","121.673161666667","25.079595","6501100","汐止區"
"221023","279-VK","2018/12/10 18:29:17","新北市汐止區康寧街474巷7-2號","121.632275","25.0678816666667","6501100","汐止區"
"221032","280-BY","2018/12/10 18:29:26","新北市汐止區民權街二段79-1號","121.619291666667","25.0483133333333","6501100","汐止區"
"221027","281-BY","2018/12/10 18:29:23","新北市汐止區和平街62號","121.662083333333","25.0708466666667","6501100","汐止區"
"221029","298-VK","2018/12/10 18:29:23","新北市汐止區樟樹二路351-1號","121.64338","25.0737816666667","6501100","汐止區"
"221021","299-VK","2018/12/10 18:29:14","新北市汐止區新台五路一段91-2號","121.6501","25.0613866666667","6501100","汐止區"
"221031","353-TW","2018/12/10 18:29:22","新北市汐止區光復街7巷34號","121.640925","25.0600116666667","6501100","汐止區"
"221035","622-UM","2018/12/10 18:29:26","新北市汐止區大同路二段101號","121.649486666667","25.0630333333333","6501100","汐止區"
"221025","623-UM","2018/12/10 18:29:28","新北市汐止區勤進路1號","121.660363333333","25.0621666666667","6501100","汐止區"
"221038","646-BX","2018/12/10 18:29:18","新北市汐止區秀峰路57號","121.659931666667","25.0652","6501100","汐止區"
"221033","647-BX","2018/12/10 18:29:27","新北市汐止區宜興街22號","121.621533333333","25.0416966666667","6501100","汐止區"
"221002","707-TV","2018/12/10 18:29:08","新北市汐止區福德一路148號","121.636606666667","25.0668383333333","6501100","汐止區"
"221018","753-BX","2018/12/10 18:29:20","新北市汐止區茄苳路213號","121.670691666667","25.0688616666667","6501100","汐止區"
"220079","145-BY","2018/12/10 18:29:26","新北市板橋區華東街11號","121.45038","24.9975166666667","6500100","板橋區"
"220082","610-BX","2018/12/10 18:29:24","新北市板橋區華東街1-9號","121.448245","24.994915","6500100","板橋區"
"224002","257-TC","2018/12/10 18:29:25","新北市瑞芳區三爪子坑路29巷56號","121.813861666667","25.1063633333333","6501200","瑞芳區"
"220056","276-BY","2018/12/10 18:29:24","新北市板橋區華東街1-10號","121.44864","24.9948283333333","6500100","板橋區"
"220071","283-VK","2018/12/10 18:29:18","新北市板橋區華東街1-10號","121.448286666667","24.9949583333333","6500100","板橋區"
"220094","285-UM","2018/12/10 18:29:17","新北市板橋區民生路二段161巷3號","121.469973333333","25.0197166666667","6500100","板橋區"
"220081","287-VK","2018/12/10 18:29:25","新北市板橋區華東街1-10號","121.44825","24.9950033333333","6500100","板橋區"
"220084","296-UM","2018/12/10 18:29:17","新北市板橋區華東街1-9號","121.448145","24.99497","6500100","板橋區"
"242042","281-VK","2018/12/10 18:29:19","新北市新莊區壽山路41號","121.414998333333","25.0304516666667","6500500","新莊區"
"220103","561-BX","2018/12/10 18:29:13","新北市板橋區民生路二段120號","121.470428333333","25.0197183333333","6500100","板橋區"
"220054","741-BX","2018/12/10 18:29:27","新北市板橋區華東街1-9號","121.448111666667","24.9949466666667","6500100","板橋區"
"220055","827-TW","2018/12/10 18:29:26","新北市板橋區南雅南路二段144巷1號","121.45135","24.9960333333333","6500100","板橋區"
"220074","895-R6","2018/12/10 18:29:23","新北市板橋區華東街1-10號","121.448328333333","24.9949766666667","6500100","板橋區"
"220073","985-R7","2018/12/10 18:29:23","新北市板橋區四川路二段140巷20號","121.449106666667","24.9934333333333","6500100","板橋區"
"220064","AAC-253","2018/12/10 18:29:16","新北市板橋區南雅南路二段116號","121.452453333333","25.0006266666667","6500100","板橋區"
"235068","KEA-2873","2018/12/10 18:29:27","新北市中和區錦和路203巷15號","121.491425","24.9906033333333","6500300","中和區"
"235061","KEA-2875","2018/12/10 18:29:26","新北市中和區民享街88巷11號","121.473975","25.00047","6500300","中和區"
"235041","KEA-2876","2018/12/10 18:29:00","新北市中和區景安路117號","121.505851666667","24.99641","6500300","中和區"
