"lineid","car","time","location","longitude","latitude","cityid","cityname"
"234046","148-BY","2018/12/10 19:59:23","新北市永和區成功路一段16巷2號","121.526718333333","25.00547","6500400","永和區"
"234007","207-UY","2018/12/10 19:59:12","新北市永和區保生路22巷17號","121.50707","25.008205","6500400","永和區"
"234038","336-UY","2018/12/10 19:59:24","新北市永和區成功路二段155號","121.526621666667","24.9975","6500400","永和區"
"234064","337-UY","2018/12/10 19:59:22","新北市永和區中正路412巷2弄12號","121.518556666667","25.0017766666667","6500400","永和區"
"234070","552-UM","2018/12/10 19:59:29","新北市永和區國光路12巷1號","121.519208333333","25.008555","6500400","永和區"
"234081","553-UM","2018/12/10 19:59:29","新北市永和區永利路81巷21號","121.522296666667","25.0038616666667","6500400","永和區"
"234017","745-BX","2018/12/10 19:59:21","新北市永和區文化路62號","121.5144","25.0151066666667","6500400","永和區"
"234030","746-BX","2018/12/10 19:59:11","新北市永和區民生路67巷16號","121.523345","24.997175","6500400","永和區"
"234054","KEA-2590","2018/12/10 19:59:18","新北市永和區環河東路一段122號","121.520603333333","25.0154733333333","6500400","永和區"
"234013","KEA-2591","2018/12/10 19:59:16","新北市永和區保生路55號","121.504641666667","25.0102983333333","6500400","永和區"
"234061","AAD-866","2018/12/10 19:59:30","新北市永和區中正路283巷37號","121.516105","24.9996283333333","6500400","永和區"
"234086","748-BX","2018/12/10 19:59:29","新北市永和區中正路505號","121.516855","25.0070033333333","6500400","永和區"
"234042","862-TW","2018/12/10 19:59:23","新北市永和區中和路335巷18弄30號","121.5081","25.0004083333333","6500400","永和區"
"234050","863-TW","2018/12/10 19:59:18","新北市永和區保安路151號","121.507026666667","25.013015","6500400","永和區"
"234026","9372-KE","2018/12/10 19:59:26","新北市永和區雙和街7巷2號","121.509551666667","25.001645","6500400","永和區"
"234011","9373-KE","2018/12/10 19:59:16","新北市永和區仁愛路352巷122弄4號","121.500516666667","25.0086733333333","6500400","永和區"
"249005","172-UM","2018/12/10 19:59:25","新北市八里區楓林路4號","121.381598333333","25.1297216666667","6502300","八里區"
"249001","173-UM","2018/12/10 19:59:20","新北市八里區中華路二段249-1號","121.40393","25.148355","6502300","八里區"
"249004","303-UY","2018/12/10 19:59:12","新北市八里區中山路一段418-2號","121.411023333333","25.1577966666667","6502300","八里區"
"249002","305-UY","2018/12/10 19:49:46","新北市八里區頂寮三街46號","121.451291666667","25.1258883333333","6502300","八里區"
"249003","593-UM","2018/12/10 19:59:10","新北市八里區中華路二段560巷11號","121.398338333333","25.1450383333333","6502300","八里區"
"248016","026-BX","2018/12/10 19:59:22","新北市五股區成泰路三段577巷80弄71號","121.448958333333","25.1048333333333","6501500","五股區"
"248008","095-VK","2018/12/10 19:59:18","新北市五股區中興路一段1巷11號","121.469381666667","25.0714833333333","6501500","五股區"
"248018","225-UY","2018/12/10 19:59:22","新北市五股區登林路97-2號","121.415735","25.07552","6501500","五股區"
"248012","247-BX","2018/12/10 19:59:21","新北市五股區民義路一段109號","121.434028333333","25.0865066666667","6501500","五股區"
"248014","261-SL","2018/12/10 19:59:13","新北市五股區五福路14巷26號","121.435485","25.0889116666667","6501500","五股區"
"248004","677-BX","2018/12/10 19:59:22","新北市五股區成泰路一段2-13號","121.434786666667","25.0669566666667","6501500","五股區"
"248002","678-BX","2018/12/10 19:59:24","新北市五股區成泰路三段487號","121.450586666667","25.0992416666667","6501500","五股區"
"248010","682-TV","2018/12/10 19:59:25","新北市五股區成泰路一段87號","121.434666666667","25.0688516666667","6501500","五股區"
"234023","9380-KE","2018/12/10 19:59:14","新北市永和區中正路702巷20弄1號","121.516503333333","25.010575","6500400","永和區"
"234077","969-R7","2018/12/10 19:59:30","新北市永和區民有街21巷9弄4號","121.517343333333","24.997795","6500400","永和區"
"234074","AAC-211","2018/12/10 19:59:14","新北市永和區豫溪街215巷12號","121.524166666667","25.0096266666667","6500400","永和區"
"234067","AAC-212","2018/12/10 19:59:24","新北市永和區永貞路376號","121.509776666667","25.0069433333333","6500400","永和區"
"234003","AAC-295","2018/12/10 19:59:22","新北市永和區中正路708號","121.516128333333","25.0100133333333","6500400","永和區"
"243009","297-R6","2018/12/10 19:59:24","新北市泰山區楓江路16巷25號","121.434091666667","25.0614866666667","6501600","泰山區"
"243016","KEA-2801","2018/12/10 19:59:24","新北市泰山區新北大道六段235號","121.425391666667","25.03533","6501600","泰山區"
"243015","421-VK","2018/12/10 19:59:32","新北市泰山區明志路二段177號","121.427628333333","25.0501","6501600","泰山區"
"243013","539-UM","2018/12/10 19:51:17","新北市泰山區應化街7號","121.424001666667","25.0436916666667","6501600","泰山區"
"243011","KEA-2215","2018/12/10 19:59:12","新北市泰山區工專路47號","121.422791666667","25.03999","6501600","泰山區"
"243010","KEA-2216","2018/12/10 19:59:15","新北市泰山區中華街14巷1號","121.427651666667","25.0524","6501600","泰山區"
"243012","646-TV","2018/12/10 19:59:24","新北市泰山區全興路2-1號","121.432068333333","25.0594033333333","6501600","泰山區"
"243014","680-BX","2018/12/10 19:59:15","新北市泰山區明志路一段52號","121.433515","25.0649466666667","6501600","泰山區"
"222003","436-BY","2018/12/10 19:59:29","新北市深坑區埔新街14號","121.62071","25.0039316666667","6501800","深坑區"
"222002","659-BX","2018/12/10 19:59:27","新北市深坑區北深路二段81巷8弄1號","121.618376666667","25.0030933333333","6501800","深坑區"
"231041","002-UM","2018/12/10 19:59:29","新北市新店區中正路366號","121.535336666667","24.9760333333333","6500600","新店區"
"231059","046-UY","2018/12/10 19:59:15","新北市新店區安和路一段49號","121.517388333333","24.9659016666667","6500600","新店區"
"231040","047-UY","2018/12/10 19:59:20","新北市新店區中正路58號","121.54431","24.9700283333333","6500600","新店區"
"231044","106-UY","2018/12/10 19:59:22","新北市新店區復興路27號","121.539043333333","24.9867116666667","6500600","新店區"
"231052","108-UY","2018/12/10 19:59:25","新北市新店區新烏路三段寶島巷2弄2號","121.551893333333","24.898585","6500600","新店區"
"231047","187-VK","2018/12/10 19:59:25","新北市新店區中興路二段236巷7號","121.54783","24.9760516666667","6500600","新店區"
"231054","KEA-2219","2018/12/10 19:59:17","新北市新店區光明街71號","121.538901666667","24.9605033333333","6500600","新店區"
"231057","256-BX","2018/12/10 19:59:25","新北市新店區花園二路一段11號","121.555503333333","24.9325016666667","6500600","新店區"
"231042","268-BY","2018/12/10 19:59:23","新北市新店區中興路一段280號","121.545476666667","24.9684683333333","6500600","新店區"
"231051","278-BY","2018/12/10 19:59:17","新北市新店區中央一街29號","121.527876666667","24.9733883333333","6500600","新店區"
"231050","AAD-862","2018/12/10 19:59:16","新北市新店區北宜路一段127巷4號","121.541776666667","24.9529133333333","6500600","新店區"
"231058","3713-VJ","2018/12/10 19:59:17","新北市新店區柴埕路116號","121.504665","24.9598666666667","6500600","新店區"
"231066","4716-K9","2018/12/10 19:59:22","新北市新店區安康路二段341巷5號","121.496966666667","24.9548533333333","6500600","新店區"
"231056","4715-K9","2018/12/10 19:59:25","新北市新店區明德路26巷2號","121.54223","24.97777","6500600","新店區"
"231067","4772-VM","2018/12/10 19:59:17","新北市新店區秀山路11巷12弄2號","121.531608333333","24.9594816666667","6500600","新店區"
"231065","512-UM","2018/12/10 19:59:30","新北市新店區安祥路106巷8弄1號","121.478781666667","24.96266","6500600","新店區"
"231049","513-UM","2018/12/10 19:59:11","新北市新店區民權路91號","121.53745","24.9830283333333","6500600","新店區"
"231063","616-UM","2018/12/10 19:59:30","新北市新店區車子路11號","121.503043333333","24.952015","6500600","新店區"
"231045","617-UM","2018/12/10 19:59:17","新北市新店區北宜路二段361-3號","121.558553333333","24.9542016666667","6500600","新店區"
"231061","618-UM","2018/12/10 19:59:33","新北市新店區碧安街9巷13號","121.516401666667","24.9683416666667","6500600","新店區"
"231068","718-UY","2018/12/10 19:59:13","新北市新店區安一路一段1-1號","121.519363333333","24.9613516666667","6500600","新店區"
"231064","719-UM","2018/12/10 19:59:11","新北市新店區安和路二段45號","121.518158333333","24.9680166666667","6500600","新店區"
"231062","720-UM","2018/12/10 19:59:09","新北市新店區華城路36巷1-3號","121.527548333333","24.9554033333333","6500600","新店區"
"231060","897-TW","2018/12/10 19:59:28","新北市新店區安康路二段416號","121.496505","24.955195","6500600","新店區"
"231043","899-TW","2018/12/10 19:59:14","新北市新店區中正路263-4號","121.538326666667","24.9739266666667","6500600","新店區"
"231055","AKT-0513","2018/12/10 19:59:17","新北市新店區中華路83巷67號","121.538281666667","24.9671716666667","6500600","新店區"
"241011","013-R5","2018/12/10 19:59:19","新北市三重區三和路二段224號","121.497793333333","25.0696633333333","6500200","三重區"
"241028","022-UY","2018/12/10 19:59:18","新北市三重區中正南路96號","121.494396666667","25.0588216666667","6500200","三重區"
"241008","059-VK","2018/12/10 19:59:13","新北市三重區永福街179-2號","121.479","25.075065","6500200","三重區"
"241022","060-VK","2018/12/10 19:59:22","新北市三重區過圳街19號","121.488655","25.06057","6500200","三重區"
"241031","061-VK","2018/12/10 19:59:17","新北市三重區重新路四段144巷25號","121.487061666667","25.0551883333333","6500200","三重區"
"241015","062-VK","2018/12/10 19:59:21","新北市三重區三和路二段8號","121.501113333333","25.0667933333333","6500200","三重區"
"241017","063-VK","2018/12/10 19:59:27","新北市三重區自強路一段217號","121.491283333333","25.06858","6500200","三重區"
"241024","065-VK","2018/12/10 19:59:27","新北市三重區力行路二段2號","121.48182","25.0718416666667","6500200","三重區"
"241003","091-VK","2018/12/10 19:59:15","新北市三重區仁愛街445巷7號","121.490198333333","25.0824733333333","6500200","三重區"
"251014","742-BX","2018/12/10 19:59:22","新北市淡水區石頭厝1號","121.45901","25.2353183333333","6501000","淡水區"
"241026","265-UM","2018/12/10 19:59:27","新北市三重區仁慈街18號","121.501995","25.063115","6500200","三重區"
"241009","267-UM","2018/12/10 19:59:16","新北市三重區三和路四段390巷26號","121.48097","25.078755","6500200","三重區"
"241018","268-UM","2018/12/10 19:59:28","新北市三重區正義北路244巷58號","121.49434","25.067755","6500200","三重區"
"241013","270-UM","2018/12/10 19:59:28","新北市三重區三和路三段125巷33號","121.49403","25.07365","6500200","三重區"
"241025","271-UM","2018/12/10 19:59:30","新北市三重區頂崁街210巷16號","121.476551666667","25.0677166666667","6500200","三重區"
"241007","398-BY","2018/12/10 19:59:21","新北市三重區慈愛街83號","121.487258333333","25.0794466666667","6500200","三重區"
"241035","462-BY","2018/12/10 19:59:30","新北市三重區大榮街9號","121.498203333333","25.06316","6500200","三重區"
"241004","475-VK","2018/12/10 19:59:20","新北市三重區五華街74號","121.493415","25.0820333333333","6500200","三重區"
"241020","478-VK","2018/12/10 19:59:29","新北市三重區忠孝路一段101號","121.489633333333","25.0721783333333","6500200","三重區"
"241030","480-VK","2018/12/10 19:59:31","新北市三重區成功路187號","121.48573","25.0527933333333","6500200","三重區"
"241014","543-UM","2018/12/10 19:59:14","新北市三重區介壽路1號","121.499053333333","25.0689416666667","6500200","三重區"
"241023","545-UM","2018/12/10 19:59:19","新北市三重區頂崁街166號","121.477596666667","25.0658783333333","6500200","三重區"
"241001","547-UM","2018/12/10 19:59:13","新北市三重區仁愛街283巷36號","121.494331666667","25.0799166666667","6500200","三重區"
"241033","557-UM","2018/12/10 19:34:58","新北市三重區重新路五段328號","121.477033333333","25.0479916666667","6500200","三重區"
"241019","KEA-2593","2018/12/10 19:59:10","新北市三重區自強路二段17號","121.489823333333","25.0691583333333","6500200","三重區"
"241006","AAD-863","2018/12/10 19:59:24","新北市三重區力行路二段95號","121.482776666667","25.0758366666667","6500200","三重區"
"241012","941-UM","2018/12/10 19:59:26","新北市三重區仁厚街22號","121.499456666667","25.0762416666667","6500200","三重區"
"241029","942-UM","2018/12/10 19:59:22","新北市三重區重新路三段204號","121.490146666667","25.058285","6500200","三重區"
"235066","003-UY","2018/12/10 19:59:23","新北市中和區中山路二段75號","121.503885","25.004425","6500300","中和區"
"235056","096-UM","2018/12/10 19:59:17","新北市中和區中山路三段170巷4弄1號","121.472776666667","25.0069316666667","6500300","中和區"
"235039","097-UM","2018/12/10 19:59:24","新北市中和區景平路278巷16弄12號","121.514265","24.99369","6500300","中和區"
"235040","150-BY","2018/12/10 19:59:20","新北市中和區保健路10巷16號","121.507681666667","24.99683","6500300","中和區"
"235058","151-BY","2018/12/10 19:59:29","新北市中和區員山路148巷9號","121.481788333333","24.9971283333333","6500300","中和區"
"235049","186-VK","2018/12/10 19:59:19","新北市中和區景平路518號","121.503388333333","24.993905","6500300","中和區"
"235067","255-BX","2018/12/10 19:59:24","新北市中和區員山路148巷23弄60號","121.482303333333","24.9980866666667","6500300","中和區"
"235044","293-VK","2018/12/10 19:59:24","新北市中和區復興路56號","121.50387","24.9904666666667","6500300","中和區"
"235043","352-BY","2018/12/10 19:59:16","新北市中和區興南路二段159巷12號","121.505041666667","24.98314","6500300","中和區"
"235042","KEA-2878","2018/12/10 19:59:17","新北市中和區景平路19號","121.523193333333","24.99044","6500300","中和區"
"247012","KEA-2869","2018/12/10 19:59:12","新北市蘆洲區民族路151號","121.47953","25.0879916666667","6501400","蘆洲區"
"247006","KED-0682","2018/12/10 19:59:21","新北市蘆洲區九芎街115號","121.465476666667","25.0794916666667","6501400","蘆洲區"
"235050","4979-A6","2018/12/10 19:59:17","新北市中和區景平路239-1號","121.509693333333","24.9925383333333","6500300","中和區"
"235069","4980-A6","2018/12/10 19:59:22","新北市中和區南山路47號","121.502145","24.99851","6500300","中和區"
"235070","558-UM","2018/12/10 19:59:23","新北市中和區圓通路207號","121.497053333333","24.9944183333333","6500300","中和區"
"235054","640-BX","2018/12/10 19:59:18","新北市中和區中山路二段475號","121.483116666667","25.0050116666667","6500300","中和區"
"235046","733-UM","2018/12/10 19:59:23","新北市中和區興南路一段93巷49號","121.51024","24.98747","6500300","中和區"
"235026","800-TS","2018/12/10 19:59:21","新北市中和區員山路36巷13號","121.484346666667","24.9906833333333","6500300","中和區"
"235052","805-TS","2018/12/10 19:59:17","新北市中和區華新街30巷20弄1-2號","121.506591666667","24.9839866666667","6500300","中和區"
"235048","896-TW","2018/12/10 19:59:22","新北市中和區景新街426號","121.51299","24.9888633333333","6500300","中和區"
"235053","900-TW","2018/12/10 19:59:13","新北市中和區華安街99號","121.46821","24.9962433333333","6500300","中和區"
"235065","911-UM","2018/12/10 19:59:15","新北市中和區福祥路107號","121.498846666667","25.0063866666667","6500300","中和區"
"235051","157-BY","2018/12/10 19:59:13","新北市中和區復興路301巷15號","121.501605","24.9898016666667","6500300","中和區"
"235037","AAC-213","2018/12/10 19:59:19","新北市中和區自立路26號","121.522438333333","24.9929716666667","6500300","中和區"
"235059","AAC-215","2018/12/10 19:59:14","新北市中和區圓通路305巷5弄2號","121.493573333333","24.9901716666667","6500300","中和區"
"220065","072-UY","2018/12/10 19:59:28","新北市板橋區長安街44號","121.467145","25.0087","6500100","板橋區"
"220106","075-UY","2018/12/10 19:59:16","新北市板橋區文聖街20號","121.475923333333","25.0319016666667","6500100","板橋區"
"220069","AAD-861","2018/12/10 19:59:32","新北市板橋區大明街18-9號","121.458741666667","25.0027333333333","6500100","板橋區"
"247016","546-UM","2018/12/10 19:59:26","新北市蘆洲區光華路1號","121.469853333333","25.0834666666667","6501400","蘆洲區"
"247024","500-BY","2018/12/10 19:59:14","新北市蘆洲區光榮路120巷23號","121.465708333333","25.0881966666667","6501400","蘆洲區"
"247020","057-VK","2018/12/10 19:59:20","新北市蘆洲區民權路113號","121.47238","25.0894033333333","6501400","蘆洲區"
"247010","056-VK","2018/12/10 19:59:26","新北市蘆洲區集賢路232-1號","121.482235","25.0860583333333","6501400","蘆洲區"
"247014","053-VK","2018/12/10 19:59:16","新北市蘆洲區成功路121號","121.472445","25.0821616666667","6501400","蘆洲區"
"247004","002-UY","2018/12/10 19:59:29","新北市蘆洲區長安街307號","121.457723333333","25.0851783333333","6501400","蘆洲區"
"226004","312-R5","2018/12/10 19:59:18","新北市平溪區十分里十分街116號","121.776896666667","25.043095","6502400","平溪區"
"228003","097-TW","2018/12/10 19:59:22","新北市貢寮區仁理村仁和路224號","121.923861666667","25.053555","6502600","貢寮區"
"224010","AGQ-8101","2018/12/10 19:59:17","新北市瑞芳區輕便路300號","121.843525","25.1088466666667","6501200","瑞芳區"
"227001","642-TC","2018/12/10 19:59:10","新北市雙溪區雙溪里長安街16號","121.865001666667","25.0346783333333","6502500","雙溪區"
"227008","400-TW","2018/12/10 19:59:31","新北市雙溪區新基里新基南街25號","121.86624","25.0381583333333","6502500","雙溪區"
"222001","KEA-2212","2018/12/10 19:59:27","新北市深坑區北深路三段137號","121.603941666667","25.0025366666667","6501800","深坑區"
"208002","KEA-2872","2018/12/10 19:59:22","新北市金山區龜子山路36號","121.639326666667","25.217225","6502700","金山區"
"208003","665-BX","2018/12/10 19:59:23","新北市金山區永興里濆水路2-1號","121.624383333333","25.2707216666667","6502700","金山區"
"208001","761-BX","2018/12/10 19:59:16","新北市金山區南勢湖39號","121.611861666667","25.217795","6502700","金山區"
"251009","008-UM","2018/12/10 19:59:28","新北市淡水區英專路30號","121.445766666667","25.1699916666667","6501000","淡水區"
"251004","009-UM","2018/12/10 19:59:28","新北市淡水區民族路50巷34號","121.461201666667","25.1358233333333","6501000","淡水區"
"251005","010-UM","2018/12/10 19:59:20","新北市淡水區學府路136巷17號","121.451235","25.1728833333333","6501000","淡水區"
"251001","011-UM","2018/12/10 19:59:30","新北市淡水區北投子14-3號","121.449428333333","25.1830516666667","6501000","淡水區"
"251013","KEA-2871","2018/12/10 19:59:31","新北市淡水區奎柔山路63號","121.45173","25.2062","6501000","淡水區"
"251016","179-VK","2018/12/10 19:59:27","新北市淡水區番子田16-13號","121.45373","25.23174","6501000","淡水區"
"251015","180-VK","2018/12/10 19:59:20","新北市淡水區埤島76-2號","121.4519","25.1930216666667","6501000","淡水區"
"251008","181-VK","2018/12/10 19:59:14","新北市淡水區淡海路72巷21號","121.424098333333","25.1811133333333","6501000","淡水區"
"251010","413-VK","2018/12/10 19:59:28","新北市淡水區崁頂76-1號","121.430901666667","25.2034733333333","6501000","淡水區"
"251012","441-VK","2018/12/10 19:59:18","新北市淡水區下圭柔山91巷6號","121.437075","25.2100833333333","6501000","淡水區"
"251006","561-UM","2018/12/10 19:59:14","新北市淡水區北新路8號","121.44444","25.1773766666667","6501000","淡水區"
"251011","650-BX","2018/12/10 19:59:31","新北市淡水區崁頂55-3號","121.442196666667","25.1966516666667","6501000","淡水區"
"251003","766-UM","2018/12/10 19:59:22","新北市淡水區中山北路二段189巷15弄29號","121.44342","25.1841983333333","6501000","淡水區"
"207003","550-UM","2018/12/10 19:59:30","新北市萬里區大鵬里萬里加投42號","121.639393333333","25.20832","6502800","萬里區"
"207004","225-TW","2018/12/10 19:59:13","新北市萬里區北基里忠二街35號","121.685625","25.17573","6502800","萬里區"
"252002","178-VK","2018/12/10 19:59:28","新北市三芝區三民街39巷36號","121.505353333333","25.2576116666667","6502100","三芝區"
"252001","292-VK","2018/12/10 19:59:26","新北市三芝區公正街66號","121.499771666667","25.2574716666667","6502100","三芝區"
"237004","KEA-2597","2018/12/10 19:59:28","新北市三峽區添福15-9號","121.372328333333","24.905325","6500900","三峽區"
"237007","153-BY","2018/12/10 19:59:29","新北市三峽區麻園46號","121.36375","24.9212633333333","6500900","三峽區"
"237009","210-TH","2018/12/10 19:59:21","新北市三峽區民族街78巷10號","121.36859","24.9295466666667","6500900","三峽區"
"237012","275-BY","2018/12/10 19:59:04","新北市三峽區中華路74-1號","121.371563333333","24.9294633333333","6500900","三峽區"
"237008","302-VK","2018/12/10 19:59:19","新北市三峽區中華路60號","121.37177","24.9298883333333","6500900","三峽區"
"237014","433-BY","2018/12/10 19:59:30","新北市三峽區添福13-7號","121.37262","24.906935","6500900","三峽區"
"237006","5529-G3","2018/12/10 19:59:13","新北市三峽區正義街29號","121.369695","24.919295","6500900","三峽區"
"237015","649-BX","2018/12/10 19:59:18","新北市三峽區橫溪路61號","121.397316666667","24.9352833333333","6500900","三峽區"
"237005","AKY-6261","2018/12/10 19:59:12","新北市三峽區民生街1巷3號","121.382928333333","24.9324833333333","6500900","三峽區"
"236069","105-UM","2018/12/10 19:59:29","新北市土城區中央路二段346巷11號","121.439576666667","24.9721966666667","6501300","土城區"
"236042","KED-0685","2018/12/10 19:59:28","新北市土城區學府路一段98巷11-1號","121.455798333333","24.988445","6501300","土城區"
"236078","166-UM","2018/12/10 19:59:13","新北市土城區福安街66號","121.41844","24.9645033333333","6501300","土城區"
"236030","253-BX","2018/12/10 19:59:19","新北市土城區中央路一段250巷1-1號","121.444075","24.9846933333333","6501300","土城區"
"236026","269-VK","2018/12/10 19:59:20","新北市土城區員林街20-1號","121.443501666667","24.977705","6501300","土城區"
"236014","270-VK","2018/12/10 19:59:26","新北市土城區廣福街128號","121.456326666667","24.9928533333333","6501300","土城區"
"236039","271-VK","2018/12/10 19:59:29","新北市土城區國際路52號","121.466538333333","24.9783","6501300","土城區"
"247008","KED-0683","2018/12/10 19:59:20","新北市蘆洲區信義路119巷1號","121.478406666667","25.08032","6501400","蘆洲區"
"236020","401-BY","2018/12/10 19:59:24","新北市土城區延吉街64號","121.471333333333","24.98671","6501300","土城區"
"236059","912-UM","2018/12/10 19:59:17","新北市土城區中央路一段260-2號","121.444035","24.9840833333333","6501300","土城區"
"236048","913-UM","2018/12/10 19:59:27","新北市中和區連城路534巷2號","121.475306666667","24.9913116666667","6501300","土城區"
"236063","915-UM","2018/12/10 19:59:27","新北市土城區金城路三段73巷9弄3號","121.46614","24.9875483333333","6501300","土城區"
"236055","AAC-216","2018/12/10 19:59:13","新北市土城區學府路一段27號","121.45816","24.9884066666667","6501300","土城區"
"242036","AAC-296","2018/12/10 19:56:36","新北市新莊區民安路207巷32弄4號","121.428145","25.0241783333333","6500500","新莊區"
"242058","986-R7","2018/12/10 19:59:23","新北市新莊區八德街89號","121.424423333333","25.02155","6500500","新莊區"
"242025","613-BX","2018/12/10 19:59:30","新北市新莊區五工二路86巷39號","121.460718333333","25.0674083333333","6500500","新莊區"
"242029","612-BX","2018/12/10 19:59:19","新北市新莊區中榮街152巷18號","121.445941666667","25.05347","6500500","新莊區"
"242044","566-BX","2018/12/10 19:59:29","新北市新莊區中正路746巷43號","121.411901666667","25.02532","6500500","新莊區"
"242048","497-BY","2018/12/10 19:59:12","新北市新莊區四維路126巷6號","121.423006666667","25.0242433333333","6500500","新莊區"
"242002","440-UM","2018/12/10 19:59:14","新北市新莊區中正路219號","121.450941666667","25.0357733333333","6500500","新莊區"
"242039","415-TV","2018/12/10 19:59:31","新北市新莊區民安路316號","121.428506666667","25.0220683333333","6500500","新莊區"
"242023","362-BY","2018/12/10 19:59:14","新北市新莊區化成路408號","121.465973333333","25.0507383333333","6500500","新莊區"
"242060","353-BY","2018/12/10 19:59:23","新北市新莊區瓊泰路28號","121.444321666667","25.0286533333333","6500500","新莊區"
"242011","132-UY","2018/12/10 19:59:13","新北市新莊區中港路531巷12號","121.450701666667","25.0515383333333","6500500","新莊區"
"242034","135-UY","2018/12/10 19:59:16","新北市新莊區建中街72-1號","121.447483333333","25.0368416666667","6500500","新莊區"
"242050","172-VK","2018/12/10 19:59:28","新北市新莊區西盛街141號","121.428213333333","25.0184033333333","6500500","新莊區"
"242013","173-VK","2018/12/10 19:59:26","新北市新莊區幸福路670巷2弄1號","121.451048333333","25.0494366666667","6500500","新莊區"
"242007","176-VK","2018/12/10 19:59:24","新北市新莊區中原路55號","121.457945","25.0546816666667","6500500","新莊區"
"242017","KED-0687","2018/12/10 19:59:29","新北市新莊區中港路328號","121.452451666667","25.045755","6500500","新莊區"
"242056","346-TH","2018/12/10 19:59:29","新北市新莊區中正路347巷19號","121.447226666667","25.0342333333333","6500500","新莊區"
"242031","348-TH","2018/12/10 19:59:28","新北市新莊區忠孝街29巷30號","121.443623333333","25.036855","6500500","新莊區"
"242004","349-TH","2018/12/10 19:59:16","新北市新莊區頭前路82號","121.46619","25.0524033333333","6500500","新莊區"
"242019","350-TH","2018/12/10 19:59:33","新北市新莊區長青街35巷14號","121.456621666667","25.0417883333333","6500500","新莊區"
"242015","351-TH","2018/12/10 19:59:27","新北市新莊區復興路一段47巷2號","121.447086666667","25.0423533333333","6500500","新莊區"
"238015","755-BX","2018/12/10 19:59:25","新北市樹林區中山路三段210-2號","121.380775","24.9667966666667","6500700","樹林區"
"238021","KEA-2539","2018/12/10 19:59:15","新北市樹林區佳園路三段99巷19號","121.389321666667","24.952165","6500700","樹林區"
"238017","283-BY","2018/12/10 19:59:13","新北市樹林區保安街二段45巷38號","121.414355","25.00021","6500700","樹林區"
"239006","891-R6","2018/12/10 19:59:26","新北市鶯歌區文化路37號","121.35982","24.9567316666667","6500800","鶯歌區"
"221008","489-VK","2018/12/10 19:59:22","台北市內湖區康樂街83號","121.618671666667","25.06933","6501100","汐止區"
"221036","130-UY","2018/12/10 19:59:19","新北市汐止區忠孝東路258巷11弄1號","121.663808333333","25.0672983333333","6501100","汐止區"
"221015","131-UY","2018/12/10 19:59:24","新北市汐止區大同路二段691號","121.665095","25.0725733333333","6501100","汐止區"
"221010","269-BY","2018/12/10 19:59:22","新北市汐止區連峰街225巷1號","121.644825","25.0809216666667","6501100","汐止區"
"221012","278-VK","2018/12/10 19:59:25","新北市汐止區大同路三段371號","121.675603333333","25.07274","6501100","汐止區"
"221023","279-VK","2018/12/10 19:59:17","新北市汐止區明峰街151號","121.62937","25.070365","6501100","汐止區"
"221032","280-BY","2018/12/10 19:59:26","新北市汐止區橫科路18巷18號","121.617688333333","25.0501533333333","6501100","汐止區"
"221027","281-BY","2018/12/10 19:59:03","新北市汐止區中正路85號","121.661281666667","25.06943","6501100","汐止區"
"221029","298-VK","2018/12/10 19:59:23","新北市汐止區樟樹一路137巷26號","121.641036666667","25.0659866666667","6501100","汐止區"
"221021","299-VK","2018/12/10 19:59:14","新北市汐止區水源路一段143號","121.656003333333","25.06225","6501100","汐止區"
"221031","353-TW","2018/12/10 19:59:22","新北市汐止區福德一路260號","121.633055","25.0644016666667","6501100","汐止區"
"221035","622-UM","2018/12/10 19:59:26","新北市汐止區長江街39巷21號","121.6553","25.072085","6501100","汐止區"
"221025","623-UM","2018/12/10 19:59:28","新北市汐止區秀峰路109巷26弄7號","121.661093333333","25.0634683333333","6501100","汐止區"
"221038","646-BX","2018/12/10 19:59:18","新北市汐止區忠孝東路468號","121.666135","25.0731033333333","6501100","汐止區"
"221033","647-BX","2018/12/10 19:59:27","新北市汐止區東勢街201巷2號","121.633763333333","25.0420116666667","6501100","汐止區"
"221002","707-TV","2018/12/10 19:59:27","新北市汐止區康寧街901號","121.651388333333","25.0750566666667","6501100","汐止區"
"221018","753-BX","2018/12/10 19:59:19","新北市汐止區茄苳路35號","121.665536666667","25.0709633333333","6501100","汐止區"
"220079","145-BY","2018/12/10 19:59:10","新北市板橋區民權路202巷17弄44號","121.459066666667","25.0168183333333","6500100","板橋區"
"220080","200-UY","2018/12/10 19:59:17","新北市板橋區大觀路二段163巷16號","121.446068333333","25.0002416666667","6500100","板橋區"
"220082","610-BX","2018/12/10 19:59:24","新北市板橋區存德街3號","121.4299","24.992015","6500100","板橋區"
"220101","245-BX","2018/12/10 19:59:24","新北市板橋區莒光路165巷32-2號","121.474136666667","25.0248016666667","6500100","板橋區"
"224002","257-TC","2018/12/10 19:59:24","新北市瑞芳區員山子路員山巷14-1號","121.81699","25.104155","6501200","瑞芳區"
"220056","276-BY","2018/12/10 19:59:24","新北市板橋區德興街20號","121.453311666667","24.9943016666667","6500100","板橋區"
"220072","277-BY","2018/12/10 19:59:32","新北市板橋區金門街297號","121.430195","24.9866266666667","6500100","板橋區"
"220071","283-VK","2018/12/10 19:59:18","新北市板橋區廣權路79號","121.463973333333","24.992335","6500100","板橋區"
"220094","285-UM","2018/12/10 19:59:17","新北市板橋區文化路一段98號","121.464488333333","25.018045","6500100","板橋區"
"220053","285-VK","2018/12/10 19:59:26","新北市板橋區永豐街51-2號","121.474023333333","25.01796","6500100","板橋區"
"220083","286-VK","2018/12/10 19:59:33","新北市板橋區僑中二街12巷36號","121.445265","25.0108516666667","6500100","板橋區"
"220081","287-VK","2018/12/10 19:59:24","新北市板橋區大觀路一段28巷101號","121.450016666667","25.01195","6500100","板橋區"
"220090","288-VK","2018/12/10 19:59:18","新北市板橋區新海路72巷8號","121.462318333333","25.0220116666667","6500100","板橋區"
"220061","293-UM","2018/12/10 19:59:31","新北市板橋區民生路二段15-1號","121.472591666667","25.01613","6500100","板橋區"
"220084","296-UM","2018/12/10 19:59:17","新北市板橋區溪崑二街103巷15號","121.42722","24.9887266666667","6500100","板橋區"
"220075","303-R5","2018/12/10 19:59:23","新北市板橋區金華街10巷97號","121.458703333333","25.0205433333333","6500100","板橋區"
"220062","305-R5","2018/12/10 19:59:17","新北市板橋區中山路二段416巷66弄2號","121.482761666667","25.0185566666667","6500100","板橋區"
"220092","307-R5","2018/12/10 19:59:26","新北市板橋區幸福路32巷4弄7號","121.4612","25.0214533333333","6500100","板橋區"
"220098","317-R6","2018/12/10 19:59:32","新北市板橋區裕民街139號","121.458838333333","25.0272666666667","6500100","板橋區"
"220089","487-VK","2018/12/10 19:59:30","新北市板橋區四維路325號","121.46269","25.029275","6500100","板橋區"
"242021","280-VK","2018/12/10 19:59:31","新北市新莊區建中街16巷28號","121.449165","25.0387333333333","6500500","新莊區"
"220088","491-VK","2018/12/10 19:59:24","新北市板橋區民治街65號","121.479581666667","25.0330316666667","6500100","板橋區"
"220035","560-BX","2018/12/10 19:59:18","新北市板橋區新生街29巷7號","121.456483333333","25.0215616666667","6500100","板橋區"
"220103","561-BX","2018/12/10 19:59:31","新北市板橋區漢生東路23巷35號","121.465745","25.0178666666667","6500100","板橋區"
"220063","609-BX","2018/12/10 19:59:29","新北市板橋區中山路二段64號","121.474298333333","25.01591","6500100","板橋區"
"220091","637-BX","2018/12/10 19:59:22","新北市板橋區文聖街89巷32號","121.478476666667","25.0303733333333","6500100","板橋區"
"220057","686-BX","2018/12/10 19:59:10","新北市板橋區四川路二段2號","121.456651666667","24.9965866666667","6500100","板橋區"
"220077","687-BX","2018/12/10 19:59:19","新北市板橋區僑中一街102巷3弄15-3號","121.445948333333","25.0122833333333","6500100","板橋區"
"220093","689-BX","2018/12/10 19:59:28","新北市板橋區長江路一段150號","121.460915","25.03027","6500100","板橋區"
"220054","741-BX","2018/12/10 19:59:27","新北市板橋區實踐路93巷52號","121.466031666667","25.005075","6500100","板橋區"
"220102","KEA-2699","2018/12/10 19:59:27","新北市板橋區莒光路40巷9號","121.470368333333","25.0236683333333","6500100","板橋區"
"220055","827-TW","2018/12/10 19:59:27","新北市板橋區國慶路149巷40號","121.460993333333","24.9980583333333","6500100","板橋區"
"220068","830-TW","2018/12/10 19:59:26","新北市板橋區光復街234-1號","121.484586666667","25.0215783333333","6500100","板橋區"
"220067","831-TW","2018/12/10 19:59:11","新北市板橋區中山路一段282-1號","121.468698333333","25.0130766666667","6500100","板橋區"
"220074","895-R6","2018/12/10 19:59:22","新北市板橋區文化路一段46巷50號","121.460705","25.0108283333333","6500100","板橋區"
"220073","985-R7","2018/12/10 19:59:23","新北市板橋區南雅西路二段281號","121.451955","25.0152566666667","6500100","板橋區"
"220097","AAC-210","2018/12/10 19:59:31","新北市板橋區建國街118號","121.460891666667","25.017505","6500100","板橋區"
"220064","AAC-253","2018/12/10 19:59:15","新北市板橋區漢生東路193巷5號","121.470291666667","25.01179","6500100","板橋區"
"235068","KEA-2873","2018/12/10 19:59:26","新北市中和區莊敬路1號","121.499598333333","25.0043816666667","6500300","中和區"
"235041","KEA-2876","2018/12/10 19:59:30","新北市中和區安平路161號","121.512473333333","24.998455","6500300","中和區"
