"lineid","car","time","location","longitude","latitude","cityid","cityname"
"234064","337-UY","2018/12/10 20:39:31","新北市永和區環河西路二段131號","121.505893333333","25.0144483333333","6500400","永和區"
"234081","553-UM","2018/12/10 20:39:29","新北市永和區永貞路82號","121.520178333333","25.00503","6500400","永和區"
"234030","746-BX","2018/12/10 20:39:11","新北市中和區中正路953號","121.48339","25.0071866666667","6500400","永和區"
"234050","863-TW","2018/12/10 20:39:30","新北市永和區新生路55號","121.508888333333","25.0163383333333","6500400","永和區"
"249001","173-UM","2018/12/10 20:39:20","新北市八里區中山路三段372號","121.368733333333","25.1362433333333","6502300","八里區"
"249004","303-UY","2018/12/10 20:39:32","新北市八里區中山路一段157巷9號","121.412935","25.15841","6502300","八里區"
"249002","305-UY","2018/12/10 20:39:27","新北市八里區龍米路二段156號","121.435398333333","25.1575483333333","6502300","八里區"
"234023","9380-KE","2018/12/10 20:39:14","新北市永和區竹林路25巷21號","121.518245","25.0149616666667","6500400","永和區"
"234074","AAC-211","2018/12/10 20:39:14","新北市永和區竹林路119巷8號","121.520756666667","25.01143","6500400","永和區"
"243015","421-VK","2018/12/10 20:39:32","新北市泰山區泰林路三段745巷145號","121.405663333333","25.0677116666667","6501600","泰山區"
"243011","KEA-2215","2018/12/10 20:39:12","新北市泰山區公園路46號","121.428493333333","25.054595","6501600","泰山區"
"243010","KEA-2216","2018/12/10 20:39:15","新北市泰山區泰林路二段607巷1-7號","121.421163333333","25.0638366666667","6501600","泰山區"
"222003","436-BY","2018/12/10 20:39:29","新北市深坑區深坑街163號","121.612881666667","25.0011266666667","6501800","深坑區"
"222002","659-BX","2018/12/10 20:39:27","新北市深坑區萬福路45號","121.599471666667","25.0068283333333","6501800","深坑區"
"231041","002-UM","2018/12/10 20:39:14","新北市新店區中正路695巷2號","121.53395","24.9905433333333","6500600","新店區"
"231059","046-UY","2018/12/10 20:39:28","新北市新店區僑信路132巷25號","121.500015","24.9454166666667","6500600","新店區"
"231040","047-UY","2018/12/10 20:39:20","新北市新店區中正路263巷16號","121.538078333333","24.9729416666667","6500600","新店區"
"231044","106-UY","2018/12/10 20:39:22","新北市新店區建國路257號","121.537398333333","24.9832566666667","6500600","新店區"
"231052","108-UY","2018/12/10 20:39:25","新北市新店區新烏路二段200巷11號","121.547818333333","24.9168916666667","6500600","新店區"
"231047","187-VK","2018/12/10 20:39:25","新北市新店區順安街69號","121.540541666667","24.9866066666667","6500600","新店區"
"231054","KEA-2219","2018/12/10 20:39:17","新北市新店區行政街47號","121.542946666667","24.9654933333333","6500600","新店區"
"231057","256-BX","2018/12/10 20:39:25","新北市新店區花園二路一段9-6號","121.556331666667","24.93284","6500600","新店區"
"231042","268-BY","2018/12/10 20:39:22","新北市新店區寶橋路230號","121.551525","24.9788983333333","6500600","新店區"
"231051","278-BY","2018/12/10 20:39:17","新北市新店區溪園路283號","121.526106666667","24.9805283333333","6500600","新店區"
"231050","AAD-862","2018/12/10 20:39:16","新北市新店區中正路265號","121.538145","24.97398","6500600","新店區"
"231058","3713-VJ","2018/12/10 20:39:17","新北市新店區平等街46巷15號","121.535641666667","24.97338","6500600","新店區"
"231066","4716-K9","2018/12/10 20:39:22","新北市新店區安興路112號","121.514658333333","24.977675","6500600","新店區"
"231056","4715-K9","2018/12/10 20:39:25","新北市新店區中央五街57號","121.52772","24.9755816666667","6500600","新店區"
"231067","4772-VM","2018/12/10 20:39:17","新北市新店區安華路28-1號","121.519823333333","24.9608483333333","6500600","新店區"
"231065","512-UM","2018/12/10 20:39:11","新北市新店區安祥路102巷116號","121.486856666667","24.964105","6500600","新店區"
"231049","513-UM","2018/12/10 20:39:18","新北市新店區永業路81巷3弄1號","121.52988","24.9492333333333","6500600","新店區"
"231063","616-UM","2018/12/10 20:39:30","新北市新店區玫瑰路4-1號","121.493556666667","24.9514183333333","6500600","新店區"
"231045","617-UM","2018/12/10 20:39:31","新北市新店區長春路70號","121.55121","24.9581283333333","6500600","新店區"
"231061","618-UM","2018/12/10 20:39:13","新北市新店區安和路三段31號","121.517673333333","24.9815583333333","6500600","新店區"
"231068","718-UY","2018/12/10 20:39:13","新北市新店區中興路三段326號","121.542135","24.9863116666667","6500600","新店區"
"231064","719-UM","2018/12/10 20:37:11","新北市新店區安和路三段137號","121.516983333333","24.9853766666667","6500600","新店區"
"231062","720-UM","2018/12/10 20:39:29","新北市新店區安泰路60巷55弄39號","121.484391666667","24.9455483333333","6500600","新店區"
"231060","897-TW","2018/12/10 20:39:28","新北市新店區安康路三段740號","121.473806666667","24.9420116666667","6500600","新店區"
"231043","899-TW","2018/12/10 20:39:14","新北市新店區建國路4號","121.539776666667","24.9732916666667","6500600","新店區"
"231055","AKT-0513","2018/12/10 20:39:17","新北市新店區薏仁坑路自強巷1號","121.496841666667","24.9582083333333","6500600","新店區"
"241011","013-R5","2018/12/10 20:39:19","新北市三重區龍濱路190號","121.501111666667","25.073265","6500200","三重區"
"241028","022-UY","2018/12/10 20:39:18","新北市三重區光興街91號","121.497373333333","25.0599783333333","6500200","三重區"
"241008","059-VK","2018/12/10 20:39:13","新北市三重區下竹圍街42-1號","121.481056666667","25.0749333333333","6500200","三重區"
"241022","060-VK","2018/12/10 20:39:22","新北市三重區新北大道一段46巷18弄3號","121.488213333333","25.0619916666667","6500200","三重區"
"241031","061-VK","2018/12/10 20:39:17","新北市三重區重陽路一段113巷1弄49號","121.48808","25.0585366666667","6500200","三重區"
"241015","062-VK","2018/12/10 20:39:21","新北市三重區文化北路103號","121.497866666667","25.0684466666667","6500200","三重區"
"241017","063-VK","2018/12/10 20:39:27","新北市三重區大同北路269號","121.490833333333","25.0673266666667","6500200","三重區"
"241024","065-VK","2018/12/10 20:39:33","新北市三重區三民街206巷1-1號","121.480461666667","25.0668933333333","6500200","三重區"
"241002","090-VK","2018/12/10 20:39:15","新北市三重區仁義街167巷22號","121.497861666667","25.0819983333333","6500200","三重區"
"241003","091-VK","2018/12/10 20:39:15","新北市三重區五華街141巷58號","121.493585","25.086805","6500200","三重區"
"251014","742-BX","2018/12/10 20:39:22","新北市淡水區公埔子26號","121.46665","25.2332883333333","6501000","淡水區"
"241005","262-UM","2018/12/10 20:39:12","新北市三重區碧華街438號","121.492838333333","25.0857116666667","6500200","三重區"
"241026","265-UM","2018/12/10 20:39:28","新北市三重區和平街31號","121.500946666667","25.0624783333333","6500200","三重區"
"241009","267-UM","2018/12/10 20:39:16","新北市三重區碧華街57號","121.484763333333","25.0812666666667","6500200","三重區"
"241018","268-UM","2018/12/10 20:39:27","新北市三重區重陽路四段4號","121.49072","25.0688083333333","6500200","三重區"
"241013","270-UM","2018/12/10 20:39:28","新北市三重區溪尾街2號","121.49159","25.0743666666667","6500200","三重區"
"241025","271-UM","2018/12/10 20:39:10","新北市三重區頂崁街140號","121.47768","25.0650716666667","6500200","三重區"
"241007","398-BY","2018/12/10 20:39:21","新北市三重區三和路四段95-7號","121.487783333333","25.0761716666667","6500200","三重區"
"241035","462-BY","2018/12/10 20:39:29","新北市三重區正義北路328號","121.494718333333","25.0705116666667","6500200","三重區"
"241004","475-VK","2018/12/10 20:39:27","新北市三重區仁愛街409號","121.490816666667","25.0811066666667","6500200","三重區"
"241020","478-VK","2018/12/10 20:39:29","新北市三重區忠孝路一段101號","121.48948","25.0721783333333","6500200","三重區"
"241030","480-VK","2018/12/10 20:39:11","新北市三重區成功路73巷11號","121.489446666667","25.0518916666667","6500200","三重區"
"241014","543-UM","2018/12/10 20:39:34","新北市三重區萬壽街8號","121.499171666667","25.06932","6500200","三重區"
"241023","545-UM","2018/12/10 20:39:19","新北市三重區自由街35巷2號","121.478908333333","25.06692","6500200","三重區"
"241001","547-UM","2018/12/10 20:39:12","新北市三重區自強路三段110巷39號","121.486001666667","25.0746766666667","6500200","三重區"
"241019","KEA-2593","2018/12/10 20:39:30","新北市三重區重陽路四段132號","121.49254","25.071395","6500200","三重區"
"241006","AAD-863","2018/12/10 20:39:24","新北市三重區車路頭街139巷12號","121.48424","25.0762233333333","6500200","三重區"
"241012","941-UM","2018/12/10 20:39:26","新北市三重區秀江街26號","121.502431666667","25.0729633333333","6500200","三重區"
"241029","942-UM","2018/12/10 20:39:21","新北市三重區集美街200號","121.491013333333","25.05393","6500200","三重區"
"247012","KEA-2869","2018/12/10 20:39:12","新北市蘆洲區民族路236巷8號","121.480501666667","25.0885766666667","6501400","蘆洲區"
"247006","KED-0682","2018/12/10 20:39:21","新北市蘆洲區和平路138號","121.466901666667","25.08074","6501400","蘆洲區"
"235069","4980-A6","2018/12/10 20:39:29","新北市中和區中正路432巷22號","121.49095","24.9953933333333","6500300","中和區"
"247002","893-R6","2018/12/10 20:39:20","新北市蘆洲區長安街375巷27號","121.455971666667","25.0879016666667","6501400","蘆洲區"
"247016","546-UM","2018/12/10 20:39:26","新北市蘆洲區中山二路288號","121.468786666667","25.077705","6501400","蘆洲區"
"247024","500-BY","2018/12/10 20:39:14","新北市蘆洲區長樂路41號","121.463156666667","25.0857983333333","6501400","蘆洲區"
"247020","057-VK","2018/12/10 20:39:20","新北市蘆洲區民族路424-1號","121.473815","25.0918","6501400","蘆洲區"
"247014","053-VK","2018/12/10 20:39:22","新北市蘆洲區中山一路257號","121.47298","25.0802216666667","6501400","蘆洲區"
"247022","001-UY","2018/12/10 20:39:29","新北市蘆洲區中正路243巷18弄2號","121.46715","25.08646","6501400","蘆洲區"
"222001","KEA-2212","2018/12/10 20:39:27","新北市深坑區北深路三段228號","121.600808333333","25.0039683333333","6501800","深坑區"
"251001","011-UM","2018/12/10 20:39:30","新北市淡水區淡金路218號","121.460535","25.16723","6501000","淡水區"
"251013","KEA-2871","2018/12/10 20:39:31","新北市淡水區下圭柔山28巷29號","121.458288333333","25.2038266666667","6501000","淡水區"
"251016","179-VK","2018/12/10 20:39:27","新北市淡水區後洲子8-2號","121.449645","25.22404","6501000","淡水區"
"251015","180-VK","2018/12/10 20:39:20","新北市淡水區淡金路四段542巷17號","121.452748333333","25.2271","6501000","淡水區"
"251010","413-VK","2018/12/10 20:39:27","新北市淡水區沙崙路181巷15號","121.42397","25.1843616666667","6501000","淡水區"
"251012","441-VK","2018/12/10 20:39:18","新北市淡水區興仁路105號","121.45158","25.2181383333333","6501000","淡水區"
"251007","442-VK","2018/12/10 20:39:30","新北市淡水區忠愛街3-1號","121.457755","25.171665","6501000","淡水區"
"251006","561-UM","2018/12/10 20:39:14","新北市淡水區商工路186巷35號","121.451198333333","25.1864083333333","6501000","淡水區"
"251011","650-BX","2018/12/10 20:39:31","新北市淡水區新市一路一段363號","121.436435","25.186205","6501000","淡水區"
"251002","672-BX","2018/12/10 20:39:28","新北市淡水區中正路38-1號","121.443735","25.1692766666667","6501000","淡水區"
"251003","766-UM","2018/12/10 20:39:22","新北市淡水區新民街152巷6弄18號","121.438626666667","25.1784216666667","6501000","淡水區"
"252002","178-VK","2018/12/10 20:39:28","新北市三芝區淡金路二段47-2號","121.503675","25.2605916666667","6502100","三芝區"
"252001","292-VK","2018/12/10 20:39:26","新北市三芝區中山路一段40號","121.501345","25.2568816666667","6502100","三芝區"
"247008","KED-0683","2018/12/10 20:39:25","新北市蘆洲區重陽街29號","121.481273333333","25.08311","6501400","蘆洲區"
"242036","AAC-296","2018/12/10 20:39:21","新北市新莊區後港一路71號","121.426735","25.026575","6500500","新莊區"
"242058","986-R7","2018/12/10 20:39:23","新北市新莊區民安路138號","121.424218333333","25.025365","6500500","新莊區"
"242025","613-BX","2018/12/10 20:39:22","新北市新莊區化成路565號","121.465065","25.065675","6500500","新莊區"
"242029","612-BX","2018/12/10 20:39:19","新北市新莊區中華路二段30號","121.453525","25.0451533333333","6500500","新莊區"
"242044","566-BX","2018/12/10 20:39:29","新北市新莊區龍安路72號","121.416646666667","25.021145","6500500","新莊區"
"242048","497-BY","2018/12/10 20:39:33","新北市新莊區中正路619號","121.43191","25.0317766666667","6500500","新莊區"
"242053","442-UM","2018/12/10 20:39:17","新北市新莊區西盛街323巷9號","121.42891","25.0148066666667","6500500","新莊區"
"242002","440-UM","2018/12/10 20:39:14","新北市新莊區中港路五守新村12號","121.454756666667","25.038575","6500500","新莊區"
"242039","415-TV","2018/12/10 20:39:11","新北市新莊區民安路383號","121.431943333333","25.0230616666667","6500500","新莊區"
"242009","413-TV","2018/12/10 20:39:15","新北市新莊區幸福路64巷4弄5號","121.457416666667","25.0500583333333","6500500","新莊區"
"242046","400-BY","2018/12/10 20:39:28","新北市新莊區裕民街21號","121.419253333333","25.0255516666667","6500500","新莊區"
"242023","362-BY","2018/12/10 20:39:17","新北市新莊區復興路三段50號","121.461735","25.0444583333333","6500500","新莊區"
"242060","353-BY","2018/12/10 20:39:23","新北市新莊區新樹路258巷3號","121.432131666667","25.0155766666667","6500500","新莊區"
"242011","132-UY","2018/12/10 20:39:13","新北市新莊區中榮街100號","121.447355","25.05293","6500500","新莊區"
"242034","135-UY","2018/12/10 20:39:25","新北市新莊區中正路423號","121.444498333333","25.0343233333333","6500500","新莊區"
"242050","172-VK","2018/12/10 20:39:25","新北市新莊區民安西路97-1號","121.426958333333","25.01893","6500500","新莊區"
"242013","173-VK","2018/12/10 20:39:26","新北市新莊區中和街175巷11號","121.447238333333","25.0506633333333","6500500","新莊區"
"242017","KED-0687","2018/12/10 20:39:09","新北市新莊區中和街12號","121.448406666667","25.0431766666667","6500500","新莊區"
"242056","346-TH","2018/12/10 20:39:29","新北市新莊區瓊泰路75號","121.443228333333","25.028955","6500500","新莊區"
"242031","348-TH","2018/12/10 20:39:17","新北市新莊區中正路577號","121.43458","25.0325766666667","6500500","新莊區"
"242004","349-TH","2018/12/10 20:39:16","新北市三重區光復路二段168-2號","121.471743333333","25.061315","6500500","新莊區"
"242019","350-TH","2018/12/10 20:39:26","新北市新莊區中港路五守新村1巷5號","121.455351666667","25.038165","6500500","新莊區"
"242015","351-TH","2018/12/10 20:39:27","新北市新莊區中和街2號","121.448548333333","25.0429183333333","6500500","新莊區"
"221008","489-VK","2018/12/10 20:39:22","新北市汐止區翠峰街2巷2號","121.645341666667","25.07662","6501100","汐止區"
"221036","130-UY","2018/12/10 20:39:16","新北市汐止區新昌路80號","121.66372","25.0688883333333","6501100","汐止區"
"221015","131-UY","2018/12/10 20:39:24","新北市汐止區建成路26號","121.66443","25.072655","6501100","汐止區"
"221023","279-VK","2018/12/10 20:39:17","新北市汐止區湖東街45號","121.635575","25.0731866666667","6501100","汐止區"
"221032","280-BY","2018/12/10 20:39:26","新北市汐止區民權街二段28號","121.619328333333","25.0500816666667","6501100","汐止區"
"221027","281-BY","2018/12/10 20:39:23","新北市汐止區大同路二段567號","121.662915","25.0699066666667","6501100","汐止區"
"221029","298-VK","2018/12/10 20:39:23","新北市汐止區大同路一段513號","121.645463333333","25.0624216666667","6501100","汐止區"
"221021","299-VK","2018/12/10 20:39:14","新北市汐止區水源路一段284號","121.65421","25.0583116666667","6501100","汐止區"
"221031","353-TW","2018/12/10 20:39:22","新北市汐止區中興路27巷10號","121.63441","25.0607733333333","6501100","汐止區"
"221035","622-UM","2018/12/10 20:39:26","新北市汐止區長江街101-5號","121.658708333333","25.0731783333333","6501100","汐止區"
"221025","623-UM","2018/12/10 20:39:08","新北市汐止區水源路二段185號","121.657761666667","25.0535716666667","6501100","汐止區"
"221038","646-BX","2018/12/10 20:39:18","新北市汐止區汐萬路一段220號","121.651775","25.0727116666667","6501100","汐止區"
"221033","647-BX","2018/12/10 20:39:27","新北市汐止區合順街18巷8弄5號","121.620341666667","25.0419483333333","6501100","汐止區"
"221002","707-TV","2018/12/10 20:39:27","新北市汐止區福德二路167號","121.630925","25.0651733333333","6501100","汐止區"
"221018","753-BX","2018/12/10 20:39:19","新北市汐止區茄苳路61號","121.666691666667","25.0706933333333","6501100","汐止區"
"220083","286-VK","2018/12/10 20:39:13","新北市板橋區僑中二街116巷49號","121.443588333333","25.006705","6500100","板橋區"
"242042","281-VK","2018/12/10 20:39:16","新北市新莊區天祥街47巷5號","121.416506666667","25.0285416666667","6500500","新莊區"
"242021","280-VK","2018/12/10 20:39:31","新北市新莊區公園路116號","121.451405","25.03997","6500500","新莊區"
"220064","AAC-253","2018/12/10 20:39:15","新北市林口區汕頭32號","121.366526666667","25.1350433333333","6500100","板橋區"
