"lineid","car","time","location","longitude","latitude","cityid","cityname"
"231062","720-UM","2018/12/10 21:42:56","新北市新店區安一路一段1-1號","121.519171666667","24.9611733333333","6500600","新店區"
"247012","KEA-2869","2018/12/10 21:56:12","新北市林口區太平里180號","121.367486666667","25.1337733333333","6501400","蘆洲區"
"235010","733-UM","2018/12/10 21:47:36","新北市中和區員山路36巷13號","121.48416","24.9908083333333","6500300","中和區"
"251004","009-UM","2018/12/10 21:59:22","新北市淡水區民權路157號","121.460063333333","25.1360666666667","6501000","淡水區"
"251005","010-UM","2018/12/10 21:59:30","新北市淡水區鄧公路30巷22號","121.453321666667","25.16975","6501000","淡水區"
"251008","181-VK","2018/12/10 21:59:14","新北市淡水區學府路104號","121.449811666667","25.1718733333333","6501000","淡水區"
"251010","413-VK","2018/12/10 21:59:27","新北市淡水區中正路二段208號","121.426296666667","25.1892066666667","6501000","淡水區"
"251007","442-VK","2018/12/10 21:59:29","新北市淡水區北新路184巷48號","121.450515","25.177935","6501000","淡水區"
"251006","561-UM","2018/12/10 21:59:13","新北市淡水區中正路11巷3號","121.437811666667","25.1707666666667","6501000","淡水區"
"251011","650-BX","2018/12/10 21:59:31","新北市淡水區水碓街7號","121.443138333333","25.1771383333333","6501000","淡水區"
"251003","766-UM","2018/12/10 21:59:22","新北市淡水區新春街83號","121.438861666667","25.1824066666667","6501000","淡水區"
