"lineid","car","time","location","longitude","latitude","cityid","cityname"
"247012","KEA-2869","2018/12/10 22:19:32","新北市八里區中山路三段197號","121.383371666667","25.1407533333333","6501400","蘆洲區"
"251004","009-UM","2018/12/10 22:19:22","新北市淡水區民族路72號","121.462178333333","25.135715","6501000","淡水區"
"251008","181-VK","2018/12/10 22:19:13","新北市淡水區學府路104號","121.449846666667","25.1718716666667","6501000","淡水區"
"251010","413-VK","2018/12/10 22:19:27","新北市淡水區沙崙路200號","121.424643333333","25.1839566666667","6501000","淡水區"
"251007","442-VK","2018/12/10 22:19:29","新北市淡水區北新路137號","121.449513333333","25.178805","6501000","淡水區"
"251011","650-BX","2018/12/10 22:19:31","新北市淡水區水碓街7號","121.44317","25.1771566666667","6501000","淡水區"
