"lineid","car","time","location","longitude","latitude","cityid","cityname"
"234044","148-BY","2018/02/15 08:49:34","新北市永和區林森路10巷18弄16號","121.52632","25.00708","6500400","永和區"
"234066","149-BY","2018/02/15 08:49:33","新北市永和區永和路一段2號","121.512698333333","25.0045033333333","6500400","永和區"
"234005","207-UY","2018/02/15 08:49:33","新北市永和區豫溪街217巷23號","121.524678333333","25.01033","6500400","永和區"
"234078","298-R6","2018/02/15 08:49:46","新北市永和區林森路109號","121.522915","25.003225","6500400","永和區"
"234036","336-UY","2018/02/15 08:49:47","新北市永和區福和路8巷1號","121.52504","25.0090783333333","6500400","永和區"
"234084","338-UY","2018/02/15 08:49:32","新北市中和區安樂路85號","121.512896666667","24.994355","6500400","永和區"
"234015","745-BX","2018/02/15 08:49:40","新北市永和區光復街42號","121.516893333333","25.017925","6500400","永和區"
"234028","746-BX","2018/02/15 08:49:31","新北市永和區得和路389號","121.525208333333","24.9993533333333","6500400","永和區"
"234052","KEA-2590","2018/02/15 08:49:28","新北市永和區福和路1號","121.526163333333","25.009395","6500400","永和區"
"234012","KEA-2591","2018/02/15 08:49:41","新北市永和區信義路16號","121.514191666667","25.0122216666667","6500400","永和區"
"234040","862-TW","2018/02/15 08:49:38","新北市永和區永貞路308號","121.51184","25.0049116666667","6500400","永和區"
"234010","9373-KE","2018/02/15 08:49:30","新北市永和區保福路二段158巷1號","121.509086666667","25.0150733333333","6500400","永和區"
"249005","172-UM","2018/02/15 08:49:28","新北市八里區荖阡坑路22-5號","121.39902","25.1356566666667","6502300","八里區"
"249001","173-UM","2018/02/15 08:49:29","新北市八里區龍米路一段446號","121.450491666667","25.1343366666667","6502300","八里區"
"249004","303-UY","2018/02/15 08:49:46","新北市八里區龍米路二段221號","121.430416666667","25.1587083333333","6502300","八里區"
"249003","593-UM","2018/02/15 08:49:38","新北市八里區中華路二段331號","121.402221666667","25.1457966666667","6502300","八里區"
"248005","077-UY","2018/02/15 08:49:39","新北市五股區中興路二段83巷26-6號","121.460125","25.0750683333333","6501500","五股區"
"248017","225-UY","2018/02/15 08:49:41","新北市五股區中興路二段83巷26-6號","121.459868333333","25.075175","6501500","五股區"
"248005","653-BX","2018/02/15 08:49:46","新北市五股區明德路12巷16號","121.433268333333","25.0719533333333","6501500","五股區"
"234072","AAC-211","2018/02/15 08:49:40","新北市永和區福和路1號","121.526166666667","25.0096883333333","6500400","永和區"
"244012","069-UM","2018/02/15 08:49:35","新北市林口區中山路160巷2號","121.390726666667","25.079175","6501700","林口區"
"244006","080-UY","2018/02/15 08:49:33","新北市林口區林口路241號","121.386706666667","25.08382","6501700","林口區"
"244003","248-BX","2018/02/15 08:49:42","新北市林口區頂福里50號","121.342663333333","25.0959183333333","6501700","林口區"
"244018","402-UM","2018/02/15 08:49:35","新北市林口區文化一路一段89-5號","121.371893333333","25.070385","6501700","林口區"
"244022","483-VK","2018/02/15 08:49:41","新北市林口區隆林街101巷2號","121.385031666667","25.0746516666667","6501700","林口區"
"244016","485-VK","2018/02/15 08:49:32","新北市林口區文化二路一段92號","121.36652","25.06973","6501700","林口區"
"244008","657-BX","2018/02/15 08:49:33","新北市林口區佳林路56巷4號","121.38569","25.0819433333333","6501700","林口區"
"244010","701-TV","2018/02/15 08:49:44","新北市林口區中正路74巷5弄4號","121.394528333333","25.0780683333333","6501700","林口區"
"244024","837-TS","2018/02/15 08:49:41","新北市林口區文化北路一段151號","121.357041666667","25.0700533333333","6501700","林口區"
"244020","838-TS","2018/02/15 08:48:06","新北市林口區新寮23號","121.398593333333","25.0694983333333","6501700","林口區"
"243003","297-R6","2018/02/15 08:49:44","新北市泰山區黎明路26號","121.421163333333","25.060345","6501600","泰山區"
"243004","539-UM","2018/02/15 08:49:47","新北市泰山區泰林路二段73巷31號","121.434368333333","25.05784","6501600","泰山區"
"243002","KEA-2215","2018/02/15 08:49:37","新北市泰山區犁頭窠18-3號","121.4234","25.0564683333333","6501600","泰山區"
"243001","KEA-2216","2018/02/15 08:49:32","新北市泰山區黎明路23-1號","121.421355","25.0613066666667","6501600","泰山區"
"243005","646-TV","2018/02/15 08:49:38","新北市泰山區錢厝坑13號","121.416133333333","25.0382516666667","6501600","泰山區"
"243008","680-BX","2018/02/15 08:49:36","新北市泰山區泰林路二段518號","121.424148333333","25.0639333333333","6501600","泰山區"
"222006","289-BY","2018/02/15 08:49:39","新北市深坑區大坪街19號","121.630676666667","25.0208666666667","6501800","深坑區"
"231061","047-UY","2018/02/15 08:49:47","新北市新店區安康路一段190號","121.524686666667","24.963335","6500600","新店區"
"231008","192-VK","2018/02/15 08:49:41","新北市新店區新烏路三段360號","121.545953333333","24.8943216666667","6500600","新店區"
"231031","720-UM","2018/02/15 08:49:30","新北市新店區莒光路44巷21弄11-6號","121.518805","24.952325","6500600","新店區"
"241008","059-VK","2018/02/15 08:49:33","新北市三重區成功路108巷8號","121.486613333333","25.0506783333333","6500200","三重區"
"241009","060-VK","2018/02/15 08:49:44","新北市三重區捷運路36號","121.482896666667","25.0551366666667","6500200","三重區"
"241031","061-VK","2018/02/15 08:49:41","新北市三重區重新路四段121號","121.484675","25.0524383333333","6500200","三重區"
"241015","062-VK","2018/02/15 08:49:47","新北市三重區成功路112-4號","121.486086666667","25.0520133333333","6500200","三重區"
"241017","063-VK","2018/02/15 08:49:40","新北市三重區重新路四段121號","121.484945","25.0515116666667","6500200","三重區"
"241002","090-VK","2018/02/15 08:49:38","新北市三重區重安街170巷6號","121.496576666667","25.0543416666667","6500200","三重區"
"241005","262-UM","2018/02/15 08:49:35","新北市三重區河邊北街196號","121.503008333333","25.0743066666667","6500200","三重區"
"241016","265-UM","2018/02/15 08:49:37","新北市三重區自強路一段91號","121.495965","25.06641","6500200","三重區"
"241022","267-UM","2018/02/15 08:49:29","新北市三重區重新路四段121號","121.484745","25.0525283333333","6500200","三重區"
"241013","270-UM","2018/02/15 08:49:44","新北市三重區正義北路328號","121.49474","25.0705766666667","6500200","三重區"
"241007","398-BY","2018/02/15 08:49:48","新北市三重區成功路112-4號","121.485633333333","25.051935","6500200","三重區"
"241004","475-VK","2018/02/15 08:49:40","新北市三重區泉州街84巷18號","121.495838333333","25.0543","6500200","三重區"
"241014","543-UM","2018/02/15 08:49:39","新北市三重區福德北路13號","121.502431666667","25.0642716666667","6500200","三重區"
"241019","KEA-2593","2018/02/15 08:49:44","新北市三重區中正北路193巷35弄54號","121.477866666667","25.0713566666667","6500200","三重區"
"241006","AAD-863","2018/02/15 08:49:30","新北市三重區重新路四段121號","121.484623333333","25.0522","6500200","三重區"
"235030","003-UY","2018/02/15 08:49:41","新北市中和區廣福路56巷4號","121.503573333333","25.00228","6500300","中和區"
"235028","005-UY","2018/02/15 08:49:49","新北市中和區連城路89巷6號","121.496893333333","24.9994816666667","6500300","中和區"
"235027","006-UY","2018/02/15 08:49:40","新北市中和區中正路578號","121.486233333333","24.9947866666667","6500300","中和區"
"235020","096-UM","2018/02/15 08:49:44","新北市中和區員山路529號","121.479673333333","25.00694","6500300","中和區"
"235003","097-UM","2018/02/15 08:49:32","新北市中和區安樂路217巷40弄1號","121.513325","24.9979516666667","6500300","中和區"
"235029","098-UM","2018/02/15 08:49:34","新北市中和區中山路二段2巷3弄4號","121.504673333333","25.0060416666667","6500300","中和區"
"235004","150-BY","2018/02/15 08:49:42","新北市中和區宜安路49號","121.511841666667","24.9965633333333","6500300","中和區"
"235022","151-BY","2018/02/15 08:49:42","新北市中和區連城路428巷13號","121.479788333333","24.995545","6500300","中和區"
"235019","183-VK","2018/02/15 08:49:43","新北市中和區德光路92-2號","121.4688","25.0035883333333","6500300","中和區"
"235002","185-VK","2018/02/15 08:49:36","新北市中和區大仁街46號","121.518465","24.9937266666667","6500300","中和區"
"235013","186-VK","2018/02/15 08:49:35","新北市中和區景新街205-15號","121.507348333333","24.995015","6500300","中和區"
"235001","255-BX","2018/02/15 08:49:43","新北市中和區中正路839巷2號","121.484606666667","25.0024483333333","6500300","中和區"
"235008","293-VK","2018/02/15 08:49:33","新北市中和區中興街263-1號","121.500105","24.9887466666667","6500300","中和區"
"235007","352-BY","2018/02/15 08:49:30","新北市中和區成功路8號","121.526203333333","24.99366","6500300","中和區"
"235032","377-QA","2018/02/15 08:49:08","新北市中和區圓通路232巷10號","121.494801666667","24.9933216666667","6500300","中和區"
"235025","378-QA","2018/02/15 08:49:33","新北市中和區民安街111巷21弄4號","121.475438333333","24.9978183333333","6500300","中和區"
"235035","269-TV","2018/02/15 08:49:49","新北市中和區永和路317巷12號","121.48593","25.01086","6500300","中和區"
"235014","4979-A6","2018/02/15 08:49:40","新北市中和區忠孝街58巷16弄9號","121.512005","24.9826883333333","6500300","中和區"
"235033","4980-A6","2018/02/15 08:49:48","新北市中和區連城路65巷9號","121.497921666667","25.00095","6500300","中和區"
"235006","551-UM","2018/02/15 08:49:35","新北市中和區秀朗路三段153巷13號","121.52534","24.9916383333333","6500300","中和區"
"235034","558-UM","2018/02/15 08:49:32","新北市中和區景平路630巷5號","121.50049","24.9982016666667","6500300","中和區"
"235009","565-BX","2018/02/15 08:49:32","新北市中和區景新街447號","121.513493333333","24.988705","6500300","中和區"
"235001","611-BX","2018/02/15 08:49:28","新北市中和區民享街86巷1號","121.474433333333","25.00093","6500300","中和區"
"235018","640-BX","2018/02/15 08:49:39","新北市中和區民享街32巷10號","121.47344","25.00334","6500300","中和區"
"235024","647-TV","2018/02/15 08:49:37","新北市中和區民有街35號","121.475826666667","25.00506","6500300","中和區"
"235011","732-UM","2018/02/15 08:49:46","新北市中和區景平路396號","121.509776666667","24.992915","6500300","中和區"
"235010","733-UM","2018/02/15 08:49:32","新北市中和區忠孝街2巷18號","121.510771666667","24.981215","6500300","中和區"
"235021","801-TS","2018/02/15 08:49:47","新北市中和區民安街25巷11號","121.480578333333","25.000295","6500300","中和區"
"235016","805-TS","2018/02/15 08:49:32","新北市中和區興南路二段345號","121.501253333333","24.980665","6500300","中和區"
"235012","896-TW","2018/02/15 08:49:47","新北市中和區華新街109巷11弄2-1號","121.508168333333","24.980055","6500300","中和區"
"235017","900-TW","2018/02/15 08:49:32","新北市中和區華安街19巷10號","121.467478333333","24.99782","6500300","中和區"
"235015","157-BY","2018/02/15 08:49:43","新北市中和區華新街143巷66號","121.506118333333","24.9792","6500300","中和區"
"235001","AAC-213","2018/02/15 08:49:39","新北市中和區自立路99巷36弄16號","121.523911666667","24.9941233333333","6500300","中和區"
"235023","AAC-215","2018/02/15 08:49:27","新北市中和區錦和路195巷1弄6號","121.491073333333","24.99103","6500300","中和區"
"220016","013-TV","2018/02/15 08:49:49","新北市板橋區翠華街6巷11號","121.480875","25.0240816666667","6500100","板橋區"
"220013","072-UY","2018/02/15 08:49:42","新北市板橋區海山路15號","121.469155","25.0091766666667","6500100","板橋區"
"220034","073-UY","2018/02/15 08:49:41","新北市板橋區大智街67號","121.453733333333","25.015555","6500100","板橋區"
"220105","075-UY","2018/02/15 08:49:35","新北市板橋區雙十路三段44-3號","121.471046666667","25.0311783333333","6500100","板橋區"
"220017","AAD-861","2018/02/15 08:49:42","新北市板橋區貴興路35號","121.457598333333","25.003945","6500100","板橋區"
"220039","120-SR","2018/02/15 08:49:39","新北市板橋區裕民街29號","121.461831666667","25.0288483333333","6500100","板橋區"
"247008","341-TH","2018/02/15 08:49:28","新北市蘆洲區中山一路176號","121.474195","25.081235","6501400","蘆洲區"
"247010","339-TH","2018/02/15 08:49:47","新北市蘆洲區信義路172號","121.479206666667","25.0839283333333","6501400","蘆洲區"
"247001","337-TH","2018/02/15 08:49:47","新北市蘆洲區永平街20號","121.459141666667","25.090675","6501400","蘆洲區"
"247003","336-TH","2018/02/15 08:49:39","新北市蘆洲區中原路23號","121.460425","25.0828933333333","6501400","蘆洲區"
"247015","057-VK","2018/02/15 08:49:39","新北市蘆洲區正和街10號","121.470266666667","25.08277","6501400","蘆洲區"
"247013","007-UY","2018/02/15 08:49:48","新北市蘆洲區三民路89號","121.474206666667","25.0846916666667","6501400","蘆洲區"
"247024","002-UY","2018/02/15 08:49:47","新北市蘆洲區長興路21號","121.464005","25.0832016666667","6501400","蘆洲區"
"226004","205-ST","2018/02/15 08:49:31","新北市平溪區十分里十分街66巷19號","121.774923333333","25.0427883333333","6502400","平溪區"
"226005","5620-A6","2018/02/15 08:49:34","新北市平溪區十分里十分街67號","121.776108333333","25.0417783333333","6502400","平溪區"
"226002","7418-A5","2018/02/15 08:49:37","新北市平溪區東勢里芊蓁坑22號","121.735826666667","24.9842733333333","6502400","平溪區"
"226003","AGD-0702","2018/02/15 08:49:47","新北市平溪區靜安路三段400號","121.784081666667","25.0506116666667","6502400","平溪區"
"223006","022-BY","2018/02/15 08:49:38","新北市石碇區石崁2-3號","121.652295","24.9996616666667","6501900","石碇區"
"223001","205-TH","2018/02/15 08:49:48","新北市石碇區北宜路六段塗潭巷27號","121.649473333333","24.93382","6501900","石碇區"
"235005","251-BX","2018/02/15 08:49:46","新北市中和區中安街32-1號","121.5132","25.002875","6500300","中和區"
"223008","406-TH","2018/02/15 08:49:45","新北市石碇區十八重溪68號","121.674045","25.0150083333333","6501900","石碇區"
"223001","592-UM","2018/02/15 08:49:33","新北市石碇區北宜路六段塗潭巷52號","121.65216","24.9350083333333","6501900","石碇區"
"223004","660-BX","2018/02/15 08:49:39","新北市石碇區碇坪路一段18號","121.651636666667","25.0057383333333","6501900","石碇區"
"223007","661-BX","2018/02/15 08:49:33","新北市石碇區碇南路二段松柏崎巷8號","121.675026666667","25.01903","6501900","石碇區"
"223005","677-TV","2018/02/15 08:49:35","新北市石碇區碇坪路一段18號","121.651795","25.00528","6501900","石碇區"
"224006","676-BX","2018/02/15 08:49:48","新北市瑞芳區傑魚坑路280號","121.787523333333","25.1066066666667","6501200","瑞芳區"
"224007","273-VK","2018/02/15 08:49:45","新北市瑞芳區大埔路160-3號","121.762078333333","25.1014316666667","6501200","瑞芳區"
"224005","271-BY","2018/02/15 08:49:43","新北市瑞芳區明里路54號","121.868488333333","25.12213","6501200","瑞芳區"
"253003","6232-TK","2018/02/15 08:49:37","新北市石門區尖子鹿50號","121.580401666667","25.2733416666667","6502200","石門區"
"253001","6251-TK","2018/02/15 08:49:46","新北市石門區八甲58-2號","121.52301","25.2737383333333","6502200","石門區"
"253002","637-UY","2018/02/15 08:49:37","新北市石門區九芎林43號","121.56632","25.25146","6502200","石門區"
"253004","8270-PC","2018/02/15 08:49:43","新北市石門區草埔尾28-1號","121.603453333333","25.2646966666667","6502200","石門區"
"251013","179-VK","2018/02/15 08:49:37","新北市淡水區泉洲厝23-1號","121.48825","25.192865","6501000","淡水區"
"251014","180-VK","2018/02/15 08:49:42","新北市淡水區義山路一段35號","121.437696666667","25.18779","6501000","淡水區"
"251008","181-VK","2018/02/15 08:49:34","新北市淡水區中正路32巷8號","121.430445","25.1753133333333","6501000","淡水區"
"251010","413-VK","2018/02/15 08:49:40","新北市淡水區新市二路三段16號","121.432373333333","25.1949516666667","6501000","淡水區"
"251012","441-VK","2018/02/15 08:49:38","新北市淡水區新興街117號","121.440393333333","25.18036","6501000","淡水區"
"251005","443-VK","2018/02/15 08:49:37","新北市淡水區中正路一段106號","121.423818333333","25.1779483333333","6501000","淡水區"
"251011","650-BX","2018/02/15 08:49:43","新北市淡水區中正路二段31號","121.419216666667","25.1819183333333","6501000","淡水區"
"251002","672-BX","2018/02/15 08:49:35","新北市淡水區中正路二段31號","121.419406666667","25.1815716666667","6501000","淡水區"
"207004","291-VK","2018/02/15 08:49:47","新北市萬里區萬里里獅頭路10-1號","121.692118333333","25.1787633333333","6502800","萬里區"
"207003","225-TW","2018/02/15 08:49:38","新北市萬里區野柳里港西路7號","121.685103333333","25.2034983333333","6502800","萬里區"
"252004","702-TV","2018/02/15 08:49:46","新北市三芝區圓山里內柑宅25號","121.538661666667","25.2183083333333","6502100","三芝區"
"252007","AAC-283","2018/02/15 08:49:42","新北市淡水區石頭厝6-1號","121.462516666667","25.2399066666667","6502100","三芝區"
"236009","165-UM","2018/02/15 08:49:46","新北市土城區金城路二段46巷12-1號","121.45421","24.9734666666667","6501300","土城區"
"236015","270-VK","2018/02/15 08:49:41","新北市土城區學府路一段202號","121.452795","24.985705","6501300","土城區"
"236038","271-VK","2018/02/15 08:49:36","新北市土城區明德路一段398-1號","121.453948333333","24.97873","6501300","土城區"
"236003","339-SR","2018/02/15 08:49:43","新北市土城區中央路三段42號","121.437226666667","24.967945","6501300","土城區"
"236005","498-BY","2018/02/15 08:49:42","新北市土城區承天路4巷10-1號","121.438116666667","24.9590633333333","6501300","土城區"
"242028","986-R7","2018/02/15 08:49:39","新北市新莊區中平路270巷5號","121.445355","25.0502916666667","6500500","新莊區"
"242049","751-BX","2018/02/15 08:49:45","新北市新莊區民安西路172巷2弄2號","121.425791666667","25.016","6500500","新莊區"
"242057","705-TV","2018/02/15 08:49:35","新北市新莊區中正路895-50號","121.411996666667","25.021805","6500500","新莊區"
"242024","615-BX","2018/02/15 08:49:30","新北市新莊區五工三路78巷9號","121.45918","25.065465","6500500","新莊區"
"242022","613-BX","2018/02/15 08:49:36","新北市新莊區化成路752-7號","121.465425","25.0581916666667","6500500","新莊區"
"242026","612-BX","2018/02/15 08:49:44","新北市新莊區中平路377巷17弄48號","121.443001666667","25.0516916666667","6500500","新莊區"
"242038","566-BX","2018/02/15 08:49:31","新北市新莊區民安西路38巷2號","121.427156666667","25.0209566666667","6500500","新莊區"
"242043","497-BY","2018/02/15 08:49:16","新北市新莊區龍安路59號","121.415745","25.0219133333333","6500500","新莊區"
"242047","441-UM","2018/02/15 08:49:45","新北市新莊區建安街121巷2號","121.426185","25.0237833333333","6500500","新莊區"
"242052","440-UM","2018/02/15 08:49:35","新北市新莊區民安西路375號","121.428725","25.0103216666667","6500500","新莊區"
"242033","415-TV","2018/02/15 08:49:42","新北市新莊區新泰路199巷20號","121.445645","25.0378916666667","6500500","新莊區"
"242003","413-TV","2018/02/15 08:49:31","新北市新莊區化成路118號","121.465311666667","25.044625","6500500","新莊區"
"242040","400-BY","2018/02/15 08:49:35","新北市新莊區天祥街92巷12號","121.41549","25.0299516666667","6500500","新莊區"
"242059","362-BY","2018/02/15 08:49:32","新北市新莊區龍安路527號","121.427538333333","25.0177883333333","6500500","新莊區"
"242006","132-UY","2018/02/15 08:49:41","新北市新莊區思源路593巷5弄21號","121.458293333333","25.05936","6500500","新莊區"
"242035","133-UY","2018/02/15 08:49:38","新北市新莊區建安街101巷4弄1號","121.427028333333","25.0237533333333","6500500","新莊區"
"242020","135-UY","2018/02/15 08:49:39","新北市新莊區中正路170號","121.45101","25.0359333333333","6500500","新莊區"
"242045","172-VK","2018/02/15 08:49:44","新北市新莊區裕民街19巷2弄1號","121.419645","25.0252816666667","6500500","新莊區"
"242008","173-VK","2018/02/15 08:49:44","新北市新莊區昌盛街35巷4弄4號","121.454263333333","25.0504516666667","6500500","新莊區"
"242014","175-VK","2018/02/15 08:49:40","新北市新莊區中平路152巷11號","121.445438333333","25.0474216666667","6500500","新莊區"
"242001","176-VK","2018/02/15 08:49:34","新北市新莊區中正路170號","121.450853333333","25.0360433333333","6500500","新莊區"
"242012","346-TH","2018/02/15 08:49:40","新北市新莊區中港路417巷7號","121.45174","25.0474716666667","6500500","新莊區"
"242018","348-TH","2018/02/15 08:49:42","新北市新莊區長青街37巷7號","121.456448333333","25.0418866666667","6500500","新莊區"
"242055","349-TH","2018/02/15 08:49:44","新北市新莊區瓊林路48號","121.446336666667","25.0288633333333","6500500","新莊區"
"242016","350-TH","2018/02/15 08:49:49","新北市新莊區中港二街96號","121.449175","25.04576","6500500","新莊區"
"242010","351-TH","2018/02/15 08:49:39","新北市新莊區中港路531巷8號","121.450865","25.0516183333333","6500500","新莊區"
"238002","755-BX","2018/02/15 08:49:30","新北市樹林區中山路三段89號","121.400141666667","24.9746566666667","6500700","樹林區"
"238010","601-UM","2018/02/15 08:49:33","新北市樹林區八德街228號","121.41391","24.97092","6500700","樹林區"
"238006","599-UM","2018/02/15 08:49:40","新北市樹林區八德街662號","121.396306666667","24.96905","6500700","樹林區"
"238008","KEA-2217","2018/02/15 08:49:41","新北市樹林區西圳街165巷20弄26號","121.395478333333","24.9600833333333","6500700","樹林區"
"238012","303-VK","2018/02/15 08:49:40","新北市樹林區東和街2號","121.405143333333","24.98024","6500700","樹林區"
"238017","283-BY","2018/02/15 08:49:42","新北市樹林區育德街78-1號","121.388075","24.9681666666667","6500700","樹林區"
"238001","282-BY","2018/02/15 08:49:45","新北市樹林區中山路三段125-9號","121.39771","24.973765","6500700","樹林區"
"238007","268-VK","2018/02/15 08:49:35","新北市樹林區中山路三段125-1號","121.39735","24.9731066666667","6500700","樹林區"
"238003","169-UY","2018/02/15 08:49:34","新北市樹林區中洲街3號","121.397355","24.9728833333333","6500700","樹林區"
"239007","AAC-297","2018/02/15 08:49:31","新北市鶯歌區鶯桃路100號","121.339198333333","24.954195","6500800","鶯歌區"
"239006","891-R6","2018/02/15 08:49:41","新北市鶯歌區鶯桃路413巷44號","121.330546666667","24.9634516666667","6500800","鶯歌區"
"239008","527-UM","2018/02/15 08:49:40","新北市鶯歌區香賓街21號","121.337491666667","24.97972","6500800","鶯歌區"
"239005","526-UM","2018/02/15 08:49:31","新北市鶯歌區鳳吉四街41號","121.327263333333","24.9731066666667","6500800","鶯歌區"
"239001","417-VK","2018/02/15 08:49:35","新北市鶯歌區中正三路446-3號","121.323518333333","24.9345916666667","6500800","鶯歌區"
"239003","360-BY","2018/02/15 08:49:32","新北市鶯歌區永吉街46巷5號","121.335303333333","24.957335","6500800","鶯歌區"
"239004","193-VK","2018/02/15 08:49:39","新北市鶯歌區文化路322-1號","121.352241666667","24.9461883333333","6500800","鶯歌區"
"221032","280-BY","2018/02/15 08:49:33","新北市汐止區大同路二段184巷13號","121.653695","25.063345","6501100","汐止區"
"220027","145-BY","2018/02/15 08:49:44","新北市板橋區民權路202巷7弄32號","121.458813333333","25.0150683333333","6500100","板橋區"
"220028","200-UY","2018/02/15 08:49:32","新北市板橋區大觀路二段力行3巷69-3號","121.44733","24.997555","6500100","板橋區"
"220050","245-BX","2018/02/15 08:49:37","新北市板橋區雙十路二段52號","121.4754","25.0277116666667","6500100","板橋區"
"220004","276-BY","2018/02/15 08:49:35","新北市板橋區信義路148號","121.458928333333","24.991855","6500100","板橋區"
"220020","277-BY","2018/02/15 08:49:47","新北市板橋區金門街222號","121.430983333333","24.987955","6500100","板橋區"
"220043","283-UM","2018/02/15 08:49:49","新北市板橋區光武街140號","121.465443333333","25.0301233333333","6500100","板橋區"
"220019","283-VK","2018/02/15 08:49:39","新北市板橋區重慶路327巷5號","121.464296666667","24.9985616666667","6500100","板橋區"
"220001","285-VK","2018/02/15 08:49:29","新北市板橋區懷仁街10巷26號","121.47498","25.019605","6500100","板橋區"
"220031","286-VK","2018/02/15 08:49:48","新北市板橋區龍興街101巷14號","121.44381","25.0034333333333","6500100","板橋區"
"220029","287-VK","2018/02/15 08:49:30","新北市板橋區光華街39巷2號","121.453571666667","25.0132316666667","6500100","板橋區"
"220009","293-UM","2018/02/15 08:49:38","新北市板橋區中山路二段273號","121.477655","25.0179833333333","6500100","板橋區"
"220032","296-UM","2018/02/15 08:49:35","新北市板橋區龍興街63巷2號","121.443061666667","25.0013983333333","6500100","板橋區"
"220010","303-R5","2018/02/15 08:49:40","新北市板橋區南雅東路100巷3號","121.453641666667","25.0079266666667","6500100","板橋區"
"220010","305-R5","2018/02/15 08:49:43","新北市板橋區三民路二段245巷69弄3號","121.481023333333","25.0128816666667","6500100","板橋區"
"220041","307-R5","2018/02/15 08:49:38","新北市板橋區文化路二段225巷60弄42號","121.469215","25.0293866666667","6500100","板橋區"
"220047","317-R6","2018/02/15 08:49:32","新北市板橋區自由路51巷16號","121.464848333333","25.02342","6500100","板橋區"
"220086","461-BY","2018/02/15 08:37:12","新北市板橋區華東街1-9號","121.448141666667","24.9948183333333","6500100","板橋區"
"220012","486-VK","2018/02/15 08:49:46","新北市板橋區板新路11號","121.475098333333","25.012645","6500100","板橋區"
"220038","487-VK","2018/02/15 08:49:45","新北市板橋區文化路二段19號","121.46881","25.0246283333333","6500100","板橋區"
"242030","280-VK","2018/02/15 08:49:39","新北市新莊區新泰路277巷57弄12號","121.443038333333","25.0398116666667","6500500","新莊區"
"220037","491-VK","2018/02/15 08:49:36","新北市板橋區文化路二段182巷3弄59號","121.472533333333","25.0289116666667","6500100","板橋區"
"220104","560-BX","2018/02/15 08:49:33","新北市板橋區中正路341巷34號","121.453756666667","25.0200916666667","6500100","板橋區"
"220052","561-BX","2018/02/15 08:49:38","新北市板橋區介壽街38號","121.468395","25.0198433333333","6500100","板橋區"
"220011","609-BX","2018/02/15 08:49:43","新北市板橋區三民路二段205-2號","121.479246666667","25.013275","6500100","板橋區"
"220040","637-BX","2018/02/15 08:49:47","新北市板橋區縣民大道247巷86號","121.482143333333","25.0269816666667","6500100","板橋區"
"220005","686-BX","2018/02/15 08:49:36","新北市板橋區重慶路300-1號","121.463813333333","24.9984316666667","6500100","板橋區"
"220042","689-BX","2018/02/15 08:49:28","新北市板橋區民生路二段236號","121.468223333333","25.02303","6500100","板橋區"
"220002","741-BX","2018/02/15 08:49:45","新北市板橋區重慶路67號","121.461975","25.0069783333333","6500100","板橋區"
"220051","KEA-2699","2018/02/15 08:49:43","新北市板橋區懷德街201巷30號","121.482326666667","25.0295866666667","6500100","板橋區"
"220003","827-TW","2018/02/15 08:49:33","新北市板橋區新民街7巷10號","121.463653333333","25.010215","6500100","板橋區"
"220014","829-TW","2018/02/15 08:49:39","新北市板橋區民享街116巷2號","121.477966666667","25.0157833333333","6500100","板橋區"
"220045","830-TW","2018/02/15 08:49:37","新北市板橋區大同街8巷41號","121.477805","25.0260616666667","6500100","板橋區"
"220022","895-R6","2018/02/15 08:49:31","新北市板橋區林園街52號","121.453658333333","25.01069","6500100","板橋區"
"220021","985-R7","2018/02/15 08:49:39","新北市板橋區館前西路154號","121.455283333333","25.0086016666667","6500100","板橋區"
"220046","AAC-210","2018/02/15 08:49:40","新北市板橋區公館街256號","121.45998","25.0213566666667","6500100","板橋區"
"220018","AAC-253","2018/02/15 08:49:46","新北市板橋區四川路一段256號","121.458995","25.0014416666667","6500100","板橋區"
