"lineid","car","time","location","longitude","latitude","cityid","cityname"
"234044","148-BY","2018/02/15 09:09:34","新北市永和區秀朗路二段171號","121.525571666667","25.0016233333333","6500400","永和區"
"234066","149-BY","2018/02/15 09:09:33","新北市永和區永和路一段1號","121.512921666667","25.0050733333333","6500400","永和區"
"234005","207-UY","2018/02/15 09:09:33","新北市永和區中山路一段30號","121.513553333333","25.01061","6500400","永和區"
"234078","298-R6","2018/02/15 09:09:26","新北市永和區永貞路39巷9弄1號","121.521943333333","25.0065533333333","6500400","永和區"
"234036","336-UY","2018/02/15 09:09:27","新北市永和區民樂街69巷2號","121.527351666667","24.9976933333333","6500400","永和區"
"234062","337-UY","2018/02/15 09:09:23","新北市永和區秀朗路一段138號","121.51792","25.0033933333333","6500400","永和區"
"234084","338-UY","2018/02/15 09:09:37","新北市永和區永寧街131巷1號","121.518061666667","25.0052616666667","6500400","永和區"
"234068","552-UM","2018/02/15 09:09:21","新北市永和區中興街100號","121.519043333333","25.0120983333333","6500400","永和區"
"234015","745-BX","2018/02/15 09:09:20","新北市永和區文化路90巷9弄2號","121.513815","25.0158316666667","6500400","永和區"
"234028","746-BX","2018/02/15 09:09:31","新北市永和區秀朗路二段289號","121.526125","24.9981233333333","6500400","永和區"
"234052","KEA-2590","2018/02/15 09:09:28","新北市永和區竹林路66巷22號","121.51743","25.01321","6500400","永和區"
"234012","KEA-2591","2018/02/15 09:09:21","新北市永和區信義路17巷22號","121.513123333333","25.0112216666667","6500400","永和區"
"234060","AAD-866","2018/02/15 09:09:26","新北市永和區秀朗路一段78-1號","121.515566666667","25.0057616666667","6500400","永和區"
"234040","862-TW","2018/02/15 09:09:18","新北市永和區保平路226號","121.509508333333","25.005725","6500400","永和區"
"234048","863-TW","2018/02/15 09:09:26","新北市永和區保福路二段150巷18號","121.510381666667","25.0151033333333","6500400","永和區"
"234025","9371-KE","2018/02/15 09:09:30","新北市永和區永和路一段45號","121.512936666667","25.0063383333333","6500400","永和區"
"234010","9373-KE","2018/02/15 09:09:30","新北市永和區文化路9巷22弄46號","121.514101666667","25.01458","6500400","永和區"
"249005","172-UM","2018/02/15 09:09:28","新北市八里區中華路三段169號","121.3924","25.12973","6502300","八里區"
"249001","173-UM","2018/02/15 09:09:29","新北市八里區龍米路一段282號","121.451638333333","25.129415","6502300","八里區"
"249004","303-UY","2018/02/15 09:09:26","新北市八里區文心街83號","121.427756666667","25.1610466666667","6502300","八里區"
"249003","593-UM","2018/02/15 09:09:18","新北市八里區華峰三街5號","121.400108333333","25.1464716666667","6502300","八里區"
"248005","077-UY","2018/02/15 09:09:19","新北市五股區中興路二段82號","121.460843333333","25.0772733333333","6501500","五股區"
"248017","225-UY","2018/02/15 09:09:21","新北市五股區御史路120-1號","121.437066666667","25.0966416666667","6501500","五股區"
"248005","653-BX","2018/02/15 09:09:26","新北市五股區水碓路24號","121.433345","25.0726483333333","6501500","五股區"
"248003","677-BX","2018/02/15 09:09:25","新北市五股區中興路四段42號","121.43834","25.0828433333333","6501500","五股區"
"234022","9380-KE","2018/02/15 09:09:21","新北市永和區竹林路119巷26號","121.521153333333","25.0117666666667","6500400","永和區"
"234076","969-R7","2018/02/15 09:09:23","新北市永和區中正路42巷6弄1號","121.513376666667","24.994115","6500400","永和區"
"234072","AAC-211","2018/02/15 09:09:00","新北市永和區福和路46號","121.523663333333","25.0082566666667","6500400","永和區"
"234001","AAC-295","2018/02/15 09:09:24","新北市永和區永和路一段180號","121.514358333333","25.0089383333333","6500400","永和區"
"244012","069-UM","2018/02/15 09:09:34","新北市林口區文化一路二段192號","121.382831666667","25.0803033333333","6501700","林口區"
"244006","080-UY","2018/02/15 09:09:33","新北市林口區林口路206號","121.387208333333","25.0833016666667","6501700","林口區"
"244003","248-BX","2018/02/15 09:09:22","新北市林口區嘉寶里11鄰18號","121.340346666667","25.1079233333333","6501700","林口區"
"244018","402-UM","2018/02/15 09:09:15","新北市林口區文化一路一段133號","121.373796666667","25.07172","6501700","林口區"
"244022","483-VK","2018/02/15 09:09:21","新北市林口區東湖路153巷135號","121.382216666667","25.07344","6501700","林口區"
"244016","485-VK","2018/02/15 09:09:32","新北市林口區公園路95號","121.368641666667","25.0697783333333","6501700","林口區"
"244008","657-BX","2018/02/15 09:09:33","新北市林口區福林路54號","121.379061666667","25.0888216666667","6501700","林口區"
"244010","701-TV","2018/02/15 09:09:24","新北市林口區興林路17巷5弄2號","121.390566666667","25.07707","6501700","林口區"
"244024","837-TS","2018/02/15 09:09:21","新北市林口區南勢街221巷24號","121.357655","25.0755416666667","6501700","林口區"
"244020","838-TS","2018/02/15 09:09:26","新北市林口區自強三街19號","121.397788333333","25.077685","6501700","林口區"
"243003","297-R6","2018/02/15 09:09:24","新北市泰山區明志路二段372巷2號","121.425403333333","25.0449666666667","6501600","泰山區"
"243006","421-VK","2018/02/15 09:09:23","新北市泰山區泰林路二段528號","121.42394","25.063895","6501600","泰山區"
"243004","539-UM","2018/02/15 09:09:27","新北市泰山區辭修路36巷8弄5號","121.427876666667","25.05867","6501600","泰山區"
"243002","KEA-2215","2018/02/15 09:09:23","新北市泰山區明志路一段479號","121.43091","25.0554666666667","6501600","泰山區"
"243001","KEA-2216","2018/02/15 09:09:32","新北市泰山區楓樹街15巷13號","121.434698333333","25.0630583333333","6501600","泰山區"
"243005","646-TV","2018/02/15 09:09:18","新北市泰山區明志路三段231巷2弄1號","121.42411","25.0376233333333","6501600","泰山區"
"243008","680-BX","2018/02/15 09:09:16","新北市泰山區明志路二段368號","121.425556666667","25.0448116666667","6501600","泰山區"
"222006","289-BY","2018/02/15 09:09:19","新北市深坑區北深路一段278巷32號","121.62823","25.012975","6501800","深坑區"
"222002","659-BX","2018/02/15 09:09:27","新北市深坑區文化街37號","121.61911","25.001385","6501800","深坑區"
"231061","047-UY","2018/02/15 09:09:28","新北市新店區安興路35號","121.516073333333","24.970845","6500600","新店區"
"231008","192-VK","2018/02/15 09:09:21","新北市新店區廣興路66巷3號","121.5388","24.9136533333333","6500600","新店區"
"231031","720-UM","2018/02/15 09:09:30","新北市新店區碧潭路24號","121.53423","24.9563466666667","6500600","新店區"
"241011","013-R5","2018/02/15 09:09:30","新北市三重區正義北路176號","121.496553333333","25.066675","6500200","三重區"
"241028","022-UY","2018/02/15 09:09:22","新北市三重區中正南路108號","121.494361666667","25.0585316666667","6500200","三重區"
"241008","059-VK","2018/02/15 09:09:33","新北市三重區永福街211巷2弄2號","121.47988","25.0741683333333","6500200","三重區"
"241009","060-VK","2018/02/15 09:09:24","新北市三重區仁愛街382號","121.49119","25.0807683333333","6500200","三重區"
"241031","061-VK","2018/02/15 09:09:21","新北市三重區新北大道一段3-1號","121.490688333333","25.0613883333333","6500200","三重區"
"241015","062-VK","2018/02/15 09:09:27","新北市三重區中央北路125-3號","121.499975","25.06799","6500200","三重區"
"241017","063-VK","2018/02/15 09:09:20","新北市三重區大仁街36巷9號","121.491278333333","25.0642066666667","6500200","三重區"
"241002","090-VK","2018/02/15 09:09:18","新北市三重區三賢街117號","121.487631666667","25.0883633333333","6500200","三重區"
"241005","262-UM","2018/02/15 09:09:35","新北市三重區集英路74號","121.485935","25.085575","6500200","三重區"
"241016","265-UM","2018/02/15 09:09:17","新北市三重區大智街23號","121.494218333333","25.0658816666667","6500200","三重區"
"241022","267-UM","2018/02/15 09:09:29","新北市三重區重陽路二段52巷85弄1號","121.483698333333","25.0659466666667","6500200","三重區"
"241013","270-UM","2018/02/15 09:09:23","新北市三重區安慶街45號","121.496286666667","25.069325","6500200","三重區"
"241007","398-BY","2018/02/15 09:09:28","新北市三重區仁愛街368號","121.49125","25.0806583333333","6500200","三重區"
"241020","413-TH","2018/02/15 09:09:30","新北市三重區力行路一段267號","121.482353333333","25.071295","6500200","三重區"
"241004","475-VK","2018/02/15 09:09:20","新北市三重區仁華街120號","121.486123333333","25.08311","6500200","三重區"
"241014","543-UM","2018/02/15 09:09:19","新北市三重區河邊北街58巷10號","121.504461666667","25.0676133333333","6500200","三重區"
"241001","547-UM","2018/02/15 09:09:28","新北市三重區仁愛街310號","121.49191","25.07954","6500200","三重區"
"241019","KEA-2593","2018/02/15 09:09:24","新北市三重區重陽路三段172號","121.490006666667","25.0678666666667","6500200","三重區"
"241006","AAD-863","2018/02/15 09:09:29","新北市三重區下竹圍街32號","121.481041666667","25.07525","6500200","三重區"
"241012","941-UM","2018/02/15 09:09:34","新北市三重區自強路一段62號","121.497306666667","25.066725","6500200","三重區"
"241029","942-UM","2018/02/15 09:09:30","新北市三重區大同南路218號","121.496845","25.0563133333333","6500200","三重區"
"241033","AAC-255","2018/02/15 09:09:19","新北市三重區重安街1號","121.489933333333","25.0582216666667","6500200","三重區"
"235030","003-UY","2018/02/15 09:09:20","新北市中和區廣福路64號","121.503475","25.00194","6500300","中和區"
"235028","005-UY","2018/02/15 09:09:29","新北市中和區連城路75巷2-11號","121.497721666667","24.9993416666667","6500300","中和區"
"235027","006-UY","2018/02/15 09:09:19","新北市中和區連勝街151號","121.49443","24.9963533333333","6500300","中和區"
"235020","096-UM","2018/02/15 09:09:24","新北市中和區員山路514巷16號","121.479558333333","25.0095533333333","6500300","中和區"
"235003","097-UM","2018/02/15 09:09:32","新北市中和區景平路3號","121.524025","24.9902483333333","6500300","中和區"
"235029","098-UM","2018/02/15 09:09:34","新北市中和區中山路二段187號","121.500443333333","25.0027633333333","6500300","中和區"
"235004","150-BY","2018/02/15 09:09:22","新北市中和區宜安路1巷22號","121.512608333333","24.9945566666667","6500300","中和區"
"235022","151-BY","2018/02/15 09:09:22","新北市中和區員山路126-2號","121.481425","24.9960183333333","6500300","中和區"
"235019","183-VK","2018/02/15 09:09:23","新北市中和區莒光路37巷5號","121.472518333333","25.0053233333333","6500300","中和區"
"235002","185-VK","2018/02/15 09:09:16","新北市中和區立人街33-3號","121.520838333333","24.9942433333333","6500300","中和區"
"235013","186-VK","2018/02/15 09:09:35","新北市中和區安平路17號","121.5092","24.9942216666667","6500300","中和區"
"235001","255-BX","2018/02/15 09:09:22","新北市中和區新生街148巷26號","121.482536666667","25.0008883333333","6500300","中和區"
"235008","293-VK","2018/02/15 09:09:33","新北市中和區捷運路69號","121.508738333333","24.9899066666667","6500300","中和區"
"235007","352-BY","2018/02/15 09:09:30","新北市中和區景平路298號","121.512755","24.9926616666667","6500300","中和區"
"235032","377-QA","2018/02/15 09:08:48","新北市中和區連勝街38巷28號","121.497613333333","24.9980516666667","6500300","中和區"
"235025","378-QA","2018/02/15 09:09:31","新北市中和區民治街128巷7號","121.47481","25.0027616666667","6500300","中和區"
"235035","269-TV","2018/02/15 09:09:29","新北市中和區中山路二段482巷9號","121.488266666667","25.0060433333333","6500300","中和區"
"235014","4979-A6","2018/02/15 09:09:30","新北市中和區復興路280巷18弄2號","121.502485","24.9915816666667","6500300","中和區"
"235033","4980-A6","2018/02/15 09:09:28","新北市中和區枋寮街4號","121.502335","24.9998266666667","6500300","中和區"
"235006","551-UM","2018/02/15 09:09:34","新北市中和區秀朗路三段128巷2號","121.524643333333","24.9924133333333","6500300","中和區"
"235034","558-UM","2018/02/15 09:09:32","新北市中和區連城路89巷50號","121.497688333333","24.99837","6500300","中和區"
"235009","565-BX","2018/02/15 09:09:32","新北市中和區景新街561號","121.51554","24.9864516666667","6500300","中和區"
"235001","611-BX","2018/02/15 09:09:28","新北市中和區華安街16巷12-1號","121.466288333333","24.9980116666667","6500300","中和區"
"235018","640-BX","2018/02/15 09:09:20","新北市中和區民享街37號","121.474021666667","25.0036016666667","6500300","中和區"
"235024","647-TV","2018/02/15 09:09:37","新北市中和區新生街112巷7號","121.483003333333","25.0025966666667","6500300","中和區"
"235011","732-UM","2018/02/15 09:09:25","新北市中和區和平街16號","121.50995","24.9901533333333","6500300","中和區"
"235010","733-UM","2018/02/15 09:09:32","新北市中和區景新街462號","121.513448333333","24.98739","6500300","中和區"
"235021","801-TS","2018/02/15 09:09:27","新北市中和區民利街68巷4號","121.478398333333","24.998785","6500300","中和區"
"235016","805-TS","2018/02/15 09:09:32","新北市中和區興南路二段242巷16號","121.50238","24.9831016666667","6500300","中和區"
"235012","896-TW","2018/02/15 09:09:27","新北市中和區四維街40號","121.512445","24.9870016666667","6500300","中和區"
"235017","900-TW","2018/02/15 09:09:32","新北市中和區民德路146巷5弄5號","121.468201666667","25.0002266666667","6500300","中和區"
"235015","157-BY","2018/02/15 09:09:23","新北市中和區忠孝街13號","121.5101","24.9828083333333","6500300","中和區"
"235001","AAC-213","2018/02/15 09:09:19","新北市中和區秀朗路三段50巷2-1號","121.525731666667","24.995495","6500300","中和區"
"235023","AAC-215","2018/02/15 09:09:27","新北市中和區錦和路171號","121.490763333333","24.9913466666667","6500300","中和區"
"220016","013-TV","2018/02/15 09:09:29","新北市板橋區萬安街25號","121.484438333333","25.022985","6500100","板橋區"
"220013","072-UY","2018/02/15 09:09:21","新北市板橋區國泰街111巷21號","121.465911666667","25.0057166666667","6500100","板橋區"
"220034","073-UY","2018/02/15 09:09:25","新北市板橋區中正路250巷100號","121.459233333333","25.019905","6500100","板橋區"
"220105","075-UY","2018/02/15 09:09:35","新北市板橋區文化路二段318號","121.472466666667","25.029995","6500100","板橋區"
"220017","AAD-861","2018/02/15 09:09:28","新北市板橋區華興街37號","121.458191666667","25.00468","6500100","板橋區"
"220039","120-SR","2018/02/15 09:09:29","新北市板橋區裕民街72號","121.460896666667","25.0284316666667","6500100","板橋區"
"247022","893-R6","2018/02/15 09:09:27","新北市蘆洲區中正路263巷9號","121.466853333333","25.0867466666667","6501400","蘆洲區"
"247012","546-UM","2018/02/15 09:09:34","新北市蘆洲區信義路268號","121.478123333333","25.0869016666667","6501400","蘆洲區"
"247020","500-BY","2018/02/15 09:09:34","新北市蘆洲區民族路422巷22-7號","121.474003333333","25.0926083333333","6501400","蘆洲區"
"247008","341-TH","2018/02/15 09:09:28","新北市蘆洲區信義路65號","121.47579","25.0795366666667","6501400","蘆洲區"
"247010","339-TH","2018/02/15 09:09:27","新北市蘆洲區三民路26巷31弄2號","121.476905","25.0830716666667","6501400","蘆洲區"
"247001","337-TH","2018/02/15 09:09:27","新北市蘆洲區永樂街30號","121.458388333333","25.0882683333333","6501400","蘆洲區"
"247003","336-TH","2018/02/15 09:09:19","新北市蘆洲區永安南路二段282號","121.457833333333","25.080975","6501400","蘆洲區"
"247015","057-VK","2018/02/15 09:09:19","新北市蘆洲區光華路73巷39號","121.46891","25.0816716666667","6501400","蘆洲區"
"247013","007-UY","2018/02/15 09:09:28","新北市蘆洲區中山二路36巷9號","121.474368333333","25.08277","6501400","蘆洲區"
"247024","002-UY","2018/02/15 09:09:27","新北市蘆洲區長興路35號","121.463416666667","25.083585","6501400","蘆洲區"
"247018","001-UY","2018/02/15 09:09:22","新北市蘆洲區復興路119號","121.477431666667","25.088295","6501400","蘆洲區"
"226004","205-ST","2018/02/15 09:09:30","新北市平溪區靜安路二段561號","121.748021666667","25.0249583333333","6502400","平溪區"
"226003","AGD-0702","2018/02/15 09:09:27","新北市平溪區十分里十分街246號","121.77755","25.0445333333333","6502400","平溪區"
"223006","022-BY","2018/02/15 09:09:18","新北市石碇區烏塗窟8號","121.655898333333","24.97504","6501900","石碇區"
"223001","205-TH","2018/02/15 09:09:29","新北市石碇區北宜路六段水底寮巷23號","121.663706666667","24.9418066666667","6501900","石碇區"
"235005","251-BX","2018/02/15 09:09:36","新北市中和區中安街178巷3弄5-2號","121.511015","24.99903","6500300","中和區"
"223008","406-TH","2018/02/15 09:09:25","新北市石碇區碇南路二段松柏崎巷53號","121.679153333333","25.026815","6501900","石碇區"
"223001","592-UM","2018/02/15 09:09:33","新北市石碇區北宜路六段水底寮巷7號","121.665165","24.9481533333333","6501900","石碇區"
"223004","660-BX","2018/02/15 09:09:18","新北市石碇區碇坪路一段39號","121.658225","24.9914383333333","6501900","石碇區"
"223007","661-BX","2018/02/15 09:09:33","新北市石碇區碇南路二段8-1號","121.66684","25.0310466666667","6501900","石碇區"
"223005","677-TV","2018/02/15 09:09:35","新北市石碇區碇坪路一段92號","121.658078333333","24.99143","6501900","石碇區"
"228004","212-TW","2018/02/15 09:09:16","新北市貢寮區貢寮里長泰路14號","121.907496666667","25.0195133333333","6502600","貢寮區"
"228002","585-TW","2018/02/15 09:09:34","新北市貢寮區貢寮里朝陽街120巷1號","121.908013333333","25.02281","6502600","貢寮區"
"224006","676-BX","2018/02/15 09:09:26","新北市瑞芳區一坑路34-1號","121.803705","25.109505","6501200","瑞芳區"
"224007","273-VK","2018/02/15 09:09:25","新北市瑞芳區中央路12號","121.761913333333","25.1037533333333","6501200","瑞芳區"
"224005","271-BY","2018/02/15 09:09:15","新北市瑞芳區鼻頭路185號","121.915573333333","25.123265","6501200","瑞芳區"
"253003","6232-TK","2018/02/15 09:09:31","新北市石門區內石門61號","121.577893333333","25.2660316666667","6502200","石門區"
"253001","6251-TK","2018/02/15 09:09:06","新北市石門區八甲43號","121.531688333333","25.2679516666667","6502200","石門區"
"253002","637-UY","2018/02/15 09:08:17","新北市石門區七股56號","121.552808333333","25.2562566666667","6502200","石門區"
"253004","8270-PC","2018/02/15 09:09:24","新北市石門區小坑51-1號","121.597736666667","25.25764","6502200","石門區"
"208002","KEA-2872","2018/02/15 09:09:35","新北市金山區三界壇路44號","121.62328","25.2290733333333","6502700","金山區"
"208003","665-BX","2018/02/15 09:09:33","新北市金山區磺港里磺港路314號","121.644546666667","25.2279083333333","6502700","金山區"
"208001","761-BX","2018/02/15 09:09:21","新北市金山區磺港里磺港路248號","121.643803333333","25.2250333333333","6502700","金山區"
"251009","008-UM","2018/02/15 09:09:29","新北市淡水區新生街108巷12號","121.439655","25.17424","6501000","淡水區"
"251004","009-UM","2018/02/15 09:09:37","新北市淡水區民權一街60號","121.459345","25.13625","6501000","淡水區"
"251013","179-VK","2018/02/15 09:09:17","新北市淡水區北新路三段171-1號","121.491653333333","25.1922416666667","6501000","淡水區"
"251014","180-VK","2018/02/15 09:09:22","新北市淡水區八里堆9-6號","121.465283333333","25.2245066666667","6501000","淡水區"
"251008","181-VK","2018/02/15 09:09:18","新北市淡水區民生路135巷37-1號","121.466945","25.1394966666667","6501000","淡水區"
"251015","182-VK","2018/02/15 09:09:19","新北市淡水區忠愛街4-1號","121.45912","25.1713733333333","6501000","淡水區"
"251010","413-VK","2018/02/15 09:09:19","新北市淡水區淡海路280巷33弄34-2號","121.418843333333","25.1887383333333","6501000","淡水區"
"251012","441-VK","2018/02/15 09:09:19","新北市淡水區北新路200巷6號","121.451556666667","25.1797516666667","6501000","淡水區"
"251016","442-VK","2018/02/15 09:09:23","新北市淡水區水頭42號","121.478336666667","25.1849666666667","6501000","淡水區"
"251005","443-VK","2018/02/15 09:09:17","新北市淡水區鄧公路33巷1號","121.451498333333","25.1710733333333","6501000","淡水區"
"251006","561-UM","2018/02/15 09:09:21","新北市淡水區大智街48號","121.442918333333","25.1742233333333","6501000","淡水區"
"251007","577-R6","2018/02/15 09:09:21","新北市淡水區中正東路二段141號","121.459621666667","25.147795","6501000","淡水區"
"251011","650-BX","2018/02/15 09:09:37","新北市淡水區坪頂路293號","121.472428333333","25.1621883333333","6501000","淡水區"
"251002","672-BX","2018/02/15 09:09:35","新北市淡水區中山路95巷2號","121.44216","25.1705916666667","6501000","淡水區"
"251003","766-UM","2018/02/15 09:09:27","新北市淡水區大忠街5巷1號","121.443045","25.1764116666667","6501000","淡水區"
"207004","291-VK","2018/02/15 09:09:28","新北市萬里區萬里里瑪鋉路4號","121.687548333333","25.1750733333333","6502800","萬里區"
"207003","225-TW","2018/02/15 09:09:19","新北市萬里區大鵬里頂社29號","121.656576666667","25.2107966666667","6502800","萬里區"
"252004","702-TV","2018/02/15 09:09:26","新北市三芝區橫山里橫山45號","121.53476","25.2572983333333","6502100","三芝區"
"252007","AAC-283","2018/02/15 09:09:29","新北市三芝區後厝里番子崙6-1號","121.488718333333","25.2392233333333","6502100","三芝區"
"237001","159-UY","2018/02/15 09:09:24","新北市三峽區大德路135號","121.375983333333","24.9446366666667","6500900","三峽區"
"237009","210-TH","2018/02/15 09:09:18","新北市三峽區大勇路3巷24號","121.367963333333","24.9368383333333","6500900","三峽區"
"237013","252-BX","2018/02/15 09:09:23","新北市三峽區愛國路22號","121.37434","24.9334783333333","6500900","三峽區"
"237012","275-BY","2018/02/15 09:09:27","新北市三峽區民生街44號","121.375426666667","24.9365183333333","6500900","三峽區"
"237008","302-VK","2018/02/15 09:09:19","新北市三峽區中園街82號","121.367786666667","24.9249316666667","6500900","三峽區"
"237015","649-BX","2018/02/15 09:06:59","新北市三峽區大同路198號","121.370621666667","24.9272116666667","6500900","三峽區"
"237010","706-TV","2018/02/15 09:09:16","新北市三峽區文化路212號","121.36887","24.9361216666667","6500900","三峽區"
"237005","AKY-6261","2018/02/15 09:09:24","新北市三峽區復興路237巷38號","121.369108333333","24.937855","6500900","三峽區"
"236009","165-UM","2018/02/15 09:09:26","新北市土城區中山路55號","121.422956666667","24.963465","6501300","土城區"
"236079","166-UM","2018/02/15 09:09:32","新北市土城區永和街5號","121.434568333333","24.9651183333333","6501300","土城區"
"236015","270-VK","2018/02/15 09:09:30","新北市土城區清水路234巷15弄3號","121.461775","24.982225","6501300","土城區"
"236038","271-VK","2018/02/15 09:09:36","新北市土城區青雲路483巷13弄1號","121.459898333333","24.9735283333333","6501300","土城區"
"236023","401-BY","2018/02/15 09:09:20","新北市土城區延吉街253巷18弄8號","121.467098333333","24.98399","6501300","土城區"
"236005","498-BY","2018/02/15 09:09:22","新北市土城區中央路三段116巷1號","121.43483","24.9663583333333","6501300","土城區"
"236054","AAC-216","2018/02/15 09:09:24","新北市土城區中華路一段164巷5號","121.441676666667","24.9834316666667","6501300","土城區"
"242028","986-R7","2018/02/15 09:09:19","新北市新莊區中原路325號","121.44641","25.0543983333333","6500500","新莊區"
"242049","751-BX","2018/02/15 09:09:25","新北市新莊區民安西路189巷22號","121.427005","25.0153","6500500","新莊區"
"242057","705-TV","2018/02/15 09:09:32","新北市新莊區八德街76號","121.424613333333","25.02194","6500500","新莊區"
"242024","615-BX","2018/02/15 09:09:29","新北市新莊區五工二路50巷23號","121.461731666667","25.0660916666667","6500500","新莊區"
"242022","613-BX","2018/02/15 09:09:16","新北市新莊區化成路59號","121.465488333333","25.0456783333333","6500500","新莊區"
"242026","612-BX","2018/02/15 09:09:24","新北市新莊區立信五街12巷1號","121.444145","25.051805","6500500","新莊區"
"242038","566-BX","2018/02/15 09:09:31","新北市新莊區民安西路71號","121.427305","25.019765","6500500","新莊區"
"242043","497-BY","2018/02/15 09:09:36","新北市新莊區萬壽路一段21巷17弄4號","121.410936666667","25.020435","6500500","新莊區"
"242047","441-UM","2018/02/15 09:09:25","新北市新莊區四維路180號","121.422173333333","25.0217566666667","6500500","新莊區"
"242052","440-UM","2018/02/15 09:09:35","新北市新莊區西盛街388巷1號","121.427525","25.0129066666667","6500500","新莊區"
"242033","415-TV","2018/02/15 09:09:22","新北市新莊區建中街137號","121.44513","25.036485","6500500","新莊區"
"242003","413-TV","2018/02/15 09:09:31","新北市新莊區福美街16號","121.461031666667","25.0533116666667","6500500","新莊區"
"242040","400-BY","2018/02/15 09:09:35","新北市新莊區青山路一段58號","121.409471666667","25.027745","6500500","新莊區"
"242059","362-BY","2018/02/15 09:09:32","新北市新莊區瓊泰路1號","121.445108333333","25.0285866666667","6500500","新莊區"
"242006","132-UY","2018/02/15 09:09:31","新北市新莊區福壽街124巷34弄2號","121.459246666667","25.0513516666667","6500500","新莊區"
"242035","133-UY","2018/02/15 09:09:38","新北市新莊區後港一路130巷41號","121.429988333333","25.0258533333333","6500500","新莊區"
"242020","135-UY","2018/02/15 09:09:19","新北市新莊區建中街28號","121.449008333333","25.0375966666667","6500500","新莊區"
"242045","172-VK","2018/02/15 09:09:24","新北市新莊區裕民街83號","121.418493333333","25.0237683333333","6500500","新莊區"
"242008","173-VK","2018/02/15 09:08:47","新北市新莊區昌盛街105-6號","121.456465","25.050025","6500500","新莊區"
"242014","175-VK","2018/02/15 09:09:20","新北市新莊區泰安街46號","121.446926666667","25.042455","6500500","新莊區"
"242001","176-VK","2018/02/15 09:09:34","新北市新莊區中正路48-3號","121.463811666667","25.0411166666667","6500500","新莊區"
"242012","346-TH","2018/02/15 09:09:20","新北市新莊區中和街186巷7號","121.447873333333","25.0499266666667","6500500","新莊區"
"242018","348-TH","2018/02/15 09:09:21","新北市新莊區思源路129巷18號","121.458658333333","25.0430566666667","6500500","新莊區"
"242055","349-TH","2018/02/15 09:09:24","新北市新莊區新豐街20巷12號","121.448056666667","25.0346183333333","6500500","新莊區"
"242016","350-TH","2018/02/15 09:09:29","新北市新莊區新泰路357巷3弄1號","121.442435","25.0415816666667","6500500","新莊區"
"242010","351-TH","2018/02/15 09:09:26","新北市新莊區中信街35號","121.45037","25.05077","6500500","新莊區"
"238002","755-BX","2018/02/15 09:09:13","新北市樹林區樹德街122號","121.419411666667","24.99292","6500700","樹林區"
"238010","601-UM","2018/02/15 09:09:33","新北市樹林區中正路433-1號","121.414925","25.0080633333333","6500700","樹林區"
"238006","599-UM","2018/02/15 09:09:21","新北市樹林區太平路93號","121.419095","24.9812816666667","6500700","樹林區"
"238018","571-TV","2018/02/15 09:09:24","新北市樹林區鎮前街269巷16號","121.419786666667","24.9853","6500700","樹林區"
"238011","5061-A6","2018/02/15 09:09:25","新北市樹林區保安二街8-1號","121.425085","24.9941416666667","6500700","樹林區"
"238008","KEA-2217","2018/02/15 09:09:21","新北市樹林區民權街7號","121.395795","24.95725","6500700","樹林區"
"238012","303-VK","2018/02/15 09:09:20","新北市樹林區保安街二段49號","121.416025","25.0002066666667","6500700","樹林區"
"238017","283-BY","2018/02/15 09:09:23","新北市樹林區光武街7-3號","121.415761666667","25.0054216666667","6500700","樹林區"
"238001","282-BY","2018/02/15 09:09:25","新北市樹林區長壽街70巷31弄11號","121.42135","24.9948683333333","6500700","樹林區"
"238007","268-VK","2018/02/15 09:09:15","新北市樹林區千歲街103號","121.428503333333","25.0009466666667","6500700","樹林區"
"238013","172-UY","2018/02/15 09:09:29","新北市樹林區新興街19巷34弄26號","121.402233333333","24.972635","6500700","樹林區"
"238003","169-UY","2018/02/15 09:09:34","新北市樹林區育英街67號","121.420558333333","24.9893183333333","6500700","樹林區"
"239007","AAC-297","2018/02/15 09:09:31","新北市鶯歌區育英街69號","121.347235","24.9520333333333","6500800","鶯歌區"
"239006","891-R6","2018/02/15 09:09:21","新北市鶯歌區鶯桃路365巷8號","121.33319","24.962965","6500800","鶯歌區"
"239008","527-UM","2018/02/15 09:09:25","新北市鶯歌區朝陽街53巷1號","121.337906666667","24.9780733333333","6500800","鶯歌區"
"239005","526-UM","2018/02/15 09:09:31","新北市鶯歌區鶯桃路668巷74-1號","121.329911666667","24.9717383333333","6500800","鶯歌區"
"239001","417-VK","2018/02/15 09:09:35","新北市鶯歌區國中街11號","121.342128333333","24.9431366666667","6500800","鶯歌區"
"239003","360-BY","2018/02/15 09:09:31","新北市鶯歌區福安街32巷18號","121.334998333333","24.963725","6500800","鶯歌區"
"239004","193-VK","2018/02/15 09:09:19","新北市鶯歌區尖山路137巷5弄2衖22號","121.347566666667","24.94792","6500800","鶯歌區"
"221032","280-BY","2018/02/15 09:09:33","新北市汐止區水源路一段56號","121.657391666667","25.06561","6501100","汐止區"
"220027","145-BY","2018/02/15 09:09:30","新北市板橋區民權路302巷12號","121.45769","25.0163983333333","6500100","板橋區"
"220028","200-UY","2018/02/15 09:09:33","新北市板橋區大觀路二段3巷5號","121.447568333333","25.00381","6500100","板橋區"
"220050","245-BX","2018/02/15 09:09:17","新北市板橋區莊敬路208巷4弄8號","121.471361666667","25.02135","6500100","板橋區"
"220004","276-BY","2018/02/15 09:09:35","新北市板橋區信義路173號","121.4589","24.992025","6500100","板橋區"
"220043","283-UM","2018/02/15 09:09:21","新北市板橋區吳鳳路50巷53弄1號","121.46911","25.030695","6500100","板橋區"
"220019","283-VK","2018/02/15 09:09:19","新北市板橋區忠孝路24巷24號","121.460208333333","25.0008666666667","6500100","板橋區"
"220001","285-VK","2018/02/15 09:09:29","新北市板橋區富山街102號","121.476245","25.0220483333333","6500100","板橋區"
"220031","286-VK","2018/02/15 09:09:34","新北市板橋區龍興街73巷13號","121.443228333333","25.002265","6500100","板橋區"
"220029","287-VK","2018/02/15 09:09:33","新北市板橋區南雅西路一段112號","121.452858333333","25.0063983333333","6500100","板橋區"
"220009","293-UM","2018/02/15 09:09:23","新北市板橋區成功路6巷41號","121.476443333333","25.0174916666667","6500100","板橋區"
"220032","296-UM","2018/02/15 09:09:34","新北市板橋區滿平街110巷14號","121.427936666667","24.9882716666667","6500100","板橋區"
"220010","303-R5","2018/02/15 09:09:20","新北市板橋區倉後街1-5號","121.455551666667","25.0090483333333","6500100","板橋區"
"220010","305-R5","2018/02/15 09:09:23","新北市板橋區三民路二段153巷28號","121.480846666667","25.0150583333333","6500100","板橋區"
"220041","307-R5","2018/02/15 09:09:18","新北市板橋區松江街20號","121.469001666667","25.026555","6500100","板橋區"
"220047","317-R6","2018/02/15 09:09:32","新北市板橋區四維路266巷5弄18號","121.463586666667","25.0291416666667","6500100","板橋區"
"220012","486-VK","2018/02/15 09:09:32","新北市板橋區館前東路53號","121.461271666667","25.007475","6500100","板橋區"
"220038","487-VK","2018/02/15 09:09:25","新北市板橋區雨農路19號","121.461655","25.0244733333333","6500100","板橋區"
"242030","280-VK","2018/02/15 09:09:22","新北市新莊區公園一路141號","121.446448333333","25.0382883333333","6500500","新莊區"
"220037","491-VK","2018/02/15 09:09:24","新北市板橋區雙十路二段37-1號","121.476778333333","25.0258116666667","6500100","板橋區"
"220104","560-BX","2018/02/15 09:09:33","新北市板橋區中正路433巷27號","121.453266666667","25.0236966666667","6500100","板橋區"
"220052","561-BX","2018/02/15 09:09:32","新北市板橋區文化路一段339號","121.466618333333","25.020705","6500100","板橋區"
"220011","609-BX","2018/02/15 09:03:11","新北市板橋區三民路二段251-1號","121.478985","25.0118983333333","6500100","板橋區"
"220040","637-BX","2018/02/15 09:09:27","新北市板橋區文聖街149巷25號","121.4795","25.0286083333333","6500100","板橋區"
"220005","686-BX","2018/02/15 09:09:16","新北市中和區和平路252號","121.46483","24.9972433333333","6500100","板橋區"
"220042","689-BX","2018/02/15 09:09:28","新北市板橋區英士路51號","121.461016666667","25.0245983333333","6500100","板橋區"
"220002","741-BX","2018/02/15 09:09:25","新北市板橋區光明街1號","121.460063333333","25.0026266666667","6500100","板橋區"
"220051","KEA-2699","2018/02/15 09:09:23","新北市板橋區文化路二段410巷2弄22-2號","121.47409","25.030425","6500100","板橋區"
"220003","827-TW","2018/02/15 09:09:33","新北市板橋區重慶路278巷15號","121.462413333333","24.9996083333333","6500100","板橋區"
"220014","829-TW","2018/02/15 09:09:15","新北市板橋區長安街138巷7弄57號","121.47409","25.0093566666667","6500100","板橋區"
"220045","830-TW","2018/02/15 09:09:17","新北市板橋區莊敬路162號","121.47123","25.0225","6500100","板橋區"
"220022","895-R6","2018/02/15 09:09:31","新北市板橋區中正路自強新村56號","121.454765","25.0135433333333","6500100","板橋區"
"220021","985-R7","2018/02/15 09:09:29","新北市板橋區中正路271號","121.455621666667","25.0187316666667","6500100","板橋區"
"220046","AAC-210","2018/02/15 09:09:20","新北市板橋區漢生西路157號","121.463241666667","25.0232583333333","6500100","板橋區"
"220018","AAC-253","2018/02/15 09:09:24","新北市板橋區忠孝路132巷1號","121.463463333333","25.0022733333333","6500100","板橋區"
