"lineid","car","time","location","longitude","latitude","cityid","cityname"
"234044","148-BY","2018/02/15 09:49:34","新北市永和區秀朗路二段97號","121.52336","25.00172","6500400","永和區"
"234066","149-BY","2018/02/15 09:49:33","新北市永和區保平路190號","121.510456666667","25.0064733333333","6500400","永和區"
"234005","207-UY","2018/02/15 09:49:33","新北市永和區永和路一段202號","121.514275","25.0092716666667","6500400","永和區"
"234078","298-R6","2018/02/15 09:49:40","新北市永和區永亨路100號","121.523118333333","25.0049066666667","6500400","永和區"
"234036","336-UY","2018/02/15 09:49:47","新北市永和區環河東路四段20號","121.528515","24.9996533333333","6500400","永和區"
"234062","337-UY","2018/02/15 09:49:45","新北市永和區中正路368巷1弄69號","121.520151666667","25.0008433333333","6500400","永和區"
"234084","338-UY","2018/02/15 09:49:32","新北市永和區永亨路165巷1-4號","121.526146666667","25.0042433333333","6500400","永和區"
"234068","552-UM","2018/02/15 09:49:41","新北市永和區中興街37號","121.516276666667","25.0118266666667","6500400","永和區"
"234015","745-BX","2018/02/15 09:49:40","新北市永和區忠孝街34巷12弄7號","121.514958333333","25.01678","6500400","永和區"
"234028","746-BX","2018/02/15 09:49:36","新北市永和區民權路1巷16號","121.521145","24.9981766666667","6500400","永和區"
"234052","KEA-2590","2018/02/15 09:49:48","新北市永和區竹林路67巷14號","121.518975","25.01377","6500400","永和區"
"234012","KEA-2591","2018/02/15 09:49:41","新北市永和區永平路306號","121.507173333333","25.01244","6500400","永和區"
"234060","AAD-866","2018/02/15 09:49:46","新北市永和區中正路164號","121.515051666667","24.996635","6500400","永和區"
"234040","862-TW","2018/02/15 09:49:38","新北市永和區中和路389巷5號","121.507981666667","25.0005416666667","6500400","永和區"
"234048","863-TW","2018/02/15 09:49:46","新北市永和區環河西路一段111號","121.511008333333","25.0172633333333","6500400","永和區"
"234025","9371-KE","2018/02/15 09:49:34","新北市永和區和平街101號","121.511241666667","25.0099316666667","6500400","永和區"
"234010","9373-KE","2018/02/15 09:49:30","新北市永和區信義路25巷38號","121.512276666667","25.011615","6500400","永和區"
"249005","172-UM","2018/02/15 09:49:28","新北市八里區長坑口38-3號","121.389066666667","25.1287816666667","6502300","八里區"
"249001","173-UM","2018/02/15 09:49:49","新北市八里區中華路二段145號","121.408613333333","25.151745","6502300","八里區"
"249004","303-UY","2018/02/15 09:47:46","新北市八里區中山路一段217巷38號","121.411085","25.1562983333333","6502300","八里區"
"249002","305-UY","2018/02/15 09:47:55","新北市八里區龍形二街2號","121.450708333333","25.1313416666667","6502300","八里區"
"249003","593-UM","2018/02/15 09:49:48","新北市八里區華峰一街16號","121.39942","25.14691","6502300","八里區"
"248017","225-UY","2018/02/15 09:49:41","新北市五股區民義路二段46-2號","121.413895","25.1014966666667","6501500","五股區"
"248005","653-BX","2018/02/15 09:49:46","新北市五股區成泰路一段98巷77號","121.452385","25.0804633333333","6501500","五股區"
"248003","677-BX","2018/02/15 09:49:45","新北市五股區民義路二段32-1號","121.418685","25.0977883333333","6501500","五股區"
"234022","9380-KE","2018/02/15 09:49:41","新北市永和區竹林路91巷21弄9號","121.520811666667","25.0125666666667","6500400","永和區"
"234076","969-R7","2018/02/15 09:49:45","新北市永和區得和路211號","121.519181666667","25.0001733333333","6500400","永和區"
"234072","AAC-211","2018/02/15 09:49:20","新北市永和區竹林路179巷35號","121.52216","25.0103016666667","6500400","永和區"
"234001","AAC-295","2018/02/15 09:49:44","新北市永和區永和路一段21號","121.512921666667","25.00567","6500400","永和區"
"244012","069-UM","2018/02/15 09:49:34","新北市林口區麗園一街11巷1號","121.377025","25.0704016666667","6501700","林口區"
"244006","080-UY","2018/02/15 09:49:33","新北市林口區太平嶺3-8號","121.378018333333","25.1123466666667","6501700","林口區"
"244003","248-BX","2018/02/15 09:49:42","新北市林口區下福里13鄰157號","121.302371666667","25.1147216666667","6501700","林口區"
"244018","402-UM","2018/02/15 09:49:35","新北市林口區麗園二街23巷76號","121.380538333333","25.0698016666667","6501700","林口區"
"244022","483-VK","2018/02/15 09:49:41","新北市林口區文化三路二段211巷85號","121.375115","25.0841066666667","6501700","林口區"
"244008","657-BX","2018/02/15 09:49:33","新北市林口區竹林路358巷5號","121.391993333333","25.0842133333333","6501700","林口區"
"244010","701-TV","2018/02/15 09:49:44","新北市林口區中山路185-1號","121.388025","25.0789183333333","6501700","林口區"
"243003","297-R6","2018/02/15 09:49:44","新北市泰山區明志路三段196巷37號","121.421933333333","25.0397866666667","6501600","泰山區"
"243007","380-SR","2018/02/15 09:49:46","新北市泰山區明志路一段233號","121.43266","25.0608916666667","6501600","泰山區"
"243006","421-VK","2018/02/15 09:49:43","新北市泰山區明志路一段24號","121.433576666667","25.0654416666667","6501600","泰山區"
"243004","539-UM","2018/02/15 09:49:47","新北市泰山區楓江路21號","121.434066666667","25.0624783333333","6501600","泰山區"
"243002","KEA-2215","2018/02/15 09:49:37","新北市泰山區明志路二段136巷16號","121.426705","25.0514166666667","6501600","泰山區"
"243001","KEA-2216","2018/02/15 09:49:32","新北市泰山區楓江路16巷11號","121.433883333333","25.0619016666667","6501600","泰山區"
"243005","646-TV","2018/02/15 09:49:38","新北市泰山區明志路三段74巷10號","121.424433333333","25.0417716666667","6501600","泰山區"
"243008","680-BX","2018/02/15 09:49:36","新北市泰山區明志路三段237號","121.42364","25.0377766666667","6501600","泰山區"
"222006","289-BY","2018/02/15 09:49:39","新北市深坑區文山路二段26號","121.619488333333","24.99973","6501800","深坑區"
"222002","659-BX","2018/02/15 09:49:47","新北市深坑區文山路一段35號","121.628046666667","25.0027266666667","6501800","深坑區"
"231061","047-UY","2018/02/15 09:49:47","新北市新店區安民街346號","121.516933333333","24.9755133333333","6500600","新店區"
"231008","192-VK","2018/02/15 09:49:40","新北市新店區平廣路一段111號","121.528525","24.8963216666667","6500600","新店區"
"231031","720-UM","2018/02/15 09:49:30","新北市新店區安康路二段382-2號","121.50037","24.957305","6500600","新店區"
"241011","013-R5","2018/02/15 09:49:30","新北市三重區龍濱路192號","121.500925","25.0731316666667","6500200","三重區"
"241028","022-UY","2018/02/15 09:49:42","新北市三重區仁化街120號","121.494475","25.0581083333333","6500200","三重區"
"241008","059-VK","2018/02/15 09:49:33","新北市三重區永安北路一段3巷20號","121.476828333333","25.074535","6500200","三重區"
"241009","060-VK","2018/02/15 09:49:46","新北市三重區三和路四段203巷272號","121.48764","25.0811666666667","6500200","三重區"
"241031","061-VK","2018/02/15 09:49:45","新北市三重區過圳街7巷36號","121.490363333333","25.0598283333333","6500200","三重區"
"241015","062-VK","2018/02/15 09:49:47","新北市三重區長安街45號","121.499718333333","25.0670316666667","6500200","三重區"
"241017","063-VK","2018/02/15 09:49:40","新北市三重區中正北路25巷6號","121.49334","25.062815","6500200","三重區"
"241026","066-VK","2018/02/15 09:49:42","新北市三重區大同南路62號","121.496251666667","25.0597633333333","6500200","三重區"
"241002","090-VK","2018/02/15 09:49:38","新北市三重區仁義街241巷26號","121.496863333333","25.0831133333333","6500200","三重區"
"241005","262-UM","2018/02/15 09:49:35","新北市三重區仁華街60號","121.483978333333","25.0829216666667","6500200","三重區"
"241016","265-UM","2018/02/15 09:49:39","新北市三重區大仁街60號","121.4922","25.0650533333333","6500200","三重區"
"241022","267-UM","2018/02/15 09:49:29","新北市三重區貴陽街29號","121.48438","25.0621183333333","6500200","三重區"
"241018","268-UM","2018/02/15 09:49:38","新北市三重區安樂街67號","121.494985","25.0694083333333","6500200","三重區"
"241013","270-UM","2018/02/15 09:49:43","新北市三重區仁昌街61-1號","121.49746","25.074035","6500200","三重區"
"241007","398-BY","2018/02/15 09:49:47","新北市三重區三和路四段167巷86號","121.485273333333","25.07949","6500200","三重區"
"241020","413-TH","2018/02/15 09:49:30","新北市三重區後竹圍街205巷8號","121.484768333333","25.0718466666667","6500200","三重區"
"241024","462-BY","2018/02/15 09:49:35","新北市三重區文化北路6-2號","121.499605","25.0635433333333","6500200","三重區"
"241004","475-VK","2018/02/15 09:49:40","新北市三重區仁愛街397巷6號","121.491235","25.0810833333333","6500200","三重區"
"241030","480-VK","2018/02/15 09:49:34","新北市三重區成功路39號","121.489755","25.0506583333333","6500200","三重區"
"241014","543-UM","2018/02/15 09:49:39","新北市三重區長榮路67號","121.50218","25.0689566666667","6500200","三重區"
"241001","547-UM","2018/02/15 09:49:48","新北市三重區仁愛街269巷41號","121.49415","25.0793266666667","6500200","三重區"
"241019","KEA-2593","2018/02/15 09:49:44","新北市三重區自強路二段74巷73號","121.486945","25.0692933333333","6500200","三重區"
"241006","AAD-863","2018/02/15 09:49:50","新北市三重區車路頭街138-4號","121.483761666667","25.0755033333333","6500200","三重區"
"241012","941-UM","2018/02/15 09:49:34","新北市三重區河邊北街329號","121.502255","25.0752033333333","6500200","三重區"
"241029","942-UM","2018/02/15 09:49:30","新北市三重區集美街126巷28號","121.490095","25.0539183333333","6500200","三重區"
"241033","AAC-255","2018/02/15 09:49:39","新北市三重區五谷王南街11巷17弄1號","121.472648333333","25.0446066666667","6500200","三重區"
"235030","003-UY","2018/02/15 09:49:41","新北市中和區中山路二段22號","121.50476","25.0054366666667","6500300","中和區"
"235028","005-UY","2018/02/15 09:49:48","新北市中和區南山路81巷19號","121.502566666667","24.99809","6500300","中和區"
"235020","096-UM","2018/02/15 09:49:44","新北市中和區中山路三段144號","121.473675","25.006255","6500300","中和區"
"235003","097-UM","2018/02/15 09:49:39","新北市中和區大勇街25巷40號","121.51554","24.9939666666667","6500300","中和區"
"235029","098-UM","2018/02/15 09:49:33","新北市中和區景平路989巷1-1號","121.495888333333","25.0053966666667","6500300","中和區"
"235004","150-BY","2018/02/15 09:49:42","新北市中和區保健路26巷29號","121.508938333333","24.9970816666667","6500300","中和區"
"235001","255-BX","2018/02/15 09:49:43","新北市三重區光復路二段143巷11號","121.474773333333","25.059645","6500300","中和區"
"235008","293-VK","2018/02/15 09:49:33","新北市中和區中興街115巷11號","121.500595","24.9920283333333","6500300","中和區"
"235007","352-BY","2018/02/15 09:49:30","新北市中和區興南路二段159巷1號","121.505226666667","24.9832416666667","6500300","中和區"
"235032","377-QA","2018/02/15 09:49:28","新北市新店區薏仁坑路自強巷1號","121.497721666667","24.957","6500300","中和區"
"235025","378-QA","2018/02/15 09:49:31","新北市中和區民利街61巷15號","121.478788333333","24.9981816666667","6500300","中和區"
"235035","269-TV","2018/02/15 09:49:29","新北市中和區連城路270號","121.484701666667","24.996285","6500300","中和區"
"235014","4979-A6","2018/02/15 09:49:40","新北市中和區景平路241巷84弄54號","121.506101666667","24.9923616666667","6500300","中和區"
"235006","551-UM","2018/02/15 09:49:34","新北市新店區安和路三段175號","121.515718333333","24.9863066666667","6500300","中和區"
"235034","558-UM","2018/02/15 09:49:32","新北市中和區中正路368號","121.493026666667","24.9943","6500300","中和區"
"235018","640-BX","2018/02/15 09:49:43","新北市中和區莒光路49號","121.47217","25.0046283333333","6500300","中和區"
"235021","801-TS","2018/02/15 09:49:46","新北市中和區員山路153-1號","121.481106666667","24.9963933333333","6500300","中和區"
"235016","805-TS","2018/02/15 09:49:32","新北市中和區華新街142號","121.507945","24.9825933333333","6500300","中和區"
"235012","896-TW","2018/02/15 09:49:27","新北市中和區景新街368號","121.51205","24.9904566666667","6500300","中和區"
"235015","157-BY","2018/02/15 09:49:43","新北市中和區中興街132巷6號","121.49933","24.9920716666667","6500300","中和區"
"235001","AAC-213","2018/02/15 09:49:39","新北市中和區秀朗路三段173-2號","121.524421666667","24.991455","6500300","中和區"
"235023","AAC-215","2018/02/15 09:49:47","新北市中和區圓通路367巷13弄29-8號","121.493238333333","24.988275","6500300","中和區"
"220016","013-TV","2018/02/15 09:49:29","新北市板橋區光復街234-1號","121.484588333333","25.02151","6500100","板橋區"
"220034","073-UY","2018/02/15 09:49:41","新北市板橋區南雅西路二段40號","121.452956666667","25.0100633333333","6500100","板橋區"
"220105","075-UY","2018/02/15 09:49:35","新北市板橋區文化路二段263巷12號","121.470995","25.0294533333333","6500100","板橋區"
"220017","AAD-861","2018/02/15 09:49:37","新北市板橋區大明街13號","121.458933333333","25.0025516666667","6500100","板橋區"
"220039","120-SR","2018/02/15 09:49:38","新北市板橋區幸福路32巷65號","121.460338333333","25.0222216666667","6500100","板橋區"
"247022","893-R6","2018/02/15 09:49:47","新北市蘆洲區水湳街97號","121.470198333333","25.0903183333333","6501400","蘆洲區"
"247012","546-UM","2018/02/15 09:49:31","新北市蘆洲區民族路184號","121.479936666667","25.0869166666667","6501400","蘆洲區"
"247020","500-BY","2018/02/15 09:49:33","新北市蘆洲區仁愛街102-7號","121.469853333333","25.094885","6501400","蘆洲區"
"247008","341-TH","2018/02/15 09:49:28","新北市蘆洲區民生街131巷12號","121.472418333333","25.0789133333333","6501400","蘆洲區"
"247010","339-TH","2018/02/15 09:49:27","新北市蘆洲區民族路31-9號","121.477775","25.0851583333333","6501400","蘆洲區"
"247001","337-TH","2018/02/15 09:49:47","新北市蘆洲區永平街32巷11弄27號","121.457878333333","25.0918333333333","6501400","蘆洲區"
"247003","336-TH","2018/02/15 09:49:39","新北市蘆洲區長安街172巷35弄15號","121.460256666667","25.0845916666667","6501400","蘆洲區"
"247015","057-VK","2018/02/15 09:49:39","新北市蘆洲區中正路185巷23弄24號","121.46751","25.0839816666667","6501400","蘆洲區"
"247006","056-VK","2018/02/15 09:49:50","新北市蘆洲區長安街44號","121.46342","25.0796916666667","6501400","蘆洲區"
"247013","007-UY","2018/02/15 09:49:48","新北市蘆洲區保和街69巷18號","121.469696666667","25.0852616666667","6501400","蘆洲區"
"247024","002-UY","2018/02/15 09:49:47","新北市蘆洲區光明路30號","121.461726666667","25.0868583333333","6501400","蘆洲區"
"247018","001-UY","2018/02/15 09:49:42","新北市蘆洲區復興路173號","121.478633333333","25.0891833333333","6501400","蘆洲區"
"223001","205-TH","2018/02/15 09:49:29","新北市石碇區北宜路四段10號","121.615218333333","24.9610233333333","6501900","石碇區"
"235005","251-BX","2018/02/15 09:49:36","新北市中和區中和路362號","121.510471666667","25.0018983333333","6500300","中和區"
"223008","406-TH","2018/02/15 09:49:29","新北市石碇區靜安路一段365號","121.701403333333","25.0178483333333","6501900","石碇區"
"223004","660-BX","2018/02/15 09:49:39","新北市石碇區碇坪路二段71號","121.685461666667","24.9653516666667","6501900","石碇區"
"223007","661-BX","2018/02/15 09:49:33","新北市石碇區頭7號","121.707565","24.99762","6501900","石碇區"
"223005","677-TV","2018/02/15 09:49:02","新北市石碇區碇坪路二段71號","121.68558","24.9652333333333","6501900","石碇區"
"228004","212-TW","2018/02/15 09:49:36","新北市貢寮區吉林里內寮街20-1號","121.889813333333","24.9947883333333","6502600","貢寮區"
"228002","585-TW","2018/02/15 09:49:34","新北市貢寮區福隆里外隆林街15-2號","121.958653333333","25.003765","6502600","貢寮區"
"224005","271-BY","2018/02/15 09:49:35","新北市瑞芳區深澳路6-1號","121.816885","25.1291","6501200","瑞芳區"
"253003","6232-TK","2018/02/15 09:49:31","新北市石門區尖子鹿116-1號","121.574958333333","25.2972266666667","6502200","石門區"
"253001","6251-TK","2018/02/15 09:49:46","新北市石門區崁子腳53-3號","121.536326666667","25.2821766666667","6502200","石門區"
"253002","637-UY","2018/02/15 09:49:37","新北市三芝區橫山里橫山31-1號","121.544216666667","25.2578683333333","6502200","石門區"
"253004","8270-PC","2018/02/15 09:49:43","新北市石門區內阿里磅37-2號","121.580435","25.237665","6502200","石門區"
"208002","KEA-2872","2018/02/15 09:49:41","新北市金山區龜子山路15-1號","121.639253333333","25.2181716666667","6502700","金山區"
"208003","665-BX","2018/02/15 09:49:33","新北市金山區中山路393號","121.633456666667","25.22527","6502700","金山區"
"208001","761-BX","2018/02/15 09:49:38","新北市金山區文化三路46號","121.63503","25.2250533333333","6502700","金山區"
"251009","008-UM","2018/02/15 09:49:49","新北市淡水區中山北路一段217號","121.444426666667","25.1792016666667","6501000","淡水區"
"251004","009-UM","2018/02/15 09:49:37","新北市淡水區民權路185-10號","121.459333333333","25.1335916666667","6501000","淡水區"
"251013","179-VK","2018/02/15 09:49:37","新北市淡水區泉洲厝31號","121.479358333333","25.1909983333333","6501000","淡水區"
"251014","180-VK","2018/02/15 09:49:42","新北市淡水區南平14號","121.485435","25.220965","6501000","淡水區"
"251008","181-VK","2018/02/15 09:49:38","新北市淡水區八勢路30巷19號","121.462628333333","25.1531933333333","6501000","淡水區"
"251015","182-VK","2018/02/15 09:49:39","新北市淡水區樹林口12號","121.478785","25.1678083333333","6501000","淡水區"
"251010","413-VK","2018/02/15 09:49:40","新北市淡水區沙崙路25巷12號","121.421226666667","25.1818483333333","6501000","淡水區"
"251012","441-VK","2018/02/15 09:49:38","新北市淡水區新興街8號","121.44376","25.1804733333333","6501000","淡水區"
"251016","442-VK","2018/02/15 09:49:44","新北市淡水區淡金路四段496號","121.452123333333","25.2254016666667","6501000","淡水區"
"251005","443-VK","2018/02/15 09:49:36","新北市淡水區水源街一段29號","121.44318","25.1724633333333","6501000","淡水區"
"251001","559-UM","2018/02/15 09:49:41","新北市淡水區自強路209號","121.463705","25.1264466666667","6501000","淡水區"
"251006","561-UM","2018/02/15 09:49:40","新北市淡水區真理街3巷1號","121.436806666667","25.1744383333333","6501000","淡水區"
"251007","577-R6","2018/02/15 09:49:41","新北市淡水區民權路22號","121.459903333333","25.1377283333333","6501000","淡水區"
"251011","650-BX","2018/02/15 09:49:43","新北市淡水區坪頂路55號","121.458521666667","25.1627683333333","6501000","淡水區"
"251002","672-BX","2018/02/15 09:49:34","新北市淡水區中正東路一段3巷14弄1號","121.450911666667","25.1641933333333","6501000","淡水區"
"251003","766-UM","2018/02/15 09:49:47","新北市淡水區北新路69巷26號","121.446758333333","25.1800466666667","6501000","淡水區"
"207004","291-VK","2018/02/15 09:49:48","新北市萬里區北基里孝六街5號","121.68328","25.1759766666667","6502800","萬里區"
"207003","225-TW","2018/02/15 09:49:38","新北市萬里區大鵬里萬里加投68-6號","121.642448333333","25.21539","6502800","萬里區"
"252004","702-TV","2018/02/15 09:49:46","新北市三芝區埔坪里埔頭坑150號","121.51052","25.2496133333333","6502100","三芝區"
"252007","AAC-283","2018/02/15 09:49:29","新北市三芝區古庄里四棧橋18號","121.489965","25.2604183333333","6502100","三芝區"
"237007","153-BY","2018/02/15 09:49:38","新北市三峽區中正路三段242號","121.34167","24.9020716666667","6500900","三峽區"
"237001","159-UY","2018/02/15 09:49:44","新北市三峽區國學街43號","121.372666666667","24.9426383333333","6500900","三峽區"
"237009","210-TH","2018/02/15 09:49:38","新北市三峽區大同路270巷19號","121.365256666667","24.9260233333333","6500900","三峽區"
"237013","252-BX","2018/02/15 09:49:43","新北市三峽區永安街9巷18號","121.376973333333","24.9299633333333","6500900","三峽區"
"237012","275-BY","2018/02/15 09:49:47","新北市三峽區三樹路350號","121.384291666667","24.9429283333333","6500900","三峽區"
"237008","302-VK","2018/02/15 09:49:39","新北市三峽區白雞68-119號","121.391633333333","24.9082116666667","6500900","三峽區"
"237006","5529-G3","2018/02/15 09:49:38","新北市三峽區溪東路439號","121.412723333333","24.92842","6500900","三峽區"
"237015","649-BX","2018/02/15 09:49:39","新北市三峽區竹崙路155號","121.43463","24.9066883333333","6500900","三峽區"
"237010","706-TV","2018/02/15 09:49:36","新北市三峽區復興路451號","121.362498333333","24.93855","6500900","三峽區"
"237005","AKY-6261","2018/02/15 09:49:44","新北市三峽區復興路367巷1弄13號","121.36409","24.9381416666667","6500900","三峽區"
"236079","166-UM","2018/02/15 09:49:37","新北市土城區頂埔街6號","121.416735","24.9584233333333","6501300","土城區"
"236015","270-VK","2018/02/15 09:49:41","新北市土城區廣福街5號","121.457235","24.9888333333333","6501300","土城區"
"236038","271-VK","2018/02/15 09:49:36","新北市土城區仁愛路2號","121.45981","24.98126","6501300","土城區"
"236003","339-SR","2018/02/15 09:49:43","新北市土城區明德路二段66號","121.44783","24.983335","6501300","土城區"
"236023","401-BY","2018/02/15 09:49:45","新北市土城區延吉街217巷11弄3號","121.469066666667","24.9844433333333","6501300","土城區"
"236005","498-BY","2018/02/15 09:49:42","新北市土城區福祥街30號","121.441111666667","24.9805383333333","6501300","土城區"
"236054","AAC-216","2018/02/15 09:49:43","新北市土城區學府路一段212號","121.45232","24.98533","6501300","土城區"
"242028","986-R7","2018/02/15 09:49:38","新北市新莊區中華路二段95號","121.452666666667","25.0495133333333","6500500","新莊區"
"242057","705-TV","2018/02/15 09:49:32","新北市新莊區四維路170號","121.422496666667","25.022075","6500500","新莊區"
"242043","497-BY","2018/02/15 09:49:45","新北市新莊區龍安路74號","121.417116666667","25.020945","6500500","新莊區"
"242047","441-UM","2018/02/15 09:49:45","新北市板橋區金門街215巷90號","121.433603333333","24.98564","6500500","新莊區"
"242040","400-BY","2018/02/15 09:49:47","新北市新莊區天祥街35號","121.417155","25.028575","6500500","新莊區"
"242059","362-BY","2018/02/15 09:49:32","新北市新莊區環漢路三段532號","121.435196666667","25.000545","6500500","新莊區"
"242035","133-UY","2018/02/15 09:49:38","新北市新莊區中正路475號","121.441473333333","25.0338183333333","6500500","新莊區"
"242020","135-UY","2018/02/15 09:49:39","新北市新莊區公園路100號","121.450668333333","25.0400116666667","6500500","新莊區"
"242055","349-TH","2018/02/15 09:49:44","新北市新莊區新莊路751巷87號","121.442793333333","25.0307116666667","6500500","新莊區"
"238002","755-BX","2018/02/15 09:49:30","新北市樹林區文化街79巷1號","121.416856666667","24.98911","6500700","樹林區"
"238010","601-UM","2018/02/15 09:49:33","新北市樹林區工興街14巷2號","121.398956666667","25.0136083333333","6500700","樹林區"
"238006","599-UM","2018/02/15 09:49:48","新北市樹林區國凱街65號","121.421993333333","24.97979","6500700","樹林區"
"238018","571-TV","2018/02/15 09:49:44","新北市樹林區鎮前街148號","121.42452","24.990385","6500700","樹林區"
"238011","5061-A6","2018/02/15 09:49:45","新北市樹林區太順街79巷5號","121.4171","24.9781516666667","6500700","樹林區"
"238008","KEA-2217","2018/02/15 09:49:45","新北市樹林區柑園街二段153號","121.381933333333","24.9541066666667","6500700","樹林區"
"238012","303-VK","2018/02/15 09:49:39","新北市樹林區保安街一段73號","121.422808333333","24.995035","6500700","樹林區"
"238017","283-BY","2018/02/15 09:49:42","新北市樹林區中正路714號","121.409163333333","25.0178183333333","6500700","樹林區"
"238001","282-BY","2018/02/15 09:49:44","新北市樹林區潭興街22號","121.425225","24.998795","6500700","樹林區"
"238007","268-VK","2018/02/15 09:49:35","新北市樹林區三龍街144號","121.41684","25.0182933333333","6500700","樹林區"
"238013","172-UY","2018/02/15 09:49:29","新北市樹林區佳園路一段75巷18-1號","121.39426","24.97033","6500700","樹林區"
"238003","169-UY","2018/02/15 09:49:34","新北市樹林區文化街23號","121.419311666667","24.987565","6500700","樹林區"
"239007","AAC-297","2018/02/15 09:49:31","新北市鶯歌區中正一路395-3號","121.35899","24.9570816666667","6500800","鶯歌區"
"239006","891-R6","2018/02/15 09:49:44","新北市鶯歌區鶯桃路296巷84弄31號","121.337476666667","24.9613233333333","6500800","鶯歌區"
"239008","527-UM","2018/02/15 09:49:40","新北市鶯歌區晨曦街17號","121.337608333333","24.9765583333333","6500800","鶯歌區"
"239005","526-UM","2018/02/15 09:49:31","新北市鶯歌區鳳吉一街34號","121.325831666667","24.973805","6500800","鶯歌區"
"239001","417-VK","2018/02/15 09:49:35","新北市鶯歌區鶯桃路35-1號","121.343016666667","24.95068","6500800","鶯歌區"
"239003","360-BY","2018/02/15 09:49:31","新北市鶯歌區鶯桃路496號","121.33201","24.966","6500800","鶯歌區"
"239004","193-VK","2018/02/15 09:49:39","新北市鶯歌區中正三路247巷62號","121.333416666667","24.9370666666667","6500800","鶯歌區"
"221032","280-BY","2018/02/15 09:49:33","新北市汐止區大同路二段184巷8號","121.65311","25.0641083333333","6501100","汐止區"
"220027","145-BY","2018/02/15 09:49:44","新北市板橋區建國街54巷29號","121.459921666667","25.01712","6500100","板橋區"
"220050","245-BX","2018/02/15 09:49:37","新北市板橋區莒光路171巷1弄18-4號","121.474465","25.0246766666667","6500100","板橋區"
"220004","276-BY","2018/02/15 09:49:34","新北市板橋區四川路二段99巷4弄2號","121.452806666667","24.9942266666667","6500100","板橋區"
"220020","277-BY","2018/02/15 09:49:43","新北市板橋區篤行路二段141巷3號","121.430108333333","24.9881566666667","6500100","板橋區"
"220043","283-UM","2018/02/15 09:49:41","新北市板橋區光武街35-3號","121.467753333333","25.0252016666667","6500100","板橋區"
"220019","283-VK","2018/02/15 09:49:50","新北市板橋區廣權路133號","121.465648333333","24.99341","6500100","板橋區"
"220001","285-VK","2018/02/15 09:49:29","新北市板橋區永豐街157號","121.475346666667","25.0203333333333","6500100","板橋區"
"220031","286-VK","2018/02/15 09:49:28","新北市板橋區僑中二街22號","121.446028333333","25.0106866666667","6500100","板橋區"
"220029","287-VK","2018/02/15 09:49:30","新北市板橋區大觀路一段28巷104號","121.450101666667","25.0111833333333","6500100","板橋區"
"220009","293-UM","2018/02/15 09:49:38","新北市板橋區四川路一段274巷1-1號","121.458613333333","25.00117","6500100","板橋區"
"220032","296-UM","2018/02/15 09:49:36","新北市板橋區板林路158號","121.42441","24.98778","6500100","板橋區"
"220010","303-R5","2018/02/15 09:49:40","新北市板橋區中正路214號","121.45592","25.01827","6500100","板橋區"
"220010","305-R5","2018/02/15 09:49:43","新北市板橋區中山路二段613號","121.485636666667","25.0223816666667","6500100","板橋區"
"220041","307-R5","2018/02/15 09:49:44","新北市板橋區四維路269巷94弄18號","121.459405","25.02696","6500100","板橋區"
"220047","317-R6","2018/02/15 09:49:32","新北市板橋區新海路135巷29號","121.46007","25.0230233333333","6500100","板橋區"
"220012","486-VK","2018/02/15 09:49:46","新北市板橋區中山路一段206巷137號","121.472898333333","25.0132633333333","6500100","板橋區"
"220038","487-VK","2018/02/15 09:49:45","新北市板橋區互助街68號","121.461021666667","25.0267083333333","6500100","板橋區"
"242030","280-VK","2018/02/15 09:49:39","新北市新莊區三和路60-18號","121.437753333333","25.0416116666667","6500500","新莊區"
"220037","491-VK","2018/02/15 09:49:36","新北市板橋區仁化街150號","121.477603333333","25.0330933333333","6500100","板橋區"
"220104","560-BX","2018/02/15 09:49:33","新北市板橋區新生街29巷4弄8號","121.456926666667","25.0215983333333","6500100","板橋區"
"220052","561-BX","2018/02/15 09:49:32","新北市板橋區漢生西路1號","121.463961666667","25.01794","6500100","板橋區"
"220011","609-BX","2018/02/15 09:49:33","新北市板橋區三民路一段199號","121.479386666667","25.0189533333333","6500100","板橋區"
"220040","637-BX","2018/02/15 09:49:27","新北市板橋區懷德街174巷12號","121.478893333333","25.0296183333333","6500100","板橋區"
"220042","689-BX","2018/02/15 09:49:48","新北市板橋區長江路二段108號","121.465166666667","25.031415","6500100","板橋區"
"220002","741-BX","2018/02/15 09:49:45","新北市板橋區忠孝路忠義巷3弄14號","121.465395","25.00393","6500100","板橋區"
"220051","KEA-2699","2018/02/15 09:49:43","新北市板橋區縣民大道三段155號","121.478673333333","25.0241583333333","6500100","板橋區"
"220003","827-TW","2018/02/15 09:49:33","新北市板橋區忠孝路48巷11弄5號","121.461575","24.9998233333333","6500100","板橋區"
"220014","829-TW","2018/02/15 09:49:35","新北市板橋區漢生東路193巷40號","121.472513333333","25.0117516666667","6500100","板橋區"
"220045","830-TW","2018/02/15 09:49:37","新北市板橋區莒光路159巷5號","121.47345","25.0242483333333","6500100","板橋區"
"220022","895-R6","2018/02/15 09:47:51","新北市板橋區文化路一段38號","121.459461666667","25.0118433333333","6500100","板橋區"
"220021","985-R7","2018/02/15 09:49:49","新北市板橋區大仁街13號","121.455751666667","25.016895","6500100","板橋區"
"220046","AAC-210","2018/02/15 09:49:40","新北市板橋區光正街23巷2號","121.462103333333","25.01699","6500100","板橋區"
"220018","AAC-253","2018/02/15 09:49:44","新北市板橋區四川路一段140號","121.459958333333","25.003695","6500100","板橋區"
