"lineid","car","time","location","longitude","latitude","cityid","cityname"
"234044","148-BY","2018/02/15 10:29:34","新北市永和區成功路一段26號","121.527038333333","25.0047583333333","6500400","永和區"
"234066","149-BY","2018/02/15 10:29:33","新北市永和區保平路236巷10號","121.508731666667","25.0062383333333","6500400","永和區"
"234005","207-UY","2018/02/15 10:29:33","新北市永和區永貞路372號","121.509986666667","25.0067533333333","6500400","永和區"
"234078","298-R6","2018/02/15 10:29:31","新北市永和區永貞路25號","121.521055","25.0068716666667","6500400","永和區"
"234036","336-UY","2018/02/15 10:29:27","新北市永和區民樂街31巷17弄6號","121.528451666667","25.0019","6500400","永和區"
"234062","337-UY","2018/02/15 10:29:23","新北市永和區永利路92號","121.520721666667","25.0036383333333","6500400","永和區"
"234084","338-UY","2018/02/15 10:29:32","新北市永和區光復街21號","121.516441666667","25.0173766666667","6500400","永和區"
"234068","552-UM","2018/02/15 10:29:21","新北市永和區永安街7巷2號","121.518878333333","25.0061766666667","6500400","永和區"
"234028","746-BX","2018/02/15 10:29:30","新北市永和區民生路22巷14號","121.521863333333","24.9972883333333","6500400","永和區"
"234052","KEA-2590","2018/02/15 10:29:34","新北市永和區光復街2巷29號","121.51737","25.016705","6500400","永和區"
"234060","AAD-866","2018/02/15 10:29:26","新北市永和區得和路45巷16弄3號","121.516088333333","25.0007983333333","6500400","永和區"
"234040","862-TW","2018/02/15 10:29:21","新北市永和區保平路203巷37號","121.509545","25.0043816666667","6500400","永和區"
"234048","863-TW","2018/02/15 10:29:38","新北市永和區新生路18號","121.508951666667","25.0164683333333","6500400","永和區"
"234025","9371-KE","2018/02/15 10:29:30","新北市中和區安樂路145號","121.514438333333","24.9968766666667","6500400","永和區"
"249001","173-UM","2018/02/15 10:29:31","新北市八里區中山路三段241號","121.381428333333","25.14094","6502300","八里區"
"249002","305-UY","2018/02/15 10:29:35","新北市五股區成泰路四段44號","121.455881666667","25.1101283333333","6502300","八里區"
"248017","225-UY","2018/02/15 10:29:21","新北市五股區壟路7-3號","121.416133333333","25.0893466666667","6501500","五股區"
"248005","653-BX","2018/02/15 10:29:26","新北市五股區新五路二段119-10號","121.437876666667","25.0787016666667","6501500","五股區"
"248003","677-BX","2018/02/15 10:29:29","新北市五股區成泰路一段194-1號","121.435596666667","25.0779633333333","6501500","五股區"
"234022","9380-KE","2018/02/15 10:29:21","新北市永和區永和路二段116號","121.51507","25.012025","6500400","永和區"
"234076","969-R7","2018/02/15 10:29:11","新北市永和區民有街75巷10弄5號","121.518515","24.9961733333333","6500400","永和區"
"234072","AAC-211","2018/02/15 10:29:34","新北市永和區豫溪街191巷7弄23號","121.523228333333","25.0109933333333","6500400","永和區"
"234001","AAC-295","2018/02/15 10:29:24","新北市永和區自強街2號","121.514203333333","25.0080233333333","6500400","永和區"
"244003","248-BX","2018/02/15 10:29:22","新北市林口區瑞平里10鄰44號","121.335561666667","25.1226766666667","6501700","林口區"
"244018","402-UM","2018/02/15 10:29:35","新北市林口區文化二路一段551號","121.374681666667","25.07689","6501700","林口區"
"244022","483-VK","2018/02/15 10:29:21","新北市林口區文化三路一段555巷2-99號","121.370011666667","25.0759433333333","6501700","林口區"
"244010","701-TV","2018/02/15 10:29:24","新北市林口區汕頭32號","121.366343333333","25.134705","6501700","林口區"
"243001","KEA-2216","2018/02/15 10:29:32","新北市泰山區泰林路二段2-2號","121.419306666667","25.0651983333333","6501600","泰山區"
"222006","289-BY","2018/02/15 10:29:19","新北市深坑區王軍寮2-1號","121.618711666667","24.9853983333333","6501800","深坑區"
"222002","659-BX","2018/02/15 10:29:27","新北市深坑區北深路二段121號","121.616621666667","25.003095","6501800","深坑區"
"231061","047-UY","2018/02/15 10:29:33","新北市新店區永安街28-2號","121.517465","24.9865333333333","6500600","新店區"
"231008","192-VK","2018/02/15 10:29:20","新北市新店區小坑一路22號","121.53239","24.914045","6500600","新店區"
"231031","720-UM","2018/02/15 10:29:30","新北市新店區和成街15巷31號","121.488791666667","24.947175","6500600","新店區"
"241011","013-R5","2018/02/15 10:29:30","新北市三重區河邊北街110巷5號","121.503763333333","25.0710916666667","6500200","三重區"
"241009","060-VK","2018/02/15 10:29:24","新北市三重區溪尾街242巷25號","121.486931666667","25.0818183333333","6500200","三重區"
"241015","062-VK","2018/02/15 10:29:27","新北市三重區三和路一段5號","121.503963333333","25.0644533333333","6500200","三重區"
"241017","063-VK","2018/02/15 10:29:20","新北市三重區大同北路30號","121.495321666667","25.0624966666667","6500200","三重區"
"241026","066-VK","2018/02/15 10:29:22","新北市三重區和平街43號","121.501611666667","25.06255","6500200","三重區"
"241002","090-VK","2018/02/15 10:29:38","新北市三重區自強路五段1號","121.492025","25.0801333333333","6500200","三重區"
"241003","156-TC","2018/02/15 10:29:28","新北市三重區碧華街406號","121.491895","25.0849866666667","6500200","三重區"
"241005","262-UM","2018/02/15 10:29:35","新北市三重區福隆路18號","121.491483333333","25.07793","6500200","三重區"
"241016","265-UM","2018/02/15 10:29:37","新北市三重區正德街41巷6號","121.496078333333","25.062855","6500200","三重區"
"241022","267-UM","2018/02/15 10:29:29","新北市三重區三民街153號","121.484266666667","25.0644016666667","6500200","三重區"
"241018","268-UM","2018/02/15 10:29:38","新北市三重區民生東街2號","121.492503333333","25.0681833333333","6500200","三重區"
"241032","269-UM","2018/02/15 10:29:38","新北市五股區中興路三段5號","121.449325","25.079735","6500200","三重區"
"241013","270-UM","2018/02/15 10:29:23","新北市三重區仁愛街127號","121.4955","25.0748383333333","6500200","三重區"
"241007","398-BY","2018/02/15 10:29:27","新北市三重區三和路四段145巷94號","121.486716666667","25.07897","6500200","三重區"
"241024","462-BY","2018/02/15 10:29:35","新北市三重區後竹圍街175巷31號","121.485818333333","25.0733416666667","6500200","三重區"
"241030","480-VK","2018/02/15 10:29:34","新北市三重區新興路5號","121.492783333333","25.053085","6500200","三重區"
"241014","543-UM","2018/02/15 10:29:39","新北市三重區長元街98巷18弄1號","121.502405","25.06767","6500200","三重區"
"241001","547-UM","2018/02/15 10:29:28","新北市三重區三和路四段91號","121.488823333333","25.0756316666667","6500200","三重區"
"241019","KEA-2593","2018/02/15 10:29:24","新北市三重區力行路一段89巷3號","121.486643333333","25.0683116666667","6500200","三重區"
"241006","AAD-863","2018/02/15 10:29:29","新北市三重區三和路四段262號","121.485763333333","25.0771333333333","6500200","三重區"
"241012","941-UM","2018/02/15 10:29:34","新北市三重區仁興街33巷1號","121.499283333333","25.0753983333333","6500200","三重區"
"241029","942-UM","2018/02/15 10:29:30","新北市三重區重安街41巷13號","121.49081","25.0563616666667","6500200","三重區"
"241033","AAC-255","2018/02/15 10:29:19","新北市三重區中興北街235號","121.469028333333","25.0588633333333","6500200","三重區"
"235030","003-UY","2018/02/15 10:29:20","新北市新店區安和路三段169號","121.516083333333","24.9860333333333","6500300","中和區"
"235008","293-VK","2018/02/15 10:29:33","新北市中和區捷運路79號","121.508511666667","24.99005","6500300","中和區"
"235032","377-QA","2018/02/15 10:28:08","新北市中和區永和路8巷23弄7號","121.500626666667","25.0037916666667","6500300","中和區"
"235014","4979-A6","2018/02/15 10:29:20","新北市中和區景平路464巷2弄1-4號","121.505851666667","24.9939633333333","6500300","中和區"
"235033","4980-A6","2018/02/15 10:29:28","新北市中和區中正路446號","121.49099","24.9943283333333","6500300","中和區"
"235006","551-UM","2018/02/15 10:29:34","新北市中和區景安路79巷37弄16-7號","121.50836","24.9960283333333","6500300","中和區"
"220105","075-UY","2018/02/15 10:29:35","新北市板橋區仁化街137號","121.47734","25.0328633333333","6500100","板橋區"
"247022","893-R6","2018/02/15 10:29:27","新北市蘆洲區中正路262號","121.465546666667","25.08969","6501400","蘆洲區"
"247012","546-UM","2018/02/15 10:29:31","新北市蘆洲區集賢路224巷37弄1號","121.480716666667","25.0880566666667","6501400","蘆洲區"
"247008","341-TH","2018/02/15 10:29:28","新北市蘆洲區中山一路61巷34號","121.477323333333","25.0807383333333","6501400","蘆洲區"
"247010","339-TH","2018/02/15 10:29:27","新北市三重區集賢路188號","121.483945","25.087995","6501400","蘆洲區"
"247003","336-TH","2018/02/15 10:29:39","新北市蘆洲區長安街285巷5弄1號","121.457985","25.0842516666667","6501400","蘆洲區"
"247015","057-VK","2018/02/15 10:29:18","新北市蘆洲區中正路259號","121.467725","25.087185","6501400","蘆洲區"
"247013","007-UY","2018/02/15 10:29:28","新北市蘆洲區中山二路253號","121.470008333333","25.0799183333333","6501400","蘆洲區"
"247024","002-UY","2018/02/15 10:29:27","新北市蘆洲區長榮路168巷8號","121.461655","25.0853766666667","6501400","蘆洲區"
"223004","437-BY","2018/02/15 10:29:26","新北市石碇區碇坪路一段19號","121.653266666667","24.9974183333333","6501900","石碇區"
"223005","677-TV","2018/02/15 10:29:34","新北市石碇區碇坪路一段252號","121.675218333333","24.9781583333333","6501900","石碇區"
"228004","212-TW","2018/02/15 10:29:36","新北市貢寮區龍崗里石壁坑街17號","121.910358333333","24.9894516666667","6502600","貢寮區"
"228002","585-TW","2018/02/15 10:29:34","新北市貢寮區福連里馬崗街1號","121.997426666667","25.0169166666667","6502600","貢寮區"
"224007","273-VK","2018/02/15 10:29:25","新北市瑞芳區四腳亭坑路2-4號","121.776013333333","25.10933","6501200","瑞芳區"
"224005","271-BY","2018/02/15 10:29:35","新北市瑞芳區濱二路56-1號","121.832145","25.11787","6501200","瑞芳區"
"253003","6232-TK","2018/02/15 10:29:31","新北市石門區小坑9號","121.5943","25.2884316666667","6502200","石門區"
"253001","6251-TK","2018/02/15 10:29:26","新北市石門區小坑9號","121.594345","25.2884116666667","6502200","石門區"
"253002","637-UY","2018/02/15 10:29:17","新北市石門區中央路37-2號","121.568526666667","25.2948516666667","6502200","石門區"
"253004","8270-PC","2018/02/15 10:29:23","新北市石門區小坑28號","121.597968333333","25.2729516666667","6502200","石門區"
"208002","KEA-2872","2018/02/15 10:29:21","新北市金山區中正路73號","121.633791666667","25.2216983333333","6502700","金山區"
"208003","665-BX","2018/02/15 10:29:33","新北市金山區中山路263巷10號","121.636288333333","25.2216416666667","6502700","金山區"
"208001","761-BX","2018/02/15 10:29:38","新北市金山區金包里街61-1號","121.638548333333","25.2217066666667","6502700","金山區"
"251009","008-UM","2018/02/15 10:29:28","新北市淡水區中正路51號","121.441906666667","25.1695783333333","6501000","淡水區"
"251004","009-UM","2018/02/15 10:29:37","新北市淡水區民生路12號","121.460863333333","25.1377716666667","6501000","淡水區"
"251013","179-VK","2018/02/15 10:29:37","新北市淡水區頂田寮路769號","121.47923","25.2151","6501000","淡水區"
"251014","180-VK","2018/02/15 10:29:22","新北市淡水區北勢子9號","121.48272","25.2282066666667","6501000","淡水區"
"251008","181-VK","2018/02/15 10:29:38","新北市淡水區北投子83-1號","121.468803333333","25.18107","6501000","淡水區"
"251015","182-VK","2018/02/15 10:29:39","新北市淡水區興福寮66巷327號","121.484596666667","25.1618416666667","6501000","淡水區"
"251010","413-VK","2018/02/15 10:29:40","新北市淡水區中正路一段102號","121.42423","25.1777333333333","6501000","淡水區"
"251012","441-VK","2018/02/15 10:29:18","新北市淡水區淡金路三段426號","121.450488333333","25.2120933333333","6501000","淡水區"
"251016","442-VK","2018/02/15 10:29:33","新北市淡水區下圭柔山79號","121.440626666667","25.2049466666667","6501000","淡水區"
"251005","443-VK","2018/02/15 10:29:36","新北市淡水區學府路51巷1弄6號","121.447506666667","25.16931","6501000","淡水區"
"251001","559-UM","2018/02/15 10:29:33","新北市淡水區新市一路三段105號","121.446525","25.1829733333333","6501000","淡水區"
"251006","561-UM","2018/02/15 10:29:20","新北市淡水區崁頂74號","121.43421","25.2004433333333","6501000","淡水區"
"251007","577-R6","2018/02/15 10:29:21","新北市淡水區淡金路77巷35號","121.454148333333","25.16039","6501000","淡水區"
"251011","650-BX","2018/02/15 10:29:23","新北市淡水區中正東路二段5巷19號","121.459876666667","25.1592833333333","6501000","淡水區"
"251002","672-BX","2018/02/15 10:29:35","新北市淡水區中正路52號","121.443351666667","25.16963","6501000","淡水區"
"251003","766-UM","2018/02/15 10:29:27","新北市淡水區中山北路三段79號","121.444481666667","25.1924633333333","6501000","淡水區"
"252004","702-TV","2018/02/15 10:29:26","新北市三芝區新庄里新庄子95-6號","121.513735","25.2743383333333","6502100","三芝區"
"252007","AAC-283","2018/02/15 10:29:29","新北市三芝區新庄里番社后31號","121.500745","25.273735","6502100","三芝區"
"237004","KEA-2597","2018/02/15 10:29:22","新北市三峽區有木205-1號","121.439003333333","24.8516466666667","6500900","三峽區"
"237007","153-BY","2018/02/15 10:29:38","新北市三峽區二鬮路112號","121.360071666667","24.9089083333333","6500900","三峽區"
"237009","210-TH","2018/02/15 10:29:38","新北市三峽區中山路22號","121.369303333333","24.934335","6500900","三峽區"
"237013","252-BX","2018/02/15 10:29:23","新北市三峽區介壽路一段251號","121.379505","24.93024","6500900","三峽區"
"237012","275-BY","2018/02/15 10:29:26","新北市三峽區光明路2號","121.372975","24.9311516666667","6500900","三峽區"
"237008","302-VK","2018/02/15 10:29:19","新北市三峽區大同路174巷3號","121.37251","24.92711","6500900","三峽區"
"237006","5529-G3","2018/02/15 10:29:38","新北市三峽區溪東路140號","121.404878333333","24.9332433333333","6500900","三峽區"
"237015","649-BX","2018/02/15 10:29:19","新北市三峽區建安89-2號","121.455693333333","24.9206283333333","6500900","三峽區"
"237010","706-TV","2018/02/15 10:29:36","新北市三峽區復興路102號","121.372701666667","24.937655","6500900","三峽區"
"237005","AKY-6261","2018/02/15 10:29:24","新北市三峽區民族街3-3號","121.36953","24.93144","6500900","三峽區"
"236079","166-UM","2018/02/15 10:29:32","新北市土城區中州路27巷76號","121.412635","24.9564033333333","6501300","土城區"
"236015","270-VK","2018/02/15 10:29:21","新北市板橋區四川路二段140巷20號","121.44899","24.99346","6501300","土城區"
"236038","271-VK","2018/02/15 10:29:36","新北市土城區延吉街296巷1弄3號","121.464311666667","24.98423","6501300","土城區"
"236003","339-SR","2018/02/15 10:22:49","新北市土城區永平街51號","121.427681666667","24.9591616666667","6501300","土城區"
"236005","498-BY","2018/02/15 10:29:22","新北市土城區慶祥街46號","121.436816666667","24.974415","6501300","土城區"
"242055","349-TH","2018/02/15 10:29:24","新北市樹林區中山路三段214號","121.380236666667","24.9677733333333","6500500","新莊區"
"238010","601-UM","2018/02/15 10:29:33","新北市樹林區三福街85巷10號","121.406963333333","25.015525","6500700","樹林區"
"238006","599-UM","2018/02/15 10:29:20","新北市樹林區東榮街91巷1弄2號","121.416298333333","24.982325","6500700","樹林區"
"238011","5061-A6","2018/02/15 10:29:25","新北市樹林區中山路二段219號","121.40282","24.9762666666667","6500700","樹林區"
"238008","KEA-2217","2018/02/15 10:29:21","新北市樹林區柑園街二段382巷16號","121.368013333333","24.9498933333333","6500700","樹林區"
"238012","303-VK","2018/02/15 10:29:20","新北市樹林區中山路三段22號","121.395588333333","24.9729716666667","6500700","樹林區"
"238017","283-BY","2018/02/15 10:29:22","新北市樹林區光興街376巷1號","121.406241666667","25.0057216666667","6500700","樹林區"
"238001","282-BY","2018/02/15 10:29:24","新北市樹林區大安路113號","121.422968333333","24.99767","6500700","樹林區"
"238007","268-VK","2018/02/15 10:29:35","新北市樹林區俊英街155巷43弄11號","121.422836666667","25.0116483333333","6500700","樹林區"
"238013","172-UY","2018/02/15 10:29:29","新北市樹林區德和街38號","121.389748333333","24.9787483333333","6500700","樹林區"
"238003","169-UY","2018/02/15 10:29:34","新北市樹林區中山路二段34-2號","121.417081666667","24.9852683333333","6500700","樹林區"
"239007","AAC-297","2018/02/15 10:29:31","新北市鶯歌區大湖路161巷5號","121.343945","24.9664083333333","6500800","鶯歌區"
"239006","891-R6","2018/02/15 10:29:24","新北市鶯歌區建國路443號","121.338361666667","24.9514433333333","6500800","鶯歌區"
"239008","527-UM","2018/02/15 10:29:39","新北市鶯歌區大湖路335號","121.341705","24.9725883333333","6500800","鶯歌區"
"239001","417-VK","2018/02/15 10:29:35","新北市鶯歌區建國路367巷1號","121.339113333333","24.9496133333333","6500800","鶯歌區"
"239003","360-BY","2018/02/15 10:29:31","新北市鶯歌區中正二路85號","121.349211666667","24.9500766666667","6500800","鶯歌區"
"239004","193-VK","2018/02/15 10:29:19","新北市鶯歌區中正三路145-1號","121.33697","24.9400766666667","6500800","鶯歌區"
"221032","280-BY","2018/02/15 10:29:33","新北市汐止區橫科路221巷19-1號","121.621486666667","25.0495166666667","6501100","汐止區"
"220031","286-VK","2018/02/15 10:29:28","新北市板橋區僑中二街108巷5號","121.445543333333","25.00722","6500100","板橋區"
"220029","287-VK","2018/02/15 10:29:30","新北市板橋區大觀路二段251號","121.443241666667","24.9991683333333","6500100","板橋區"
"220041","307-R5","2018/02/15 10:29:38","新北市板橋區金門街369巷83-1號","121.430368333333","24.9808916666667","6500100","板橋區"
"220047","317-R6","2018/02/15 10:29:32","新北市板橋區溪頭街322-2號","121.46523","25.0339966666667","6500100","板橋區"
"220003","827-TW","2018/02/15 10:29:32","新北市板橋區新民街17號","121.46404","25.01009","6500100","板橋區"
"220021","985-R7","2018/02/15 10:29:29","新北市樹林區中山路三段214號","121.380306666667","24.967385","6500100","板橋區"
"220018","AAC-253","2018/02/15 10:29:24","新北市樹林區中山路三段214號","121.380375","24.96794","6500100","板橋區"
