"lineid","car","time","location","longitude","latitude","cityid","cityname"
"234044","148-BY","2018/02/15 10:38:54","新北市永和區得和路389號","121.52515","24.9992816666667","6500400","永和區"
"234066","149-BY","2018/02/15 10:38:53","新北市永和區保平路268巷14號","121.507965","25.00609","6500400","永和區"
"234005","207-UY","2018/02/15 10:38:52","新北市永和區中正路666巷2號","121.516786666667","25.0089633333333","6500400","永和區"
"234036","336-UY","2018/02/15 10:39:07","新北市永和區環河東路四段106號","121.52798","24.9965383333333","6500400","永和區"
"234062","337-UY","2018/02/15 10:39:07","新北市永和區中正路338號","121.517755","25.000025","6500400","永和區"
"234084","338-UY","2018/02/15 10:38:52","新北市永和區環河東路二段28號","121.52252","25.0128083333333","6500400","永和區"
"234068","552-UM","2018/02/15 10:39:01","新北市永和區永寧街93號","121.518721666667","25.0066883333333","6500400","永和區"
"234028","746-BX","2018/02/15 10:39:10","新北市永和區民權路49巷5弄30號","121.52193","24.9978233333333","6500400","永和區"
"234052","KEA-2590","2018/02/15 10:39:08","新北市永和區環河東路一段80號","121.519553333333","25.0164516666667","6500400","永和區"
"234040","862-TW","2018/02/15 10:38:58","新北市永和區水源街39巷2號","121.510308333333","25.0042566666667","6500400","永和區"
"234048","863-TW","2018/02/15 10:39:06","新北市永和區新生路136號","121.506686666667","25.0143883333333","6500400","永和區"
"234025","9371-KE","2018/02/15 10:39:10","新北市永和區中和路501巷7號","121.510333333333","25.0025883333333","6500400","永和區"
"234010","9373-KE","2018/02/15 10:39:10","新北市永和區仁愛路352巷94號","121.50112","25.0080216666667","6500400","永和區"
"249001","173-UM","2018/02/15 10:39:09","新北市八里區中山路三段201號","121.383103333333","25.140635","6502300","八里區"
"249002","305-UY","2018/02/15 10:38:55","新北市八里區龍米路一段100巷15號","121.453611666667","25.1251516666667","6502300","八里區"
"248017","225-UY","2018/02/15 10:38:01","新北市五股區外寮路9-25號","121.41579","25.0798883333333","6501500","五股區"
"248005","653-BX","2018/02/15 10:39:06","新北市五股區中興路二段63巷17號","121.46027","25.07532","6501500","五股區"
"248003","677-BX","2018/02/15 10:39:05","新北市五股區成泰路一段32巷60號","121.434935","25.0669683333333","6501500","五股區"
"234022","9380-KE","2018/02/15 10:39:01","新北市永和區永和路二段217號","121.515566666667","25.0140066666667","6500400","永和區"
"234076","969-R7","2018/02/15 10:39:03","新北市永和區民族街81巷60號","121.520118333333","24.99658","6500400","永和區"
"234072","AAC-211","2018/02/15 10:39:00","新北市永和區竹林路119巷18弄1號","121.521108333333","25.0114166666667","6500400","永和區"
"234001","AAC-295","2018/02/15 10:39:04","新北市永和區中正路618號","121.517123333333","25.0077116666667","6500400","永和區"
"244003","248-BX","2018/02/15 10:38:22","新北市林口區瑞樹坑38號","121.353043333333","25.1180633333333","6501700","林口區"
"244022","483-VK","2018/02/15 10:39:01","新北市林口區民有街62號","121.372898333333","25.0767766666667","6501700","林口區"
"243001","KEA-2216","2018/02/15 10:38:52","新北市泰山區泰林路三段616巷8號","121.407658333333","25.0726916666667","6501600","泰山區"
"222006","289-BY","2018/02/15 10:38:58","新北市深坑區大崙腳2-2號","121.613855","24.9949","6501800","深坑區"
"222002","659-BX","2018/02/15 10:39:08","新北市深坑區北深路三段158巷1號","121.601176666667","25.0050166666667","6501800","深坑區"
"231061","047-UY","2018/02/15 10:39:08","新北市新店區永平街18號","121.516836666667","24.9837116666667","6500600","新店區"
"231008","192-VK","2018/02/15 10:37:00","新北市新店區小坑一路35巷2號","121.528176666667","24.908335","6500600","新店區"
"231031","720-UM","2018/02/15 10:39:10","新北市新店區雙城路36號","121.491981666667","24.95017","6500600","新店區"
"241011","013-R5","2018/02/15 10:39:10","新北市三重區龍濱路120-6號","121.501716666667","25.0713366666667","6500200","三重區"
"241026","066-VK","2018/02/15 10:39:02","新北市三重區文化南路10巷20號","121.500791666667","25.062215","6500200","三重區"
"241002","090-VK","2018/02/15 10:38:58","新北市三重區仁忠街95號","121.492613333333","25.0801266666667","6500200","三重區"
"241003","156-TC","2018/02/15 10:39:08","新北市三重區仁政街159號","121.491281666667","25.0796466666667","6500200","三重區"
"241005","262-UM","2018/02/15 10:38:55","新北市蘆洲區永安南路一段282號","121.469066666667","25.0761683333333","6500200","三重區"
"241016","265-UM","2018/02/15 10:38:57","新北市三重區正義北路36巷15號","121.496745","25.0634433333333","6500200","三重區"
"241022","267-UM","2018/02/15 10:39:08","新北市三重區三民街175巷24號","121.483931666667","25.06593","6500200","三重區"
"241018","268-UM","2018/02/15 10:38:58","新北市三重區雙園街57巷24-1號","121.494543333333","25.06834","6500200","三重區"
"241032","269-UM","2018/02/15 10:38:58","新北市八里區商港路120號","121.39293","25.1500033333333","6500200","三重區"
"241007","398-BY","2018/02/15 10:39:07","新北市三重區慈愛街74號","121.487668333333","25.0796666666667","6500200","三重區"
"241024","462-BY","2018/02/15 10:38:55","新北市五股區中興路二段182巷15弄13號","121.457248333333","25.08143","6500200","三重區"
"241030","480-VK","2018/02/15 10:39:09","新北市三重區成功路97號","121.487886666667","25.0516216666667","6500200","三重區"
"241014","543-UM","2018/02/15 10:38:59","新北市三重區中央北路123號","121.499895","25.06781","6500200","三重區"
"241001","547-UM","2018/02/15 10:39:08","新北市三重區自強路三段93號","121.487415","25.0750633333333","6500200","三重區"
"241019","KEA-2593","2018/02/15 10:39:04","新北市三重區安慶街361巷2號","121.487421666667","25.0677466666667","6500200","三重區"
"241012","941-UM","2018/02/15 10:38:54","新北市三重區河邊北街276號","121.501465","25.0767466666667","6500200","三重區"
"241029","942-UM","2018/02/15 10:39:10","新北市三重區新北大道一段117號","121.483471666667","25.0612566666667","6500200","三重區"
"241033","AAC-255","2018/02/15 10:38:59","新北市三重區中興北街130號","121.469023333333","25.0554783333333","6500200","三重區"
"235036","301-VK","2018/02/15 10:38:58","新北市新店區安華路3號","121.51928","24.9599766666667","6500300","中和區"
"235032","377-QA","2018/02/15 10:39:08","新北市中和區景平路736巷5弄2號","121.497588333333","25.0033416666667","6500300","中和區"
"235014","4979-A6","2018/02/15 10:39:00","新北市中和區景新街160巷8-1號","121.505253333333","24.9970116666667","6500300","中和區"
"235033","4980-A6","2018/02/15 10:39:08","新北市中和區新生街164號","121.483685","25.000275","6500300","中和區"
"235006","551-UM","2018/02/15 10:38:54","新北市中和區保健路2巷30號","121.507021666667","24.9975016666667","6500300","中和區"
"235001","611-BX","2018/02/15 10:39:08","新北市中和區中山路三段120-17號","121.474408333333","25.0084033333333","6500300","中和區"
"247022","893-R6","2018/02/15 10:39:07","新北市蘆洲區中正路398號","121.463216666667","25.093275","6501400","蘆洲區"
"247012","546-UM","2018/02/15 10:39:10","新北市蘆洲區三民路19號","121.475683333333","25.0824016666667","6501400","蘆洲區"
"247008","341-TH","2018/02/15 10:39:08","新北市蘆洲區中山一路203號","121.474205","25.0810166666667","6501400","蘆洲區"
"247010","339-TH","2018/02/15 10:39:07","新北市蘆洲區集賢路376號","121.480568333333","25.0828816666667","6501400","蘆洲區"
"247001","337-TH","2018/02/15 10:39:07","新北市蘆洲區三民路619號","121.45927","25.0947","6501400","蘆洲區"
"247003","336-TH","2018/02/15 10:38:59","新北市蘆洲區長安街299巷32號","121.457135","25.0846333333333","6501400","蘆洲區"
"247015","057-VK","2018/02/15 10:38:39","新北市蘆洲區光華路151號","121.465623333333","25.0820083333333","6501400","蘆洲區"
"247013","007-UY","2018/02/15 10:39:07","新北市蘆洲區中山二路137巷46號","121.472481666667","25.0805216666667","6501400","蘆洲區"
"247024","002-UY","2018/02/15 10:39:07","新北市蘆洲區長樂路2-16號","121.46493","25.083895","6501400","蘆洲區"
"223004","437-BY","2018/02/15 10:37:24","新北市石碇區碇坪路一段19號","121.653306666667","24.9973916666667","6501900","石碇區"
"223005","677-TV","2018/02/15 10:38:54","新北市石碇區小粗坑(潭邊里)5號","121.673306666667","24.9832966666667","6501900","石碇區"
"228004","212-TW","2018/02/15 10:37:36","新北市貢寮區龍崗里石壁坑街24-1號","121.911233333333","24.9984283333333","6502600","貢寮區"
"228002","585-TW","2018/02/15 10:38:54","新北市貢寮區福連里馬崗街1號","121.998115","25.0156333333333","6502600","貢寮區"
"224007","273-VK","2018/02/15 10:39:05","新北市瑞芳區大埔路台北新城14號","121.764811666667","25.10091","6501200","瑞芳區"
"224005","271-BY","2018/02/15 10:38:55","新北市瑞芳區海濱路136-1號","121.8303","25.1223283333333","6501200","瑞芳區"
"253003","6232-TK","2018/02/15 10:39:11","新北市石門區小坑9號","121.594403333333","25.28835","6502200","石門區"
"253002","637-UY","2018/02/15 10:38:57","新北市石門區小坑9號","121.594765","25.2868466666667","6502200","石門區"
"253004","8270-PC","2018/02/15 10:39:03","新北市石門區小坑9號","121.594408333333","25.2872566666667","6502200","石門區"
"208002","KEA-2872","2018/02/15 10:39:01","新北市金山區中華路129號","121.633105","25.2208233333333","6502700","金山區"
"208003","665-BX","2018/02/15 10:38:53","新北市金山區仁愛路12號","121.63839","25.220075","6502700","金山區"
"208001","761-BX","2018/02/15 10:38:58","新北市金山區南勢100號","121.625803333333","25.220215","6502700","金山區"
"251009","008-UM","2018/02/15 10:39:09","新北市淡水區英專路28巷18號","121.445923333333","25.16992","6501000","淡水區"
"251004","009-UM","2018/02/15 10:38:57","新北市淡水區民權路103號","121.460221666667","25.1376616666667","6501000","淡水區"
"251013","179-VK","2018/02/15 10:38:57","新北市淡水區頂田寮路1111號","121.490458333333","25.2135616666667","6501000","淡水區"
"251014","180-VK","2018/02/15 10:39:02","新北市淡水區小中寮12-2號","121.485011666667","25.2327516666667","6501000","淡水區"
"251008","181-VK","2018/02/15 10:38:58","新北市淡水區北投子18號","121.45392","25.1840333333333","6501000","淡水區"
"251015","182-VK","2018/02/15 10:38:59","新北市淡水區糞箕湖105號","121.486998333333","25.17239","6501000","淡水區"
"251010","413-VK","2018/02/15 10:38:59","新北市淡水區中正路一段156巷51號","121.421775","25.1808766666667","6501000","淡水區"
"251012","441-VK","2018/02/15 10:38:58","新北市淡水區興仁路108號","121.451656666667","25.21816","6501000","淡水區"
"251016","442-VK","2018/02/15 10:38:53","新北市淡水區淡金路三段331巷3號","121.448525","25.2061833333333","6501000","淡水區"
"251005","443-VK","2018/02/15 10:38:57","新北市淡水區水源街一段122巷37號","121.447061666667","25.170425","6501000","淡水區"
"251001","559-UM","2018/02/15 10:39:01","新北市淡水區淡金路196號","121.459473333333","25.1661866666667","6501000","淡水區"
"251006","561-UM","2018/02/15 10:39:01","新北市淡水區中山北路一段189號","121.44407","25.17831","6501000","淡水區"
"251007","577-R6","2018/02/15 10:39:01","新北市淡水區竿蓁二街34巷2號","121.453753333333","25.162805","6501000","淡水區"
"251011","650-BX","2018/02/15 10:39:03","新北市淡水區淡金路二段600號","121.446588333333","25.1924666666667","6501000","淡水區"
"251002","672-BX","2018/02/15 10:38:54","新北市淡水區英專路67號","121.44559","25.1711666666667","6501000","淡水區"
"251003","766-UM","2018/02/15 10:39:07","新北市淡水區淡金路二段599號","121.44658","25.19203","6501000","淡水區"
"252004","702-TV","2018/02/15 10:39:06","新北市三芝區新庄里新庄子92-1號","121.510978333333","25.2690216666667","6502100","三芝區"
"252007","AAC-283","2018/02/15 10:39:09","新北市三芝區新庄里番社后1-1號","121.50138","25.2642683333333","6502100","三芝區"
"237004","KEA-2597","2018/02/15 10:39:02","新北市三峽區有木205-1號","121.438973333333","24.8516283333333","6500900","三峽區"
"237007","153-BY","2018/02/15 10:38:58","新北市三峽區二鬮路136巷2弄27號","121.359468333333","24.90883","6500900","三峽區"
"237009","210-TH","2018/02/15 10:38:58","新北市三峽區中山路22號","121.369318333333","24.9342983333333","6500900","三峽區"
"237013","252-BX","2018/02/15 10:39:03","新北市三峽區介壽路一段237號","121.379496666667","24.93021","6500900","三峽區"
"237012","275-BY","2018/02/15 10:39:07","新北市三峽區安溪路322號","121.371295","24.928385","6500900","三峽區"
"237008","302-VK","2018/02/15 10:38:59","新北市三峽區大同路120號","121.374041666667","24.9269083333333","6500900","三峽區"
"237006","5529-G3","2018/02/15 10:38:58","新北市三峽區溪東路132號","121.40462","24.9333416666667","6500900","三峽區"
"237015","649-BX","2018/02/15 10:38:59","新北市三峽區建安65-1號","121.447198333333","24.9269316666667","6500900","三峽區"
"237010","706-TV","2018/02/15 10:38:56","新北市三峽區復興路31號","121.373793333333","24.936595","6500900","三峽區"
"237005","AKY-6261","2018/02/15 10:39:04","新北市三峽區忠孝街25-9號","121.371415","24.9344183333333","6500900","三峽區"
"236079","166-UM","2018/02/15 10:38:52","新北市土城區溪頭路8號","121.41348","24.95574","6501300","土城區"
"236003","339-SR","2018/02/15 10:22:49","新北市土城區永平街51號","121.427681666667","24.9591616666667","6501300","土城區"
"236005","498-BY","2018/02/15 10:39:02","新北市土城區學府路二段151-1號","121.446686666667","24.979145","6501300","土城區"
"242055","349-TH","2018/02/15 10:39:04","新北市樹林區育德街78-1號","121.388471666667","24.968155","6500500","新莊區"
"238010","601-UM","2018/02/15 10:39:13","新北市樹林區忠信街13號","121.408198333333","25.0149866666667","6500700","樹林區"
"238006","599-UM","2018/02/15 10:39:00","新北市樹林區東榮街34號","121.417513333333","24.9834066666667","6500700","樹林區"
"238011","5061-A6","2018/02/15 10:39:05","新北市樹林區福德街48-11號","121.39878","24.97482","6500700","樹林區"
"238008","KEA-2217","2018/02/15 10:39:01","新北市樹林區大雅路377號","121.377998333333","24.9501266666667","6500700","樹林區"
"238012","303-VK","2018/02/15 10:39:00","新北市樹林區民和街24號","121.38521","24.968675","6500700","樹林區"
"238017","283-BY","2018/02/15 10:39:03","新北市樹林區光興街155巷2號","121.407888333333","25.00357","6500700","樹林區"
"238001","282-BY","2018/02/15 10:39:04","新北市樹林區保安二街6號","121.425423333333","24.9939383333333","6500700","樹林區"
"238007","268-VK","2018/02/15 10:38:55","新北市樹林區俊英街133巷34號","121.423055","25.0109866666667","6500700","樹林區"
"238013","172-UY","2018/02/15 10:39:09","新北市樹林區佳園路一段41巷28弄2號","121.394506666667","24.9709116666667","6500700","樹林區"
"238003","169-UY","2018/02/15 10:38:54","新北市樹林區復興路446巷1號","121.413348333333","24.9841983333333","6500700","樹林區"
"239007","AAC-297","2018/02/15 10:39:11","新北市鶯歌區大湖路326巷30號","121.346228333333","24.9696916666667","6500800","鶯歌區"
"239006","891-R6","2018/02/15 10:39:04","新北市鶯歌區尖山埔路2號","121.349976666667","24.9511666666667","6500800","鶯歌區"
"239004","193-VK","2018/02/15 10:38:59","新北市鶯歌區二甲路55-25號","121.338171666667","24.9299216666667","6500800","鶯歌區"
"221032","280-BY","2018/02/15 10:38:53","新北市汐止區橫科路500號","121.62639","25.047245","6501100","汐止區"
"220029","287-VK","2018/02/15 10:39:10","新北市板橋區金門街215巷88號","121.43319","24.9848433333333","6500100","板橋區"
"220041","307-R5","2018/02/15 10:38:58","新北市樹林區中山路三段210-2號","121.38062","24.9669683333333","6500100","板橋區"
"220021","985-R7","2018/02/15 10:39:09","新北市樹林區中山路三段214號","121.38004","24.9677783333333","6500100","板橋區"
"220018","AAC-253","2018/02/15 10:39:04","新北市樹林區中山路三段210-2號","121.381435","24.96557","6500100","板橋區"
