"lineid","car","time","location","longitude","latitude","cityid","cityname"
"234005","207-UY","2018/02/15 10:59:33","新北市永和區仁愛路302號","121.503591666667","25.0080666666667","6500400","永和區"
"234036","336-UY","2018/02/15 10:59:47","新北市五股區中興路三段3-6號","121.449756666667","25.0788583333333","6500400","永和區"
"234025","9371-KE","2018/02/15 10:55:14","新北市永和區保生路55號","121.504495","25.0108116666667","6500400","永和區"
"234010","9373-KE","2018/02/15 10:59:50","新北市永和區仁愛路352巷112弄15號","121.501093333333","25.008575","6500400","永和區"
"249002","305-UY","2018/02/15 10:59:35","新北市八里區大崁腳48-51號","121.425035","25.1592466666667","6502300","八里區"
"248017","225-UY","2018/02/15 10:56:20","新北市五股區外寮路13-1號","121.424798333333","25.0812233333333","6501500","五股區"
"248005","653-BX","2018/02/15 10:43:09","新北市五股區中興路二段83巷26-6號","121.459915","25.0752233333333","6501500","五股區"
"248003","677-BX","2018/02/15 10:59:45","新北市五股區中興路四段40-3號","121.438695","25.0827666666667","6501500","五股區"
"234022","9380-KE","2018/02/15 10:59:21","新北市永和區竹林路25巷21號","121.518175","25.0149583333333","6500400","永和區"
"244003","248-BX","2018/02/15 10:59:42","新北市林口區汕頭16號","121.363096666667","25.1348816666667","6501700","林口區"
"243001","KEA-2216","2018/02/15 10:59:32","新北市泰山區泰林路三段745巷145號","121.40616","25.0695716666667","6501600","泰山區"
"222006","289-BY","2018/02/15 10:59:39","新北市深坑區阿柔洋62號","121.607416666667","24.9986566666667","6501800","深坑區"
"222002","659-BX","2018/02/15 10:59:27","新北市深坑區萬福路63巷8號","121.59971","25.0077866666667","6501800","深坑區"
"231061","047-UY","2018/02/15 10:59:47","新北市新店區薏仁坑路6-1號","121.499885","24.9584866666667","6500600","新店區"
"231008","192-VK","2018/02/15 10:59:40","新北市新店區松林路83號","121.547541666667","24.9079533333333","6500600","新店區"
"231031","720-UM","2018/02/15 10:59:30","新北市新店區安康路三段2號","121.493926666667","24.9538233333333","6500600","新店區"
"241026","066-VK","2018/02/15 10:59:42","新北市三重區三寧街2號","121.488518333333","25.0595416666667","6500200","三重區"
"241018","268-UM","2018/02/15 10:59:38","新北市新莊區化成路579巷1號","121.464651666667","25.0662383333333","6500200","三重區"
"241032","269-UM","2018/02/15 10:59:38","新北市五股區成泰路三段436號","121.4519","25.09932","6500200","三重區"
"241020","413-TH","2018/02/15 10:59:30","新北市三重區後竹圍街205巷18號","121.484733333333","25.07226","6500200","三重區"
"241030","480-VK","2018/02/15 10:59:34","新北市三重區集美街89巷27號","121.48824","25.0526033333333","6500200","三重區"
"241001","547-UM","2018/02/15 10:59:48","新北市八里區中山路三段367號","121.373406666667","25.13826","6500200","三重區"
"241012","941-UM","2018/02/15 10:59:34","新北市三重區仁興街39巷22號","121.500315","25.0762466666667","6500200","三重區"
"241033","AAC-255","2018/02/15 10:59:39","新北市三重區重新路五段652號","121.467991666667","25.04412","6500200","三重區"
"235004","150-BY","2018/02/15 10:51:11","新北市中和區和城路一段271巷1號","121.48542","24.9917583333333","6500300","中和區"
"235036","301-VK","2018/02/15 10:59:38","新北市新店區安業街213號","121.522368333333","24.9723816666667","6500300","中和區"
"235032","377-QA","2018/02/15 10:59:08","新北市中和區福祥路9號","121.499225","25.0034433333333","6500300","中和區"
"235033","4980-A6","2018/02/15 10:59:48","新北市中和區中正路637巷17號","121.48494","24.994625","6500300","中和區"
"235001","611-BX","2018/02/15 10:59:48","新北市中和區中山路三段136巷23號","121.473775","25.0074966666667","6500300","中和區"
"247022","893-R6","2018/02/15 10:59:47","新北市蘆洲區民權路188-3號","121.471501666667","25.0908416666667","6501400","蘆洲區"
"247012","546-UM","2018/02/15 10:59:30","新北市蘆洲區復興路355巷11-5號","121.48065","25.0957033333333","6501400","蘆洲區"
"247008","341-TH","2018/02/15 10:59:48","新北市蘆洲區永安北路二段58巷2號","121.482701666667","25.083965","6501400","蘆洲區"
"247010","339-TH","2018/02/15 10:59:47","新北市蘆洲區民族路83號","121.479365","25.0860866666667","6501400","蘆洲區"
"247001","337-TH","2018/02/15 10:59:27","新北市蘆洲區長安街248-1號","121.457813333333","25.0861983333333","6501400","蘆洲區"
"247003","336-TH","2018/02/15 10:59:39","新北市蘆洲區中原路38號","121.459795","25.0825933333333","6501400","蘆洲區"
"247015","057-VK","2018/02/15 10:59:08","新北市蘆洲區光華路1號","121.46987","25.0834816666667","6501400","蘆洲區"
"247006","056-VK","2018/02/15 10:59:43","新北市蘆洲區永安南路二段26號","121.467281666667","25.07708","6501400","蘆洲區"
"247013","007-UY","2018/02/15 10:59:27","新北市蘆洲區中山二路137巷33號","121.472598333333","25.0805683333333","6501400","蘆洲區"
"247024","002-UY","2018/02/15 10:59:27","新北市蘆洲區中山二路198號","121.470283333333","25.0803416666667","6501400","蘆洲區"
"247018","001-UY","2018/02/15 10:59:42","新北市蘆洲區民族路312號","121.47744","25.090205","6501400","蘆洲區"
"223004","437-BY","2018/02/15 10:37:24","新北市石碇區碇坪路一段19號","121.653306666667","24.9973916666667","6501900","石碇區"
"223005","677-TV","2018/02/15 10:58:54","新北市石碇區小粗坑(潭邊里)9-2號","121.678836666667","24.9861883333333","6501900","石碇區"
"228004","212-TW","2018/02/15 10:59:36","新北市貢寮區龍崗里嵩陽街35-1號","121.906671666667","25.0174866666667","6502600","貢寮區"
"228002","585-TW","2018/02/15 10:59:34","新北市貢寮區福隆里東興街6-11號","121.950711666667","25.021055","6502600","貢寮區"
"224007","273-VK","2018/02/15 10:59:45","新北市瑞芳區大埔路115巷24-6號","121.762863333333","25.1015066666667","6501200","瑞芳區"
"224005","271-BY","2018/02/15 10:59:35","新北市瑞芳區三爪子坑路335號","121.818828333333","25.1048983333333","6501200","瑞芳區"
"208002","KEA-2872","2018/02/15 10:59:41","新北市金山區八德街14號","121.63487","25.2236816666667","6502700","金山區"
"208003","665-BX","2018/02/15 10:59:33","新北市金山區永興里濆水路10號","121.623831666667","25.2711233333333","6502700","金山區"
"208001","761-BX","2018/02/15 10:59:38","新北市金山區重和里林口32號","121.596403333333","25.2096983333333","6502700","金山區"
"251009","008-UM","2018/02/15 10:59:49","新北市淡水區中正東路二段141號","121.459581666667","25.14797","6501000","淡水區"
"251013","179-VK","2018/02/15 10:59:37","新北市淡水區頂田寮10-4號","121.462518333333","25.21464","6501000","淡水區"
"251014","180-VK","2018/02/15 10:59:42","新北市淡水區石頭厝14-28號","121.464351666667","25.236435","6501000","淡水區"
"251015","182-VK","2018/02/15 10:59:39","新北市淡水區南勢埔1號","121.482226666667","25.1803566666667","6501000","淡水區"
"251012","441-VK","2018/02/15 10:59:38","新北市淡水區六塊厝16-2號","121.457118333333","25.242035","6501000","淡水區"
"251016","442-VK","2018/02/15 10:59:33","新北市淡水區下圭柔山431-1號","121.45019","25.2108266666667","6501000","淡水區"
"251005","443-VK","2018/02/15 10:59:36","新北市淡水區鄧公路30巷32弄19號","121.453935","25.1702366666667","6501000","淡水區"
"251001","559-UM","2018/02/15 10:59:41","新北市淡水區濱海路一段306巷60弄33號","121.44197","25.1915966666667","6501000","淡水區"
"251006","561-UM","2018/02/15 10:59:48","新北市淡水區中山北路一段168號","121.444343333333","25.1787716666667","6501000","淡水區"
"251007","577-R6","2018/02/15 10:59:41","新北市淡水區仁愛街2巷38號","121.44676","25.1716583333333","6501000","淡水區"
"251011","650-BX","2018/02/15 10:59:03","新北市淡水區下圭柔山90-8號","121.431201666667","25.21032","6501000","淡水區"
"251003","766-UM","2018/02/15 10:59:46","新北市淡水區中山北路一段229號","121.444476666667","25.1795166666667","6501000","淡水區"
"252004","702-TV","2018/02/15 10:59:46","新北市三芝區新庄里新庄子74號","121.507808333333","25.27346","6502100","三芝區"
"237004","KEA-2597","2018/02/15 10:59:42","新北市三峽區圳頭35號","121.377043333333","24.886605","6500900","三峽區"
"237007","153-BY","2018/02/15 10:59:38","新北市三峽區二鬮路136巷24弄75號","121.357823333333","24.91042","6500900","三峽區"
"237009","210-TH","2018/02/15 10:59:38","新北市三峽區中園街13-1號","121.368665","24.9271383333333","6500900","三峽區"
"237013","252-BX","2018/02/15 10:59:43","新北市三峽區橫溪路26號","121.396338333333","24.9356983333333","6500900","三峽區"
"237008","302-VK","2018/02/15 10:59:39","新北市三峽區光明路106巷30號","121.375833333333","24.9271216666667","6500900","三峽區"
"237006","5529-G3","2018/02/15 10:59:38","新北市三峽區溪東路205巷21號","121.40512","24.9340766666667","6500900","三峽區"
"237015","649-BX","2018/02/15 10:59:39","新北市三峽區成福路69號","121.41852","24.9291883333333","6500900","三峽區"
"237005","AKY-6261","2018/02/15 10:59:43","新北市三峽區介壽路一段15號","121.375365","24.9335316666667","6500900","三峽區"
"236079","166-UM","2018/02/15 10:59:32","新北市土城區中央路四段321巷12號","121.41088","24.9511616666667","6501300","土城區"
"236023","401-BY","2018/02/15 10:59:40","新北市土城區延吉街165巷9號","121.470485","24.985025","6501300","土城區"
"236005","498-BY","2018/02/15 10:59:42","新北市土城區中華路一段56巷26-10號","121.444611666667","24.990365","6501300","土城區"
"242055","349-TH","2018/02/15 10:59:44","新北市板橋區中正路600號","121.445091666667","25.021045","6500500","新莊區"
"238002","755-BX","2018/02/15 10:59:46","新北市樹林區中興街60號","121.421183333333","24.9916383333333","6500700","樹林區"
"238006","599-UM","2018/02/15 10:59:40","新北市樹林區鎮前街279-5號","121.418531666667","24.9852033333333","6500700","樹林區"
"238011","5061-A6","2018/02/15 10:59:45","新北市樹林區育德街19巷28號","121.392563333333","24.96995","6500700","樹林區"
"238008","KEA-2217","2018/02/15 10:59:41","新北市樹林區佳園路三段101巷62弄2號","121.39323","24.95018","6500700","樹林區"
"238012","303-VK","2018/02/15 10:59:39","新北市樹林區中山路三段210-2號","121.380746666667","24.9670033333333","6500700","樹林區"
"238017","283-BY","2018/02/15 10:59:42","新北市樹林區保安街二段107巷1弄5號","121.41503","25.0008166666667","6500700","樹林區"
"238001","282-BY","2018/02/15 10:59:45","新北市樹林區保安二街64巷17號","121.42441","24.996495","6500700","樹林區"
"238007","268-VK","2018/02/15 10:59:35","新北市樹林區俊英街83巷1號","121.425781666667","25.0080216666667","6500700","樹林區"
"238013","172-UY","2018/02/15 10:59:29","新北市樹林區佳園路三段51號","121.387801666667","24.953455","6500700","樹林區"
"221032","280-BY","2018/02/15 10:59:33","新北市汐止區汐萬路一段172號","121.652506666667","25.0717333333333","6501100","汐止區"
"221027","281-BY","2018/02/15 10:55:12","新北市汐止區汐萬路一段256巷1號","121.651753333333","25.0748966666667","6501100","汐止區"
"220029","287-VK","2018/02/15 10:59:30","新北市樹林區中山路三段214號","121.380068333333","24.96794","6500100","板橋區"
"220018","AAC-253","2018/02/15 10:59:44","新北市板橋區華東街1-9號","121.448086666667","24.9949083333333","6500100","板橋區"
