"lineid","car","time","location","longitude","latitude","cityid","cityname"
"234078","298-R6","2018/02/15 12:39:42","新北市永和區林森路77號","121.523991666667","25.0038116666667","6500400","永和區"
"234036","336-UY","2018/02/15 12:39:47","新北市永和區福和路1號","121.525531666667","25.0094133333333","6500400","永和區"
"234042","862-TW","2018/02/15 12:39:38","新北市永和區永貞路265號","121.511736666667","25.0046383333333","6500400","永和區"
"234025","9372-KE","2018/02/15 12:39:30","新北市永和區福和路1號","121.52633","25.00966","6500400","永和區"
"249005","172-UM","2018/02/15 12:39:48","新北市八里區博物館路9號","121.415458333333","25.1640633333333","6502300","八里區"
"244013","069-UM","2018/02/15 12:39:54","新北市林口區粉寮69號","121.405091666667","25.0907983333333","6501700","林口區"
"244019","402-UM","2018/02/15 12:39:50","新北市林口區粉寮路二段46-1號","121.403551666667","25.08698","6501700","林口區"
"244017","485-VK","2018/02/15 12:39:51","新北市林口區中山路9號","121.396408333333","25.07819","6501700","林口區"
"244009","657-BX","2018/02/15 12:39:33","新北市林口區宏昌街79號","121.402016666667","25.0856216666667","6501700","林口區"
"244025","837-TS","2018/02/15 12:39:46","新北市林口區粉寮路二段128號","121.404461666667","25.090665","6501700","林口區"
"244021","838-TS","2018/02/15 12:39:40","新北市林口區粉寮路60-17號","121.404225","25.0903383333333","6501700","林口區"
"243013","646-TV","2018/02/15 12:39:49","新北市泰山區大科路45-17號","121.404781666667","25.0552033333333","6501600","泰山區"
"241011","013-R5","2018/02/15 12:39:50","新北市三重區三和路二段165號","121.497951666667","25.0695816666667","6500200","三重區"
"241028","022-UY","2018/02/15 12:39:42","新北市三重區重安街170巷6號","121.496458333333","25.0548666666667","6500200","三重區"
"241009","060-VK","2018/02/15 12:39:44","新北市三重區溪尾街218巷21號","121.48712","25.08139","6500200","三重區"
"241031","061-VK","2018/02/15 12:39:41","新北市三重區重陽路一段51號","121.486663333333","25.0582366666667","6500200","三重區"
"241015","062-VK","2018/02/15 12:39:47","新北市三重區文化北路103號","121.497835","25.0684166666667","6500200","三重區"
"241017","063-VK","2018/02/15 12:39:40","新北市三重區大仁街29號","121.492558333333","25.065045","6500200","三重區"
"241026","066-VK","2018/02/15 12:39:42","新北市三重區重安街137號","121.495256666667","25.0546883333333","6500200","三重區"
"241003","156-TC","2018/02/15 12:39:48","新北市三重區仁愛街460號","121.490065","25.0821166666667","6500200","三重區"
"241005","262-UM","2018/02/15 12:39:35","新北市三重區碧華街235號","121.489126666667","25.08281","6500200","三重區"
"241016","265-UM","2018/02/15 12:37:37","新北市三重區大仁街57號","121.49362","25.06591","6500200","三重區"
"241018","268-UM","2018/02/15 12:39:38","新北市三重區雙園街57巷3號","121.494891666667","25.0676233333333","6500200","三重區"
"241032","269-UM","2018/02/15 12:39:37","新北市八里區下罟子17號","121.3794","25.1428816666667","6500200","三重區"
"241007","398-BY","2018/02/15 12:39:47","新北市三重區溪尾街108巷17號","121.488756666667","25.0786233333333","6500200","三重區"
"241020","413-TH","2018/02/15 12:39:50","新北市三重區後竹圍街29號","121.490926666667","25.073455","6500200","三重區"
"241030","480-VK","2018/02/15 12:39:34","新北市三重區重新路四段121號","121.484925","25.0520716666667","6500200","三重區"
"241014","543-UM","2018/02/15 12:39:39","新北市三重區長壽街120巷60號","121.501748333333","25.0703033333333","6500200","三重區"
"241001","547-UM","2018/02/15 12:39:47","新北市三重區溪尾街56號","121.490676666667","25.0775866666667","6500200","三重區"
"241019","KEA-2593","2018/02/15 12:39:46","新北市三重區大智街149號","121.490415","25.071375","6500200","三重區"
"241006","AAD-863","2018/02/15 12:39:49","新北市三重區下竹圍街6號","121.480928333333","25.0760133333333","6500200","三重區"
"241029","942-UM","2018/02/15 12:39:50","新北市三重區同安東街76號","121.498541666667","25.05742","6500200","三重區"
"235030","003-UY","2018/02/15 12:39:44","新北市中和區水源路36巷1弄1號","121.505313333333","25.0035083333333","6500300","中和區"
"235064","005-UY","2018/02/15 12:39:43","新北市中和區員山路36巷16-3號","121.48502","24.9911766666667","6500300","中和區"
"235063","006-UY","2018/02/15 12:39:49","新北市中和區連城路347巷16弄51號","121.486905","24.9950766666667","6500300","中和區"
"235029","098-UM","2018/02/15 12:39:33","新北市中和區莊敬路33巷40號","121.500178333333","25.0066166666667","6500300","中和區"
"235058","151-BY","2018/02/15 12:39:41","新北市中和區圓通路369巷35號","121.488843333333","24.9871883333333","6500300","中和區"
"235019","183-VK","2018/02/15 12:39:44","新北市中和區國光街119號","121.469545","25.00078","6500300","中和區"
"235038","185-VK","2018/02/15 12:39:45","新北市中和區錦和路350-1號","121.490466666667","24.9935716666667","6500300","中和區"
"235031","255-BX","2018/02/15 12:39:53","新北市中和區中正路839巷29號","121.483551666667","25.0022083333333","6500300","中和區"
"235068","377-QA","2018/02/15 12:39:34","新北市中和區錦和路350-1號","121.490388333333","24.9934633333333","6500300","中和區"
"235061","378-QA","2018/02/15 12:39:44","新北市中和區員山路72號","121.480855","24.99361","6500300","中和區"
"235035","269-TV","2018/02/15 12:39:40","新北市中和區中正路637巷60弄61號","121.485473333333","24.9929533333333","6500300","中和區"
"235042","551-UM","2018/02/15 12:39:34","新北市中和區大仁街20巷25弄21號","121.518703333333","24.9936083333333","6500300","中和區"
"235034","558-UM","2018/02/15 12:39:44","新北市中和區景平路443號","121.500886666667","24.9961266666667","6500300","中和區"
"235001","611-BX","2018/02/15 12:39:34","新北市中和區員山路111號","121.480841666667","24.994895","6500300","中和區"
"235054","640-BX","2018/02/15 12:39:52","新北市中和區國光街112巷1弄5號","121.469423333333","25.0010316666667","6500300","中和區"
"235024","647-TV","2018/02/15 12:39:49","新北市中和區員山路145號","121.481065","24.9961583333333","6500300","中和區"
"235047","732-UM","2018/02/15 12:39:41","新北市中和區南山路318號","121.507795","24.9866166666667","6500300","中和區"
"235057","801-TS","2018/02/15 12:39:46","新北市中和區民安街127號","121.477005","25.0000383333333","6500300","中和區"
"235053","900-TW","2018/02/15 12:39:50","新北市中和區民享街457號","121.47043","24.993155","6500300","中和區"
"235015","157-BY","2018/02/15 12:39:40","新北市中和區中正路271號","121.495756666667","24.9937783333333","6500300","中和區"
"235059","AAC-215","2018/02/15 12:39:39","新北市中和區圓通路294巷11弄11號","121.48811","24.9899","6500300","中和區"
"220013","072-UY","2018/02/15 12:39:44","新北市板橋區南雅南路二段11-29號","121.453786666667","25.0016466666667","6500100","板橋區"
"247012","546-UM","2018/02/15 12:39:40","新北市林口區太平里180號","121.36819","25.1344516666667","6501400","蘆洲區"
"226004","312-R5","2018/02/15 12:39:50","新北市平溪區白石里白石腳20號","121.720686666667","25.021635","6502400","平溪區"
"226005","5620-A6","2018/02/15 12:38:27","新北市平溪區菁桐里二坑路5號","121.721271666667","25.0244333333333","6502400","平溪區"
"226003","AGD-0702","2018/02/15 12:39:35","新北市平溪區嶺腳里嶺腳寮6號","121.746918333333","25.02953","6502400","平溪區"
"235041","251-BX","2018/02/15 12:39:50","新北市中和區錦和路350-1號","121.490226666667","24.9936066666667","6500300","中和區"
"223008","406-TH","2018/02/15 12:39:35","新北市石碇區排寮1-2號","121.667813333333","25.0074766666667","6501900","石碇區"
"223001","592-UM","2018/02/15 12:39:44","新北市石碇區石碇西街9號","121.659056666667","24.9907916666667","6501900","石碇區"
"223004","660-BX","2018/02/15 12:39:42","新北市石碇區崩山46號","121.680271666667","24.968575","6501900","石碇區"
"224008","275-VK","2018/02/15 12:39:42","新北市瑞芳區民權街3-1號","121.809136666667","25.1081616666667","6501200","瑞芳區"
"224007","273-VK","2018/02/15 12:39:39","新北市瑞芳區大寮路356-1號","121.785101666667","25.10324","6501200","瑞芳區"
"224005","271-BY","2018/02/15 12:39:36","新北市瑞芳區籠山路214-1號","121.855761666667","25.1243283333333","6501200","瑞芳區"
"227004","642-TC","2018/02/15 12:39:46","新北市雙溪區牡丹里頂坪5-1號","121.862713333333","25.038635","6502500","雙溪區"
"227010","400-TW","2018/02/15 12:39:42","新北市雙溪區三貂里定福路1-1號","121.849581666667","25.0630716666667","6502500","雙溪區"
"251015","182-VK","2018/02/15 12:39:39","新北市淡水區淡海路252號","121.420361666667","25.1870283333333","6501000","淡水區"
"237012","275-BY","2018/02/15 12:39:41","新北市三峽區復興路347號","121.36409","24.9385866666667","6500900","三峽區"
"237016","649-BX","2018/02/15 12:39:39","新北市三峽區中山路459巷163-3號","121.34866","24.9327666666667","6500900","三峽區"
"237010","706-TV","2018/02/15 12:39:49","新北市三峽區文化路195號","121.366616666667","24.935715","6500900","三峽區"
"237005","AKY-6261","2018/02/15 12:39:43","新北市三峽區中山路459巷52-1號","121.35625","24.9367916666667","6500900","三峽區"
"236015","270-VK","2018/02/15 12:39:41","新北市土城區裕民路54號","121.448563333333","24.9878266666667","6501300","土城區"
"236033","271-VK","2018/02/15 12:39:45","新北市土城區城林路6巷80號","121.438395","24.9796816666667","6501300","土城區"
"242051","751-BX","2018/02/15 12:39:50","新北市新莊區瓊林南路75號","121.434853333333","25.0146233333333","6500500","新莊區"
"242024","615-BX","2018/02/15 12:39:39","新北市新莊區中信街66-14號","121.44904","25.051715","6500500","新莊區"
"242023","613-BX","2018/02/15 12:39:49","新北市新莊區中華路二段91號","121.452841666667","25.0493816666667","6500500","新莊區"
"242038","566-BX","2018/02/15 12:39:36","新北市新莊區中正路400號","121.441936666667","25.034285","6500500","新莊區"
"242044","497-BY","2018/02/15 12:39:48","新北市新莊區富國路101-1號","121.421345","25.0255316666667","6500500","新莊區"
"242048","441-UM","2018/02/15 12:39:49","新北市新莊區龍安路249巷1號","121.418955","25.0204933333333","6500500","新莊區"
"242053","440-UM","2018/02/15 12:39:35","新北市新莊區中正路384-1號","121.442006666667","25.0351683333333","6500500","新莊區"
"242005","413-TV","2018/02/15 12:39:54","新北市新莊區新泰路357巷3弄57號","121.442118333333","25.0394466666667","6500500","新莊區"
"242042","400-BY","2018/02/15 12:39:32","新北市新莊區新樹路113巷17號","121.438881666667","25.026635","6500500","新莊區"
"242061","362-BY","2018/02/15 12:39:45","新北市新莊區三和路12-16號","121.442325","25.03734","6500500","新莊區"
"242058","353-BY","2018/02/15 12:39:33","新北市新莊區新泰路413巷22號","121.44239","25.0444216666667","6500500","新莊區"
"242007","132-UY","2018/02/15 12:39:39","新北市新莊區福壽街14巷17號","121.458483333333","25.047775","6500500","新莊區"
"242036","133-UY","2018/02/15 12:39:40","新北市新莊區建國二路1號","121.434875","25.0236666666667","6500500","新莊區"
"242021","135-UY","2018/02/15 12:39:51","新北市新莊區復興路一段19號","121.446","25.0416633333333","6500500","新莊區"
"242046","172-VK","2018/02/15 12:39:53","新北市新莊區中正路384號","121.442033333333","25.0343433333333","6500500","新莊區"
"242015","175-VK","2018/02/15 12:39:36","新北市新莊區中環路二段392-1號","121.442431666667","25.04566","6500500","新莊區"
"242002","176-VK","2018/02/15 12:39:53","新北市新莊區瓊林路1號","121.450555","25.0321316666667","6500500","新莊區"
"242019","348-TH","2018/02/15 12:39:36","新北市新莊區新泰路357巷3弄45號","121.442326666667","25.04016","6500500","新莊區"
"242017","350-TH","2018/02/15 12:39:44","新北市新莊區中華路一段103號","121.452708333333","25.0438983333333","6500500","新莊區"
"242011","351-TH","2018/02/15 12:39:50","新北市新莊區新泰路357巷1弄49號","121.442605","25.0399233333333","6500500","新莊區"
"238010","601-UM","2018/02/15 12:39:33","新北市樹林區工興街16號","121.398513333333","25.0131283333333","6500700","樹林區"
"238006","599-UM","2018/02/15 12:39:48","新北市樹林區八德街440號","121.401193333333","24.9703333333333","6500700","樹林區"
"238009","KEA-2213","2018/02/15 12:39:39","新北市樹林區國凱街112號","121.421846666667","24.9796116666667","6500700","樹林區"
"238012","303-VK","2018/02/15 12:39:34","新北市樹林區育德街78號","121.387935","24.96837","6500700","樹林區"
"238001","282-BY","2018/02/15 12:39:40","新北市樹林區中山路三段125-1號","121.397381666667","24.9731","6500700","樹林區"
"238026","172-UY","2018/02/15 12:39:34","新北市樹林區味王街46巷33號","121.40319","24.9736366666667","6500700","樹林區"
"238003","169-UY","2018/02/15 12:39:51","新北市樹林區中山路三段125-10號","121.397351666667","24.9734716666667","6500700","樹林區"
"221027","281-BY","2018/02/15 12:39:48","新北市汐止區汐萬路一段256巷1號","121.651855","25.074945","6501100","汐止區"
"220012","486-VK","2018/02/15 12:39:46","新北市板橋區南雅南路二段92巷40號","121.452848333333","25.0023566666667","6500100","板橋區"
"242031","280-VK","2018/02/15 12:39:46","新北市新莊區新泰路464號","121.443328333333","25.044965","6500500","新莊區"
