"lineid","car","time","location","longitude","latitude","cityid","cityname"
"234078","298-R6","2018/02/15 12:49:42","新北市永和區永利路130號","121.521758333333","25.0029833333333","6500400","永和區"
"234036","336-UY","2018/02/15 12:49:27","新北市永和區成功路一段54號","121.527005","25.0039983333333","6500400","永和區"
"234084","338-UY","2018/02/15 12:49:36","新北市永和區中正路64號","121.513433333333","24.99491","6500400","永和區"
"234012","KEA-2591","2018/02/15 12:49:34","新北市永和區保福路二段109巷16弄1號","121.509658333333","25.0132483333333","6500400","永和區"
"234060","AAD-866","2018/02/15 12:49:42","新北市永和區福和路1號","121.526278333333","25.0096166666667","6500400","永和區"
"234042","862-TW","2018/02/15 12:49:38","新北市永和區保平路111巷5號","121.511678333333","25.0059083333333","6500400","永和區"
"234050","863-TW","2018/02/15 12:48:54","新北市永和區光復街33巷7號","121.515683333333","25.0181066666667","6500400","永和區"
"234025","9372-KE","2018/02/15 12:49:41","新北市永和區豫溪街217巷5號","121.524711666667","25.0095383333333","6500400","永和區"
"234025","9371-KE","2018/02/15 12:49:42","新北市永和區環河東路二段92號","121.524468333333","25.010625","6500400","永和區"
"234010","9373-KE","2018/02/15 12:49:34","新北市永和區保安路13號","121.510428333333","25.0169083333333","6500400","永和區"
"249005","172-UM","2018/02/15 12:49:28","新北市八里區大堀湖2-9號","121.424345","25.1522933333333","6502300","八里區"
"249004","303-UY","2018/02/15 12:49:26","新北市八里區挖子尾街73-1號","121.414708333333","25.16706","6502300","八里區"
"249003","593-UM","2018/02/15 12:49:23","新北市八里區中山路二段198號","121.405633333333","25.1522633333333","6502300","八里區"
"234022","9380-KE","2018/02/15 12:49:26","新北市永和區福和路76巷5弄14號","121.522343333333","25.00838","6500400","永和區"
"234076","969-R7","2018/02/15 12:49:44","新北市永和區中正路2巷5號","121.512873333333","24.9934516666667","6500400","永和區"
"234001","AAC-295","2018/02/15 12:49:39","新北市永和區環河東路二段90號","121.524365","25.01066","6500400","永和區"
"244013","069-UM","2018/02/15 12:49:34","新北市林口區中山路16號","121.396238333333","25.0783","6501700","林口區"
"244007","080-UY","2018/02/15 12:49:35","新北市林口區中華路96號","121.384705","25.09051","6501700","林口區"
"244019","402-UM","2018/02/15 12:49:30","新北市林口區仁愛路二段125號","121.383363333333","25.07479","6501700","林口區"
"244023","483-VK","2018/02/15 12:49:35","新北市林口區粉寮69號","121.404995","25.09082","6501700","林口區"
"244017","485-VK","2018/02/15 12:49:31","新北市林口區文化二路一段240號","121.370111666667","25.0729233333333","6501700","林口區"
"244009","657-BX","2018/02/15 12:49:33","新北市林口區文林街75巷58號","121.381285","25.0913166666667","6501700","林口區"
"244025","837-TS","2018/02/15 12:49:26","新北市林口區中山路520號","121.378775","25.08321","6501700","林口區"
"244021","838-TS","2018/02/15 12:49:40","新北市林口區宏昌街15號","121.4042","25.0850816666667","6501700","林口區"
"243003","267-VK","2018/02/15 12:49:39","新北市泰山區泰林路二段455號","121.425621666667","25.064015","6501600","泰山區"
"243013","646-TV","2018/02/15 12:49:30","新北市泰山區錢厝坑8-3號","121.408686666667","25.0493266666667","6501600","泰山區"
"241011","013-R5","2018/02/15 12:49:30","新北市三重區仁愛街51號","121.496526666667","25.07186","6500200","三重區"
"241028","022-UY","2018/02/15 12:49:42","新北市三重區仁化街120號","121.49447","25.0580933333333","6500200","三重區"
"241009","060-VK","2018/02/15 12:49:44","新北市三重區三和路四段233號","121.481186666667","25.080015","6500200","三重區"
"241031","061-VK","2018/02/15 12:49:41","新北市三重區重陽路一段51號","121.48663","25.0582583333333","6500200","三重區"
"241015","062-VK","2018/02/15 12:49:27","新北市三重區自強路一段8號","121.498833333333","25.06825","6500200","三重區"
"241017","063-VK","2018/02/15 12:49:40","新北市三重區大同北路188號","121.491061666667","25.0666283333333","6500200","三重區"
"241026","066-VK","2018/02/15 12:49:42","新北市三重區中正南路262號","121.493201666667","25.0527233333333","6500200","三重區"
"241005","262-UM","2018/02/15 12:49:35","新北市三重區分子尾街113號","121.48841","25.08293","6500200","三重區"
"241016","265-UM","2018/02/15 12:49:37","新北市三重區大智街7號","121.494663333333","25.0650266666667","6500200","三重區"
"241018","268-UM","2018/02/15 12:49:38","新北市三重區自強路一段284號","121.491735","25.0681233333333","6500200","三重區"
"241032","269-UM","2018/02/15 12:49:37","新北市八里區中山路三段387號","121.371965","25.1374466666667","6500200","三重區"
"241007","398-BY","2018/02/15 12:49:27","新北市三重區三和路四段95號","121.488048333333","25.0760066666667","6500200","三重區"
"241030","480-VK","2018/02/15 12:49:33","新北市三重區重新路四段121號","121.484916666667","25.0521133333333","6500200","三重區"
"241014","543-UM","2018/02/15 12:49:39","新北市三重區河邊北街70-1號","121.504418333333","25.0682883333333","6500200","三重區"
"241001","547-UM","2018/02/15 12:49:27","新北市三重區仁愛街162號","121.494266666667","25.0763416666667","6500200","三重區"
"241019","KEA-2593","2018/02/15 12:49:44","新北市三重區重陽路四段59號","121.49212","25.07058","6500200","三重區"
"241006","AAD-863","2018/02/15 12:49:29","新北市三重區永福街48巷5號","121.481783333333","25.07783","6500200","三重區"
"241029","942-UM","2018/02/15 12:49:30","新北市三重區大同南路212巷69號","121.498516666667","25.0568","6500200","三重區"
"235030","003-UY","2018/02/15 12:49:28","新北市中和區水源路29巷12號","121.504301666667","25.00411","6500300","中和區"
"235064","005-UY","2018/02/15 12:49:42","新北市中和區員山路36巷16-3號","121.485008333333","24.9912283333333","6500300","中和區"
"235063","006-UY","2018/02/15 12:49:29","新北市中和區連城路347巷2弄1號","121.48815","24.99576","6500300","中和區"
"235029","098-UM","2018/02/15 12:49:33","新北市中和區中山路二段2巷45弄2號","121.502425","25.0070683333333","6500300","中和區"
"235058","151-BY","2018/02/15 12:49:41","新北市中和區連城路518巷1號","121.476768333333","24.9919466666667","6500300","中和區"
"235019","183-VK","2018/02/15 12:49:44","新北市中和區德光路77巷1號","121.469505","25.0035166666667","6500300","中和區"
"235038","185-VK","2018/02/15 12:49:45","新北市中和區景平路105號","121.516916666667","24.99182","6500300","中和區"
"235013","186-VK","2018/02/15 12:49:36","新北市中和區中正路250號","121.495668333333","24.9938933333333","6500300","中和區"
"235031","255-BX","2018/02/15 12:49:33","新北市中和區中山路二段568巷46號","121.482325","25.0070916666667","6500300","中和區"
"235043","352-BY","2018/02/15 12:49:42","新北市中和區中正路250號","121.495646666667","24.9938983333333","6500300","中和區"
"235068","377-QA","2018/02/15 12:47:14","新北市中和區中正路269號","121.495891666667","24.99352","6500300","中和區"
"235061","378-QA","2018/02/15 12:49:44","新北市中和區國光街215巷24弄10號","121.46672","25.00009","6500300","中和區"
"235035","269-TV","2018/02/15 12:49:40","新北市中和區板南路487號","121.487635","25.006125","6500300","中和區"
"235069","4980-A6","2018/02/15 12:49:42","新北市中和區連城路125號","121.49617","24.9991233333333","6500300","中和區"
"235042","551-UM","2018/02/15 12:49:34","新北市中和區景平路64巷19號","121.522273333333","24.991475","6500300","中和區"
"235034","558-UM","2018/02/15 12:49:44","新北市中和區南華路36號","121.503518333333","24.9963516666667","6500300","中和區"
"235045","565-BX","2018/02/15 12:49:40","新北市中和區復興路331號","121.500603333333","24.9903016666667","6500300","中和區"
"235001","611-BX","2018/02/15 12:49:34","新北市中和區員山路314巷7弄8號","121.482136666667","25.0032616666667","6500300","中和區"
"235054","640-BX","2018/02/15 12:49:32","新北市中和區民享街119巷1號","121.474535","24.9988616666667","6500300","中和區"
"235024","647-TV","2018/02/15 12:49:29","新北市中和區員山路168號","121.481303333333","24.9998216666667","6500300","中和區"
"235047","732-UM","2018/02/15 12:49:41","新北市中和區興南路二段34巷59號","121.504923333333","24.9855033333333","6500300","中和區"
"235046","733-UM","2018/02/15 12:49:42","新北市中和區中正路271號","121.495905","24.9937916666667","6500300","中和區"
"235057","801-TS","2018/02/15 12:49:26","新北市中和區民享街97巷21號","121.47538","24.9995066666667","6500300","中和區"
"235052","805-TS","2018/02/15 12:49:38","新北市中和區中正路273號","121.495671666667","24.9938516666667","6500300","中和區"
"235048","896-TW","2018/02/15 12:49:32","新北市中和區中正路395號","121.489906666667","24.9935366666667","6500300","中和區"
"235053","900-TW","2018/02/15 12:49:34","新北市中和區華安街16巷19號","121.46602","24.9975016666667","6500300","中和區"
"235015","157-BY","2018/02/15 12:49:40","新北市中和區捷運路8-3號","121.509606666667","24.989565","6500300","中和區"
"235037","AAC-213","2018/02/15 12:49:33","新北市中和區景平路261號","121.508443333333","24.9930333333333","6500300","中和區"
"235059","AAC-215","2018/02/15 12:49:39","新北市中和區圓通路417-15號","121.488616666667","24.98892","6500300","中和區"
"220068","013-TV","2018/02/15 12:49:37","新北市板橋區民生路二段161巷9號","121.470266666667","25.0196766666667","6500100","板橋區"
"220013","072-UY","2018/02/15 12:49:38","新北市板橋區民族路247巷9弄52號","121.471021666667","25.008815","6500100","板橋區"
"220086","073-UY","2018/02/15 12:49:29","新北市板橋區大智街71巷3弄1號","121.453518333333","25.015275","6500100","板橋區"
"220105","075-UY","2018/02/15 12:49:36","新北市板橋區民生路二段161巷1號","121.470166666667","25.0198933333333","6500100","板橋區"
"220017","AAD-861","2018/02/15 12:49:43","新北市板橋區大華街1號","121.458753333333","25.006685","6500100","板橋區"
"247012","546-UM","2018/02/15 12:49:40","新北市五股區中直路17-4號","121.422208333333","25.1113866666667","6501400","蘆洲區"
"226004","312-R5","2018/02/15 12:47:10","新北市平溪區靜安路二段10號","121.706556666667","25.01848","6502400","平溪區"
"226005","5620-A6","2018/02/15 12:49:27","新北市平溪區白石里白石腳211號","121.728171666667","25.0226233333333","6502400","平溪區"
"226003","AGD-0702","2018/02/15 12:49:35","新北市平溪區嶺腳里嶺腳寮68-1號","121.748026666667","25.0319833333333","6502400","平溪區"
"235041","251-BX","2018/02/15 12:49:31","新北市中和區景安路33號","121.507518333333","24.9986033333333","6500300","中和區"
"223008","406-TH","2018/02/15 12:49:35","新北市石碇區十八重溪47號","121.675288333333","25.0128216666667","6501900","石碇區"
"223001","592-UM","2018/02/15 12:49:44","新北市石碇區烏塗窟26-1號","121.657253333333","24.9751766666667","6501900","石碇區"
"223004","660-BX","2018/02/15 12:49:42","新北市石碇區碇坪路二段9號","121.680126666667","24.975545","6501900","石碇區"
"224008","275-VK","2018/02/15 12:49:33","新北市瑞芳區民權街3-1號","121.809186666667","25.1084283333333","6501200","瑞芳區"
"224007","273-VK","2018/02/15 12:49:39","新北市瑞芳區粗坑口路5號","121.76161","25.09839","6501200","瑞芳區"
"224005","271-BY","2018/02/15 12:49:36","新北市瑞芳區洞頂路157號","121.861338333333","25.1229116666667","6501200","瑞芳區"
"227004","642-TC","2018/02/15 12:49:46","新北市雙溪區平林里外平林44號","121.8529","25.0363366666667","6502500","雙溪區"
"227010","400-TW","2018/02/15 12:49:42","新北市雙溪區牡丹里中正路56號","121.865555","25.0405883333333","6502500","雙溪區"
"251004","009-UM","2018/02/15 12:49:36","新北市淡水區中正東路一段9巷1號","121.451058333333","25.1638","6501000","淡水區"
"251014","180-VK","2018/02/15 12:49:42","新北市淡水區義山路一段35號","121.4377","25.187875","6501000","淡水區"
"251015","182-VK","2018/02/15 12:49:39","新北市淡水區中正路二段31號","121.419333333333","25.1815383333333","6501000","淡水區"
"251010","413-VK","2018/02/15 12:49:31","新北市淡水區沙崙路97-1號","121.421916666667","25.1817816666667","6501000","淡水區"
"251012","441-VK","2018/02/15 12:49:38","新北市淡水區新興街106號","121.43996","25.1808383333333","6501000","淡水區"
"251016","442-VK","2018/02/15 12:49:33","新北市淡水區沙崙路331號","121.427658333333","25.1875866666667","6501000","淡水區"
"251007","577-R6","2018/02/15 12:49:37","新北市淡水區中正路二段31號","121.41958","25.1815","6501000","淡水區"
"251011","650-BX","2018/02/15 12:49:27","新北市淡水區中正路261號","121.431631666667","25.1748416666667","6501000","淡水區"
"237007","153-BY","2018/02/15 12:49:38","新北市三峽區中園街143號","121.367371666667","24.9231816666667","6500900","三峽區"
"237013","252-BX","2018/02/15 12:49:43","新北市三峽區介壽路一段176號","121.37725","24.9309733333333","6500900","三峽區"
"237012","275-BY","2018/02/15 12:49:41","新北市三峽區民生街27巷1號","121.376091666667","24.9361883333333","6500900","三峽區"
"237008","302-VK","2018/02/15 12:49:46","新北市三峽區正義街138號","121.368498333333","24.916615","6500900","三峽區"
"237016","649-BX","2018/02/15 12:49:39","新北市三峽區中園街11號","121.368506666667","24.9272416666667","6500900","三峽區"
"237010","706-TV","2018/02/15 12:49:44","新北市三峽區文化路209號","121.366238333333","24.935495","6500900","三峽區"
"237005","AKY-6261","2018/02/15 12:49:43","新北市三峽區中山路219巷7號","121.363213333333","24.9362666666667","6500900","三峽區"
"236015","270-VK","2018/02/15 12:49:41","新北市土城區青雲路39巷7號","121.46035","24.9875183333333","6501300","土城區"
"236033","271-VK","2018/02/15 12:49:25","新北市土城區青雲路322巷2弄4號","121.458165","24.9772683333333","6501300","土城區"
"236054","AAC-216","2018/02/15 12:49:29","新北市土城區中華路二段102號","121.438068333333","24.974325","6501300","土城區"
"242051","751-BX","2018/02/15 12:49:30","新北市新莊區新樹路449巷28號","121.434453333333","25.01415","6500500","新莊區"
"242024","615-BX","2018/02/15 12:49:39","新北市新莊區復興路一段222號","121.453161666667","25.0436566666667","6500500","新莊區"
"242023","613-BX","2018/02/15 12:49:29","新北市新莊區中華路一段130號","121.452528333333","25.0412183333333","6500500","新莊區"
"242027","612-BX","2018/02/15 12:49:26","新北市新莊區中港一街143號","121.447871666667","25.0450966666667","6500500","新莊區"
"242038","566-BX","2018/02/15 12:49:36","新北市新莊區民安路426-9號","121.432866666667","25.02277","6500500","新莊區"
"242044","497-BY","2018/02/15 12:49:28","新北市新莊區富國路101-1號","121.421351666667","25.0255416666667","6500500","新莊區"
"242048","441-UM","2018/02/15 12:49:29","新北市新莊區龍安路257號","121.41983","25.02","6500500","新莊區"
"242053","440-UM","2018/02/15 12:49:35","新北市新莊區環河路462號","121.44013","25.01974","6500500","新莊區"
"242034","415-TV","2018/02/15 12:49:43","新北市新莊區新莊路751巷126號","121.442195","25.0294416666667","6500500","新莊區"
"242005","413-TV","2018/02/15 12:49:34","新北市新莊區復興路一段85號","121.448431666667","25.0428183333333","6500500","新莊區"
"242042","400-BY","2018/02/15 12:49:32","新北市新莊區中正路514巷13號","121.433086666667","25.0329083333333","6500500","新莊區"
"242061","362-BY","2018/02/15 12:49:45","新北市新莊區新樹路69-66號","121.442135","25.02934","6500500","新莊區"
"242058","353-BY","2018/02/15 12:49:34","新北市新莊區中正路499號","121.44069","25.03353","6500500","新莊區"
"242007","132-UY","2018/02/15 12:49:39","新北市新莊區中華路二段65號","121.452915","25.0473233333333","6500500","新莊區"
"242036","133-UY","2018/02/15 12:49:40","新北市新莊區建國二路1號","121.434881666667","25.023615","6500500","新莊區"
"242021","135-UY","2018/02/15 12:49:31","新北市新莊區中正路130號","121.452841666667","25.0361583333333","6500500","新莊區"
"242046","172-VK","2018/02/15 12:49:32","新北市新莊區新樹路65-5號","121.439316666667","25.0308733333333","6500500","新莊區"
"242009","173-VK","2018/02/15 12:49:40","新北市新莊區中原路193-1號","121.451745","25.054155","6500500","新莊區"
"242015","175-VK","2018/02/15 12:49:36","新北市新莊區新泰路146號","121.447888333333","25.0371016666667","6500500","新莊區"
"242002","176-VK","2018/02/15 12:49:32","新北市新莊區新莊路154號","121.455286666667","25.035485","6500500","新莊區"
"242019","348-TH","2018/02/15 12:49:36","新北市新莊區明中街45-2號","121.457478333333","25.0392983333333","6500500","新莊區"
"242056","349-TH","2018/02/15 12:49:44","新北市新莊區三和路12-11號","121.442023333333","25.0369033333333","6500500","新莊區"
"242017","350-TH","2018/02/15 12:49:44","新北市新莊區中華路一段103號","121.452715","25.0438683333333","6500500","新莊區"
"242011","351-TH","2018/02/15 12:49:29","新北市新莊區中港路397號","121.451798333333","25.0468183333333","6500500","新莊區"
"238010","601-UM","2018/02/15 12:49:33","新北市樹林區大慶街58號","121.39676","25.0140033333333","6500700","樹林區"
"238006","599-UM","2018/02/15 12:49:27","新北市樹林區國凱街82號","121.421328333333","24.9792433333333","6500700","樹林區"
"238018","571-TV","2018/02/15 12:49:35","新北市樹林區水源街81號","121.426446666667","24.97897","6500700","樹林區"
"238009","KEA-2213","2018/02/15 12:49:39","新北市樹林區信義街63號","121.424548333333","24.982905","6500700","樹林區"
"238012","303-VK","2018/02/15 12:49:34","新北市樹林區東佳路8號","121.401728333333","24.97649","6500700","樹林區"
"238004","283-BY","2018/02/15 12:49:42","新北市樹林區東佳路8-2號","121.402458333333","24.9773633333333","6500700","樹林區"
"238001","282-BY","2018/02/15 12:49:40","新北市樹林區長壽街70巷12弄2號","121.421971666667","24.9947333333333","6500700","樹林區"
"238026","172-UY","2018/02/15 12:49:34","新北市樹林區味王街42號","121.404601666667","24.9738183333333","6500700","樹林區"
"238003","169-UY","2018/02/15 12:49:31","新北市樹林區中山路二段2號","121.417863333333","24.9851616666667","6500700","樹林區"
"221027","281-BY","2018/02/15 12:49:28","新北市汐止區汐萬路一段256巷1號","121.651798333333","25.0748983333333","6501100","汐止區"
"221021","299-VK","2018/02/15 12:49:43","新北市汐止區康寧街901號","121.650901666667","25.0752666666667","6501100","汐止區"
"220020","277-BY","2018/02/15 12:49:35","新北市板橋區板城路421號","121.447725","24.9963816666667","6500100","板橋區"
"220019","283-VK","2018/02/15 12:49:33","新北市板橋區華東街1-10號","121.448618333333","24.9949516666667","6500100","板橋區"
"220045","285-UM","2018/02/15 12:49:25","新北市板橋區莊敬路208巷8弄9號","121.471003333333","25.0204783333333","6500100","板橋區"
"220001","285-VK","2018/02/15 12:49:24","新北市板橋區民生路二段120號","121.470293333333","25.01997","6500100","板橋區"
"220081","287-VK","2018/02/15 12:49:30","新北市板橋區華東街11號","121.451098333333","24.99807","6500100","板橋區"
"220032","296-UM","2018/02/15 12:49:39","新北市板橋區華東街1-9號","121.448141666667","24.994965","6500100","板橋區"
"220092","307-R5","2018/02/15 12:49:40","新北市板橋區民生路二段120號","121.470351666667","25.019755","6500100","板橋區"
"220012","486-VK","2018/02/15 12:49:26","新北市板橋區民生路二段36-1號","121.47211","25.01674","6500100","板橋區"
"242031","280-VK","2018/02/15 12:49:46","新北市新莊區新泰路464號","121.443378333333","25.0449733333333","6500500","新莊區"
"220088","491-VK","2018/02/15 12:49:34","新北市板橋區民生路二段171號","121.469966666667","25.02022","6500100","板橋區"
"220104","560-BX","2018/02/15 12:49:34","新北市板橋區南雅西路二段175巷7號","121.451563333333","25.012195","6500100","板橋區"
"220052","561-BX","2018/02/15 12:49:30","新北市板橋區民生路二段161巷5號","121.470263333333","25.0197566666667","6500100","板橋區"
"220011","609-BX","2018/02/15 12:49:42","新北市板橋區民生路二段120號","121.47037","25.01993","6500100","板橋區"
"220093","689-BX","2018/02/15 12:49:44","新北市板橋區民生路二段188號","121.470193333333","25.0201966666667","6500100","板橋區"
"220003","827-TW","2018/02/15 12:49:31","新北市板橋區華東街11號","121.450923333333","24.9979366666667","6500100","板橋區"
"220014","829-TW","2018/02/15 12:49:31","新北市板橋區三民路二段正隆巷45號","121.476821666667","25.0133483333333","6500100","板橋區"
"220022","895-R6","2018/02/15 12:49:26","新北市板橋區南雅南路二段11-5號","121.454063333333","25.00235","6500100","板橋區"
"220073","985-R7","2018/02/15 12:49:29","新北市板橋區南雅南路二段11-5號","121.454063333333","25.0023783333333","6500100","板橋區"
"220070","AAC-253","2018/02/15 12:49:33","新北市板橋區板城路407號","121.447633333333","24.99534","6500100","板橋區"
