"lineid","car","time","location","longitude","latitude","cityid","cityname"
"234044","148-BY","2018/02/15 13:49:29","新北市新店區安德街60巷23號","121.51049","24.9634416666667","6500400","永和區"
"234066","149-BY","2018/02/15 13:49:25","新北市中和區安樂路48號","121.511961666667","24.9930433333333","6500400","永和區"
"234005","207-UY","2018/02/15 13:49:36","新北市永和區永和路一段78-1號","121.513066666667","25.0064116666667","6500400","永和區"
"234078","298-R6","2018/02/15 13:49:22","新北市永和區保生路55-8號","121.50399","25.01039","6500400","永和區"
"234036","336-UY","2018/02/15 13:49:27","新北市新店區安和路三段1-1號","121.517041666667","24.9795016666667","6500400","永和區"
"234062","337-UY","2018/02/15 13:49:35","新北市永和區中正路368巷1弄59號","121.51975","25.0010383333333","6500400","永和區"
"234084","338-UY","2018/02/15 13:49:36","新北市永和區成功路一段18巷20號","121.526151666667","25.00519","6500400","永和區"
"234068","552-UM","2018/02/15 13:49:24","新北市永和區中正路722號","121.515753333333","25.010095","6500400","永和區"
"234015","745-BX","2018/02/15 13:49:30","新北市永和區保安路36號","121.510455","25.0169666666667","6500400","永和區"
"234052","KEA-2590","2018/02/15 13:49:37","新北市永和區竹林路39巷24弄22號","121.519255","25.0138983333333","6500400","永和區"
"234012","KEA-2591","2018/02/15 13:49:34","新北市永和區永貞路443號","121.50643","25.01014","6500400","永和區"
"234060","AAD-866","2018/02/15 13:49:25","新北市永和區中正路350號","121.517683333333","25.0004483333333","6500400","永和區"
"234042","862-TW","2018/02/15 13:49:38","新北市永和區中和路389巷44弄2號","121.508093333333","25.0021233333333","6500400","永和區"
"234050","863-TW","2018/02/15 13:49:34","新北市永和區信義路120號","121.51243","25.014635","6500400","永和區"
"234025","9372-KE","2018/02/15 13:49:21","新北市永和區豫溪街52巷16號","121.515716666667","25.0092016666667","6500400","永和區"
"234025","9371-KE","2018/02/15 13:49:22","新北市永和區永平路258號","121.508233333333","25.01132","6500400","永和區"
"234010","9381-KE","2018/02/15 13:49:25","新北市永和區忠孝街34巷18號","121.514465","25.01681","6500400","永和區"
"249005","172-UM","2018/02/15 13:49:28","新北市八里區荖阡坑路18號","121.398218333333","25.1381883333333","6502300","八里區"
"249001","173-UM","2018/02/15 13:49:29","新北市八里區龍米路二段35號","121.448413333333","25.1400516666667","6502300","八里區"
"249004","303-UY","2018/02/15 13:49:26","新北市八里區龍米路二段199號","121.433201666667","25.1583366666667","6502300","八里區"
"249002","305-UY","2018/02/15 13:49:35","新北市八里區龍形五街29號","121.449888333333","25.133465","6502300","八里區"
"249003","593-UM","2018/02/15 13:49:23","新北市八里區中華路二段258巷6號","121.405136666667","25.14973","6502300","八里區"
"248015","026-BX","2018/02/15 13:49:24","新北市五股區成泰路三段543巷60號","121.449565","25.1032016666667","6501500","五股區"
"248005","077-UY","2018/02/15 13:49:41","新北市五股區中興路一段13號","121.469268333333","25.0722816666667","6501500","五股區"
"248007","095-VK","2018/02/15 13:49:35","新北市五股區中興路一段128巷36號","121.465743333333","25.07532","6501500","五股區"
"248019","225-UY","2018/02/15 13:49:08","新北市五股區孝義路102號","121.445188333333","25.1197716666667","6501500","五股區"
"248005","653-BX","2018/02/15 13:48:45","新北市五股區明德路12巷16號","121.433366666667","25.0720433333333","6501500","五股區"
"248003","677-BX","2018/02/15 13:49:23","新北市五股區民義路二段41號","121.413946666667","25.10142","6501500","五股區"
"248001","678-BX","2018/02/15 13:49:38","新北市五股區成泰路三段435巷8號","121.44967","25.09798","6501500","五股區"
"234022","9380-KE","2018/02/15 13:49:26","新北市永和區竹林路109巷5號","121.520221666667","25.01195","6500400","永和區"
"234072","AAC-211","2018/02/15 13:49:39","新北市永和區竹林路215號","121.520846666667","25.0088","6500400","永和區"
"234001","AAC-295","2018/02/15 13:49:39","新北市永和區永平路79號","121.511636666667","25.0082733333333","6500400","永和區"
"244013","069-UM","2018/02/15 13:49:34","新北市林口區佳林路101巷36號","121.386985","25.0799933333333","6501700","林口區"
"244007","080-UY","2018/02/15 13:49:15","新北市林口區竹林路77-2號","121.388393333333","25.0794216666667","6501700","林口區"
"244019","402-UM","2018/02/15 13:49:30","新北市林口區麗園路167號","121.371571666667","25.066915","6501700","林口區"
"244023","483-VK","2018/02/15 13:49:35","新北市林口區隆林街101巷14號","121.385185","25.0742583333333","6501700","林口區"
"244017","485-VK","2018/02/15 13:49:31","新北市林口區文化二路一段68巷24-1號","121.366945","25.0688083333333","6501700","林口區"
"244009","657-BX","2018/02/15 13:49:33","新北市林口區佳林路56巷25號","121.385356666667","25.081075","6501700","林口區"
"244011","701-TV","2018/02/15 13:49:39","新北市林口區興林路17巷3弄1號","121.390125","25.0770316666667","6501700","林口區"
"244025","837-TS","2018/02/15 13:49:31","新北市林口區南勢六街57號","121.355475","25.071945","6501700","林口區"
"244021","838-TS","2018/02/15 13:49:40","新北市林口區仁愛路一段48巷52號","121.39742","25.0773283333333","6501700","林口區"
"243012","539-UM","2018/02/15 13:49:27","新北市泰山區福興三街11號","121.434498333333","25.05774","6501600","泰山區"
"243010","KEA-2215","2018/02/15 13:49:29","新北市泰山區明志路一段482號","121.430593333333","25.0549433333333","6501600","泰山區"
"243001","KEA-2216","2018/02/15 13:49:28","新北市泰山區泰林路二段360號","121.428985","25.0635833333333","6501600","泰山區"
"243013","646-TV","2018/02/15 13:49:30","新北市泰山區明志路三段206巷3號","121.42323","25.0379416666667","6501600","泰山區"
"222002","659-BX","2018/02/15 13:49:21","新北市深坑區文化街10號","121.620418333333","25.001385","6501800","深坑區"
"231061","047-UY","2018/02/15 13:49:33","新北市新店區安康路一段116號","121.527128333333","24.96257","6500600","新店區"
"241011","013-R5","2018/02/15 13:49:30","新北市三重區龍濱路217號","121.501813333333","25.0719733333333","6500200","三重區"
"241008","059-VK","2018/02/15 13:49:33","新北市三重區永安北路一段21巷14號","121.476903333333","25.0752816666667","6500200","三重區"
"241015","062-VK","2018/02/15 13:49:27","新北市三重區長元街79-1號","121.503421666667","25.0668016666667","6500200","三重區"
"241026","066-VK","2018/02/15 13:49:42","新北市三重區福德南路36號","121.502851666667","25.0627133333333","6500200","三重區"
"241016","265-UM","2018/02/15 13:49:37","新北市三重區新北大道一段3-1號","121.490021666667","25.0612333333333","6500200","三重區"
"241018","268-UM","2018/02/15 13:49:38","新北市三重區民生東街12號","121.49278","25.0686366666667","6500200","三重區"
"241032","269-UM","2018/02/15 13:49:37","新北市三重區新北大道一段35巷12號","121.485991666667","25.0608383333333","6500200","三重區"
"241024","462-BY","2018/02/15 13:49:35","新北市三重區正義北路33巷44號","121.49889","25.0638833333333","6500200","三重區"
"241030","480-VK","2018/02/15 13:49:33","新北市三重區新興路40號","121.491501666667","25.0533766666667","6500200","三重區"
"241001","547-UM","2018/02/15 13:49:27","新北市三重區福隆路93號","121.492185","25.078185","6500200","三重區"
"241019","KEA-2593","2018/02/15 13:49:24","新北市三重區自強路二段76號","121.488061666667","25.0704233333333","6500200","三重區"
"241029","942-UM","2018/02/15 13:49:30","新北市五股區凌雲路二段66號","121.439631666667","25.1062466666667","6500200","三重區"
"235064","005-UY","2018/02/15 13:49:42","新北市中和區泰和街33號","121.499186666667","24.999745","6500300","中和區"
"235056","096-UM","2018/02/15 13:49:37","新北市中和區民富街86號","121.47649","25.00817","6500300","中和區"
"235039","097-UM","2018/02/15 13:49:38","新北市中和區安樂路217巷36號","121.513543333333","24.9981683333333","6500300","中和區"
"235029","098-UM","2018/02/15 13:49:33","新北市中和區中山路二段2巷13弄6號","121.503415","25.0065416666667","6500300","中和區"
"235040","150-BY","2018/02/15 13:49:29","新北市中和區宜安路129號","121.509665","24.99811","6500300","中和區"
"235013","186-VK","2018/02/15 13:49:36","新北市中和區景新街228-6號","121.508138333333","24.994155","6500300","中和區"
"235031","255-BX","2018/02/15 13:48:53","新北市中和區圓通路417-40號","121.489156666667","24.9874633333333","6500300","中和區"
"235044","293-VK","2018/02/15 13:49:33","新北市中和區中興街264號","121.49891","24.98749","6500300","中和區"
"235036","301-VK","2018/02/15 13:49:38","新北市中和區中正路368號","121.492848333333","24.9941116666667","6500300","中和區"
"235043","352-BY","2018/02/15 13:49:22","新北市中和區景平路40號","121.523031666667","24.9906766666667","6500300","中和區"
"235068","377-QA","2018/02/15 13:49:34","新北市中和區圓通路158巷1弄7號","121.497445","24.9959433333333","6500300","中和區"
"235061","378-QA","2018/02/15 13:49:24","新北市中和區中山路三段63巷13弄1號","121.477201666667","25.004005","6500300","中和區"
"235035","269-TV","2018/02/15 13:49:40","新北市中和區中正路828號","121.484851666667","25.003535","6500300","中和區"
"235050","4979-A6","2018/02/15 13:49:33","新北市中和區南山路373號","121.506248333333","24.9904083333333","6500300","中和區"
"235069","4980-A6","2018/02/15 13:49:22","新北市中和區中和路217巷1弄1號","121.504035","25.0002966666667","6500300","中和區"
"235042","551-UM","2018/02/15 13:49:34","新北市新店區安和路三段144號","121.51601","24.9862066666667","6500300","中和區"
"235034","558-UM","2018/02/15 13:49:23","新北市新店區安興路131巷2號","121.515571666667","24.979195","6500300","中和區"
"235024","647-TV","2018/02/15 13:49:29","新北市中和區自治街52號","121.475576666667","25.0034","6500300","中和區"
"235047","732-UM","2018/02/15 13:49:22","新北市新店區安業街2號","121.515415","24.9787466666667","6500300","中和區"
"235046","733-UM","2018/02/15 13:49:42","新北市中和區忠孝街2巷14弄10號","121.510631666667","24.98138","6500300","中和區"
"235052","805-TS","2018/02/15 13:49:38","新北市中和區興南路二段114巷21弄6號","121.503491666667","24.9842783333333","6500300","中和區"
"235048","896-TW","2018/02/15 13:49:32","新北市中和區華新街109巷22號","121.508406666667","24.98048","6500300","中和區"
"235053","900-TW","2018/02/15 13:49:37","新北市中和區華順街52號","121.466168333333","24.9985116666667","6500300","中和區"
"235015","157-BY","2018/02/15 13:49:40","新北市中和區忠孝街106巷9弄9號","121.512496666667","24.98454","6500300","中和區"
"235037","AAC-213","2018/02/15 13:49:33","新北市中和區秀朗路三段10巷37弄2號","121.52413","24.996105","6500300","中和區"
"220068","013-TV","2018/02/15 13:49:37","新北市板橋區中山路二段553巷8號","121.48371","25.0221183333333","6500100","板橋區"
"220027","015-TV","2018/02/15 13:49:33","新北市板橋區民權路260巷65號","121.460291666667","25.015025","6500100","板橋區"
"220013","072-UY","2018/02/15 13:49:24","新北市板橋區成都街73-3號","121.462491666667","25.0051383333333","6500100","板橋區"
"220086","073-UY","2018/02/15 13:49:29","新北市板橋區中正路216巷100號","121.458805","25.0190866666667","6500100","板橋區"
"220105","075-UY","2018/02/15 13:49:36","新北市板橋區文化路二段584號","121.476826666667","25.03474","6500100","板橋區"
"220017","AAD-861","2018/02/15 13:49:22","新北市板橋區南雅南路二段120-16號","121.452028333333","24.9992466666667","6500100","板橋區"
"247022","893-R6","2018/02/15 13:49:28","新北市蘆洲區三民路229號","121.469523333333","25.0883333333333","6501400","蘆洲區"
"247012","546-UM","2018/02/15 13:49:28","新北市蘆洲區民族路171號","121.479078333333","25.08831","6501400","蘆洲區"
"247020","500-BY","2018/02/15 13:49:33","新北市蘆洲區仁愛街102-8號","121.470083333333","25.0949083333333","6501400","蘆洲區"
"247008","341-TH","2018/02/15 13:49:27","新北市蘆洲區成功路11號","121.47356","25.0783883333333","6501400","蘆洲區"
"247010","339-TH","2018/02/15 13:49:41","新北市蘆洲區中山一路113號","121.476315","25.0816166666667","6501400","蘆洲區"
"247001","337-TH","2018/02/15 13:49:28","新北市蘆洲區永平街35號","121.458326666667","25.0910183333333","6501400","蘆洲區"
"247015","057-VK","2018/02/15 13:44:13","新北市蘆洲區光華路68號","121.46807","25.0828833333333","6501400","蘆洲區"
"247006","056-VK","2018/02/15 13:49:23","新北市蘆洲區長安街68巷41號","121.463991666667","25.0811733333333","6501400","蘆洲區"
"247013","007-UY","2018/02/15 13:49:24","新北市蘆洲區中正路132號","121.46926","25.0850266666667","6501400","蘆洲區"
"226004","312-R5","2018/02/15 13:49:30","新北市平溪區望古里灰3號","121.760398333333","25.0311266666667","6502400","平溪區"
"226005","5620-A6","2018/02/15 13:49:27","新北市平溪區南山里六分1號","121.791113333333","25.046685","6502400","平溪區"
"226003","AGD-0702","2018/02/15 13:48:32","新北市平溪區十分里十分街54號","121.775195","25.04145","6502400","平溪區"
"235041","251-BX","2018/02/15 13:49:31","新北市中和區中安街26號","121.513308333333","25.0029916666667","6500300","中和區"
"223008","406-TH","2018/02/15 13:49:35","新北市石碇區靜安路一段293號","121.695058333333","25.007045","6501900","石碇區"
"223004","660-BX","2018/02/15 13:49:22","新北市石碇區楓子林30號","121.642308333333","25.0095516666667","6501900","石碇區"
"228004","212-TW","2018/02/15 13:49:41","新北市貢寮區吉林里內寮街20號","121.88977","24.9943566666667","6502600","貢寮區"
"228002","585-TW","2018/02/15 13:49:30","新北市貢寮區福隆里裕隆街1號","121.947928333333","25.0147533333333","6502600","貢寮區"
"224008","275-VK","2018/02/15 13:49:33","新北市瑞芳區明燈路一段15號","121.824026666667","25.1071","6501200","瑞芳區"
"224007","273-VK","2018/02/15 13:49:39","新北市瑞芳區楓子瀨路54-1號","121.768968333333","25.1038216666667","6501200","瑞芳區"
"224005","271-BY","2018/02/15 13:49:36","新北市瑞芳區弘祥新村2號","121.817171666667","25.12889","6501200","瑞芳區"
"224006","201-TW","2018/02/15 13:49:31","新北市瑞芳區傑魚坑路320號","121.786431666667","25.1049416666667","6501200","瑞芳區"
"227004","642-TC","2018/02/15 13:49:26","新北市雙溪區外柑里外柑腳71號","121.807068333333","25.0175733333333","6502500","雙溪區"
"227010","400-TW","2018/02/15 13:49:22","新北市雙溪區牡丹里石1號","121.864755","25.0527033333333","6502500","雙溪區"
"253006","295-VK","2018/02/15 13:49:19","新北市石門區中央路6號","121.566566666667","25.2913716666667","6502200","石門區"
"251009","008-UM","2018/02/15 13:49:28","新北市淡水區中山北路一段180巷13號","121.445226666667","25.1782266666667","6501000","淡水區"
"251004","009-UM","2018/02/15 13:49:36","新北市淡水區民族路31巷11號","121.462243333333","25.13633","6501000","淡水區"
"251013","179-VK","2018/02/15 13:49:37","新北市淡水區竹圍子5-2號","121.484251666667","25.1931266666667","6501000","淡水區"
"251014","180-VK","2018/02/15 13:49:21","新北市淡水區南平11-3號","121.486026666667","25.2215933333333","6501000","淡水區"
"251008","181-VK","2018/02/15 13:49:28","新北市淡水區八勢路一段156號","121.468118333333","25.1565066666667","6501000","淡水區"
"251015","182-VK","2018/02/15 13:49:39","新北市淡水區三空泉17-5號","121.473135","25.1651816666667","6501000","淡水區"
"251010","413-VK","2018/02/15 13:49:31","新北市淡水區沙崙路181巷2號","121.424466666667","25.1839233333333","6501000","淡水區"
"251012","441-VK","2018/02/15 13:49:37","新北市淡水區北新路一段175號","121.459271666667","25.1822683333333","6501000","淡水區"
"251016","442-VK","2018/02/15 13:49:32","新北市淡水區埤島30-15號","121.448381666667","25.1978666666667","6501000","淡水區"
"251005","443-VK","2018/02/15 13:49:36","新北市淡水區原德路11號","121.442086666667","25.1712683333333","6501000","淡水區"
"251001","559-UM","2018/02/15 13:49:36","新北市淡水區自強路14號","121.464453333333","25.1252016666667","6501000","淡水區"
"251006","561-UM","2018/02/15 13:49:39","新北市淡水區新生街108巷1-2號","121.440305","25.174755","6501000","淡水區"
"251007","577-R6","2018/02/15 13:49:36","新北市淡水區中正東路二段143巷2弄1號","121.46074","25.14729","6501000","淡水區"
"251011","650-BX","2018/02/15 13:49:27","新北市淡水區三空泉5號","121.477198333333","25.161355","6501000","淡水區"
"251002","672-BX","2018/02/15 13:49:40","新北市淡水區竿蓁二街61-3號","121.454993333333","25.163345","6501000","淡水區"
"251003","766-UM","2018/02/15 13:49:33","新北市淡水區北新路169巷8號","121.450021666667","25.1799133333333","6501000","淡水區"
"207004","291-VK","2018/02/15 13:49:22","新北市萬里區中幅里中福路42-2號","121.679943333333","25.1686933333333","6502800","萬里區"
"207003","225-TW","2018/02/15 13:49:28","新北市萬里區大鵬里頂社1號","121.657011666667","25.2097233333333","6502800","萬里區"
"237007","153-BY","2018/02/15 13:49:38","新北市三峽區中正路二段85號","121.366535","24.9175316666667","6500900","三峽區"
"237009","210-TH","2018/02/15 13:49:37","新北市三峽區民生街181號","121.372241666667","24.9347716666667","6500900","三峽區"
"237013","252-BX","2018/02/15 13:49:43","新北市三峽區介壽路一段251號","121.379535","24.9302366666667","6500900","三峽區"
"237012","275-BY","2018/02/15 13:49:21","新北市三峽區三樹路222巷91號","121.384555","24.9425183333333","6500900","三峽區"
"237008","302-VK","2018/02/15 13:49:26","新北市三峽區白雞28-1號","121.370145","24.9122216666667","6500900","三峽區"
"237006","5529-G3","2018/02/15 13:49:27","新北市三峽區溪東路233巷45弄16號","121.410005","24.9339116666667","6500900","三峽區"
"237016","649-BX","2018/02/15 13:49:19","新北市三峽區安坑42號","121.454305","24.93195","6500900","三峽區"
"237010","706-TV","2018/02/15 13:49:32","新北市三峽區國光街322號","121.372105","24.9393833333333","6500900","三峽區"
"237005","AKY-6261","2018/02/15 13:49:23","新北市三峽區復興路237巷38號","121.368951666667","24.9378033333333","6500900","三峽區"
"236079","166-UM","2018/02/15 13:49:33","新北市土城區中央路四段125巷9弄12號","121.416921666667","24.9574783333333","6501300","土城區"
"236015","270-VK","2018/02/15 13:49:26","新北市土城區學府路一段75巷16弄16號","121.456603333333","24.987215","6501300","土城區"
"236003","339-SR","2018/02/15 13:49:35","新北市土城區龍泉路89-3號","121.445291666667","24.9428883333333","6501300","土城區"
"236023","401-BY","2018/02/15 13:49:39","新北市土城區城林路6巷80號","121.438495","24.9798166666667","6501300","土城區"
"236054","AAC-216","2018/02/15 13:49:35","新北市土城區學府路一段159號","121.453175","24.9858716666667","6501300","土城區"
"242029","986-R7","2018/02/15 13:49:27","新北市新莊區幸福路856號","121.443915","25.0489933333333","6500500","新莊區"
"242051","751-BX","2018/02/15 13:49:30","新北市新莊區瓊林路59-90號","121.441098333333","25.0222083333333","6500500","新莊區"
"242024","615-BX","2018/02/15 13:49:19","新北市新莊區五權一路12巷21弄3號","121.457795","25.06453","6500500","新莊區"
"242023","613-BX","2018/02/15 13:49:28","新北市新莊區復興路三段54號","121.462938333333","25.0445283333333","6500500","新莊區"
"242027","612-BX","2018/02/15 13:49:26","新北市新莊區幸福路817巷6號","121.445625","25.0487583333333","6500500","新莊區"
"242038","566-BX","2018/02/15 13:49:36","新北市新莊區龍安路441號","121.424456666667","25.0185733333333","6500500","新莊區"
"242044","497-BY","2018/02/15 13:49:28","新北市新莊區新北大道七段339號","121.412925","25.0276416666667","6500500","新莊區"
"242053","440-UM","2018/02/15 13:49:35","新北市新莊區西盛街417巷23號","121.428248333333","25.0118016666667","6500500","新莊區"
"242034","415-TV","2018/02/15 13:49:23","新北市新莊區景德路212號","121.449031666667","25.0338083333333","6500500","新莊區"
"242042","400-BY","2018/02/15 13:49:32","新北市新莊區天祥街53號","121.41489","25.0303833333333","6500500","新莊區"
"242061","362-BY","2018/02/15 13:49:39","新北市新莊區瓊林路59-38號","121.441231666667","25.0234766666667","6500500","新莊區"
"242058","353-BY","2018/02/15 13:49:33","新北市新莊區中正路897-10號","121.41164","25.0216366666667","6500500","新莊區"
"242007","132-UY","2018/02/15 13:49:39","新北市新莊區自立街62號","121.453973333333","25.045395","6500500","新莊區"
"242046","172-VK","2018/02/15 13:49:33","新北市新莊區中正路803巷1號","121.421638333333","25.02806","6500500","新莊區"
"242009","173-VK","2018/02/15 13:49:20","新北市新莊區中華路二段188號","121.45321","25.0515366666667","6500500","新莊區"
"242015","175-VK","2018/02/15 13:49:36","新北市新莊區中平路152巷36號","121.446281666667","25.0472766666667","6500500","新莊區"
"242002","176-VK","2018/02/15 13:49:32","新北市新莊區新泰路2-11號","121.450156666667","25.0325333333333","6500500","新莊區"
"242056","349-TH","2018/02/15 13:49:24","新北市新莊區環河路636-7號","121.437256666667","25.0112366666667","6500500","新莊區"
"242017","350-TH","2018/02/15 13:49:24","新北市新莊區中港路306號","121.452658333333","25.0449966666667","6500500","新莊區"
"242011","351-TH","2018/02/15 13:49:40","新北市新莊區中榮街72-1號","121.448221666667","25.0528033333333","6500500","新莊區"
"238002","755-BX","2018/02/15 13:49:37","新北市樹林區中山路二段121-1號","121.408215","24.979955","6500700","樹林區"
"238006","599-UM","2018/02/15 13:49:27","新北市樹林區國凱街140巷4號","121.423815","24.9804933333333","6500700","樹林區"
"238018","571-TV","2018/02/15 13:49:35","新北市樹林區博愛一街10號","121.425338333333","24.9910333333333","6500700","樹林區"
"238011","5061-A6","2018/02/15 13:49:38","新北市樹林區保安街一段258號","121.420125","24.9970283333333","6500700","樹林區"
"238008","KEA-2217","2018/02/15 13:49:22","新北市樹林區田尾街66號","121.409218333333","24.9591716666667","6500700","樹林區"
"238012","303-VK","2018/02/15 13:49:34","新北市樹林區三俊街104號","121.414671666667","25.0155583333333","6500700","樹林區"
"238017","283-BY","2018/02/15 13:49:42","新北市樹林區中正路488號","121.412501666667","25.0130083333333","6500700","樹林區"
"238001","282-BY","2018/02/15 13:49:39","新北市樹林區潭興街103號","121.42473","24.998525","6500700","樹林區"
"238007","268-VK","2018/02/15 13:49:30","新北市樹林區三龍街35號","121.41405","25.018705","6500700","樹林區"
"238026","172-UY","2018/02/15 13:49:34","新北市樹林區育德街45號","121.391723333333","24.9702733333333","6500700","樹林區"
"239007","AAC-297","2018/02/15 13:49:22","新北市鶯歌區鶯桃路173號","121.336911666667","24.9554233333333","6500800","鶯歌區"
"239006","891-R6","2018/02/15 13:49:23","新北市鶯歌區永和街108號","121.33479","24.968725","6500800","鶯歌區"
"239008","527-UM","2018/02/15 13:49:39","新北市鶯歌區香賓街7巷11號","121.336236666667","24.9791483333333","6500800","鶯歌區"
"239005","526-UM","2018/02/15 13:49:32","桃園市八德區桃鶯路30號","121.326616666667","24.9714033333333","6500800","鶯歌區"
"239001","417-VK","2018/02/15 13:49:33","新北市鶯歌區中正三路412號","121.324835","24.9347","6500800","鶯歌區"
"239003","360-BY","2018/02/15 13:49:35","新北市鶯歌區永吉街46巷1號","121.335526666667","24.957315","6500800","鶯歌區"
"239004","193-VK","2018/02/15 13:49:26","新北市鶯歌區文化路136巷48號","121.35118","24.950625","6500800","鶯歌區"
"221008","489-VK","2018/02/15 13:49:23","新北市汐止區汐萬路一段256巷3號","121.653158333333","25.0744283333333","6501100","汐止區"
"221036","130-UY","2018/02/15 13:49:32","新北市汐止區忠孝東路339巷10號","121.664273333333","25.07026","6501100","汐止區"
"221015","131-UY","2018/02/15 13:49:30","新北市汐止區鄉友街54號","121.669408333333","25.0819266666667","6501100","汐止區"
"221010","269-BY","2018/02/15 13:49:28","新北市汐止區祥雲街15巷1號","121.646405","25.0900616666667","6501100","汐止區"
"221032","280-BY","2018/02/15 13:49:26","新北市汐止區福山街56巷19號","121.618005","25.0456533333333","6501100","汐止區"
"221027","281-BY","2018/02/15 13:49:28","新北市汐止區汐萬路一段39-3號","121.654901666667","25.0696383333333","6501100","汐止區"
"221029","298-VK","2018/02/15 13:49:27","新北市汐止區樟樹一路144號","121.642266666667","25.0650433333333","6501100","汐止區"
"221021","299-VK","2018/02/15 13:49:23","新北市汐止區復興路55號","121.657","25.0625033333333","6501100","汐止區"
"221031","353-TW","2018/02/15 13:49:39","新北市汐止區光復街8巷16號","121.638435","25.0577233333333","6501100","汐止區"
"221035","622-UM","2018/02/15 13:49:36","新北市汐止區大同路二段33號","121.647741666667","25.063175","6501100","汐止區"
"221025","623-UM","2018/02/15 13:49:30","新北市汐止區忠孝東路200-5號","121.661535","25.0660916666667","6501100","汐止區"
"221038","646-BX","2018/02/15 13:49:26","新北市汐止區大同路二段432號","121.65925","25.06695","6501100","汐止區"
"221002","707-TV","2018/02/15 13:49:39","新北市汐止區大同路一段263號","121.6361","25.0583483333333","6501100","汐止區"
"221018","753-BX","2018/02/15 13:49:39","新北市汐止區大同路二段537號","121.661986666667","25.0691883333333","6501100","汐止區"
"220080","200-UY","2018/02/15 13:49:38","新北市板橋區大觀路二段19巷99號","121.449808333333","25.0027516666667","6500100","板橋區"
"220023","256-TC","2018/02/15 13:49:38","新北市板橋區南雅南路一段1巷34號","121.457228333333","25.0065866666667","6500100","板橋區"
"220004","276-BY","2018/02/15 13:49:27","新北市板橋區四川路二段橋頭1巷1號","121.446943333333","24.9945116666667","6500100","板橋區"
"220019","283-VK","2018/02/15 13:49:33","新北市板橋區四川路一段256號","121.459115","25.0013983333333","6500100","板橋區"
"220045","285-UM","2018/02/15 13:49:25","新北市板橋區民生路二段234巷77號","121.470263333333","25.0226166666667","6500100","板橋區"
"220001","285-VK","2018/02/15 13:49:24","新北市板橋區永豐街122號","121.476461666667","25.0209466666667","6500100","板橋區"
"220031","286-VK","2018/02/15 13:49:34","新北市板橋區龍興街73巷9號","121.443405","25.0023333333333","6500100","板橋區"
"220081","287-VK","2018/02/15 13:49:30","新北市板橋區南雅西路一段10巷7弄17號","121.454066666667","25.0042933333333","6500100","板橋區"
"220090","288-VK","2018/02/15 13:49:22","新北市板橋區長江路一段48巷9號","121.459216666667","25.0284566666667","6500100","板橋區"
"220061","293-UM","2018/02/15 13:49:32","新北市板橋區中山路一段265巷16號","121.468676666667","25.01466","6500100","板橋區"
"220010","305-R5","2018/02/15 13:49:38","新北市板橋區三民路二段109巷29號","121.48058","25.015985","6500100","板橋區"
"220092","307-R5","2018/02/15 13:49:20","新北市板橋區四維路103巷27號","121.464525","25.0238783333333","6500100","板橋區"
"220047","317-R6","2018/02/15 13:49:35","新北市五股區五工二路136號","121.454251666667","25.0732433333333","6500100","板橋區"
"220086","461-BY","2018/02/15 13:49:24","新北市板橋區中正路25巷11號","121.45486","25.0127733333333","6500100","板橋區"
"220012","486-VK","2018/02/15 13:49:26","新北市板橋區民權路3號","121.463035","25.00992","6500100","板橋區"
"220089","487-VK","2018/02/15 13:49:36","新北市板橋區龍泉街82巷2號","121.45618","25.0255833333333","6500100","板橋區"
"242031","280-VK","2018/02/15 13:49:25","新北市新莊區新泰路277巷5號","121.445425","25.0402283333333","6500500","新莊區"
"220088","491-VK","2018/02/15 13:49:34","新北市板橋區文化路二段488號","121.475311666667","25.0331116666667","6500100","板橋區"
"220052","561-BX","2018/02/15 13:49:30","新北市板橋區陽明街73巷4號","121.463738333333","25.0227833333333","6500100","板橋區"
"220011","609-BX","2018/02/15 13:49:22","新北市板橋區三民路一段3巷30號","121.480128333333","25.0236683333333","6500100","板橋區"
"220040","637-BX","2018/02/15 13:49:35","新北市板橋區懷德街201巷20號","121.481655","25.0296216666667","6500100","板橋區"
"220093","689-BX","2018/02/15 13:49:24","新北市板橋區新海路405號","121.458535","25.0268683333333","6500100","板橋區"
"220002","741-BX","2018/02/15 13:49:29","新北市板橋區忠孝路239巷8號","121.466583333333","25.0028933333333","6500100","板橋區"
"220051","KEA-2699","2018/02/15 13:49:28","新北市板橋區松柏街57-4號","121.475723333333","25.0303183333333","6500100","板橋區"
"220003","827-TW","2018/02/15 13:49:31","新北市板橋區國慶路149巷21弄1號","121.46085","24.997375","6500100","板橋區"
"220014","829-TW","2018/02/15 13:49:34","新北市板橋區漢生東路313巷2弄26號","121.47242","25.00773","6500100","板橋區"
"220022","895-R6","2018/02/15 13:49:26","新北市板橋區館前西路179號","121.455648333333","25.0082866666667","6500100","板橋區"
"220073","985-R7","2018/02/15 13:49:29","新北市板橋區大觀路2段435-7號","121.447878333333","24.9955633333333","6500100","板橋區"
"220046","AAC-210","2018/02/15 13:49:41","新北市板橋區光正街16巷14號","121.463208333333","25.0174833333333","6500100","板橋區"
"220070","AAC-253","2018/02/15 13:49:32","新北市板橋區民族路220號","121.46861","25.007415","6500100","板橋區"
