"lineid","car","time","location","longitude","latitude","cityid","cityname"
"234066","149-BY","2018/02/15 14:19:45","新北市新店區安和路三段85號","121.517815","24.9839283333333","6500400","永和區"
"234005","207-UY","2018/02/15 14:19:48","新北市永和區保生路22巷15號","121.507043333333","25.0080983333333","6500400","永和區"
"234078","298-R6","2018/02/15 14:19:55","新北市永和區永亨路108號","121.52355","25.0044866666667","6500400","永和區"
"234036","336-UY","2018/02/15 14:19:47","新北市永和區民樂街20號","121.527511666667","25.0019433333333","6500400","永和區"
"234062","337-UY","2018/02/15 14:19:55","新北市永和區中正路368巷22號","121.518556666667","25.0007266666667","6500400","永和區"
"234068","552-UM","2018/02/15 14:19:44","新北市永和區國光路39-1號","121.51905","25.0082333333333","6500400","永和區"
"234012","KEA-2591","2018/02/15 14:19:54","新北市永和區保順路11號","121.504746666667","25.0096016666667","6500400","永和區"
"234042","862-TW","2018/02/15 14:19:38","新北市永和區雙和街52巷2號","121.508935","25.00312","6500400","永和區"
"234048","863-TW","2018/02/15 14:19:34","新北市永和區保安路132號","121.508881666667","25.0154183333333","6500400","永和區"
"234025","9372-KE","2018/02/15 14:19:41","新北市永和區安樂路144巷6號","121.514621666667","25.0000583333333","6500400","永和區"
"234025","9371-KE","2018/02/15 14:19:42","新北市永和區得和路44號","121.515788333333","25.0002183333333","6500400","永和區"
"234010","9381-KE","2018/02/15 14:19:45","新北市永和區保福路二段163巷13弄5號","121.509215","25.0143116666667","6500400","永和區"
"249005","172-UM","2018/02/15 14:19:48","新北市八里區中華路三段34-2號","121.389031666667","25.1254616666667","6502300","八里區"
"249001","173-UM","2018/02/15 14:19:49","新北市八里區龍米路一段416號","121.451118333333","25.133475","6502300","八里區"
"249004","303-UY","2018/02/15 14:19:46","新北市八里區忠孝路56號","121.426466666667","25.160375","6502300","八里區"
"249002","305-UY","2018/02/15 14:19:55","新北市八里區龍形二街66號","121.450013333333","25.132915","6502300","八里區"
"249003","593-UM","2018/02/15 14:19:43","新北市八里區商港六路11號","121.397056666667","25.1480116666667","6502300","八里區"
"248007","095-VK","2018/02/15 14:19:35","新北市五股區中興路一段84號","121.466726666667","25.0730816666667","6501500","五股區"
"248019","225-UY","2018/02/15 14:19:48","新北市五股區凌雲路三段57號","121.425335","25.125025","6501500","五股區"
"248011","247-BX","2018/02/15 14:19:43","新北市五股區成泰路二段87號","121.438195","25.0839733333333","6501500","五股區"
"248005","653-BX","2018/02/15 14:15:26","新北市五股區明德路12巷6號","121.433475","25.0719133333333","6501500","五股區"
"248003","677-BX","2018/02/15 14:19:43","新北市五股區中興路二段161號","121.457766666667","25.0768","6501500","五股區"
"248001","678-BX","2018/02/15 14:19:48","新北市五股區成泰路三段577巷49號","121.45075","25.1031816666667","6501500","五股區"
"234022","9380-KE","2018/02/15 14:19:46","新北市永和區環河西路一段101號","121.511315","25.0175816666667","6500400","永和區"
"234076","969-R7","2018/02/15 14:19:44","新北市永和區得和路104巷14號","121.517846666667","24.9995866666667","6500400","永和區"
"234072","AAC-211","2018/02/15 14:19:39","新北市永和區竹林路159號","121.520681666667","25.0103233333333","6500400","永和區"
"234001","AAC-295","2018/02/15 14:19:39","新北市永和區民樂街31巷6弄14號","121.528911666667","25.0015083333333","6500400","永和區"
"244013","069-UM","2018/02/15 14:19:34","新北市林口區麗園一街6巷8-3號","121.375028333333","25.0711033333333","6501700","林口區"
"244007","080-UY","2018/02/15 14:19:35","新北市林口區林口路296號","121.385951666667","25.0854816666667","6501700","林口區"
"244019","402-UM","2018/02/15 14:19:50","新北市林口區忠孝路552巷19-8號","121.374776666667","25.0668916666667","6501700","林口區"
"244023","483-VK","2018/02/15 14:19:35","新北市林口區東湖路153巷135號","121.382221666667","25.0735466666667","6501700","林口區"
"244009","657-BX","2018/02/15 14:19:53","新北市林口區福林路117-1號","121.376986666667","25.0894766666667","6501700","林口區"
"244011","701-TV","2018/02/15 14:19:39","新北市林口區中正路270號","121.389221666667","25.0777166666667","6501700","林口區"
"244025","837-TS","2018/02/15 14:19:46","新北市林口區南勢一街8號","121.360573333333","25.0750083333333","6501700","林口區"
"244021","838-TS","2018/02/15 14:19:40","新北市林口區自強二街35號","121.398545","25.077635","6501700","林口區"
"243003","267-VK","2018/02/15 14:19:51","新北市泰山區新民路26號","121.426715","25.044545","6501600","泰山區"
"243006","421-VK","2018/02/15 14:19:45","新北市泰山區泰林路二段317號","121.429613333333","25.06325","6501600","泰山區"
"243012","539-UM","2018/02/15 14:19:48","新北市泰山區辭修路28號","121.42901","25.05821","6501600","泰山區"
"243010","KEA-2215","2018/02/15 14:11:29","新北市泰山區明志路一段352巷26弄1號","121.430151666667","25.0590333333333","6501600","泰山區"
"243001","KEA-2216","2018/02/15 14:19:48","新北市泰山區明志路一段19巷3號","121.434045","25.0657683333333","6501600","泰山區"
"243013","646-TV","2018/02/15 14:19:49","新北市泰山區明志路三段206巷1號","121.423325","25.0377166666667","6501600","泰山區"
"222002","659-BX","2018/02/15 14:19:41","新北市深坑區文山路一段64號","121.623611666667","25.0007266666667","6501800","深坑區"
"231061","047-UY","2018/02/15 14:19:33","新北市新店區安民街77-1號","121.516556666667","24.9674033333333","6500600","新店區"
"241011","013-R5","2018/02/15 14:19:50","新北市三重區龍濱路285號","121.50106","25.0734533333333","6500200","三重區"
"241008","059-VK","2018/02/15 14:19:53","新北市三重區下竹圍街32號","121.480981666667","25.0752433333333","6500200","三重區"
"241017","063-VK","2018/02/15 14:19:40","新北市三重區大仁街38號","121.491583333333","25.0643183333333","6500200","三重區"
"241026","066-VK","2018/02/15 14:19:41","新北市三重區環河南路16號","121.503731666667","25.0628333333333","6500200","三重區"
"241003","156-TC","2018/02/15 14:19:33","新北市三重區五華街141巷58號","121.49336","25.0864966666667","6500200","三重區"
"241018","268-UM","2018/02/15 14:19:38","新北市三重區新北大道一段58號","121.487331666667","25.0614833333333","6500200","三重區"
"241032","269-UM","2018/02/15 14:19:37","新北市三重區新生街56號","121.484758333333","25.0593583333333","6500200","三重區"
"241013","270-UM","2018/02/15 14:19:43","新北市三重區仁壽街34號","121.497198333333","25.0735366666667","6500200","三重區"
"241024","462-BY","2018/02/15 14:19:35","新北市三重區文化北路248號","121.49745","25.0699816666667","6500200","三重區"
"241030","480-VK","2018/02/15 14:19:33","新北市三重區中正南路293號","121.4927","25.05191","6500200","三重區"
"241001","547-UM","2018/02/15 14:19:47","新北市三重區溪尾街56號","121.490526666667","25.07776","6500200","三重區"
"241006","AAD-863","2018/02/15 14:19:49","新北市三重區車路頭街117巷32號","121.485065","25.0756616666667","6500200","三重區"
"241012","941-UM","2018/02/15 14:19:33","新北市三重區仁壽街226號","121.501936666667","25.0752283333333","6500200","三重區"
"235030","003-UY","2018/02/15 14:19:44","新北市中和區景安路85號","121.50622","24.99696","6500300","中和區"
"235064","005-UY","2018/02/15 14:19:42","新北市中和區連城路2號","121.499303333333","25.002335","6500300","中和區"
"235063","006-UY","2018/02/15 14:19:48","新北市中和區連勝街121巷18弄3號","121.495126666667","24.9943983333333","6500300","中和區"
"235056","096-UM","2018/02/15 14:19:50","新北市中和區中山路三段136巷10弄14號","121.474243333333","25.0074866666667","6500300","中和區"
"235031","255-BX","2018/02/15 14:19:33","新北市中和區連城路294號","121.484048333333","24.9962733333333","6500300","中和區"
"235044","293-VK","2018/02/15 14:19:53","新北市中和區景新街487號","121.513746666667","24.98738","6500300","中和區"
"235036","301-VK","2018/02/15 14:19:38","新北市中和區和城路一段271巷1號","121.485875","24.9914716666667","6500300","中和區"
"235043","352-BY","2018/02/15 14:19:42","新北市中和區景平路532號","121.502831666667","24.9945733333333","6500300","中和區"
"235068","377-QA","2018/02/15 14:19:34","新北市新店區安業街153號","121.521256666667","24.9735883333333","6500300","中和區"
"235035","269-TV","2018/02/15 14:19:40","新北市中和區連城路469巷69號","121.483498333333","24.9942116666667","6500300","中和區"
"235050","4979-A6","2018/02/15 14:19:53","新北市中和區華新街90號","121.508483333333","24.9832433333333","6500300","中和區"
"235069","4980-A6","2018/02/15 14:19:42","新北市中和區建康路103號","121.488331666667","25.00023","6500300","中和區"
"235042","551-UM","2018/02/15 14:19:34","新北市中和區立人街69巷15弄14號","121.521033333333","24.993455","6500300","中和區"
"235034","558-UM","2018/02/15 14:19:43","新北市中和區連城路49號","121.498581666667","25.0019633333333","6500300","中和區"
"235045","565-BX","2018/02/15 14:19:40","新北市中和區景新街467巷38弄2號","121.514538333333","24.988575","6500300","中和區"
"235001","611-BX","2018/02/15 14:19:34","新北市中和區民享街97巷18號","121.475098333333","24.99989","6500300","中和區"
"235024","647-TV","2018/02/15 14:19:49","新北市中和區中山路二段523巷2號","121.481666666667","25.004905","6500300","中和區"
"235047","732-UM","2018/02/15 14:19:41","新北市中和區景平路241巷64弄8號","121.507688333333","24.9926266666667","6500300","中和區"
"235048","896-TW","2018/02/15 14:19:32","新北市中和區四維街37巷1號","121.512535","24.9869383333333","6500300","中和區"
"235037","AAC-213","2018/02/15 14:19:53","新北市新店區安康路二段320巷15弄2號","121.504276666667","24.9596483333333","6500300","中和區"
"235059","AAC-215","2018/02/15 14:19:39","新北市中和區圓通路305巷5弄36號","121.494531666667","24.990305","6500300","中和區"
"220027","015-TV","2018/02/15 14:19:53","新北市板橋區建國街23號","121.458066666667","25.0170066666667","6500100","板橋區"
"220013","072-UY","2018/02/15 14:19:44","新北市板橋區國泰街39巷7弄1號","121.468603333333","25.0056633333333","6500100","板橋區"
"220086","073-UY","2018/02/15 14:19:49","新北市板橋區中正路216巷48-1號","121.457386666667","25.0188083333333","6500100","板橋區"
"220105","075-UY","2018/02/15 14:19:36","新北市林口區太平里180號","121.366678333333","25.1339983333333","6500100","板橋區"
"220017","AAD-861","2018/02/15 14:19:52","新北市板橋區貴興路106巷12號","121.455046666667","25.0030833333333","6500100","板橋區"
"247022","893-R6","2018/02/15 14:19:48","新北市蘆洲區三民路130號","121.470993333333","25.087515","6501400","蘆洲區"
"247012","546-UM","2018/02/15 14:19:40","新北市蘆洲區復興路231號","121.480068333333","25.0897416666667","6501400","蘆洲區"
"247008","341-TH","2018/02/15 14:19:47","新北市蘆洲區信義路34巷1號","121.474498333333","25.079435","6501400","蘆洲區"
"247010","339-TH","2018/02/15 14:19:41","新北市五股區中興路三段163號","121.449323333333","25.0806683333333","6501400","蘆洲區"
"247001","337-TH","2018/02/15 14:19:48","新北市蘆洲區長安街240號","121.457621666667","25.08588","6501400","蘆洲區"
"247015","057-VK","2018/02/15 14:19:32","新北市五股區中興路三段2巷10號","121.448655","25.081765","6501400","蘆洲區"
"247006","056-VK","2018/02/15 14:19:43","新北市蘆洲區中華街107號","121.46114","25.0795166666667","6501400","蘆洲區"
"247013","007-UY","2018/02/15 14:19:45","新北市蘆洲區和平路64號","121.470065","25.0795016666667","6501400","蘆洲區"
"226004","312-R5","2018/02/15 14:19:50","新北市平溪區十分里十分街106號","121.776811666667","25.0428566666667","6502400","平溪區"
"226005","5620-A6","2018/02/15 14:19:47","新北市平溪區南山里南山坪94號","121.776895","25.0411283333333","6502400","平溪區"
"226003","AGD-0702","2018/02/15 14:19:35","新北市平溪區十分里十分街259號","121.778258333333","25.0449883333333","6502400","平溪區"
"235041","251-BX","2018/02/15 14:19:50","新北市中和區中和路350巷12弄4號","121.510763333333","25.0001666666667","6500300","中和區"
"223008","406-TH","2018/02/15 14:19:35","新北市石碇區靜安路一段97號","121.661655","25.0075333333333","6501900","石碇區"
"228004","212-TW","2018/02/15 14:19:41","新北市貢寮區吉林里內寮街23號","121.902756666667","24.985235","6502600","貢寮區"
"228002","585-TW","2018/02/15 14:19:49","新北市貢寮區福連里香蘭街7號","121.977355","25.0237416666667","6502600","貢寮區"
"224006","676-BX","2018/02/15 14:19:49","新北市瑞芳區明燈路三段30號","121.80828","25.1076266666667","6501200","瑞芳區"
"224008","275-VK","2018/02/15 14:19:33","新北市瑞芳區員山子路23號","121.821555","25.1029883333333","6501200","瑞芳區"
"224007","273-VK","2018/02/15 14:19:39","新北市瑞芳區八分寮路12號","121.796001666667","25.089745","6501200","瑞芳區"
"224005","271-BY","2018/02/15 14:19:55","新北市瑞芳區建基新村39號","121.812383333333","25.129955","6501200","瑞芳區"
"227004","642-TC","2018/02/15 14:19:46","新北市雙溪區上林里內平林90號","121.82758","25.027475","6502500","雙溪區"
"227010","400-TW","2018/02/15 14:19:42","新北市雙溪區三貂里政光路6-2號","121.851601666667","25.069625","6502500","雙溪區"
"253005","032-BX","2018/02/15 14:19:46","新北市石門區中央路37-2號","121.568466666667","25.2949716666667","6502200","石門區"
"253006","295-VK","2018/02/15 14:19:39","新北市石門區老梅路75號","121.54614","25.289235","6502200","石門區"
"208002","KEA-2872","2018/02/15 14:19:46","新北市金山區三界壇路56號","121.622556666667","25.22922","6502700","金山區"
"208003","665-BX","2018/02/15 14:19:51","新北市金山區民生路31號","121.643568333333","25.2213516666667","6502700","金山區"
"208001","761-BX","2018/02/15 14:19:38","新北市金山區磺港里磺港路30號","121.649426666667","25.2287316666667","6502700","金山區"
"251004","009-UM","2018/02/15 14:19:36","新北市淡水區民族路50巷28號","121.461186666667","25.1359266666667","6501000","淡水區"
"251013","179-VK","2018/02/15 14:19:37","新北市淡水區竹圍子19-2號","121.477203333333","25.1917916666667","6501000","淡水區"
"251014","180-VK","2018/02/15 14:19:41","新北市淡水區南平21-2號","121.498081666667","25.216225","6501000","淡水區"
"251008","181-VK","2018/02/15 14:19:48","新北市淡水區水源街二段88號","121.451696666667","25.1742916666667","6501000","淡水區"
"251015","182-VK","2018/02/15 14:19:39","新北市淡水區興福寮88巷85號","121.484586666667","25.1656033333333","6501000","淡水區"
"251010","413-VK","2018/02/15 14:19:51","新北市淡水區淡海路218號","121.420238333333","25.1857066666667","6501000","淡水區"
"251016","442-VK","2018/02/15 14:19:53","新北市淡水區下圭柔山115-10號","121.446291666667","25.2125033333333","6501000","淡水區"
"251005","443-VK","2018/02/15 14:19:36","新北市淡水區原德路72號","121.442703333333","25.1729133333333","6501000","淡水區"
"251001","559-UM","2018/02/15 14:19:36","新北市淡水區中正東路二段87-10號","121.459538333333","25.1527216666667","6501000","淡水區"
"251006","561-UM","2018/02/15 14:19:39","新北市淡水區新生街49號","121.44051","25.1749433333333","6501000","淡水區"
"251007","577-R6","2018/02/15 14:19:36","新北市淡水區民生路145巷58號","121.468151666667","25.13893","6501000","淡水區"
"251011","650-BX","2018/02/15 14:19:47","新北市淡水區鄧公路30巷2弄42號","121.454385","25.16908","6501000","淡水區"
"251002","672-BX","2018/02/15 14:19:40","新北市淡水區清水街246號","121.440525","25.172105","6501000","淡水區"
"251003","766-UM","2018/02/15 14:19:53","新北市淡水區中山北路一段149巷24號","121.442935","25.17795","6501000","淡水區"
"207004","291-VK","2018/02/15 14:19:42","新北市萬里區萬里里瑪鋉路18號","121.689576666667","25.1754333333333","6502800","萬里區"
"207003","225-TW","2018/02/15 14:19:48","新北市萬里區大鵬里萬里加投191-5號","121.644728333333","25.21426","6502800","萬里區"
"237007","153-BY","2018/02/15 14:19:38","新北市三峽區二鬮路136巷24弄1號","121.355938333333","24.9099466666667","6500900","三峽區"
"237009","210-TH","2018/02/15 14:19:37","新北市三峽區中園街33號","121.36828","24.92654","6500900","三峽區"
"237013","252-BX","2018/02/15 14:19:43","新北市三峽區介壽路一段251號","121.379506666667","24.93026","6500900","三峽區"
"237012","275-BY","2018/02/15 14:19:41","新北市三峽區中華路40-1號","121.373146666667","24.93166","6500900","三峽區"
"237008","302-VK","2018/02/15 14:19:46","新北市三峽區大同路154號","121.373118333333","24.926745","6500900","三峽區"
"237006","5529-G3","2018/02/15 14:19:47","新北市三峽區正義街59巷9號","121.370081666667","24.91845","6500900","三峽區"
"237016","649-BX","2018/02/15 14:19:39","新北市三峽區成福路202號","121.426813333333","24.925775","6500900","三峽區"
"237010","706-TV","2018/02/15 14:19:43","新北市三峽區復興路36-5號","121.374061666667","24.93667","6500900","三峽區"
"237005","AKY-6261","2018/02/15 14:19:43","新北市三峽區文化路116號","121.371168333333","24.9361683333333","6500900","三峽區"
"236079","166-UM","2018/02/15 14:19:33","新北市土城區龍泉路43-4號","121.417698333333","24.9433816666667","6501300","土城區"
"236023","401-BY","2018/02/15 14:19:39","新北市土城區金城路三段130號","121.467113333333","24.987005","6501300","土城區"
"236054","AAC-216","2018/02/15 14:19:49","新北市土城區學府路一段276號","121.450131666667","24.98306","6501300","土城區"
"242029","986-R7","2018/02/15 14:19:47","新北市新莊區中原路319號","121.446571666667","25.0544433333333","6500500","新莊區"
"242024","615-BX","2018/02/15 14:19:39","新北市新莊區五工三路70巷32號","121.460176666667","25.0657933333333","6500500","新莊區"
"242023","613-BX","2018/02/15 14:19:52","新北市新莊區化成路201號","121.465841666667","25.0508033333333","6500500","新莊區"
"242044","497-BY","2018/02/15 14:19:48","新北市新莊區建福路22號","121.426106666667","25.028885","6500500","新莊區"
"242048","441-UM","2018/02/15 14:19:49","新北市新莊區富國路132號","121.422646666667","25.0250933333333","6500500","新莊區"
"242042","400-BY","2018/02/15 14:19:52","新北市新莊區瓊林路59-66號","121.441123333333","25.0227966666667","6500500","新莊區"
"242061","362-BY","2018/02/15 14:19:45","新北市新莊區民安東路141號","121.431525","25.0207033333333","6500500","新莊區"
"242058","353-BY","2018/02/15 14:19:52","新北市新莊區新樹路239-1號","121.43516","25.02229","6500500","新莊區"
"242021","135-UY","2018/02/15 14:19:51","新北市新莊區新興街36巷2號","121.450711666667","25.0369616666667","6500500","新莊區"
"242046","172-VK","2018/02/15 14:19:53","新北市新莊區瓊林南路61-71號","121.43986","25.01871","6500500","新莊區"
"242002","176-VK","2018/02/15 14:19:53","新北市新莊區瓊林路13-2號","121.449153333333","25.031235","6500500","新莊區"
"242012","346-TH","2018/02/15 14:19:46","新北市新莊區中泰街71號","121.449723333333","25.046725","6500500","新莊區"
"242017","350-TH","2018/02/15 14:19:44","新北市新莊區瓊林南路77-41號","121.437283333333","25.012175","6500500","新莊區"
"242011","351-TH","2018/02/15 14:19:49","新北市新莊區瓊林南路77-41號","121.437615","25.01312","6500500","新莊區"
"238018","571-TV","2018/02/15 14:19:41","新北市樹林區中華路219-1號","121.419408333333","24.98126","6500700","樹林區"
"238011","5061-A6","2018/02/15 14:19:38","新北市樹林區太順街57巷17號","121.417433333333","24.9783016666667","6500700","樹林區"
"238008","KEA-2217","2018/02/15 14:19:42","新北市樹林區柑園街二段173號","121.3807","24.952805","6500700","樹林區"
"238012","303-VK","2018/02/15 14:19:54","新北市樹林區中山路三段147-5號","121.395975","24.9730416666667","6500700","樹林區"
"238007","268-VK","2018/02/15 14:19:51","新北市樹林區俊英街125巷10號","121.423616666667","25.010775","6500700","樹林區"
"238026","172-UY","2018/02/15 14:19:34","新北市樹林區育德街78-1號","121.387563333333","24.9681733333333","6500700","樹林區"
"238003","169-UY","2018/02/15 14:19:51","新北市樹林區復興路295巷20弄6號","121.419083333333","24.9886183333333","6500700","樹林區"
"239007","AAC-297","2018/02/15 14:19:42","新北市鶯歌區尖山埔路147號","121.346533333333","24.951065","6500800","鶯歌區"
"239006","891-R6","2018/02/15 14:19:43","新北市鶯歌區鶯桃路365巷21號","121.33285","24.9628483333333","6500800","鶯歌區"
"239005","526-UM","2018/02/15 14:19:52","新北市鶯歌區鶯桃路658巷37弄18號","121.32974","24.970255","6500800","鶯歌區"
"239001","417-VK","2018/02/15 14:19:54","新北市鶯歌區國中街183號","121.339011666667","24.939655","6500800","鶯歌區"
"239003","360-BY","2018/02/15 14:19:35","新北市鶯歌區福安街58號","121.33558","24.965225","6500800","鶯歌區"
"239004","193-VK","2018/02/15 14:19:46","新北市鶯歌區尖山路218號","121.34342","24.9468583333333","6500800","鶯歌區"
"221008","489-VK","2018/02/15 14:19:43","新北市汐止區康寧街374號","121.628823333333","25.0676566666667","6501100","汐止區"
"221036","130-UY","2018/02/15 14:19:49","新北市汐止區汐萬路一段256巷3號","121.653376666667","25.0746616666667","6501100","汐止區"
"221015","131-UY","2018/02/15 14:19:49","新北市汐止區汐萬路一段288號","121.650718333333","25.0743016666667","6501100","汐止區"
"221010","269-BY","2018/02/15 14:19:48","新北市汐止區汐萬路三段235號","121.643766666667","25.104965","6501100","汐止區"
"221027","281-BY","2018/02/15 14:19:48","新北市汐止區康寧街901號","121.65141","25.0750066666667","6501100","汐止區"
"221029","298-VK","2018/02/15 14:19:48","新北市汐止區樟樹一路258號","121.642388333333","25.06739","6501100","汐止區"
"221021","299-VK","2018/02/15 14:19:43","新北市汐止區南興路6巷1號","121.651706666667","25.0633133333333","6501100","汐止區"
"221031","353-TW","2018/02/15 14:19:39","新北市汐止區中興路181巷29弄8號","121.62993","25.0658","6501100","汐止區"
"221035","622-UM","2018/02/15 14:19:36","新北市汐止區汐萬路一段256巷3號","121.652376666667","25.0746616666667","6501100","汐止區"
"221025","623-UM","2018/02/15 14:19:50","新北市汐止區仁愛路119巷14號","121.662303333333","25.06424","6501100","汐止區"
"221038","646-BX","2018/02/15 14:19:46","新北市汐止區忠孝東路262號","121.6632","25.067845","6501100","汐止區"
"221002","707-TV","2018/02/15 14:19:39","新北市汐止區大同路一段336號","121.637941666667","25.0590633333333","6501100","汐止區"
"221018","753-BX","2018/02/15 14:19:39","新北市汐止區茄苳路61號","121.666685","25.0707183333333","6501100","汐止區"
"220080","200-UY","2018/02/15 14:19:38","新北市板橋區大觀路二段37巷266號","121.449856666667","25.0015133333333","6500100","板橋區"
"220023","256-TC","2018/02/15 14:19:38","新北市板橋區中正路253巷59號","121.452806666667","25.0172166666667","6500100","板橋區"
"220004","276-BY","2018/02/15 14:19:53","新北市板橋區四川路一段485號","121.457343333333","24.9970783333333","6500100","板橋區"
"220020","277-BY","2018/02/15 14:19:45","新北市板橋區金門街253巷17弄1號","121.43321","24.9887833333333","6500100","板橋區"
"220019","283-VK","2018/02/15 14:19:48","新北市板橋區五權街30巷37弄16-2號","121.463541666667","24.9923066666667","6500100","板橋區"
"220045","285-UM","2018/02/15 14:19:45","新北市板橋區雙十路二段217號","121.4734","25.0291","6500100","板橋區"
"220001","285-VK","2018/02/15 14:19:44","新北市板橋區民享街91號","121.477016666667","25.0159433333333","6500100","板橋區"
"220031","286-VK","2018/02/15 14:19:34","新北市板橋區龍興街63巷13號","121.442548333333","25.0015033333333","6500100","板橋區"
"220081","287-VK","2018/02/15 14:19:50","新北市板橋區大觀路一段71巷3號","121.447703333333","25.0046933333333","6500100","板橋區"
"220090","288-VK","2018/02/15 14:19:42","新北市板橋區長江路一段188號","121.462063333333","25.03059","6500100","板橋區"
"220061","293-UM","2018/02/15 14:19:32","新北市板橋區中山路二段25號","121.472483333333","25.01526","6500100","板橋區"
"220010","295-UM","2018/02/15 14:19:33","新北市板橋區中山路二段416巷52-4號","121.482766666667","25.0192616666667","6500100","板橋區"
"220032","296-UM","2018/02/15 14:19:52","新北市板橋區篤行路三段玉平巷45號","121.428571666667","24.986835","6500100","板橋區"
"220010","305-R5","2018/02/15 14:19:38","新北市五股區新五路三段260號","121.448141666667","25.090365","6500100","板橋區"
"220092","307-R5","2018/02/15 14:19:40","新北市樹林區環河路2-2號","121.425928333333","24.97708","6500100","板橋區"
"220086","461-BY","2018/02/15 14:19:44","新北市板橋區華東街1-9號","121.448111666667","24.99479","6500100","板橋區"
"220012","486-VK","2018/02/15 14:19:46","新北市板橋區區運路82號","121.466813333333","25.0103616666667","6500100","板橋區"
"220089","487-VK","2018/02/15 14:19:36","新北市板橋區互助街66號","121.46106","25.0266566666667","6500100","板橋區"
"220088","491-VK","2018/02/15 14:19:34","新北市板橋區懷德街78巷1號","121.478361666667","25.0315033333333","6500100","板橋區"
"220104","560-BX","2018/02/15 14:19:54","新北市板橋區中正路330號","121.454423333333","25.0216633333333","6500100","板橋區"
"220052","561-BX","2018/02/15 14:19:50","新北市板橋區陽明街279巷1弄1號","121.46185","25.02607","6500100","板橋區"
"220011","609-BX","2018/02/15 14:19:42","新北市板橋區三民路一段50-1號","121.479338333333","25.022585","6500100","板橋區"
"220093","689-BX","2018/02/15 14:19:52","新北市板橋區長江路三段12號","121.47202","25.0334833333333","6500100","板橋區"
"220002","741-BX","2018/02/15 14:19:49","新北市板橋區忠孝路208號","121.466015","25.002695","6500100","板橋區"
"220051","KEA-2699","2018/02/15 14:19:48","新北市八里區荖阡坑路22-7號","121.398551666667","25.1362433333333","6500100","板橋區"
"220003","827-TW","2018/02/15 14:19:50","新北市板橋區國慶路167巷13號","121.461891666667","24.9970633333333","6500100","板橋區"
"220014","829-TW","2018/02/15 14:19:31","新北市板橋區漢生東路195號","121.470035","25.0115833333333","6500100","板橋區"
"220022","895-R6","2018/02/15 14:19:46","新北市板橋區府後街1巷2-2號","121.459055","25.0105933333333","6500100","板橋區"
"220073","985-R7","2018/02/15 14:19:48","新北市板橋區國光路31巷32號","121.457841666667","25.0184266666667","6500100","板橋區"
"220070","AAC-253","2018/02/15 14:19:52","新北市板橋區四川路一段142號","121.459981666667","25.0036416666667","6500100","板橋區"
