"lineid","car","time","location","longitude","latitude","cityid","cityname"
"234066","149-BY","2018/02/15 14:49:45","新北市永和區保平路236巷24弄1號","121.508031666667","25.00689","6500400","永和區"
"234005","207-UY","2018/02/15 14:49:48","新北市永和區得和路184號","121.51994","25.0000166666667","6500400","永和區"
"234078","298-R6","2018/02/15 14:49:42","新北市永和區光復街31-1號","121.516625","25.0179266666667","6500400","永和區"
"234036","336-UY","2018/02/15 14:49:47","新北市永和區成功路一段115號","121.526911666667","25.0021583333333","6500400","永和區"
"234062","337-UY","2018/02/15 14:49:55","新北市永和區得和路235號","121.520171666667","25.0000883333333","6500400","永和區"
"234084","338-UY","2018/02/15 14:49:36","新北市永和區福和路160號","121.521436666667","25.0078666666667","6500400","永和區"
"234068","552-UM","2018/02/15 14:49:52","新北市永和區永寧街64巷2號","121.518811666667","25.0067","6500400","永和區"
"234052","553-UM","2018/02/15 14:49:55","新北市永和區光復街2巷23號","121.51714","25.016665","6500400","永和區"
"234015","745-BX","2018/02/15 14:49:50","新北市永和區文化路121巷1號","121.51244","25.0152316666667","6500400","永和區"
"234060","AAD-866","2018/02/15 14:49:42","新北市永和區中正路283巷31號","121.51626","24.9997866666667","6500400","永和區"
"234042","862-TW","2018/02/15 14:49:38","新北市永和區安樂路304巷7號","121.514398333333","25.0051383333333","6500400","永和區"
"234048","863-TW","2018/02/15 14:49:54","新北市永和區保安路258號","121.506146666667","25.012385","6500400","永和區"
"234025","9372-KE","2018/02/15 14:49:41","新北市永和區雙和街7巷6號","121.509511666667","25.0015533333333","6500400","永和區"
"234025","9371-KE","2018/02/15 14:49:42","新北市永和區水源街45巷14號","121.509083333333","25.003635","6500400","永和區"
"234010","9381-KE","2018/02/15 14:49:45","新北市永和區保生路55號","121.504743333333","25.0104916666667","6500400","永和區"
"234010","9373-KE","2018/02/15 14:49:53","新北市永和區仁愛路352巷112弄15號","121.501075","25.008605","6500400","永和區"
"249005","172-UM","2018/02/15 14:49:48","新北市八里區下罟子1-10號","121.394013333333","25.1400866666667","6502300","八里區"
"249001","173-UM","2018/02/15 14:49:48","新北市八里區中華路二段252號","121.405373333333","25.1496333333333","6502300","八里區"
"249004","303-UY","2018/02/15 14:46:26","新北市八里區忠孝路423號","121.41471","25.161395","6502300","八里區"
"249002","305-UY","2018/02/15 14:49:55","新北市八里區頂寮三街11號","121.45125","25.1254116666667","6502300","八里區"
"248015","026-BX","2018/02/15 14:49:44","新北市五股區成泰路四段22巷19號","121.45467","25.1074866666667","6501500","五股區"
"248007","095-VK","2018/02/15 14:49:55","新北市五股區四維路30巷29號","121.468551666667","25.071505","6501500","五股區"
"248019","225-UY","2018/02/15 14:49:48","新北市五股區中直路48號","121.41783","25.119885","6501500","五股區"
"248011","247-BX","2018/02/15 14:49:43","新北市五股區民義路一段93號","121.434593333333","25.0859266666667","6501500","五股區"
"248003","677-BX","2018/02/15 14:49:23","新北市五股區五福路77號","121.432461666667","25.0902483333333","6501500","五股區"
"248001","678-BX","2018/02/15 14:49:51","新北市五股區成泰路三段285號","121.447298333333","25.0942483333333","6501500","五股區"
"234076","969-R7","2018/02/15 14:49:44","新北市永和區民治街35號","121.51924","24.99774","6500400","永和區"
"234072","AAC-211","2018/02/15 14:49:39","新北市永和區豫溪街160巷2號","121.523228333333","25.0095516666667","6500400","永和區"
"244013","069-UM","2018/02/15 14:49:54","新北市林口區麗園一街2巷2號","121.376008333333","25.0714283333333","6501700","林口區"
"244007","080-UY","2018/02/15 14:49:55","新北市林口區太平里3-3號","121.379176666667","25.1139666666667","6501700","林口區"
"244019","402-UM","2018/02/15 14:49:50","新北市林口區麗園二街39巷4號","121.380828333333","25.069375","6501700","林口區"
"244023","483-VK","2018/02/15 14:49:55","新北市林口區民享路36號","121.38079","25.0806383333333","6501700","林口區"
"244009","657-BX","2018/02/15 14:49:52","新北市林口區竹林路326巷80號","121.3927","25.0824866666667","6501700","林口區"
"244011","701-TV","2018/02/15 14:49:39","新北市林口區中山路298號","121.381841666667","25.081515","6501700","林口區"
"243003","297-R6","2018/02/15 14:49:48","新北市泰山區中山路二段567號","121.42967","25.0399733333333","6501600","泰山區"
"243007","380-SR","2018/02/15 14:49:53","新北市泰山區公園路27巷2號","121.428901666667","25.0543583333333","6501600","泰山區"
"243006","421-VK","2018/02/15 14:49:54","新北市泰山區泰林路二段46號","121.435525","25.0578266666667","6501600","泰山區"
"243012","539-UM","2018/02/15 14:49:48","新北市泰山區全興路279-10號","121.436355","25.0522433333333","6501600","泰山區"
"243010","KEA-2215","2018/02/15 14:49:49","新北市泰山區民生路17巷2號","121.429921666667","25.0524166666667","6501600","泰山區"
"243001","KEA-2216","2018/02/15 14:49:48","新北市泰山區美寧街60號","121.430945","25.0646866666667","6501600","泰山區"
"243013","646-TV","2018/02/15 14:49:49","新北市泰山區應化街13號","121.423816666667","25.0436883333333","6501600","泰山區"
"222002","659-BX","2018/02/15 14:49:41","新北市深坑區北深路一段361號","121.622371666667","25.0049883333333","6501800","深坑區"
"231061","047-UY","2018/02/15 14:49:53","新北市新店區安民街321號","121.517425","24.9744933333333","6500600","新店區"
"231066","AKT-0513","2018/02/15 14:49:53","新北市新店區車子路67號","121.503696666667","24.9513416666667","6500600","新店區"
"241009","060-VK","2018/02/15 14:49:44","新北市三重區碧華街57號","121.48478","25.0812733333333","6500200","三重區"
"241031","061-VK","2018/02/15 14:49:41","新北市三重區集美街39號","121.488073333333","25.0556133333333","6500200","三重區"
"241017","063-VK","2018/02/15 14:49:40","新北市三重區重新路三段45-1號","121.493271666667","25.061235","6500200","三重區"
"241026","066-VK","2018/02/15 14:49:42","新北市三重區大同南路220號","121.496815","25.05618","6500200","三重區"
"241003","156-TC","2018/02/15 14:49:53","新北市三重區五華街71巷98號","121.494375","25.0839616666667","6500200","三重區"
"241005","262-UM","2018/02/15 14:49:55","新北市三重區碧華街246號","121.48753","25.0827633333333","6500200","三重區"
"241013","270-UM","2018/02/15 14:49:43","新北市三重區仁愛街82巷18號","121.494331666667","25.0733233333333","6500200","三重區"
"241020","413-TH","2018/02/15 14:49:49","新北市三重區後竹圍街237號","121.484245","25.0713416666667","6500200","三重區"
"241024","462-BY","2018/02/15 14:49:55","新北市三重區正義北路244巷54號","121.494351666667","25.0677683333333","6500200","三重區"
"241004","475-VK","2018/02/15 14:49:40","新北市三重區分子尾街19號","121.48956","25.0809866666667","6500200","三重區"
"241030","480-VK","2018/02/15 14:49:53","新北市三重區集成路3號","121.488538333333","25.0515816666667","6500200","三重區"
"241001","547-UM","2018/02/15 14:49:47","新北市三重區仁愛街423-1號","121.490361666667","25.0814683333333","6500200","三重區"
"241006","AAD-863","2018/02/15 14:49:29","新北市三重區後竹圍街205巷61號","121.484658333333","25.0730733333333","6500200","三重區"
"235030","003-UY","2018/02/15 14:49:44","新北市中和區中山路二段3巷28-2號","121.506925","25.0052166666667","6500300","中和區"
"235063","006-UY","2018/02/15 14:49:48","新北市中和區中山路二段315巷10號","121.494348333333","25.001225","6500300","中和區"
"235056","096-UM","2018/02/15 14:49:56","新北市中和區中正路1215號","121.479876666667","25.01029","6500300","中和區"
"235058","151-BY","2018/02/15 14:49:42","新北市中和區員山路148巷9號","121.48176","24.9972066666667","6500300","中和區"
"235019","183-VK","2018/02/15 14:49:44","新北市中和區民享街2巷8號","121.472965","25.005655","6500300","中和區"
"235013","186-VK","2018/02/15 14:49:36","新北市中和區安和路25號","121.510643333333","24.9940633333333","6500300","中和區"
"235031","255-BX","2018/02/15 14:49:53","新北市中和區新生街242巷11弄4號","121.482901666667","24.99765","6500300","中和區"
"235044","293-VK","2018/02/15 14:49:52","新北市新店區安民街379巷26號","121.515368333333","24.9765616666667","6500300","中和區"
"235036","301-VK","2018/02/15 14:49:38","新北市中和區保平路326巷28號","121.50621","25.0049416666667","6500300","中和區"
"235043","352-BY","2018/02/15 14:49:42","新北市中和區華新街228號","121.506105","24.9817416666667","6500300","中和區"
"235068","377-QA","2018/02/15 14:49:54","新北市中和區枋寮街11號","121.50205","25.000275","6500300","中和區"
"235050","4979-A6","2018/02/15 14:49:53","新北市中和區景平路241巷84弄54號","121.50607","24.9923983333333","6500300","中和區"
"235069","4980-A6","2018/02/15 14:49:42","新北市中和區景新街64巷7弄10號","121.504418333333","24.99854","6500300","中和區"
"235042","551-UM","2018/02/15 14:49:54","新北市中和區保健路42-3號","121.509366666667","24.997205","6500300","中和區"
"235034","558-UM","2018/02/15 14:49:43","新北市中和區連勝街19號","121.498671666667","24.998115","6500300","中和區"
"235045","565-BX","2018/02/15 14:49:39","新北市中和區景新街425號","121.51309","24.9893033333333","6500300","中和區"
"235001","611-BX","2018/02/15 14:49:53","新北市中和區民德路197號","121.469296666667","24.9978516666667","6500300","中和區"
"235047","732-UM","2018/02/15 14:49:41","新北市中和區和平街74號","121.507841666667","24.9911066666667","6500300","中和區"
"235046","733-UM","2018/02/15 14:49:41","新北市中和區仁愛街47號","121.511148333333","24.98818","6500300","中和區"
"235057","801-TS","2018/02/15 14:49:46","新北市中和區員山路150-31號","121.481325","24.9983","6500300","中和區"
"235048","896-TW","2018/02/15 14:49:52","新北市新店區安康路二段320巷15弄18號","121.502371666667","24.9589566666667","6500300","中和區"
"235015","157-BY","2018/02/15 14:49:40","新北市中和區興南路一段77號","121.510125","24.989215","6500300","中和區"
"235037","AAC-213","2018/02/15 14:49:53","新北市中和區秀朗路三段10巷14弄94號","121.523536666667","24.996565","6500300","中和區"
"235059","AAC-215","2018/02/15 14:49:58","新北市中和區圓通路335巷37弄8號","121.493816666667","24.98904","6500300","中和區"
"220027","015-TV","2018/02/15 14:49:53","新北市板橋區大觀路二段266號","121.449078333333","24.9965283333333","6500100","板橋區"
"220013","072-UY","2018/02/15 14:49:44","新北市板橋區四川路二段140巷18號","121.449388333333","24.9934966666667","6500100","板橋區"
"220086","073-UY","2018/02/15 14:49:49","新北市板橋區國光路1號","121.456563333333","25.0173333333333","6500100","板橋區"
"220105","075-UY","2018/02/15 14:49:56","新北市板橋區仁化街221號","121.478795","25.0346683333333","6500100","板橋區"
"220017","AAD-861","2018/02/15 14:49:52","新北市板橋區貴興路49號","121.457353333333","25.0032616666667","6500100","板橋區"
"247022","893-R6","2018/02/15 14:49:48","新北市蘆洲區中正路314號","121.464488333333","25.091085","6501400","蘆洲區"
"247012","546-UM","2018/02/15 14:49:40","新北市蘆洲區中興街15巷18號","121.480353333333","25.08764","6501400","蘆洲區"
"247008","341-TH","2018/02/15 14:49:47","新北市蘆洲區中山二路320號","121.468335","25.0764616666667","6501400","蘆洲區"
"247010","339-TH","2018/02/15 14:49:41","新北市蘆洲區集賢路400號","121.48021","25.0821","6501400","蘆洲區"
"247001","337-TH","2018/02/15 14:49:48","新北市五股區中興路二段182巷3號","121.456458333333","25.0780783333333","6501400","蘆洲區"
"247015","057-VK","2018/02/15 14:49:52","新北市蘆洲區光華路80-1號","121.467803333333","25.0826783333333","6501400","蘆洲區"
"247013","007-UY","2018/02/15 14:49:44","新北市五股區中興路三段163號","121.449235","25.080655","6501400","蘆洲區"
"247024","002-UY","2018/02/15 14:49:47","新北市蘆洲區光復路32-1號","121.463316666667","25.0848866666667","6501400","蘆洲區"
"226004","312-R5","2018/02/15 14:49:50","新北市平溪區石底里公園街18-3號","121.733388333333","25.0257166666667","6502400","平溪區"
"226003","AGD-0702","2018/02/15 14:49:55","新北市平溪區石底里公園街18-3號","121.7335","25.0256866666667","6502400","平溪區"
"223008","406-TH","2018/02/15 14:48:55","新北市石碇區小粗坑(潭邊里)9-2號","121.678886666667","24.98611","6501900","石碇區"
"228004","212-TW","2018/02/15 14:43:41","新北市貢寮區龍崗里嵩陽街8號","121.901865","25.01082","6502600","貢寮區"
"228002","585-TW","2018/02/15 14:49:49","新北市貢寮區福連里香蘭街16-2號","121.982658333333","25.0219716666667","6502600","貢寮區"
"224006","676-BX","2018/02/15 14:49:38","新北市瑞芳區中正路38號","121.806903333333","25.1072866666667","6501200","瑞芳區"
"224008","275-VK","2018/02/15 14:49:53","新北市瑞芳區岳王路3號","121.80679","25.1103","6501200","瑞芳區"
"224007","273-VK","2018/02/15 14:49:53","新北市瑞芳區大埔路吉慶公園城8號","121.765281666667","25.1003766666667","6501200","瑞芳區"
"224005","271-BY","2018/02/15 14:49:36","新北市瑞芳區濱二路66-6號","121.831618333333","25.119405","6501200","瑞芳區"
"253005","032-BX","2018/02/15 14:49:46","新北市石門區中山路62號","121.566855","25.290555","6502200","石門區"
"253006","295-VK","2018/02/15 14:49:39","新北市石門區八甲1-10號","121.520925","25.283535","6502200","石門區"
"208002","KEA-2872","2018/02/15 14:49:46","新北市金山區忠孝一路19巷11號","121.637675","25.217925","6502700","金山區"
"208003","665-BX","2018/02/15 14:49:51","新北市金山區中山路280號","121.634956666667","25.224375","6502700","金山區"
"208001","761-BX","2018/02/15 14:49:38","新北市金山區文化三路46號","121.635033333333","25.225005","6502700","金山區"
"251009","008-UM","2018/02/15 14:49:48","新北市淡水區清水街158號","121.441053333333","25.1704483333333","6501000","淡水區"
"251004","009-UM","2018/02/15 14:49:36","新北市淡水區民族路33號","121.462341666667","25.13584","6501000","淡水區"
"251013","179-VK","2018/02/15 14:49:36","新北市淡水區椿子林8號","121.48678","25.2033583333333","6501000","淡水區"
"251014","180-VK","2018/02/15 14:49:41","新北市淡水區小中寮39號","121.487168333333","25.227325","6501000","淡水區"
"251008","181-VK","2018/02/15 14:49:48","新北市淡水區北投子79-2號","121.460171666667","25.178555","6501000","淡水區"
"251015","182-VK","2018/02/15 14:47:39","新北市淡水區糞箕湖122號","121.487921666667","25.17158","6501000","淡水區"
"251010","413-VK","2018/02/15 14:49:50","新北市淡水區後洲路一段157號","121.427625","25.198195","6501000","淡水區"
"251012","441-VK","2018/02/15 14:49:58","新北市淡水區下圭柔山99-3號","121.438005","25.2108033333333","6501000","淡水區"
"251016","442-VK","2018/02/15 14:49:53","新北市淡水區淡金路三段28號","121.447738333333","25.198805","6501000","淡水區"
"251011","650-BX","2018/02/15 14:49:47","新北市淡水區水源街二段194號","121.456958333333","25.1757633333333","6501000","淡水區"
"251002","672-BX","2018/02/15 14:49:40","新北市淡水區中正路27號","121.442495","25.1696433333333","6501000","淡水區"
"251003","766-UM","2018/02/15 14:49:53","新北市淡水區中山北路三段156號","121.445105","25.19589","6501000","淡水區"
"207004","291-VK","2018/02/15 14:49:42","新北市萬里區北基里大勇路33號","121.68413","25.177945","6502800","萬里區"
"207003","225-TW","2018/02/15 14:49:48","新北市萬里區大鵬里萬里加投43-2號","121.640221666667","25.2091133333333","6502800","萬里區"
"237009","210-TH","2018/02/15 14:49:57","新北市三峽區仁愛街10號","121.368455","24.93347","6500900","三峽區"
"237013","252-BX","2018/02/15 14:49:47","新北市三峽區溪北街7號","121.396145","24.9364333333333","6500900","三峽區"
"237012","275-BY","2018/02/15 14:49:41","新北市三峽區中華路33號","121.372855","24.9311633333333","6500900","三峽區"
"237008","302-VK","2018/02/15 14:49:46","新北市三峽區中華路74-3號","121.371606666667","24.9293416666667","6500900","三峽區"
"237006","5529-G3","2018/02/15 14:49:47","新北市三峽區嘉添181號","121.369963333333","24.9114883333333","6500900","三峽區"
"237016","649-BX","2018/02/15 14:49:39","新北市三峽區介壽路二段167號","121.394796666667","24.9361716666667","6500900","三峽區"
"237005","AKY-6261","2018/02/15 14:49:57","新北市三峽區三樹路88號","121.378198333333","24.9387","6500900","三峽區"
"236079","166-UM","2018/02/15 14:49:53","新北市土城區中州路27巷34-1號","121.413115","24.957045","6501300","土城區"
"236015","270-VK","2018/02/15 14:49:41","新北市土城區廣明街90巷23號","121.455471666667","24.9945766666667","6501300","土城區"
"236023","401-BY","2018/02/15 14:49:39","新北市土城區峰廷街10號","121.468731666667","24.9876983333333","6501300","土城區"
"236054","AAC-216","2018/02/15 14:49:49","新北市土城區學府路一段12號","121.459215","24.9885233333333","6501300","土城區"
"242029","986-R7","2018/02/15 14:49:49","新北市新莊區中華路二段36-1號","121.453715","25.0454216666667","6500500","新莊區"
"242051","751-BX","2018/02/15 14:49:50","新北市新莊區西盛街280巷3-1號","121.42757","25.0153016666667","6500500","新莊區"
"242023","613-BX","2018/02/15 14:49:48","新北市新莊區新北大道二段302號","121.464573333333","25.0614866666667","6500500","新莊區"
"242027","612-BX","2018/02/15 14:49:46","新北市新莊區中平路377巷17弄46號","121.442995","25.0519716666667","6500500","新莊區"
"242038","566-BX","2018/02/15 14:49:56","新北市新莊區龍安路457號","121.424513333333","25.0185083333333","6500500","新莊區"
"242044","497-BY","2018/02/15 14:49:48","新北市新莊區龍安路71號","121.415873333333","25.021845","6500500","新莊區"
"242048","441-UM","2018/02/15 14:49:49","新北市新莊區民安路207巷12弄1號","121.42689","25.0230683333333","6500500","新莊區"
"242053","440-UM","2018/02/15 14:49:55","新北市新莊區民安西路239號","121.426101666667","25.0138466666667","6500500","新莊區"
"242034","415-TV","2018/02/15 14:49:43","新北市新莊區建中街70號","121.447573333333","25.0369266666667","6500500","新莊區"
"242005","413-TV","2018/02/15 14:49:54","新北市新莊區化成路45號","121.465195","25.0445683333333","6500500","新莊區"
"242042","400-BY","2018/02/15 14:49:53","新北市新莊區天祥街92巷14號","121.415641666667","25.0300483333333","6500500","新莊區"
"242061","362-BY","2018/02/15 14:49:45","新北市新莊區龍安路100號","121.418318333333","25.02056","6500500","新莊區"
"242058","353-BY","2018/02/15 14:49:52","新北市新莊區八德街17號","121.42527","25.022535","6500500","新莊區"
"242007","132-UY","2018/02/15 14:49:39","新北市新莊區福壽街124巷41弄20號","121.4593","25.051955","6500500","新莊區"
"242036","133-UY","2018/02/15 14:49:40","新北市新莊區民安路157號","121.42559","25.02354","6500500","新莊區"
"242046","172-VK","2018/02/15 14:49:52","新北市新莊區裕民街105號","121.418283333333","25.0230416666667","6500500","新莊區"
"242009","173-VK","2018/02/15 14:49:40","新北市新莊區昌隆街23號","121.45445","25.0510066666667","6500500","新莊區"
"242015","175-VK","2018/02/15 14:49:56","新北市新莊區復興路一段47巷9號","121.446796666667","25.0426333333333","6500500","新莊區"
"242002","176-VK","2018/02/15 14:49:52","新北市新莊區化成路5-8號","121.464451666667","25.04208","6500500","新莊區"
"242012","346-TH","2018/02/15 14:49:46","新北市新莊區幸福路710巷6弄2號","121.450183333333","25.0496033333333","6500500","新莊區"
"242019","348-TH","2018/02/15 14:49:55","新北市新莊區長青街35巷9號","121.4569","25.0418083333333","6500500","新莊區"
"242017","350-TH","2018/02/15 14:49:44","新北市新莊區中港路360號","121.452013333333","25.04686","6500500","新莊區"
"242011","351-TH","2018/02/15 14:49:49","新北市新莊區中港路531巷122號","121.450011666667","25.051525","6500500","新莊區"
"238002","755-BX","2018/02/15 14:49:37","新北市樹林區備內街121號","121.405951666667","24.9893816666667","6500700","樹林區"
"238001","599-UM","2018/02/15 14:49:47","新北市樹林區東華街39號","121.41527","24.9815666666667","6500700","樹林區"
"238011","5061-A6","2018/02/15 14:49:38","新北市樹林區中山路三段337號","121.390656666667","24.9712466666667","6500700","樹林區"
"238009","KEA-2213","2018/02/15 14:49:39","新北市樹林區中山路二段151巷8弄2號","121.406545","24.9780766666667","6500700","樹林區"
"238012","303-VK","2018/02/15 14:49:54","新北市樹林區中山路三段309號","121.391208333333","24.9717666666667","6500700","樹林區"
"238017","283-BY","2018/02/15 14:49:02","新北市樹林區光興街328號","121.407591666667","25.005715","6500700","樹林區"
"238026","172-UY","2018/02/15 14:49:54","新北市樹林區佳園路一段41巷28弄3號","121.39471","24.97079","6500700","樹林區"
"239006","891-R6","2018/02/15 14:49:43","新北市鶯歌區中正一路415號","121.360651666667","24.9570833333333","6500800","鶯歌區"
"239005","526-UM","2018/02/15 14:49:52","新北市鶯歌區鳳吉一街128號","121.327898333333","24.97493","6500800","鶯歌區"
"239001","417-VK","2018/02/15 14:49:54","新北市鶯歌區鶯桃路97-3號","121.33914","24.9540366666667","6500800","鶯歌區"
"239003","360-BY","2018/02/15 14:49:55","新北市鶯歌區永和二街28號","121.336465","24.9719166666667","6500800","鶯歌區"
"221008","489-VK","2018/02/15 14:49:43","新北市汐止區康寧街145號","121.621733333333","25.066435","6501100","汐止區"
"221036","130-UY","2018/02/15 14:49:49","新北市汐止區忠孝東路258巷11弄5號","121.663866666667","25.0674133333333","6501100","汐止區"
"221015","131-UY","2018/02/15 14:49:50","新北市汐止區鄉長路一段39號","121.665215","25.0749916666667","6501100","汐止區"
"221010","269-BY","2018/02/15 14:49:48","新北市汐止區連峰街3巷1號","121.647476666667","25.0762283333333","6501100","汐止區"
"221027","281-BY","2018/02/15 14:49:48","新北市汐止區忠孝東路9號","121.658296666667","25.0659566666667","6501100","汐止區"
"221029","298-VK","2018/02/15 14:49:48","新北市汐止區康寧街901號","121.650998333333","25.0752716666667","6501100","汐止區"
"221021","299-VK","2018/02/15 14:49:43","新北市汐止區水源路一段138號","121.656085","25.0624683333333","6501100","汐止區"
"221031","353-TW","2018/02/15 14:49:39","新北市汐止區連峰街1巷2號","121.647243333333","25.0761633333333","6501100","汐止區"
"221025","623-UM","2018/02/15 14:49:50","新北市汐止區新台五路二段72號","121.661801666667","25.0656916666667","6501100","汐止區"
"221038","646-BX","2018/02/15 14:49:46","新北市汐止區忠孝東路528號","121.667003333333","25.0763483333333","6501100","汐止區"
"221033","647-BX","2018/02/15 14:49:55","新北市汐止區東勢街76巷87號","121.635685","25.0389","6501100","汐止區"
"221018","753-BX","2018/02/15 14:49:39","新北市汐止區汐萬路一段256巷3號","121.653473333333","25.0745433333333","6501100","汐止區"
"220023","256-TC","2018/02/15 14:49:38","新北市板橋區南雅西路二段301巷50弄27-1號","121.45242","25.0170433333333","6500100","板橋區"
"220001","285-VK","2018/02/15 14:49:44","新北市五股區凌雲路三段15-3號","121.429116666667","25.108775","6500100","板橋區"
"220031","286-VK","2018/02/15 14:49:54","新北市板橋區僑中二街40號","121.44511","25.0108466666667","6500100","板橋區"
"220081","287-VK","2018/02/15 14:49:50","新北市板橋區僑中一街80巷12弄2號","121.44807","25.012905","6500100","板橋區"
"220090","288-VK","2018/02/15 14:49:42","新北市板橋區永豐街45號","121.474315","25.017545","6500100","板橋區"
"220010","295-UM","2018/02/15 14:49:53","新北市板橋區莒光路27巷9號","121.470435","25.0251616666667","6500100","板橋區"
"220032","296-UM","2018/02/15 14:49:51","新北市板橋區溪崑二街103巷7號","121.427051666667","24.9888183333333","6500100","板橋區"
"220010","305-R5","2018/02/15 14:47:58","新北市八里區中山路三段409號","121.3686","25.1349866666667","6500100","板橋區"
"220086","461-BY","2018/02/15 14:49:39","新北市板橋區金門街215巷22號","121.433115","24.9896566666667","6500100","板橋區"
"220012","486-VK","2018/02/15 14:49:46","新北市板橋區文化路二段656號","121.48135","25.039495","6500100","板橋區"
"220089","487-VK","2018/02/15 14:49:36","新北市板橋區四維路324號","121.462213333333","25.0303066666667","6500100","板橋區"
"242031","280-VK","2018/02/15 14:49:51","新北市新莊區新泰路225巷22弄1號","121.445211666667","25.0392883333333","6500500","新莊區"
"220088","491-VK","2018/02/15 14:49:54","新北市五股區中直路13-7號","121.424433333333","25.1106683333333","6500100","板橋區"
"220104","560-BX","2018/02/15 14:49:54","新北市板橋區新生街87巷32號","121.456593333333","25.0222083333333","6500100","板橋區"
"220080","630-UY","2018/02/15 14:49:52","新北市板橋區大觀路二段153巷39弄1號","121.446953333333","25.00047","6500100","板橋區"
"220002","741-BX","2018/02/15 14:49:49","新北市板橋區忠孝路忠義巷9弄28號","121.465301666667","25.0042533333333","6500100","板橋區"
"220051","KEA-2699","2018/02/15 14:49:47","新北市五股區五工一路103號","121.458598333333","25.0693083333333","6500100","板橋區"
"220014","830-TW","2018/02/15 14:49:54","新北市板橋區中山路一段206巷3號","121.469998333333","25.0134783333333","6500100","板橋區"
"220073","985-R7","2018/02/15 14:49:49","新北市板橋區館前西路168-1號","121.452126666667","25.008615","6500100","板橋區"
"220070","AAC-253","2018/02/15 14:49:52","新北市板橋區華東街268號","121.452531666667","25.0008583333333","6500100","板橋區"
