"lineid","car","time","location","longitude","latitude","cityid","cityname"
"231007","189-VK","2018/09/01 09:58:29","新北市新店區新潭路三段215巷25號","121.508148333333","24.9040516666667","6500600","新店區"
"231008","192-VK","2018/09/01 09:38:07","新北市新店區平廣路一段256號","121.50788","24.888325","6500600","新店區"
"227006","282-VK","2018/09/01 09:58:43","新北市雙溪區長源里柑腳21號","121.80452","25.01434","6502500","雙溪區"
"252004","249-BX","2018/09/01 09:58:38","新北市三芝區錫板里棟板頭24號","121.51446","25.2282716666667","6502100","三芝區"
"252007","AAC-283","2018/09/01 09:58:23","新北市三芝區新庄里新庄子58-1號","121.507705","25.27609","6502100","三芝區"
