"lineid","car","time","location","longitude","latitude","cityid","cityname"
"231007","189-VK","2018/09/01 10:09:29","新北市新店區新潭路三段215巷25號","121.508146666667","24.9040833333333","6500600","新店區"
"231008","192-VK","2018/09/01 10:09:44","新北市新店區平廣路一段22號","121.537223333333","24.9056666666667","6500600","新店區"
"227006","282-VK","2018/09/01 10:09:23","新北市雙溪區長源里柑腳21號","121.804553333333","25.014375","6502500","雙溪區"
"252004","249-BX","2018/09/01 10:09:38","新北市三芝區福德里埔尾7號","121.503645","25.2463166666667","6502100","三芝區"
"252007","AAC-283","2018/09/01 10:09:43","新北市三芝區新庄里番社后15-6號","121.499563333333","25.2682233333333","6502100","三芝區"
