"lineid","car","time","location","longitude","latitude","cityid","cityname"
"231007","189-VK","2018/09/01 11:29:09","新北市新店區新潭路一段100號","121.527005","24.938145","6500600","新店區"
"231008","192-VK","2018/09/01 11:29:04","新北市新店區頂石厝路8號","121.540246666667","24.919545","6500600","新店區"
"235029","098-UM","2018/09/01 11:29:10","新北市中和區員山路36巷16-3號","121.485043333333","24.9912383333333","6500300","中和區"
"227006","282-VK","2018/09/01 11:29:03","新北市雙溪區魚行里內厝6號","121.890625","25.0260433333333","6502500","雙溪區"
"221012","246-BX","2018/09/01 11:29:10","新北市汐止區汐萬路一段333巷23號","121.64819","25.0762083333333","6501100","汐止區"
