"lineid","car","time","location","longitude","latitude","cityid","cityname"
"234044","148-BY","2018/09/01 13:49:14","新北市永和區永利路131號","121.52409","25.003115","6500400","永和區"
"234070","149-BY","2018/09/01 13:49:04","新北市永和區自由街77巷20弄3號","121.513725","25.00417","6500400","永和區"
"234005","207-UY","2018/09/01 13:49:12","新北市永和區中和路603號","121.512348333333","25.004105","6500400","永和區"
"234078","298-R6","2018/09/01 13:49:03","新北市永和區永亨路98號","121.52303","25.00486","6500400","永和區"
"234036","336-UY","2018/09/01 13:49:12","新北市永和區成功路二段131號","121.526718333333","24.998245","6500400","永和區"
"234062","337-UY","2018/09/01 13:49:12","新北市永和區中正路362號","121.517888333333","25.0008766666667","6500400","永和區"
"234084","338-UY","2018/09/01 13:49:13","新北市永和區中正路505號","121.51681","25.0069583333333","6500400","永和區"
"234068","552-UM","2018/09/01 13:49:15","新北市永和區竹林路88號","121.519471666667","25.0125166666667","6500400","永和區"
"234015","745-BX","2018/09/01 13:49:10","新北市永和區文化路9號","121.515238333333","25.01497","6500400","永和區"
"234028","746-BX","2018/09/01 13:49:08","新北市永和區民生路47巷4號","121.523066666667","24.9978066666667","6500400","永和區"
"234052","KEA-2590","2018/09/01 13:49:14","新北市永和區竹林路75巷25弄7號","121.520038333333","25.0144683333333","6500400","永和區"
"234060","AAD-866","2018/09/01 13:49:01","新北市永和區中正路69號","121.51481","24.9966633333333","6500400","永和區"
"234012","847-RS","2018/09/01 13:49:06","新北市永和區仁愛路168號","121.510088333333","25.0127533333333","6500400","永和區"
"234040","862-TW","2018/09/01 13:49:09","新北市永和區中和路389巷10號","121.50818","25.0010016666667","6500400","永和區"
"234048","863-TW","2018/09/01 13:49:10","新北市永和區保安路81號","121.508626666667","25.0147366666667","6500400","永和區"
"234010","9373-KE","2018/09/01 13:49:09","新北市永和區保安路150號","121.50836","25.01468","6500400","永和區"
"248017","225-UY","2018/09/01 13:49:08","新北市五股區民義路二段22巷35-1號","121.424068333333","25.1009283333333","6501500","五股區"
"234022","9380-KE","2018/09/01 13:49:11","新北市永和區復興街2巷4號","121.515756666667","25.0126516666667","6500400","永和區"
"234076","969-R7","2018/09/01 13:49:20","新北市永和區民族街39號","121.518625","24.99904","6500400","永和區"
"234072","AAC-211","2018/09/01 13:49:14","新北市永和區豫溪街207巷2號","121.523775","25.0095633333333","6500400","永和區"
"234066","AAC-212","2018/09/01 13:49:01","新北市永和區保平路236巷24弄5號","121.508231666667","25.0069416666667","6500400","永和區"
"234001","AAC-295","2018/09/01 13:49:10","新北市永和區自強街2號","121.514","25.0080766666667","6500400","永和區"
"231002","002-UM","2018/09/01 13:49:01","新北市新店區溪園路393號","121.52418","24.9790716666667","6500600","新店區"
"231027","0291-UT","2018/09/01 13:49:11","新北市新店區北宜路一段105巷4弄1號","121.539853333333","24.95568","6500600","新店區"
"231028","046-UY","2018/09/01 13:49:05","新北市新店區安和路二段163號","121.518951666667","24.9742583333333","6500600","新店區"
"231001","047-UY","2018/09/01 13:49:05","新北市新店區三民路96-1號","121.534075","24.973","6500600","新店區"
"231005","106-UY","2018/09/01 13:49:08","新北市新店區寶中路123號","121.549671666667","24.979355","6500600","新店區"
"231010","107-UY","2018/09/01 13:49:07","新北市新店區平等街66號","121.535663333333","24.9723383333333","6500600","新店區"
"231020","108-UY","2018/09/01 13:49:16","新北市新店區永興路132號","121.544011666667","24.9317066666667","6500600","新店區"
"231035","110-UY","2018/09/01 13:49:04","新北市新店區安忠路57巷11弄1號","121.513616666667","24.9581183333333","6500600","新店區"
"231012","187-VK","2018/09/01 13:49:01","新北市新店區德正街27巷29弄97號","121.545721666667","24.97268","6500600","新店區"
"231023","KEA-2219","2018/09/01 13:49:03","新北市新店區國校路65巷1號","121.538321666667","24.9540883333333","6500600","新店區"
"231026","256-BX","2018/09/01 13:49:12","新北市新店區平等街48巷27號","121.534883333333","24.9731816666667","6500600","新店區"
"231003","268-BY","2018/09/01 13:49:01","新北市新店區中興路一段206號","121.543678333333","24.9655066666667","6500600","新店區"
"231018","278-BY","2018/09/01 13:49:11","新北市新店區中正路400巷8號","121.534971666667","24.97781","6500600","新店區"
"231017","AAD-862","2018/09/01 13:49:18","新北市新店區竹林路90號","121.554193333333","24.95016","6500600","新店區"
"231029","355-BY","2018/09/01 13:49:06","新北市新店區安康路二段130號","121.512705","24.9623716666667","6500600","新店區"
"231038","3712-VJ","2018/09/01 13:49:17","新北市新店區安華路3號","121.519113333333","24.9603866666667","6500600","新店區"
"231037","4716-K9","2018/09/01 13:49:18","新北市新店區安康路三段363號","121.484095","24.950715","6500600","新店區"
"231025","4715-K9","2018/09/01 13:49:06","新北市新店區中正路273號","121.537643333333","24.9741783333333","6500600","新店區"
"231036","512-UM","2018/09/01 13:49:17","新北市新店區安祥路147巷22號","121.475665","24.9561666666667","6500600","新店區"
"231013","513-UM","2018/09/01 13:49:15","新北市新店區二十張路25巷16號","121.539198333333","24.9820216666667","6500600","新店區"
"231006","617-UM","2018/09/01 13:49:01","新北市新店區北宜路一段260號","121.545663333333","24.9527733333333","6500600","新店區"
"231030","619-UM","2018/09/01 13:49:02","新北市新店區安康路一段20號","121.531081666667","24.9610633333333","6500600","新店區"
"231034","641-BX","2018/09/01 13:49:03","新北市新店區達觀路14巷3號","121.503201666667","24.9417633333333","6500600","新店區"
"231033","720-UM","2018/09/01 13:48:56","新北市新店區莒光路44巷21弄11-6號","121.518578333333","24.952245","6500600","新店區"
"231004","899-TW","2018/09/01 13:49:03","新北市新店區寶橋路132號","121.547403333333","24.9760516666667","6500600","新店區"
"231024","AKT-0513","2018/09/01 13:49:13","新北市新店區北新路一段271巷8號","121.5405","24.9668083333333","6500600","新店區"
"235030","003-UY","2018/09/01 13:49:16","新北市中和區光華街33號","121.504936666667","25.0039866666667","6500300","中和區"
"235028","005-UY","2018/09/01 13:49:08","新北市中和區連城路75巷13號","121.498571666667","24.9982883333333","6500300","中和區"
"235027","006-UY","2018/09/01 13:49:10","新北市中和區連城路319巷5弄1號","121.489175","24.9954083333333","6500300","中和區"
"235020","096-UM","2018/09/01 13:49:06","新北市中和區中正路1192號","121.48056","25.010465","6500300","中和區"
"235003","097-UM","2018/09/01 13:49:08","新北市中和區大勇街25巷1號","121.517183333333","24.9932216666667","6500300","中和區"
"235029","098-UM","2018/09/01 13:49:14","新北市中和區勝利路35巷9弄8號","121.499585","25.0071216666667","6500300","中和區"
"235004","150-BY","2018/09/01 13:49:07","新北市中和區保健路48巷3號","121.50999","24.9969183333333","6500300","中和區"
"235022","151-BY","2018/09/01 13:49:00","新北市中和區連城路573-1號","121.478873333333","24.9943733333333","6500300","中和區"
"235019","183-VK","2018/09/01 13:49:09","新北市中和區民德路25巷7弄4號","121.469598333333","25.003135","6500300","中和區"
"235002","185-VK","2018/09/01 13:49:08","新北市中和區大勇街31巷13弄13號","121.517348333333","24.9940283333333","6500300","中和區"
"235013","186-VK","2018/09/01 13:49:06","新北市中和區明義街11巷5號","121.503823333333","24.9947133333333","6500300","中和區"
"235031","255-BX","2018/09/01 13:49:15","新北市中和區新生街242巷1弄1號","121.48333","24.9978116666667","6500300","中和區"
"235008","293-VK","2018/09/01 13:49:00","新北市中和區中興街137號","121.500036666667","24.9914316666667","6500300","中和區"
"235036","301-VK","2018/09/01 13:49:02","新北市中和區中山路二段26號","121.504681666667","25.0052983333333","6500300","中和區"
"235007","352-BY","2018/09/01 13:49:12","新北市中和區景平路37號","121.522046666667","24.9906133333333","6500300","中和區"
"235006","KEA-2878","2018/09/01 13:49:03","新北市中和區秀朗路三段135巷7弄1號","121.525435","24.9919583333333","6500300","中和區"
"235014","4979-A6","2018/09/01 13:49:14","新北市中和區忠孝街62巷9弄12號","121.513116666667","24.9839666666667","6500300","中和區"
"235033","4980-A6","2018/09/01 13:49:07","新北市中和區泰和街4號","121.499966666667","25.0011333333333","6500300","中和區"
"235034","558-UM","2018/09/01 13:49:06","新北市中和區中和路102號","121.502716666667","24.99973","6500300","中和區"
"235009","565-BX","2018/09/01 13:49:13","新北市中和區興南路一段86號","121.510021666667","24.9893633333333","6500300","中和區"
"235018","640-BX","2018/09/01 13:49:03","新北市中和區民治街120號","121.475313333333","25.0035133333333","6500300","中和區"
"235024","647-TV","2018/09/01 13:48:58","新北市中和區中山路三段118號","121.475598333333","25.0060216666667","6500300","中和區"
"235011","732-UM","2018/09/01 13:49:03","新北市中和區興南路二段74巷10號","121.505125","24.9849133333333","6500300","中和區"
"235010","733-UM","2018/09/01 13:49:06","新北市中和區仁愛街36巷44號","121.511345","24.98632","6500300","中和區"
"235035","783-BX","2018/09/01 13:49:06","新北市中和區中山路二段454號","121.488971666667","25.005185","6500300","中和區"
"235026","800-TS","2018/09/01 13:49:06","新北市中和區景平路708號","121.496886666667","25.0026033333333","6500300","中和區"
"235021","801-TS","2018/09/01 13:49:06","新北市中和區民安街25巷13號","121.480576666667","25.0002233333333","6500300","中和區"
"235005","802-TS","2018/09/01 13:49:15","新北市中和區永貞路249巷12號","121.51248","25.00368","6500300","中和區"
"235016","805-TS","2018/09/01 13:48:58","新北市中和區興南路二段399巷100號","121.500923333333","24.9773666666667","6500300","中和區"
"235012","896-TW","2018/09/01 13:49:05","新北市中和區南山路389號","121.506478333333","24.9902616666667","6500300","中和區"
"235017","900-TW","2018/09/01 13:48:57","新北市中和區華福街29-1號","121.46602","24.99675","6500300","中和區"
"235015","157-BY","2018/09/01 13:49:11","新北市中和區忠孝街106巷38號","121.513261666667","24.9843016666667","6500300","中和區"
"235001","AAC-213","2018/09/01 13:49:12","新北市中和區秀朗路三段128巷7弄2號","121.524566666667","24.992965","6500300","中和區"
"235023","AAC-215","2018/09/01 13:49:18","新北市中和區圓通路391-4號","121.48982","24.9892266666667","6500300","中和區"
"220013","072-UY","2018/09/01 13:49:00","新北市板橋區漢生東路217號","121.471121666667","25.0093583333333","6500100","板橋區"
"220034","073-UY","2018/09/01 13:49:18","新北市板橋區大智街71巷7弄1號","121.453123333333","25.0146516666667","6500100","板橋區"
"220105","075-UY","2018/09/01 13:49:14","新北市板橋區民生路二段161巷3號","121.470126666667","25.0197266666667","6500100","板橋區"
"220017","AAD-861","2018/09/01 13:49:18","新北市板橋區館前西路46號","121.458441666667","25.0073266666667","6500100","板橋區"
"247003","337-TH","2018/09/01 13:49:12","新北市蘆洲區中原路32號","121.460028333333","25.0827316666667","6501400","蘆洲區"
"247005","336-TH","2018/09/01 13:49:07","新北市蘆洲區中山二路301號","121.469166666667","25.07865","6501400","蘆洲區"
"247007","056-VK","2018/09/01 13:49:03","新北市三重區永安北路二段13號","121.482","25.0815183333333","6501400","蘆洲區"
"247019","001-UY","2018/09/01 13:48:58","新北市蘆洲區民族路408巷46號","121.47478","25.0931233333333","6501400","蘆洲區"
"228005","097-TW","2018/09/01 13:49:15","新北市雙溪區三港里雙澳路100號","121.889488333333","25.0561483333333","6502600","貢寮區"
"228004","212-TW","2018/09/01 13:45:41","新北市貢寮區龍崗里嵩陽街10號","121.901781666667","25.0105383333333","6502600","貢寮區"
"253003","6232-TK","2018/09/01 13:49:04","新北市石門區尖子鹿16號","121.576548333333","25.2791766666667","6502200","石門區"
"253001","6251-TK","2018/09/01 13:49:19","新北市石門區八甲58-2號","121.522021666667","25.2742316666667","6502200","石門區"
"253002","637-UY","2018/09/01 13:49:10","新北市石門區尖山湖13號","121.563263333333","25.2421483333333","6502200","石門區"
"253004","8270-PC","2018/09/01 13:49:09","新北市石門區草埔尾31-1號","121.603271666667","25.2650166666667","6502200","石門區"
"207002","749-BX","2018/09/01 13:49:07","新北市萬里區崁腳里崁腳路166號","121.645171666667","25.15601","6502800","萬里區"
"252005","073-UM","2018/09/01 13:48:49","新北市三芝區圓山里二坪頂71號","121.537503333333","25.2401183333333","6502100","三芝區"
"207001","662-BX","2018/09/01 13:49:11","新北市萬里區磺潭里公館崙35號","121.631821666667","25.21093","6502800","萬里區"
"237012","275-BY","2018/09/01 13:49:11","新北市三峽區中華路8-1號","121.375025","24.93293","6500900","三峽區"
"236068","105-UM","2018/09/01 13:49:06","新北市土城區城林路6巷80號","121.438666666667","24.9796533333333","6501300","土城區"
"236040","107-UM","2018/09/01 13:49:13","新北市土城區中央路二段183號","121.442093333333","24.9757133333333","6501300","土城區"
"236074","166-UM","2018/09/01 13:49:15","新北市土城區大安路2號","121.432485","24.965525","6501300","土城區"
"236029","253-BX","2018/09/01 13:49:02","新北市土城區城林路6巷80號","121.438598333333","24.9797916666667","6501300","土城區"
"236032","271-VK","2018/09/01 13:48:57","新北市土城區城林路6巷80號","121.438466666667","24.979825","6501300","土城區"
"236006","498-BY","2018/09/01 13:49:18","新北市土城區中央路一段365巷18弄2號","121.445721666667","24.98019","6501300","土城區"
"236057","912-UM","2018/09/01 13:48:58","新北市土城區中華路二段90號","121.438455","24.9750516666667","6501300","土城區"
"236045","913-UM","2018/09/01 13:49:11","新北市土城區城林路6巷80號","121.438458333333","24.9797683333333","6501300","土城區"
"236060","915-UM","2018/09/01 13:48:59","新北市土城區城林路6巷80號","121.438531666667","24.9797066666667","6501300","土城區"
"221010","269-BY","2018/09/01 13:49:15","新北市汐止區長青路210巷188號","121.61635","25.1132066666667","6501100","汐止區"
"220027","145-BY","2018/09/01 13:49:16","新北市板橋區民權路202巷7弄2號","121.460088333333","25.0148016666667","6500100","板橋區"
"220028","200-UY","2018/09/01 13:49:02","新北市板橋區大觀路二段265巷60弄31號","121.44188","24.99781","6500100","板橋區"
"220030","610-BX","2018/09/01 13:49:04","新北市板橋區篤行路三段69號","121.427443333333","24.9856233333333","6500100","板橋區"
"220050","245-BX","2018/09/01 13:49:14","新北市板橋區民生路二段161巷1號","121.470103333333","25.019935","6500100","板橋區"
"220004","276-BY","2018/09/01 13:49:12","新北市板橋區四川路二段23-3號","121.45457","24.99565","6500100","板橋區"
"220020","277-BY","2018/09/01 13:49:14","新北市板橋區大觀路三段36巷44號","121.43439","24.99682","6500100","板橋區"
"220038","280-UM","2018/09/01 13:49:16","新北市板橋區民生路二段161巷1號","121.470095","25.01997","6500100","板橋區"
"220019","283-VK","2018/09/01 13:49:04","新北市板橋區忠孝路176巷25號","121.465426666667","25.0017866666667","6500100","板橋區"
"220043","285-UM","2018/09/01 13:49:09","新北市板橋區民生路二段161巷3號","121.470183333333","25.0197816666667","6500100","板橋區"
"220001","285-VK","2018/09/01 13:49:15","新北市板橋區永豐街55巷48號","121.472003333333","25.0184666666667","6500100","板橋區"
"220031","286-VK","2018/09/01 13:49:16","新北市板橋區大觀路一段38巷156弄137號","121.443605","25.0086816666667","6500100","板橋區"
"220029","287-VK","2018/09/01 13:49:00","新北市板橋區光華街15巷2號","121.453923333333","25.0118583333333","6500100","板橋區"
"220039","288-VK","2018/09/01 13:49:03","新北市板橋區民生路二段120號","121.470683333333","25.019475","6500100","板橋區"
"220009","295-UM","2018/09/01 13:49:07","新北市板橋區太和街6巷1號","121.473761666667","25.02003","6500100","板橋區"
"220032","296-UM","2018/09/01 13:49:11","新北市板橋區大觀路二段150巷32號","121.441621666667","24.9999266666667","6500100","板橋區"
"220010","299-UM","2018/09/01 13:49:09","新北市板橋區中山路二段32號","121.472748333333","25.0152016666667","6500100","板橋區"
"220023","303-R5","2018/09/01 13:49:06","新北市板橋區南雅東路89號","121.453245","25.0084916666667","6500100","板橋區"
"220012","486-VK","2018/09/01 13:49:04","新北市板橋區民生路二段36-1號","121.472116666667","25.0167383333333","6500100","板橋區"
"241031","AAD-800","2018/09/01 13:49:00","新北市五股區中興路三段5號","121.449208333333","25.079795","6500200","三重區"
"220088","491-VK","2018/09/01 13:49:17","新北市板橋區民生路二段198號","121.469728333333","25.0207416666667","6500100","板橋區"
"220104","560-BX","2018/09/01 13:49:19","新北市板橋區中正路325巷43號","121.453185","25.0191016666667","6500100","板橋區"
"220052","561-BX","2018/09/01 13:49:05","新北市板橋區民生路二段161巷1號","121.470258333333","25.0199316666667","6500100","板橋區"
"220011","609-BX","2018/09/01 13:48:57","新北市板橋區民生路二段15-1號","121.47291","25.0161366666667","6500100","板橋區"
"220005","686-BX","2018/09/01 13:49:05","新北市板橋區華東街328號","121.452836666667","25.0034333333333","6500100","板橋區"
"220025","687-BX","2018/09/01 13:48:57","新北市板橋區大觀路三段59巷17弄6-1號","121.436855","24.9952683333333","6500100","板橋區"
"220002","741-BX","2018/09/01 13:49:14","新北市板橋區館前西路4-1號","121.459191666667","25.0070733333333","6500100","板橋區"
"220051","KEA-2699","2018/09/01 13:49:03","新北市板橋區萬板路710號","121.481848333333","25.027395","6500100","板橋區"
"220003","827-TW","2018/09/01 13:49:05","新北市板橋區新府路1-1號","121.464488333333","25.0119683333333","6500100","板橋區"
"220014","829-TW","2018/09/01 13:49:17","新北市板橋區中山路二段90巷47弄12號","121.477008333333","25.0148233333333","6500100","板橋區"
"220022","895-R6","2018/09/01 13:49:19","新北市板橋區南門街53號","121.457166666667","25.0084316666667","6500100","板橋區"
"220021","985-R7","2018/09/01 13:49:09","新北市板橋區府中路75號","121.457566666667","25.0093983333333","6500100","板橋區"
"220018","AAC-253","2018/09/01 13:49:14","新北市板橋區館前西路5號","121.459115","25.0070483333333","6500100","板橋區"
"235032","KEA-2873","2018/09/01 13:49:14","新北市中和區圓通路162巷8號","121.49684","24.9953866666667","6500300","中和區"
"235025","KEA-2875","2018/09/01 13:49:08","新北市中和區民享街40號","121.473983333333","25.002915","6500300","中和區"
