"lineid","car","time","location","longitude","latitude","cityid","cityname"
"234070","149-BY","2018/09/01 15:18:43","新北市板橋區懷德街201巷32號","121.482431666667","25.0304766666667","6500400","永和區"
"248017","225-UY","2018/09/01 15:18:48","新北市五股區成泰路一段98巷2-2號","121.43679","25.071825","6501500","五股區"
"231002","002-UM","2018/09/01 15:18:41","新北市新店區中正路700巷3號","121.533778333333","24.9912416666667","6500600","新店區"
"231028","046-UY","2018/09/01 15:18:49","新北市新店區僑信路132巷38號","121.499758333333","24.9453833333333","6500600","新店區"
"231001","047-UY","2018/09/01 15:18:45","新北市新店區北新路一段311-1號","121.541538333333","24.9680033333333","6500600","新店區"
"231005","106-UY","2018/09/01 15:18:48","新北市新店區二十張路59號","121.537621666667","24.9805883333333","6500600","新店區"
"231020","108-UY","2018/09/01 15:18:36","新北市新店區永福路98-1號","121.562911666667","24.9288516666667","6500600","新店區"
"231035","110-UY","2018/09/01 15:18:44","新北市新店區永平街23巷9號","121.516723333333","24.9829366666667","6500600","新店區"
"231012","187-VK","2018/09/01 15:18:41","新北市新店區中興路三段328號","121.542076666667","24.9863583333333","6500600","新店區"
"231023","KEA-2219","2018/09/01 15:18:43","新北市新店區北新路一段64巷37號","121.542175","24.9657083333333","6500600","新店區"
"231026","256-BX","2018/09/01 15:18:40","新北市新店區中正路265巷12號","121.537663333333","24.973215","6500600","新店區"
"231003","268-BY","2018/09/01 15:18:41","新北市新店區寶橋路230號","121.551518333333","24.978895","6500600","新店區"
"231018","278-BY","2018/09/01 15:18:31","新北市新店區中央八街68號","121.527846666667","24.976665","6500600","新店區"
"231017","AAD-862","2018/09/01 15:18:38","新北市新店區明山路45號","121.563748333333","24.9559266666667","6500600","新店區"
"231029","355-BY","2018/09/01 15:18:46","新北市新店區安康路三段571巷5-1號","121.47501","24.9428516666667","6500600","新店區"
"231038","3712-VJ","2018/09/01 15:18:36","新北市新店區安華路28-1號","121.51967","24.9609433333333","6500600","新店區"
"231037","4716-K9","2018/09/01 15:18:38","新北市新店區安民街341-1號","121.516668333333","24.9749433333333","6500600","新店區"
"231025","4715-K9","2018/09/01 15:18:48","新北市新店區環河路103-6號","121.53124","24.9709333333333","6500600","新店區"
"231036","512-UM","2018/09/01 15:18:37","新北市新店區安祥路104巷6弄14號","121.481921666667","24.9628516666667","6500600","新店區"
"231006","617-UM","2018/09/01 15:18:41","新北市新店區檳榔路22巷2號","121.541121666667","24.9641866666667","6500600","新店區"
"231030","619-UM","2018/09/01 15:18:42","新北市新店區安民街339號","121.516906666667","24.9748716666667","6500600","新店區"
"231034","641-BX","2018/09/01 15:18:42","新北市新店區如意街1巷2號","121.49573","24.94947","6500600","新店區"
"231039","718-UY","2018/09/01 15:18:45","新北市新店區寶元路一段65號","121.542228333333","24.9857683333333","6500600","新店區"
"231033","720-UM","2018/09/01 15:18:36","新北市新店區安康路三段109-1號","121.491173333333","24.9517516666667","6500600","新店區"
"231004","899-TW","2018/09/01 15:18:43","新北市新店區建國路29號","121.540176666667","24.9740833333333","6500600","新店區"
"231024","AKT-0513","2018/09/01 15:18:33","新北市新店區新明街14號","121.540938333333","24.9682883333333","6500600","新店區"
"241011","013-R5","2018/09/01 15:18:35","新北市三重區重新路四段121號","121.484751666667","25.0522616666667","6500200","三重區"
"241028","022-UY","2018/09/01 15:18:33","新北市三重區重新路四段121號","121.484646666667","25.0523816666667","6500200","三重區"
"235030","003-UY","2018/09/01 15:18:40","新北市中和區保平路261號","121.507303333333","25.0040616666667","6500300","中和區"
"235014","4979-A6","2018/09/01 15:18:34","新北市中和區景平路223號","121.510318333333","24.99253","6500300","中和區"
"235033","4980-A6","2018/09/01 15:18:47","新北市中和區板南路247-1號","121.496471666667","24.994695","6500300","中和區"
"235026","800-TS","2018/09/01 15:18:45","新北市中和區中山路二段329號","121.493306666667","25.0019783333333","6500300","中和區"
"235012","896-TW","2018/09/01 15:18:45","新北市中和區興南路一段25號","121.511268333333","24.99092","6500300","中和區"
"235001","AAC-213","2018/09/01 15:18:32","新北市板橋區民生路一段85號","121.474836666667","25.0138916666667","6500300","中和區"
"235023","AAC-215","2018/09/01 15:18:47","新北市中和區圓通路435巷3-3號","121.488103333333","24.9862416666667","6500300","中和區"
"253003","6232-TK","2018/09/01 15:18:44","新北市石門區小坑9號","121.59368","25.2884666666667","6502200","石門區"
"253001","6251-TK","2018/09/01 15:16:38","新北市石門區小坑9號","121.594413333333","25.28844","6502200","石門區"
"253002","637-UY","2018/09/01 15:18:29","新北市石門區中央路24號","121.567823333333","25.2920383333333","6502200","石門區"
"253004","8270-PC","2018/09/01 15:18:39","新北市石門區小坑9號","121.594516666667","25.2892316666667","6502200","石門區"
"207002","749-BX","2018/09/01 15:18:47","新北市萬里區崁腳里內中福路22號","121.660336666667","25.1653933333333","6502800","萬里區"
"207001","662-BX","2018/09/01 15:18:31","新北市萬里區磺潭里員潭路1-4號","121.646553333333","25.2017583333333","6502800","萬里區"
"236068","105-UM","2018/09/01 15:18:46","新北市土城區裕民路185巷36弄10號","121.454351666667","24.9844816666667","6501300","土城區"
"236040","107-UM","2018/09/01 15:18:39","新北市土城區學府路一段143巷4號","121.453758333333","24.9858883333333","6501300","土城區"
"236074","166-UM","2018/09/01 15:18:42","新北市土城區中州路27巷74號","121.412655","24.9565283333333","6501300","土城區"
"236029","253-BX","2018/09/01 15:18:42","新北市土城區中央路一段262巷11號","121.443435","24.98406","6501300","土城區"
"236024","269-VK","2018/09/01 15:18:46","新北市土城區中央路二段61巷20號","121.442996666667","24.9788016666667","6501300","土城區"
"236013","270-VK","2018/09/01 15:18:34","新北市土城區學府路一段24巷1號","121.458431666667","24.9885183333333","6501300","土城區"
"236032","271-VK","2018/09/01 15:18:36","新北市土城區國際路158巷54號","121.467936666667","24.9748033333333","6501300","土城區"
"236017","401-BY","2018/09/01 15:18:34","新北市土城區峰廷街18號","121.468973333333","24.9873016666667","6501300","土城區"
"236057","912-UM","2018/09/01 15:18:38","新北市土城區中央路二段252號","121.441695","24.9745866666667","6501300","土城區"
"236045","913-UM","2018/09/01 15:18:48","新北市土城區明德路一段137-4號","121.465381666667","24.98065","6501300","土城區"
"236060","915-UM","2018/09/01 15:18:40","新北市土城區延和路146巷2-1號","121.467876666667","24.9896216666667","6501300","土城區"
"236054","AAC-216","2018/09/01 15:18:35","新北市土城區立德路41號","121.462535","24.9879133333333","6501300","土城區"
"220050","245-BX","2018/09/01 15:18:34","新北市板橋區縣民大道三段37號","121.473986666667","25.0208716666667","6500100","板橋區"
"220038","280-UM","2018/09/01 15:18:36","新北市板橋區四維路199號","121.464088333333","25.02696","6500100","板橋區"
"220031","286-VK","2018/09/01 15:18:36","新北市板橋區僑中二街108巷15號","121.445068333333","25.0073116666667","6500100","板橋區"
"220042","689-BX","2018/09/01 15:18:47","新北市板橋區長江路二段278-1號","121.469801666667","25.0328683333333","6500100","板橋區"
"220051","KEA-2699","2018/09/01 15:18:43","新北市板橋區縣民大道二段287號","121.470385","25.0180766666667","6500100","板橋區"
"220014","829-TW","2018/09/01 15:18:50","新北市板橋區萬板路818巷17-1號","121.48393","25.0267833333333","6500100","板橋區"
