"lineid","car","time","location","longitude","latitude","cityid","cityname"
"234070","149-BY","2018/09/01 15:28:44","新北市永和區環河西路一段9號","121.514768333333","25.0180633333333","6500400","永和區"
"234010","9373-KE","2018/09/01 15:28:42","新北市永和區光復街33巷7號","121.515668333333","25.0180016666667","6500400","永和區"
"231002","002-UM","2018/09/01 15:28:41","新北市新店區環河路103-6號","121.5314","24.9709866666667","6500600","新店區"
"231028","046-UY","2018/09/01 15:28:39","新北市新店區僑信路100號","121.499986666667","24.9473066666667","6500600","新店區"
"231005","106-UY","2018/09/01 15:28:48","新北市新店區建國路293巷2號","121.537025","24.9859216666667","6500600","新店區"
"231020","108-UY","2018/09/01 15:28:36","新北市新店區湖興路103-1號","121.563291666667","24.9327516666667","6500600","新店區"
"231035","110-UY","2018/09/01 15:28:44","新北市新店區安興路83號","121.515251666667","24.9754066666667","6500600","新店區"
"231012","187-VK","2018/09/01 15:28:41","新北市新店區寶元路一段60號","121.544003333333","24.984455","6500600","新店區"
"231023","KEA-2219","2018/09/01 15:28:43","新北市新店區北新路一段339號","121.5419","24.9687466666667","6500600","新店區"
"231026","256-BX","2018/09/01 15:28:40","新北市新店區三民路117巷4弄1號","121.53434","24.971555","6500600","新店區"
"231003","268-BY","2018/09/01 15:28:41","新北市新店區寶高路116號","121.554561666667","24.9761033333333","6500600","新店區"
"231018","278-BY","2018/09/01 15:28:31","新北市新店區中央路87號","121.531976666667","24.9764683333333","6500600","新店區"
"231017","AAD-862","2018/09/01 15:28:38","新北市新店區明山路45號","121.563726666667","24.95589","6500600","新店區"
"231029","355-BY","2018/09/01 15:28:46","新北市新店區安康路三段466-2號","121.484068333333","24.95095","6500600","新店區"
"231038","3712-VJ","2018/09/01 15:28:36","新北市新店區安華路28-1號","121.519698333333","24.9607516666667","6500600","新店區"
"231037","4716-K9","2018/09/01 15:28:38","新北市新店區安興路91巷16號","121.512853333333","24.97534","6500600","新店區"
"231025","4715-K9","2018/09/01 15:28:46","新北市新店區安康路一段111-1號","121.528645","24.9617433333333","6500600","新店區"
"231036","512-UM","2018/09/01 15:28:42","新北市新店區安祥路67巷2號","121.483758333333","24.9595783333333","6500600","新店區"
"231030","619-UM","2018/09/01 15:28:42","新北市新店區安和路三段29-2號","121.517356666667","24.9812933333333","6500600","新店區"
"231034","641-BX","2018/09/01 15:28:42","新北市新店區富貴街6巷2號","121.494645","24.9501683333333","6500600","新店區"
"231039","718-UY","2018/09/01 15:28:45","新北市新店區寶元路一段85巷8號","121.543151666667","24.9858016666667","6500600","新店區"
"231033","720-UM","2018/09/01 15:28:36","新北市新店區裕合街122號","121.490256666667","24.9491633333333","6500600","新店區"
"231004","899-TW","2018/09/01 15:28:43","新北市新店區民族路221號","121.536775","24.975925","6500600","新店區"
"241011","013-R5","2018/09/01 15:28:35","新北市三重區環河南路35號","121.503026666667","25.061125","6500200","三重區"
"241028","022-UY","2018/09/01 15:28:33","新北市三重區重新路二段61號","121.496835","25.0618816666667","6500200","三重區"
"241017","063-VK","2018/09/01 15:28:34","新北市三重區重新路三段90號","121.492985","25.0609616666667","6500200","三重區"
"241013","270-UM","2018/09/01 15:28:48","新北市三重區捷運路36號","121.483241666667","25.054295","6500200","三重區"
"241007","398-BY","2018/09/01 15:28:50","新北市三重區重新路四段121號","121.485073333333","25.0525016666667","6500200","三重區"
"241020","478-VK","2018/09/01 15:28:36","新北市三重區忠孝路三段113-1號","121.480015","25.063765","6500200","三重區"
"241033","557-UM","2018/09/01 15:28:42","新北市三重區重新路五段283號","121.479351666667","25.049125","6500200","三重區"
"241012","941-UM","2018/09/01 15:28:44","新北市三重區成功路106-2號","121.487355","25.0516783333333","6500200","三重區"
"241029","942-UM","2018/09/01 15:28:29","新北市三重區中正南路252巷5號","121.493433333333","25.0526966666667","6500200","三重區"
"235030","003-UY","2018/09/01 15:28:36","新北市中和區廣福路2號","121.506046666667","25.00337","6500300","中和區"
"235014","4979-A6","2018/09/01 15:28:34","新北市中和區景安路112號","121.505348333333","24.9952366666667","6500300","中和區"
"235033","4980-A6","2018/09/01 15:28:47","新北市中和區連城路347巷18弄2號","121.488505","24.9948","6500300","中和區"
"235026","800-TS","2018/09/01 15:28:45","新北市中和區建八路125巷6弄11號","121.490176666667","24.999255","6500300","中和區"
"235023","AAC-215","2018/09/01 15:28:47","新北市中和區圓通路356-3號","121.484375","24.9872783333333","6500300","中和區"
"253003","6232-TK","2018/09/01 15:28:44","新北市石門區小坑9號","121.594321666667","25.2884316666667","6502200","石門區"
"253001","6251-TK","2018/09/01 15:28:38","新北市石門區小坑9號","121.594046666667","25.28865","6502200","石門區"
"253002","637-UY","2018/09/01 15:28:50","新北市石門區小坑9號","121.594526666667","25.2891916666667","6502200","石門區"
"253004","8270-PC","2018/09/01 15:28:38","新北市石門區小坑9號","121.59441","25.2884066666667","6502200","石門區"
"236068","105-UM","2018/09/01 15:28:46","新北市土城區中正路6號","121.442458333333","24.9749966666667","6501300","土城區"
"236040","107-UM","2018/09/01 15:28:33","新北市土城區學府路一段164巷21號","121.453495","24.987395","6501300","土城區"
"236074","166-UM","2018/09/01 15:28:35","新北市土城區溪頭路18號","121.413163333333","24.9555716666667","6501300","土城區"
"236029","253-BX","2018/09/01 15:28:42","新北市土城區中央路一段168號","121.445805","24.9867833333333","6501300","土城區"
"236024","269-VK","2018/09/01 15:28:33","新北市土城區中央路二段78號","121.442411666667","24.9789683333333","6501300","土城區"
"236013","270-VK","2018/09/01 15:28:34","新北市土城區廣明街10號","121.455928333333","24.9919883333333","6501300","土城區"
"236032","271-VK","2018/09/01 15:28:38","新北市土城區國際路7號","121.465393333333","24.9798916666667","6501300","土城區"
"236017","401-BY","2018/09/01 15:28:34","新北市土城區延吉街165巷14號","121.470088333333","24.985555","6501300","土城區"
"236057","912-UM","2018/09/01 15:28:49","新北市土城區中央路一段252-1號","121.444401666667","24.9845766666667","6501300","土城區"
"236045","913-UM","2018/09/01 15:28:48","新北市土城區金城路二段384號","121.463356666667","24.9855933333333","6501300","土城區"
"236060","915-UM","2018/09/01 15:28:48","新北市土城區金城路三段73巷9弄21號","121.465725","24.9874283333333","6501300","土城區"
"236054","AAC-216","2018/09/01 15:28:35","新北市土城區金城路三段33巷17號","121.465173333333","24.98715","6501300","土城區"
"220050","245-BX","2018/09/01 15:28:34","新北市板橋區漢生東路83巷1號","121.466498333333","25.0157683333333","6500100","板橋區"
"220038","280-UM","2018/09/01 15:28:36","新北市板橋區四維路343號","121.462366666667","25.0298016666667","6500100","板橋區"
"220052","561-BX","2018/09/01 15:28:37","新北市板橋區漢生東路33巷17號","121.465788333333","25.0174383333333","6500100","板橋區"
"220042","689-BX","2018/09/01 15:28:45","新北市板橋區長江路一段102號","121.459423333333","25.0295283333333","6500100","板橋區"
