"lineid","car","time","location","longitude","latitude","cityid","cityname"
"249005","172-UM","2018/09/01 16:49:00","新北市八里區中華路一段5-13號","121.423366666667","25.1566766666667","6502300","八里區"
"249003","593-UM","2018/09/01 16:49:19","新北市八里區中山路二段289號","121.401543333333","25.1486566666667","6502300","八里區"
"231046","107-UY","2018/09/01 16:49:00","新北市新店區灣潭路15-2號","121.542398333333","24.94265","6500600","新店區"
"241011","013-R5","2018/09/01 16:49:15","新北市三重區仁愛街53巷138號","121.499353333333","25.0726766666667","6500200","三重區"
"241028","022-UY","2018/09/01 16:49:13","新北市三重區光興街91號","121.49737","25.0598816666667","6500200","三重區"
"241008","059-VK","2018/09/01 16:49:18","新北市三重區永安北路一段17巷30號","121.477916666667","25.075195","6500200","三重區"
"241022","060-VK","2018/09/01 16:49:15","新北市三重區貴陽街47巷2弄15號","121.484845","25.063215","6500200","三重區"
"241031","061-VK","2018/09/01 16:49:02","新北市三重區過圳街42-2號","121.488126666667","25.06017","6500200","三重區"
"241015","062-VK","2018/09/01 16:49:01","新北市三重區文化北路45號","121.49895","25.0654983333333","6500200","三重區"
"241017","063-VK","2018/09/01 16:49:14","新北市三重區大同北路62號","121.494081666667","25.06387","6500200","三重區"
"241024","065-VK","2018/09/01 16:49:06","新北市三重區中正北路317巷18號","121.47533","25.0729516666667","6500200","三重區"
"241026","066-VK","2018/09/01 16:49:08","新北市三重區文化南路8-4號","121.500303333333","25.0621016666667","6500200","三重區"
"241002","090-VK","2018/09/01 16:49:03","新北市三重區仁義街161-1號","121.497123333333","25.0812733333333","6500200","三重區"
"241003","091-VK","2018/09/01 16:49:09","新北市三重區五華街141巷60號","121.493326666667","25.0866433333333","6500200","三重區"
"241016","266-UM","2018/09/01 16:49:20","新北市三重區大同北路115巷10號","121.494021666667","25.0644816666667","6500200","三重區"
"241009","267-UM","2018/09/01 16:49:20","新北市三重區三和路四段203巷262號","121.487423333333","25.081015","6500200","三重區"
"241018","268-UM","2018/09/01 16:49:08","新北市三重區正義北路294號","121.495266666667","25.0694766666667","6500200","三重區"
"241032","269-UM","2018/09/01 16:49:19","新北市三重區重陽路一段120巷37號","121.485001666667","25.0602483333333","6500200","三重區"
"241013","270-UM","2018/09/01 16:49:07","新北市三重區仁愛街83號","121.495851666667","25.07318","6500200","三重區"
"241025","271-UM","2018/09/01 16:49:09","新北市三重區中正北路530巷5-1號","121.47204","25.07114","6500200","三重區"
"241007","398-BY","2018/09/01 16:49:09","新北市三重區三和路四段181巷78號","121.484331666667","25.0795533333333","6500200","三重區"
"241019","413-TH","2018/09/01 16:49:08","新北市三重區力行路一段87號","121.48644","25.067985","6500200","三重區"
"241004","475-VK","2018/09/01 16:49:16","新北市三重區仁愛街397巷12號","121.491413333333","25.0811233333333","6500200","三重區"
"241020","478-VK","2018/09/01 16:49:15","新北市三重區車路頭街51巷8號","121.484773333333","25.0724316666667","6500200","三重區"
"241030","480-VK","2018/09/01 16:49:17","新北市三重區新興路2巷3號","121.492635","25.0526583333333","6500200","三重區"
"241014","543-UM","2018/09/01 16:49:14","新北市三重區長壽街120巷11號","121.502486666667","25.0691316666667","6500200","三重區"
"241023","545-UM","2018/09/01 16:49:06","新北市三重區新北大道一段206巷15號","121.482301666667","25.0625783333333","6500200","三重區"
"241001","547-UM","2018/09/01 16:49:10","新北市三重區仁愛街192巷15號","121.493643333333","25.0769983333333","6500200","三重區"
"241033","557-UM","2018/09/01 16:49:02","新北市三重區光復路二段133號","121.472128333333","25.0595283333333","6500200","三重區"
"241006","AAD-863","2018/09/01 16:49:14","新北市三重區力行路二段182-3號","121.483323333333","25.0776133333333","6500200","三重區"
"241005","887-TS","2018/09/01 16:49:14","新北市三重區仁華街80巷24號","121.484406666667","25.08377","6500200","三重區"
"241012","941-UM","2018/09/01 16:49:04","新北市三重區龍門路274巷19號","121.50157","25.0746866666667","6500200","三重區"
"241029","942-UM","2018/09/01 16:49:09","新北市三重區集美街257號","121.492353333333","25.0556433333333","6500200","三重區"
"235046","733-UM","2018/09/01 16:45:33","新北市中和區員山路36巷13號","121.484111666667","24.99101","6500300","中和區"
"247004","337-TH","2018/09/01 16:49:10","新北市蘆洲區長榮路100號","121.461906666667","25.0839883333333","6501400","蘆洲區"
"247006","336-TH","2018/09/01 16:49:19","新北市蘆洲區永安南路二段132-1號","121.462543333333","25.078505","6501400","蘆洲區"
"247018","057-VK","2018/09/01 16:49:08","新北市蘆洲區民族路304號","121.477575","25.089955","6501400","蘆洲區"
"247008","056-VK","2018/09/01 16:49:13","新北市蘆洲區中山一路203號","121.474268333333","25.08103","6501400","蘆洲區"
"247020","001-UY","2018/09/01 16:49:18","新北市蘆洲區民族路422巷16號","121.474113333333","25.0922933333333","6501400","蘆洲區"
"228003","097-TW","2018/09/01 16:49:18","新北市貢寮區貢寮里朝陽街1-2號","121.912351666667","25.0213016666667","6502600","貢寮區"
"228002","663-BX","2018/09/01 16:49:25","新北市貢寮區貢寮里長潭街24-1號","121.897076666667","25.0234483333333","6502600","貢寮區"
"224008","285-BY","2018/09/01 16:49:03","新北市瑞芳區傑魚坑路169號","121.789716666667","25.1094316666667","6501200","瑞芳區"
"224007","275-VK","2018/09/01 16:49:03","新北市瑞芳區中央路48巷64號","121.760801666667","25.1032866666667","6501200","瑞芳區"
"224009","273-VK","2018/09/01 16:49:16","新北市瑞芳區明燈路一段267號","121.816096666667","25.1087066666667","6501200","瑞芳區"
"224005","271-BY","2018/09/01 16:49:10","新北市瑞芳區洞頂路21號","121.8616","25.1199516666667","6501200","瑞芳區"
"227010","642-TC","2018/09/01 16:49:08","新北市雙溪區牡丹里五分11號","121.865301666667","25.04774","6502500","雙溪區"
"227002","400-TW","2018/09/01 16:49:19","新北市雙溪區外柑里外柑腳71號","121.807111666667","25.0176183333333","6502500","雙溪區"
"251009","008-UM","2018/09/01 16:49:02","新北市淡水區中正路二段18號","121.41979","25.181245","6501000","淡水區"
"251013","KEA-2871","2018/09/01 16:49:12","新北市淡水區泉洲厝32號","121.489231666667","25.192565","6501000","淡水區"
"251016","179-VK","2018/09/01 16:49:16","新北市淡水區水頭42號","121.478398333333","25.1849783333333","6501000","淡水區"
"251014","180-VK","2018/09/01 16:49:19","新北市淡水區淡金路四段478號","121.452436666667","25.2239216666667","6501000","淡水區"
"251015","181-VK","2018/09/01 16:49:21","新北市淡水區忠愛街5-2號","121.460703333333","25.1715633333333","6501000","淡水區"
"251010","413-VK","2018/09/01 16:49:11","新北市淡水區中正路二段31號","121.419426666667","25.1815","6501000","淡水區"
"251012","441-VK","2018/09/01 16:49:14","新北市淡水區中正路二段31號","121.419685","25.1815033333333","6501000","淡水區"
"251008","442-VK","2018/09/01 16:48:59","新北市淡水區樹梅坑45號","121.474663333333","25.144565","6501000","淡水區"
"251006","561-UM","2018/09/01 16:49:02","新北市淡水區中正路二段31號","121.419293333333","25.18172","6501000","淡水區"
"251007","577-R6","2018/09/01 16:49:02","新北市淡水區中正路二段31號","121.419598333333","25.1812733333333","6501000","淡水區"
"251011","650-BX","2018/09/01 16:49:18","新北市淡水區中正路257號","121.433076666667","25.1745183333333","6501000","淡水區"
"252002","178-VK","2018/09/01 16:49:13","新北市三芝區忠孝街77號","121.505916666667","25.2566216666667","6502100","三芝區"
"252001","292-VK","2018/09/01 16:49:16","新北市三芝區淡金路二段89號","121.503881666667","25.2608","6502100","三芝區"
"242053","751-BX","2018/09/01 16:49:14","新北市新莊區三和路18-25號","121.44174","25.0391916666667","6500500","新莊區"
"242044","400-BY","2018/09/01 16:49:21","新北市新莊區新泰路357巷1弄57號","121.442536666667","25.03941","6500500","新莊區"
"242017","175-VK","2018/09/01 16:49:20","新北市新莊區三和路12-21號","121.441803333333","25.0384966666667","6500500","新莊區"
"242013","351-TH","2018/09/01 16:49:11","新北市新莊區新泰路357巷3弄57號","121.442013333333","25.0395616666667","6500500","新莊區"
"241031","AAD-800","2018/09/01 16:19:08","新北市板橋區民生路二段89-6號","121.47048","25.0192483333333","6500200","三重區"
