"lineid","car","time","location","longitude","latitude","cityid","cityname"
"234007","207-UY","2018/09/01 18:08:36","新北市永和區福和路1號","121.525633333333","25.009405","6500400","永和區"
"234026","9371-KE","2018/09/01 18:08:38","新北市永和區秀朗路一段10巷24號","121.513233333333","25.00634","6500400","永和區"
"249005","172-UM","2018/09/01 18:08:40","新北市八里區荖阡坑路15-40號","121.401691666667","25.1396916666667","6502300","八里區"
"249001","173-UM","2018/09/01 18:08:49","新北市八里區龍米路二段30號","121.448601666667","25.140045","6502300","八里區"
"249004","303-UY","2018/09/01 18:08:36","新北市八里區龍米路二段155巷2弄7號","121.438898333333","25.153325","6502300","八里區"
"249002","305-UY","2018/09/01 18:08:50","新北市八里區龍米路一段356巷46號","121.452083333333","25.1302783333333","6502300","八里區"
"249003","593-UM","2018/09/01 18:08:42","新北市八里區松子腳4-3號","121.402923333333","25.1442983333333","6502300","八里區"
"248006","077-UY","2018/09/01 18:08:41","新北市五股區中興路二段77-1號","121.460856666667","25.077185","6501500","五股區"
"248008","095-VK","2018/09/01 18:08:43","新北市蘆洲區永安南路二段294號","121.457255","25.081855","6501500","五股區"
"248020","225-UY","2018/09/01 18:08:50","新北市五股區凌雲路一段21號","121.454476666667","25.0991683333333","6501500","五股區"
"248014","261-SL","2018/09/01 18:08:38","新北市五股區成泰路一段205號","121.43525","25.0770466666667","6501500","五股區"
"248010","272-BY","2018/09/01 18:08:37","新北市五股區成泰路一段216號","121.43661","25.079145","6501500","五股區"
"248004","677-BX","2018/09/01 18:08:35","新北市五股區成泰路二段101號","121.438386666667","25.0843216666667","6501500","五股區"
"248002","678-BX","2018/09/01 18:08:49","新北市五股區芳洲路65號","121.442141666667","25.0844033333333","6501500","五股區"
"232011","375-UM","2018/09/01 18:08:44","新北市坪林區坪雙路一段51號","121.712381666667","24.9434183333333","6502000","坪林區"
"244007","080-UY","2018/09/01 18:08:43","新北市林口區林口路170號","121.387696666667","25.0825566666667","6501700","林口區"
"244019","403-UM","2018/09/01 18:08:43","新北市林口區文化一路一段100巷10弄1號","121.3739","25.0707683333333","6501700","林口區"
"244013","KEA-2802","2018/09/01 18:08:41","新北市林口區中山路150-1號","121.391123333333","25.078745","6501700","林口區"
"244023","483-VK","2018/09/01 18:08:44","新北市林口區東湖路105巷17號","121.38392","25.0724966666667","6501700","林口區"
"244017","485-VK","2018/09/01 18:08:41","新北市林口區文化一路一段15巷2號","121.369665","25.068935","6501700","林口區"
"244009","656-BX","2018/09/01 18:08:43","新北市林口區佳林路56巷43號","121.385113333333","25.0808033333333","6501700","林口區"
"244011","657-BX","2018/09/01 18:08:32","新北市林口區中正路30巷11號","121.39598","25.0779116666667","6501700","林口區"
"244025","837-TS","2018/09/01 18:08:45","新北市林口區南勢二街152-3號","121.358898333333","25.0734033333333","6501700","林口區"
"244021","838-TS","2018/09/01 18:08:35","新北市林口區自強四街1號","121.398711666667","25.076905","6501700","林口區"
"243013","AAD-798","2018/09/01 18:08:49","新北市泰山區南林路93號","121.415518333333","25.0511816666667","6501600","泰山區"
"222003","436-BY","2018/09/01 18:08:52","新北市深坑區阿柔洋49-4號","121.611508333333","24.997105","6501800","深坑區"
"222002","659-BX","2018/09/01 18:08:47","新北市深坑區文化街42號","121.619115","25.0016983333333","6501800","深坑區"
"231041","002-UM","2018/09/01 18:08:47","新北市新店區安華路28-1號","121.519775","24.96093","6500600","新店區"
"231027","0293-UT","2018/09/01 18:07:46","新北市新店區安華路28-1號","121.519555","24.9605783333333","6500600","新店區"
"231044","106-UY","2018/09/01 18:08:51","新北市新店區安華路28-1號","121.51955","24.96085","6500600","新店區"
"231046","107-UY","2018/09/01 18:08:40","新北市新店區直潭七街60號","121.532281666667","24.9397766666667","6500600","新店區"
"231064","110-UY","2018/09/01 18:08:36","新北市新店區安一路一段1-1號","121.519131666667","24.9612933333333","6500600","新店區"
"231048","187-VK","2018/09/01 18:08:36","新北市新店區安一路一段1-1號","121.519626666667","24.96133","6500600","新店區"
"231054","KEA-2219","2018/09/01 18:08:43","新北市新店區安一路一段1-1號","121.51996","24.9610866666667","6500600","新店區"
"231057","256-BX","2018/09/01 18:08:46","新北市新店區安一路一段1-1號","121.519723333333","24.9612383333333","6500600","新店區"
"231042","268-BY","2018/09/01 18:08:48","新北市新店區安華路1-1號","121.519503333333","24.9604533333333","6500600","新店區"
"231051","278-BY","2018/09/01 18:08:50","新北市新店區安一路一段1-1號","121.519631666667","24.961155","6500600","新店區"
"231050","AAD-862","2018/09/01 18:08:45","新北市新店區安一路一段1-1號","121.519925","24.96121","6500600","新店區"
"231060","355-BY","2018/09/01 18:08:34","新北市新店區安華路28-1號","121.519176666667","24.960915","6500600","新店區"
"231058","3713-VJ","2018/09/01 18:08:44","新北市新店區安華路28-1號","121.519181666667","24.9606566666667","6500600","新店區"
"231066","4716-K9","2018/09/01 18:08:49","新北市新店區安一路一段1-1號","121.519396666667","24.961365","6500600","新店區"
"231056","4715-K9","2018/09/01 18:08:36","新北市新店區安康路一段355號","121.51988","24.963525","6500600","新店區"
"231067","4772-VM","2018/09/01 18:08:51","新北市新店區安華路28-1號","121.519275","24.9606","6500600","新店區"
"231049","513-UM","2018/09/01 18:08:36","新北市新店區安一路一段1-1號","121.519771666667","24.9612666666667","6500600","新店區"
"231045","617-UM","2018/09/01 18:08:36","新北市新店區安華路28-1號","121.519533333333","24.960895","6500600","新店區"
"231061","619-UM","2018/09/01 18:08:34","新北市新店區安華路28-1號","121.519655","24.9608366666667","6500600","新店區"
"231063","641-BX","2018/09/01 18:08:35","新北市新店區安華路28-1號","121.51956","24.960555","6500600","新店區"
"231062","720-UM","2018/09/01 18:08:33","新北市新店區安一路一段1-1號","121.519406666667","24.9613416666667","6500600","新店區"
"231043","899-TW","2018/09/01 18:08:46","新北市新店區安華路28-1號","121.519168333333","24.96089","6500600","新店區"
"231055","AKT-0513","2018/09/01 18:08:53","新北市新店區安華路1-1號","121.519361666667","24.96044","6500600","新店區"
"241024","065-VK","2018/09/01 18:08:46","新北市三重區忠孝路三段103號","121.479988333333","25.0638516666667","6500200","三重區"
"241033","557-UM","2018/09/01 18:08:42","新北市三重區中興北街42巷31號","121.468166666667","25.049405","6500200","三重區"
"235066","003-UY","2018/09/01 18:08:35","新北市中和區圓通路76號","121.500123333333","24.997175","6500300","中和區"
"235064","005-UY","2018/09/01 18:08:36","新北市中和區中正路175號","121.497356666667","24.99357","6500300","中和區"
"235063","006-UY","2018/09/01 18:08:44","新北市中和區員山路36巷16-3號","121.48496","24.9912433333333","6500300","中和區"
"235056","096-UM","2018/09/01 18:08:34","新北市中和區連城路469巷70弄2號","121.483418333333","24.99383","6500300","中和區"
"235039","097-UM","2018/09/01 18:08:46","新北市中和區中正路637巷52弄1號","121.485491666667","24.99345","6500300","中和區"
"235065","098-UM","2018/09/01 18:08:49","新北市中和區莊敬路49巷18號","121.50163","25.00619","6500300","中和區"
"235058","151-BY","2018/09/01 18:08:41","新北市中和區圓通路367巷33弄37號","121.495001666667","24.9855066666667","6500300","中和區"
"235038","185-VK","2018/09/01 18:08:49","新北市中和區景平路105號","121.516956666667","24.9919866666667","6500300","中和區"
"235042","KEA-2878","2018/09/01 18:08:44","新北市中和區景平路159巷62號","121.512918333333","24.9910433333333","6500300","中和區"
"235050","4979-A6","2018/09/01 18:08:42","新北市中和區中正路521號","121.488243333333","24.9935233333333","6500300","中和區"
"235070","558-UM","2018/09/01 18:08:36","新北市中和區圓通路208號","121.49603","24.994055","6500300","中和區"
"235045","565-BX","2018/09/01 18:08:38","新北市中和區錦和路350-1號","121.490496666667","24.9936166666667","6500300","中和區"
"235054","640-BX","2018/09/01 18:08:38","新北市中和區連城路607號","121.478436666667","24.99311","6500300","中和區"
"235060","647-TV","2018/09/01 18:08:45","新北市中和區員山路36巷13號","121.484191666667","24.9907466666667","6500300","中和區"
"235047","732-UM","2018/09/01 18:08:45","新北市中和區錦和路350-1號","121.490441666667","24.993555","6500300","中和區"
"235062","800-TS","2018/09/01 18:08:43","新北市中和區新生街136號","121.483568333333","25.0009966666667","6500300","中和區"
"235057","801-TS","2018/09/01 18:08:45","新北市中和區連城路469巷67號","121.483501666667","24.994275","6500300","中和區"
"235052","805-TS","2018/09/01 18:08:51","新北市中和區錦和路350-1號","121.490295","24.9936016666667","6500300","中和區"
"235053","900-TW","2018/09/01 18:08:39","新北市中和區員山路36巷16-2號","121.485125","24.9917483333333","6500300","中和區"
"235051","157-BY","2018/09/01 18:08:46","新北市中和區復興路331號","121.500626666667","24.9902983333333","6500300","中和區"
"235037","AAC-213","2018/09/01 18:08:36","新北市中和區景平路145號","121.514081666667","24.9920466666667","6500300","中和區"
"226004","312-R5","2018/09/01 18:08:52","新北市平溪區白石里白石腳3號","121.722078333333","25.0215066666667","6502400","平溪區"
"228003","097-TW","2018/09/01 18:08:38","新北市貢寮區真理里美艷山街6-2號","121.928835","25.06076","6502600","貢寮區"
"228001","212-TW","2018/09/01 18:08:52","新北市貢寮區真理里新港街26巷55弄2-1號","121.927395","25.0528683333333","6502600","貢寮區"
"228002","663-BX","2018/09/01 18:08:45","新北市貢寮區福連里馬崗街1號","121.996741666667","25.01689","6502600","貢寮區"
"224010","AGQ-8101","2018/09/01 18:04:26","新北市瑞芳區金光路334號","121.848508333333","25.1101816666667","6501200","瑞芳區"
"224002","639-TC","2018/09/01 18:08:36","新北市瑞芳區三爪子坑路111巷30號","121.811085","25.10579","6501200","瑞芳區"
"224008","285-BY","2018/09/01 18:08:43","新北市瑞芳區員山子路23號","121.821391666667","25.103015","6501200","瑞芳區"
"224007","275-VK","2018/09/01 18:08:51","新北市瑞芳區四腳亭坑路2-4號","121.775018333333","25.1093416666667","6501200","瑞芳區"
"224009","273-VK","2018/09/01 18:08:35","新北市瑞芳區金光路115號","121.853658333333","25.1062433333333","6501200","瑞芳區"
"224005","271-BY","2018/09/01 18:08:51","新北市瑞芳區深澳路189-1號","121.820728333333","25.1338916666667","6501200","瑞芳區"
"227010","642-TC","2018/09/01 18:08:48","新北市雙溪區三貂里定福路1-2號","121.850695","25.063365","6502500","雙溪區"
"253006","032-BX","2018/09/01 18:08:41","新北市石門區大丘田20號","121.547653333333","25.28156","6502200","石門區"
"253005","295-VK","2018/09/01 18:08:33","新北市石門區福安街39號","121.568561666667","25.2921916666667","6502200","石門區"
"222001","KEA-2212","2018/09/01 18:08:34","新北市深坑區北深路二段155號","121.614076666667","25.00197","6501800","深坑區"
"208002","KEA-2872","2018/09/01 18:08:44","新北市金山區三界壇路99巷9-1號","121.621416666667","25.22839","6502700","金山區"
"208003","665-BX","2018/09/01 18:08:45","新北市金山區磺港里磺港路24-1號","121.649721666667","25.2299616666667","6502700","金山區"
"208001","761-BX","2018/09/01 18:08:36","新北市金山區磺港里磺港路111號","121.646293333333","25.2267433333333","6502700","金山區"
"251009","008-UM","2018/09/01 18:08:42","新北市淡水區大忠街34巷23號","121.444333333333","25.17582","6501000","淡水區"
"251005","010-UM","2018/09/01 18:08:50","新北市淡水區水源街一段141號","121.447251666667","25.17189","6501000","淡水區"
"251001","011-UM","2018/09/01 18:08:43","新北市淡水區自立路10號","121.463","25.129805","6501000","淡水區"
"251013","KEA-2871","2018/09/01 18:08:52","新北市淡水區泉洲厝30-3號","121.47919","25.190925","6501000","淡水區"
"251016","179-VK","2018/09/01 18:08:36","新北市淡水區下圭柔山15-5號","121.451825","25.2014033333333","6501000","淡水區"
"251014","180-VK","2018/09/01 18:08:39","新北市淡水區南平14-1號","121.485618333333","25.2208216666667","6501000","淡水區"
"251015","181-VK","2018/09/01 18:08:42","新北市淡水區興福寮88巷1號","121.48535","25.16501","6501000","淡水區"
"251010","413-VK","2018/09/01 18:08:51","新北市淡水區淡海路156號","121.421025","25.18325","6501000","淡水區"
"251012","441-VK","2018/09/01 18:08:45","新北市淡水區北新路三段172號","121.49271","25.1926333333333","6501000","淡水區"
"251008","442-VK","2018/09/01 18:08:39","新北市淡水區坪頂路70巷41號","121.460613333333","25.1604633333333","6501000","淡水區"
"251004","443-VK","2018/09/01 18:08:50","新北市淡水區民族路110巷15號","121.461861666667","25.1353716666667","6501000","淡水區"
"251006","561-UM","2018/09/01 18:08:42","新北市淡水區真理街3巷26-1號","121.437975","25.1766866666667","6501000","淡水區"
"251007","577-R6","2018/09/01 18:08:42","新北市淡水區中正東路二段143巷2弄5號","121.46069","25.146905","6501000","淡水區"
"251011","650-BX","2018/09/01 18:08:38","新北市淡水區三空泉9-2號","121.474081666667","25.1634866666667","6501000","淡水區"
"251002","672-BX","2018/09/01 18:08:51","新北市淡水區中正東路一段91號","121.453098333333","25.1614416666667","6501000","淡水區"
"251003","673-BX","2018/09/01 18:08:44","新北市淡水區大忠街113巷29號","121.447401666667","25.17756","6501000","淡水區"
"207003","550-UM","2018/09/01 18:08:41","新北市萬里區野柳里港西路65-1號","121.685126666667","25.2041283333333","6502800","萬里區"
"207004","225-TW","2018/09/01 18:08:39","新北市萬里區中幅里中福路97號","121.675431666667","25.1701033333333","6502800","萬里區"
"252003","249-BX","2018/09/01 18:08:52","新北市三芝區埔頭里埔頭43-3號","121.49984","25.2613133333333","6502100","三芝區"
"252001","292-VK","2018/09/01 18:08:36","新北市三芝區中興街二段2號","121.498408333333","25.2566466666667","6502100","三芝區"
"237004","KEA-2597","2018/09/01 18:08:42","新北市三峽區大埔路152號","121.365801666667","24.9006233333333","6500900","三峽區"
"237007","153-BY","2018/09/01 18:08:46","新北市三峽區中正路二段332號","121.365988333333","24.9105766666667","6500900","三峽區"
"237011","572-TV","2018/09/01 18:08:47","新北市三峽區大同路34號","121.377486666667","24.928985","6500900","三峽區"
"237009","210-TH","2018/09/01 18:08:46","新北市三峽區大仁路32號","121.36598","24.937645","6500900","三峽區"
"237013","252-BX","2018/09/01 18:08:42","新北市三峽區長泰街78巷16號","121.37678","24.9335883333333","6500900","三峽區"
"237012","275-BY","2018/09/01 18:06:39","新北市三峽區民生街27巷30號","121.375938333333","24.9360016666667","6500900","三峽區"
"237008","302-VK","2018/09/01 18:08:48","新北市三峽區白雞42-1號","121.37899","24.9108883333333","6500900","三峽區"
"237014","433-BY","2018/09/01 18:08:48","新北市三峽區國光街81巷15號","121.373658333333","24.9378433333333","6500900","三峽區"
"237006","5529-G3","2018/09/01 18:08:39","新北市三峽區溪東路147號","121.402875","24.9341783333333","6500900","三峽區"
"237016","649-BX","2018/09/01 18:08:38","新北市三峽區紫新路23巷2號","121.423036666667","24.921045","6500900","三峽區"
"237010","706-TV","2018/09/01 18:08:46","新北市三峽區民權街205號","121.3677","24.928525","6500900","三峽區"
"237005","AKY-6261","2018/09/01 18:08:42","新北市三峽區民生街193號","121.37189","24.9348366666667","6500900","三峽區"
"236070","105-UM","2018/09/01 18:08:45","新北市土城區青雲路452號","121.45931","24.9703766666667","6501300","土城區"
"236042","107-UM","2018/09/01 18:08:48","新北市土城區中華路二段2號","121.439168333333","24.9797333333333","6501300","土城區"
"236079","166-UM","2018/09/01 18:08:46","新北市土城區永寧路51號","121.429843333333","24.9614666666667","6501300","土城區"
"236030","253-BX","2018/09/01 18:08:50","新北市土城區城林路6巷80號","121.438603333333","24.9796883333333","6501300","土城區"
"236026","269-VK","2018/09/01 18:08:37","新北市土城區承天路20號","121.439575","24.9634033333333","6501300","土城區"
"236014","270-VK","2018/09/01 18:08:35","新北市土城區學府路一段218號","121.452218333333","24.9852566666667","6501300","土城區"
"236038","271-VK","2018/09/01 18:08:48","新北市土城區明德路一段375-1號","121.45499","24.9781216666667","6501300","土城區"
"236021","401-BY","2018/09/01 18:08:50","新北市土城區城林路6巷80號","121.438761666667","24.97963","6501300","土城區"
"236059","912-UM","2018/09/01 18:08:22","新北市土城區中央路四段196-1號","121.416233333333","24.9576933333333","6501300","土城區"
"236049","913-UM","2018/09/01 18:08:36","新北市土城區明德路一段365-1號","121.453443333333","24.9791116666667","6501300","土城區"
"236063","915-UM","2018/09/01 18:08:49","新北市土城區金城路二段204號","121.45508","24.9819616666667","6501300","土城區"
"236055","AAC-216","2018/09/01 18:08:52","新北市土城區中華路二段98號","121.438121666667","24.97443","6501300","土城區"
"242034","AAC-296","2018/09/01 18:08:51","新北市新莊區新莊路506號","121.44607","25.0333883333333","6500500","新莊區"
"242058","986-R7","2018/09/01 18:08:40","新北市新莊區新北大道七段180號","121.415725","25.0316816666667","6500500","新莊區"
"242053","751-BX","2018/09/01 18:08:34","新北市新莊區民安西路325號","121.427571666667","25.0110433333333","6500500","新莊區"
"242027","615-BX","2018/09/01 18:08:40","新北市新莊區幸福路546號","121.455186666667","25.0493716666667","6500500","新莊區"
"242025","613-BX","2018/09/01 18:08:37","新北市新莊區五權一路13-3號","121.459953333333","25.0683133333333","6500500","新莊區"
"242042","566-BX","2018/09/01 18:08:37","新北市新莊區中正路857-4號","121.419161666667","25.0279466666667","6500500","新莊區"
"242046","497-BY","2018/09/01 18:08:37","新北市新莊區福營路385-1號","121.42258","25.0273616666667","6500500","新莊區"
"242051","441-UM","2018/09/01 18:08:51","新北市新莊區民本街27巷17號","121.429126666667","25.0192966666667","6500500","新莊區"
"242056","440-UM","2018/09/01 18:08:37","新北市新莊區豐年街豐2巷13號","121.447091666667","25.0309416666667","6500500","新莊區"
"242036","415-TV","2018/09/01 18:08:47","新北市新莊區建福路48巷6號","121.426121666667","25.02753","6500500","新莊區"
"242007","413-TV","2018/09/01 18:08:38","新北市新莊區自立街79巷13號","121.454386666667","25.0459833333333","6500500","新莊區"
"242044","400-BY","2018/09/01 18:08:41","新北市新莊區新北大道七段365號","121.412705","25.0268066666667","6500500","新莊區"
"242061","353-BY","2018/09/01 18:08:52","新北市新莊區新樹路40號","121.437713333333","25.027975","6500500","新莊區"
"242009","132-UY","2018/09/01 18:08:50","新北市新莊區昌平街41巷1號","121.454653333333","25.0524316666667","6500500","新莊區"
"242039","133-UY","2018/09/01 18:08:49","新北市新莊區民安西路38巷21號","121.42671","25.0205983333333","6500500","新莊區"
"242031","135-UY","2018/09/01 18:08:53","新北市新莊區新泰路277巷4號","121.445378333333","25.0403716666667","6500500","新莊區"
"242048","172-VK","2018/09/01 18:08:45","新北市新莊區富國路134號","121.422715","25.0250333333333","6500500","新莊區"
"242017","175-VK","2018/09/01 18:08:40","新北市新莊區中港路307號","121.452738333333","25.0445883333333","6500500","新莊區"
"242015","346-TH","2018/09/01 18:08:35","新北市新莊區中和街59巷10弄7號","121.446693333333","25.0470516666667","6500500","新莊區"
"242021","348-TH","2018/09/01 18:08:39","新北市新莊區建興街73巷4號","121.449865","25.038125","6500500","新莊區"
"242002","349-TH","2018/09/01 18:08:39","新北市新莊區新莊路80號","121.457191666667","25.0365183333333","6500500","新莊區"
"242019","350-TH","2018/09/01 18:08:52","新北市新莊區公園路129-1號","121.457028333333","25.0407666666667","6500500","新莊區"
"242013","351-TH","2018/09/01 18:08:31","新北市新莊區三和路10號","121.441985","25.03586","6500500","新莊區"
"238015","755-BX","2018/09/01 18:08:44","新北市樹林區文德街16號","121.418541666667","24.9918766666667","6500700","樹林區"
"238023","601-UM","2018/09/01 18:08:50","新北市樹林區三寶街1號","121.406581666667","25.015915","6500700","樹林區"
"238019","599-UM","2018/09/01 18:08:39","新北市樹林區忠孝街104號","121.424648333333","24.98049","6500700","樹林區"
"238018","571-TV","2018/09/01 18:08:43","新北市板橋區大觀路三段160巷38號","121.42987","24.9940033333333","6500700","樹林區"
"238024","5061-A6","2018/09/01 18:08:34","新北市樹林區豐林街60號","121.42197","24.99821","6500700","樹林區"
"238022","KEA-2213","2018/09/01 18:08:42","新北市樹林區太平路174巷32弄11號","121.417155","24.9768316666667","6500700","樹林區"
"238021","KEA-2539","2018/09/01 18:08:47","新北市樹林區柑園街二段123號","121.384606666667","24.9547966666667","6500700","樹林區"
"238025","303-VK","2018/09/01 18:08:44","新北市樹林區保安街二段24-1號","121.415383333333","25.0018583333333","6500700","樹林區"
"238017","283-BY","2018/09/01 18:08:51","新北市樹林區三德街1號","121.412555","25.0127316666667","6500700","樹林區"
"238014","282-BY","2018/09/01 18:08:50","新北市樹林區潭興街59號","121.424243333333","24.9980583333333","6500700","樹林區"
"238020","268-VK","2018/09/01 18:08:44","新北市樹林區三俊街157號","121.418893333333","25.015585","6500700","樹林區"
"238026","172-UY","2018/09/01 18:08:52","新北市樹林區育德街2號","121.392776666667","24.970625","6500700","樹林區"
"238016","169-UY","2018/09/01 18:08:36","新北市樹林區文化街12號","121.420048333333","24.98726","6500700","樹林區"
"239007","AAC-297","2018/09/01 18:08:44","新北市鶯歌區尖山埔路96-2號","121.34752","24.9510316666667","6500800","鶯歌區"
"239006","891-R6","2018/09/01 18:08:51","新北市鶯歌區鶯桃路457號","121.332085","24.9656516666667","6500800","鶯歌區"
"239008","527-UM","2018/09/01 18:08:36","新北市鶯歌區國際一路179號","121.33627","24.97647","6500800","鶯歌區"
"239005","526-UM","2018/09/01 18:08:40","新北市鶯歌區鶯桃路668巷73號","121.329955","24.9717983333333","6500800","鶯歌區"
"239001","417-VK","2018/09/01 18:08:43","新北市鶯歌區高職東街3巷18號","121.339996666667","24.9423383333333","6500800","鶯歌區"
"239003","360-BY","2018/09/01 18:08:46","新北市鶯歌區福安街58號","121.335581666667","24.9652016666667","6500800","鶯歌區"
"239002","359-BY","2018/09/01 18:08:45","新北市鶯歌區中山路329巷6弄6號","121.343546666667","24.9561933333333","6500800","鶯歌區"
"239004","193-VK","2018/09/01 18:08:36","新北市鶯歌區尖山路168巷17號","121.344793333333","24.9485066666667","6500800","鶯歌區"
"221008","489-VK","2018/09/01 18:08:41","新北市汐止區康寧街418-1號","121.63046","25.0680016666667","6501100","汐止區"
"221036","130-UY","2018/09/01 18:08:39","新北市汐止區大同路三段101號","121.668228333333","25.0775966666667","6501100","汐止區"
"221015","131-UY","2018/09/01 18:08:42","新北市汐止區鄉長路二段31號","121.668233333333","25.08313","6501100","汐止區"
"221010","269-BY","2018/09/01 18:08:49","新北市汐止區祥雲街2-1號","121.645738333333","25.0896366666667","6501100","汐止區"
"221012","278-VK","2018/09/01 18:08:52","新北市汐止區保一街39號","121.67421","25.0799366666667","6501100","汐止區"
"221023","279-VK","2018/09/01 18:08:44","新北市汐止區明峰街180號","121.628563333333","25.0700216666667","6501100","汐止區"
"221032","280-BY","2018/09/01 18:08:50","新北市汐止區力行街10號","121.617065","25.0509366666667","6501100","汐止區"
"221027","281-BY","2018/09/01 18:08:38","新北市汐止區大同路二段533號","121.661883333333","25.0690783333333","6501100","汐止區"
"221029","298-VK","2018/09/01 18:08:46","新北市汐止區樟樹二路132號","121.639856666667","25.0656083333333","6501100","汐止區"
"221021","299-VK","2018/09/01 18:08:42","新北市汐止區龍安路202巷11號","121.652561666667","25.06336","6501100","汐止區"
"221031","353-TW","2018/09/01 18:08:50","新北市汐止區中興路119號","121.63196","25.06505","6501100","汐止區"
"221002","129-UY","2018/09/01 18:08:53","新北市汐止區福德一路208號","121.63453","25.0653016666667","6501100","汐止區"
"221035","622-UM","2018/09/01 18:08:49","新北市汐止區大同路二段252號","121.654351666667","25.06608","6501100","汐止區"
"221025","623-UM","2018/09/01 18:08:33","新北市汐止區勤進路3巷27號","121.661068333333","25.0616716666667","6501100","汐止區"
"221038","646-BX","2018/09/01 18:08:51","新北市汐止區環山路6號","121.6578","25.0600666666667","6501100","汐止區"
"221033","647-BX","2018/09/01 18:08:38","新北市汐止區林森街1號","121.620935","25.0410616666667","6501100","汐止區"
"221018","753-BX","2018/09/01 18:08:50","新北市汐止區忠孝東路384號","121.665518333333","25.0701616666667","6501100","汐止區"
"242011","281-VK","2018/09/01 18:08:40","新北市新莊區中榮街56巷8弄2號","121.449205","25.0534033333333","6500500","新莊區"
"241031","AAD-800","2018/09/01 17:43:07","新北市板橋區三民路二段正泰3巷2號","121.478705","25.0140983333333","6500200","三重區"
"220073","985-R7","2018/09/01 18:08:44","新北市板橋區華東街1-10號","121.448598333333","24.994945","6500100","板橋區"
"235068","KEA-2873","2018/09/01 18:08:46","新北市中和區員山路36巷16-3號","121.48517","24.9911633333333","6500300","中和區"
"235061","KEA-2875","2018/09/01 18:08:26","新北市中和區連城路599號","121.478578333333","24.99319","6500300","中和區"
