"lineid","car","time","location","longitude","latitude","cityid","cityname"
"234046","148-BY","2018/09/01 18:28:49","新北市永和區福和路1號","121.526063333333","25.0097283333333","6500400","永和區"
"234007","207-UY","2018/09/01 18:28:56","新北市永和區環河西路二段229巷1號","121.501363333333","25.0099416666667","6500400","永和區"
"234081","298-R6","2018/09/01 18:28:38","新北市永和區環河東路二段102號","121.524536666667","25.0105066666667","6500400","永和區"
"234038","336-UY","2018/09/01 18:28:53","新北市永和區福和路1號","121.526721666667","25.01025","6500400","永和區"
"234086","338-UY","2018/09/01 18:28:48","新北市永和區環河東路二段90號","121.524255","25.0106383333333","6500400","永和區"
"234070","552-UM","2018/09/01 18:28:35","新北市永和區福和路1號","121.525475","25.0093983333333","6500400","永和區"
"234017","745-BX","2018/09/01 18:28:33","新北市永和區福和路1號","121.526335","25.0094683333333","6500400","永和區"
"234030","746-BX","2018/09/01 18:28:49","新北市永和區福和路1號","121.526183333333","25.0097733333333","6500400","永和區"
"234042","862-TW","2018/09/01 18:28:50","新北市永和區福和路318號","121.515698333333","25.00724","6500400","永和區"
"234050","863-TW","2018/09/01 18:28:40","新北市永和區福和路1號","121.52631","25.0098383333333","6500400","永和區"
"234026","9371-KE","2018/09/01 18:28:38","新北市永和區中正路748號","121.514988333333","25.0102866666667","6500400","永和區"
"234011","9373-KE","2018/09/01 18:28:42","新北市永和區保福路二段158巷1號","121.509026666667","25.0150216666667","6500400","永和區"
"249005","172-UM","2018/09/01 18:28:40","新北市八里區中華路三段98-1號","121.392611666667","25.1375316666667","6502300","八里區"
"249001","173-UM","2018/09/01 18:28:49","新北市八里區龍米路一段118號","121.45318","25.125235","6502300","八里區"
"249004","303-UY","2018/09/01 18:28:36","新北市八里區文心街141號","121.425618333333","25.1612083333333","6502300","八里區"
"249002","305-UY","2018/09/01 18:28:50","新北市八里區龍形三街17號","121.449196666667","25.1316183333333","6502300","八里區"
"248016","026-BX","2018/09/01 18:28:45","新北市五股區凌雲路一段83巷22弄1號","121.449905","25.1007633333333","6501500","五股區"
"248006","077-UY","2018/09/01 18:28:41","新北市五股區四維路62號","121.467323333333","25.0722983333333","6501500","五股區"
"248008","095-VK","2018/09/01 18:28:43","新北市五股區四維路185巷52號","121.463113333333","25.07775","6501500","五股區"
"248020","225-UY","2018/09/01 18:28:50","新北市五股區孝義路70-1號","121.45297","25.1134","6501500","五股區"
"248012","247-BX","2018/09/01 18:28:39","新北市五股區御史路12號","121.4422","25.0905083333333","6501500","五股區"
"248014","261-SL","2018/09/01 18:28:38","新北市五股區明德路16號","121.43308","25.0714166666667","6501500","五股區"
"248010","272-BY","2018/09/01 18:28:53","新北市五股區明德路8號","121.433333333333","25.0716033333333","6501500","五股區"
"248004","677-BX","2018/09/01 18:28:35","新北市五股區民義路一段152號","121.433131666667","25.0874433333333","6501500","五股區"
"248002","678-BX","2018/09/01 18:28:49","新北市五股區西雲路116-6號","121.444725","25.093625","6501500","五股區"
"234077","969-R7","2018/09/01 18:28:49","新北市永和區環河東路二段92號","121.52411","25.0104733333333","6500400","永和區"
"244007","080-UY","2018/09/01 18:28:43","新北市林口區竹林路548號","121.387573333333","25.0847333333333","6501700","林口區"
"244019","403-UM","2018/09/01 18:28:43","新北市林口區忠孝路616巷27號","121.377383333333","25.0671666666667","6501700","林口區"
"244013","KEA-2802","2018/09/01 18:28:41","新北市林口區文化一路二段202號","121.383383333333","25.080615","6501700","林口區"
"244023","483-VK","2018/09/01 18:28:44","新北市林口區仁愛路二段60號","121.384498333333","25.0755983333333","6501700","林口區"
"244017","485-VK","2018/09/01 18:28:41","新北市林口區八德路62號","121.365711666667","25.0656366666667","6501700","林口區"
"244009","656-BX","2018/09/01 18:28:43","新北市林口區民生路131巷2-1號","121.37757","25.08875","6501700","林口區"
"244011","657-BX","2018/09/01 18:28:52","新北市林口區新生街17號","121.394165","25.0766816666667","6501700","林口區"
"244025","837-TS","2018/09/01 18:28:45","新北市林口區南勢四街196巷17號","121.356921666667","25.073025","6501700","林口區"
"244021","838-TS","2018/09/01 18:28:35","新北市林口區自強三街29號","121.398235","25.077345","6501700","林口區"
"243013","AAD-798","2018/09/01 18:25:04","新北市泰山區明志路三段206巷3號","121.423315","25.037925","6501600","泰山區"
"222003","436-BY","2018/09/01 18:28:31","新北市深坑區文山路一段28-1號","121.630756666667","25.0053833333333","6501800","深坑區"
"222002","659-BX","2018/09/01 18:28:47","新北市深坑區雲鄉路145號","121.622066666667","24.99827","6501800","深坑區"
"231041","002-UM","2018/09/01 18:28:47","新北市新店區安華路28-1號","121.519695","24.9609016666667","6500600","新店區"
"231027","0293-UT","2018/09/01 18:07:46","新北市新店區安華路28-1號","121.519555","24.9605783333333","6500600","新店區"
"231059","046-UY","2018/09/01 18:28:40","新北市新店區安華路28-1號","121.519623333333","24.9608166666667","6500600","新店區"
"231040","047-UY","2018/09/01 18:28:37","新北市新店區安華路28-1號","121.519163333333","24.9608083333333","6500600","新店區"
"231044","106-UY","2018/09/01 18:28:51","新北市新店區安華路28-1號","121.519625","24.9607583333333","6500600","新店區"
"231046","107-UY","2018/09/01 18:28:40","新北市新店區直潭七街60號","121.532265","24.9397733333333","6500600","新店區"
"231052","108-UY","2018/09/01 18:28:45","新北市新店區新烏路一段21號","121.546083333333","24.9505016666667","6500600","新店區"
"231064","110-UY","2018/09/01 18:28:36","新北市新店區安一路一段1-1號","121.519121666667","24.96139","6500600","新店區"
"231048","187-VK","2018/09/01 18:28:36","新北市新店區安一路一段1-1號","121.51969","24.9613083333333","6500600","新店區"
"231054","KEA-2219","2018/09/01 18:28:43","新北市新店區安一路一段1-1號","121.519875","24.9612283333333","6500600","新店區"
"231057","256-BX","2018/09/01 18:28:46","新北市新店區光明街115號","121.538846666667","24.9615483333333","6500600","新店區"
"231042","268-BY","2018/09/01 18:28:48","新北市新店區安華路28-1號","121.519461666667","24.9605466666667","6500600","新店區"
"231051","278-BY","2018/09/01 18:28:50","新北市新店區安康路一段150號","121.526368333333","24.962955","6500600","新店區"
"231050","AAD-862","2018/09/01 18:28:45","新北市新店區安一路一段1-1號","121.520131666667","24.9612133333333","6500600","新店區"
"231060","355-BY","2018/09/01 18:28:54","新北市新店區安華路28-1號","121.519055","24.9609266666667","6500600","新店區"
"231058","3713-VJ","2018/09/01 18:28:44","新北市新店區新店後街113-1號","121.537793333333","24.9560383333333","6500600","新店區"
"231066","4716-K9","2018/09/01 18:28:49","新北市新店區安一路一段1-1號","121.519488333333","24.961315","6500600","新店區"
"231056","4715-K9","2018/09/01 18:28:36","新北市新店區二十張路62號","121.536821666667","24.98019","6500600","新店區"
"231067","4772-VM","2018/09/01 18:28:51","新北市新店區安華路28-1號","121.519236666667","24.960625","6500600","新店區"
"231065","512-UM","2018/09/01 18:28:47","新北市新店區安一路一段1-1號","121.519306666667","24.9612783333333","6500600","新店區"
"231049","513-UM","2018/09/01 18:28:56","新北市新店區安一路一段1-1號","121.519775","24.9612866666667","6500600","新店區"
"231045","617-UM","2018/09/01 18:28:36","新北市新店區安華路28-1號","121.519545","24.960995","6500600","新店區"
"231061","619-UM","2018/09/01 18:28:34","新北市新店區安華路28-1號","121.519573333333","24.960875","6500600","新店區"
"231063","641-BX","2018/09/01 18:28:35","新北市新店區安華路28-1號","121.519573333333","24.9606316666667","6500600","新店區"
"231062","720-UM","2018/09/01 18:28:53","新北市新店區安一路一段1-1號","121.519376666667","24.961245","6500600","新店區"
"231043","899-TW","2018/09/01 18:28:46","新北市新店區安華路28-1號","121.519201666667","24.96084","6500600","新店區"
"231055","AKT-0513","2018/09/01 18:28:53","新北市新店區中正路179號","121.540841666667","24.9721633333333","6500600","新店區"
"235066","003-UY","2018/09/01 18:28:35","新北市中和區中山路二段119號","121.502813333333","25.00361","6500300","中和區"
"235064","005-UY","2018/09/01 18:28:36","新北市中和區圓通路141巷17號","121.498978333333","24.9952216666667","6500300","中和區"
"235063","006-UY","2018/09/01 18:28:44","新北市中和區連城路347巷16弄43號","121.486985","24.9950583333333","6500300","中和區"
"235056","096-UM","2018/09/01 18:28:34","新北市中和區員山路611巷5弄1號","121.477948333333","25.0111916666667","6500300","中和區"
"235039","097-UM","2018/09/01 18:28:46","新北市中和區安平路186號","121.512981666667","24.9990466666667","6500300","中和區"
"235065","098-UM","2018/09/01 18:28:49","新北市中和區莊敬路49巷20弄32號","121.503173333333","25.0050483333333","6500300","中和區"
"235040","150-BY","2018/09/01 18:28:46","新北市中和區安平路59號","121.509695","24.9951133333333","6500300","中和區"
"235058","151-BY","2018/09/01 18:28:41","新北市中和區圓通路369巷39-23號","121.490113333333","24.9852233333333","6500300","中和區"
"235055","183-VK","2018/09/01 18:28:49","新北市中和區莒光路74號","121.472245","25.002995","6500300","中和區"
"235038","185-VK","2018/09/01 18:28:49","新北市中和區秀朗路三段128巷17弄41號","121.522928333333","24.9932366666667","6500300","中和區"
"235049","186-VK","2018/09/01 18:28:49","新北市中和區景安路142號","121.505048333333","24.9940166666667","6500300","中和區"
"235067","255-BX","2018/09/01 18:28:51","新北市中和區新生街132號","121.483495","25.0011583333333","6500300","中和區"
"235072","301-VK","2018/09/01 18:28:47","新北市中和區安邦街2號","121.495695","24.99838","6500300","中和區"
"235043","352-BY","2018/09/01 18:28:32","新北市中和區景平路319號","121.506096666667","24.9930866666667","6500300","中和區"
"235042","KEA-2878","2018/09/01 18:28:44","新北市中和區自立路56巷1號","121.52347","24.9918066666667","6500300","中和區"
"235050","4979-A6","2018/09/01 18:28:42","新北市中和區景新街362巷3號","121.512038333333","24.99008","6500300","中和區"
"235069","4980-A6","2018/09/01 18:28:44","新北市中和區連城路127巷22號","121.496678333333","24.99816","6500300","中和區"
"235070","558-UM","2018/09/01 18:28:36","新北市中和區南山路127巷18弄44號","121.50341","24.99639","6500300","中和區"
"235045","565-BX","2018/09/01 18:28:39","新北市中和區南山路236巷22弄19號","121.50513","24.9892583333333","6500300","中和區"
"235054","640-BX","2018/09/01 18:28:38","新北市中和區民享街111號","121.474755","24.999435","6500300","中和區"
"235060","647-TV","2018/09/01 18:28:46","新北市中和區員山路429號","121.480838333333","25.0036066666667","6500300","中和區"
"235047","732-UM","2018/09/01 18:28:45","新北市中和區南山路250巷2號","121.507776666667","24.9890016666667","6500300","中和區"
"235046","733-UM","2018/09/01 18:28:36","新北市中和區板南路122號","121.503031666667","24.9925016666667","6500300","中和區"
"235062","800-TS","2018/09/01 18:28:43","新北市中和區景平路997巷2號","121.495791666667","25.00577","6500300","中和區"
"235057","801-TS","2018/09/01 18:28:45","新北市中和區民安街41號","121.479898333333","25.000295","6500300","中和區"
"235041","802-TS","2018/09/01 18:28:53","新北市中和區景安路120巷3號","121.50523","24.9947466666667","6500300","中和區"
"235052","805-TS","2018/09/01 18:28:51","新北市中和區興南路二段133號","121.505246666667","24.98418","6500300","中和區"
"235048","896-TW","2018/09/01 18:28:44","新北市中和區中正路79號","121.5008","24.99343","6500300","中和區"
"235053","900-TW","2018/09/01 18:28:39","新北市中和區莒光路211-41號","121.470121666667","24.9928433333333","6500300","中和區"
"235051","157-BY","2018/09/01 18:28:46","新北市中和區興南路二段142巷25弄34號","121.502551666667","24.98438","6500300","中和區"
"235037","AAC-213","2018/09/01 18:28:36","新北市中和區景德街95-1號","121.515555","24.991195","6500300","中和區"
"220065","072-UY","2018/09/01 18:28:33","新北市板橋區南雅南路二段140號","121.45184","24.9963033333333","6500100","板橋區"
"220086","073-UY","2018/09/01 18:28:40","新北市板橋區南雅南路二段144巷19號","121.450948333333","24.9957366666667","6500100","板橋區"
"220069","AAD-861","2018/09/01 18:28:37","新北市板橋區華東街1-10號","121.448331666667","24.995105","6500100","板橋區"
"226004","312-R5","2018/09/01 18:28:52","新北市平溪區靜安路二段274巷6號","121.727235","25.02187","6502400","平溪區"
"228003","097-TW","2018/09/01 18:28:38","新北市貢寮區和美里和美街38號","121.91221","25.08915","6502600","貢寮區"
"228001","212-TW","2018/09/01 18:28:52","新北市貢寮區仁理村仁義街8號","121.923793333333","25.05208","6502600","貢寮區"
"228002","663-BX","2018/09/01 18:28:45","新北市貢寮區福連里香蘭街32號","121.986676666667","25.019935","6502600","貢寮區"
"224010","AGQ-8101","2018/09/01 18:04:26","新北市瑞芳區金光路334號","121.848508333333","25.1101816666667","6501200","瑞芳區"
"224002","639-TC","2018/09/01 18:28:36","新北市瑞芳區三爪子坑路29巷56號","121.81386","25.1063633333333","6501200","瑞芳區"
"224008","285-BY","2018/09/01 18:28:43","新北市瑞芳區逢甲路220號","121.80656","25.110415","6501200","瑞芳區"
"224007","275-VK","2018/09/01 18:28:51","新北市瑞芳區大埔路有勝二村34號","121.76377","25.0995283333333","6501200","瑞芳區"
"224009","273-VK","2018/09/01 18:28:35","新北市瑞芳區五號路130號","121.854886666667","25.1107516666667","6501200","瑞芳區"
"224005","271-BY","2018/09/01 18:28:51","新北市瑞芳區建基路二段84號","121.814511666667","25.1295066666667","6501200","瑞芳區"
"227010","642-TC","2018/09/01 18:28:48","新北市雙溪區牡丹里牡丹157號","121.851685","25.0588733333333","6502500","雙溪區"
"227002","400-TW","2018/09/01 18:28:39","新北市雙溪區魚行里坤溪21-1號","121.87035","25.028685","6502500","雙溪區"
"253006","032-BX","2018/09/01 18:28:41","新北市石門區公地16-11號","121.545796666667","25.2904333333333","6502200","石門區"
"253005","295-VK","2018/09/01 18:28:53","新北市石門區海園路37號","121.556906666667","25.2913283333333","6502200","石門區"
"222001","KEA-2212","2018/09/01 18:28:34","新北市深坑區北深路一段232號","121.630335","25.0089883333333","6501800","深坑區"
"208002","KEA-2872","2018/09/01 18:28:44","新北市金山區磺港里磺港路169號","121.643561666667","25.2247333333333","6502700","金山區"
"208003","665-BX","2018/09/01 18:28:46","新北市金山區中山路115號","121.639526666667","25.21958","6502700","金山區"
"208001","761-BX","2018/09/01 18:28:46","新北市金山區金包里街148號","121.637468333333","25.22259","6502700","金山區"
"251005","010-UM","2018/09/01 18:28:50","新北市淡水區中正東路35巷6號","121.446273333333","25.1684933333333","6501000","淡水區"
"251001","011-UM","2018/09/01 18:28:43","新北市淡水區自強路152號","121.465176666667","25.1337933333333","6501000","淡水區"
"251013","KEA-2871","2018/09/01 18:28:32","新北市淡水區椿子林19-5號","121.480941666667","25.2026816666667","6501000","淡水區"
"251016","179-VK","2018/09/01 18:28:36","新北市淡水區下圭柔山114號","121.446033333333","25.2111983333333","6501000","淡水區"
"251014","180-VK","2018/09/01 18:28:39","新北市淡水區南平28號","121.492471666667","25.21503","6501000","淡水區"
"251015","181-VK","2018/09/01 18:28:41","新北市淡水區興福寮88巷216號","121.485993333333","25.1665966666667","6501000","淡水區"
"251010","413-VK","2018/09/01 18:28:51","新北市淡水區沙崙路181巷1號","121.424168333333","25.1841916666667","6501000","淡水區"
"251012","441-VK","2018/09/01 18:28:54","新北市淡水區北新路一段163號","121.45889","25.1822816666667","6501000","淡水區"
"251008","442-VK","2018/09/01 18:28:39","新北市淡水區北投子87-3號","121.469343333333","25.1793433333333","6501000","淡水區"
"251004","443-VK","2018/09/01 18:28:50","新北市淡水區民族路31巷29號","121.462356666667","25.1364433333333","6501000","淡水區"
"251006","561-UM","2018/09/01 18:28:42","新北市淡水區新生街51巷35號","121.440761666667","25.175965","6501000","淡水區"
"251007","577-R6","2018/09/01 18:28:42","新北市淡水區中正東路二段143巷2弄7號","121.460686666667","25.1468783333333","6501000","淡水區"
"251011","650-BX","2018/09/01 18:28:38","新北市淡水區中正東路一段23號","121.45164","25.1634433333333","6501000","淡水區"
"251002","672-BX","2018/09/01 18:28:51","新北市淡水區竿蓁二街19巷6號","121.453248333333","25.1631366666667","6501000","淡水區"
"251003","673-BX","2018/09/01 18:28:41","新北市淡水區北新路169巷14號","121.449661666667","25.1800933333333","6501000","淡水區"
"207003","550-UM","2018/09/01 18:28:41","新北市萬里區野柳里港東路66號","121.687828333333","25.2041383333333","6502800","萬里區"
"207004","225-TW","2018/09/01 18:28:39","新北市萬里區萬里里瑪鋉路75號","121.688281666667","25.17652","6502800","萬里區"
"252002","178-VK","2018/09/01 18:28:53","新北市三芝區中山路二段35號","121.502878333333","25.25522","6502100","三芝區"
"252003","249-BX","2018/09/01 18:28:32","新北市三芝區後厝里北勢子43號","121.471851666667","25.2525483333333","6502100","三芝區"
"252001","292-VK","2018/09/01 18:28:36","新北市三芝區中興街二段2號","121.498371666667","25.256665","6502100","三芝區"
"237004","KEA-2597","2018/09/01 18:28:42","新北市三峽區五寮89-2號","121.359368333333","24.8577866666667","6500900","三峽區"
"237007","153-BY","2018/09/01 18:28:46","新北市三峽區中正路三段70巷27號","121.355808333333","24.904905","6500900","三峽區"
"237011","572-TV","2018/09/01 18:28:47","新北市三峽區溪東路311號","121.410286666667","24.9304666666667","6500900","三峽區"
"237009","210-TH","2018/09/01 18:28:46","新北市三峽區民權街231號","121.368088333333","24.9278816666667","6500900","三峽區"
"237013","252-BX","2018/09/01 18:28:42","新北市三峽區永安街9巷60號","121.376013333333","24.9295433333333","6500900","三峽區"
"237012","275-BY","2018/09/01 18:28:39","新北市三峽區三樹路52號","121.377898333333","24.9379683333333","6500900","三峽區"
"237008","302-VK","2018/09/01 18:28:48","新北市三峽區白雞68-217號","121.390336666667","24.90869","6500900","三峽區"
"237014","433-BY","2018/09/01 18:28:48","新北市三峽區文化路88號","121.371776666667","24.9361483333333","6500900","三峽區"
"237006","5529-G3","2018/09/01 18:28:39","新北市三峽區溪東路291號","121.409203333333","24.9312333333333","6500900","三峽區"
"237016","649-BX","2018/09/01 18:28:38","新北市三峽區竹崙路140號","121.434968333333","24.9095366666667","6500900","三峽區"
"237010","706-TV","2018/09/01 18:28:46","新北市三峽區中山路222-1號","121.362836666667","24.9372616666667","6500900","三峽區"
"237005","AKY-6261","2018/09/01 18:28:43","新北市三峽區秀川街59號","121.370536666667","24.93343","6500900","三峽區"
"236070","105-UM","2018/09/01 18:28:45","新北市土城區永豐路255巷27弄1號","121.47591","24.9729066666667","6501300","土城區"
"236042","107-UM","2018/09/01 18:28:48","新北市土城區裕民路67巷14號","121.449871666667","24.988015","6501300","土城區"
"236079","166-UM","2018/09/01 18:28:42","新北市土城區中央路四段27巷10弄2號","121.424681666667","24.9618783333333","6501300","土城區"
"236030","253-BX","2018/09/01 18:28:50","新北市土城區福仁街53號","121.439786666667","24.9751566666667","6501300","土城區"
"236026","269-VK","2018/09/01 18:28:37","新北市土城區南天母路18-4號","121.448233333333","24.9531683333333","6501300","土城區"
"236014","270-VK","2018/09/01 18:28:35","新北市土城區青雲路39巷7號","121.460306666667","24.987555","6501300","土城區"
"236038","271-VK","2018/09/01 18:28:51","新北市土城區青雲路453號","121.458841666667","24.9746233333333","6501300","土城區"
"236021","401-BY","2018/09/01 18:28:50","新北市土城區永豐路135巷1號","121.466733333333","24.983345","6501300","土城區"
"236059","912-UM","2018/09/01 18:28:42","新北市土城區中央路四段145號","121.415611666667","24.9571583333333","6501300","土城區"
"236049","913-UM","2018/09/01 18:28:48","新北市土城區青雲路364號","121.458681666667","24.9739166666667","6501300","土城區"
"236063","915-UM","2018/09/01 18:28:50","新北市土城區延壽路109巷11號","121.468416666667","24.9931666666667","6501300","土城區"
"236055","AAC-216","2018/09/01 18:28:47","新北市土城區中華路一段253號","121.440596666667","24.9811116666667","6501300","土城區"
"242034","AAC-296","2018/09/01 18:28:51","新北市新莊區瓊林路61巷3號","121.439836666667","25.0196783333333","6500500","新莊區"
"242058","986-R7","2018/09/01 18:28:40","新北市新莊區中正路895-27號","121.412081666667","25.0219966666667","6500500","新莊區"
"242053","751-BX","2018/09/01 18:28:53","新北市新莊區樹新路120巷40號","121.430041666667","24.99604","6500500","新莊區"
"242025","613-BX","2018/09/01 18:27:57","新北市新莊區新北大道四段207號","121.444693333333","25.0567816666667","6500500","新莊區"
"242042","566-BX","2018/09/01 18:28:37","新北市新莊區天祥街61巷2號","121.416028333333","25.0290083333333","6500500","新莊區"
"242046","497-BY","2018/09/01 18:28:37","新北市新莊區民安路16-9號","121.42269","25.0280983333333","6500500","新莊區"
"242051","441-UM","2018/09/01 18:28:44","新北市新莊區環漢路四段1號","121.43476","25.0002733333333","6500500","新莊區"
"242056","440-UM","2018/09/01 18:28:52","新北市新莊區瓊泰路77巷15號","121.442591666667","25.0288833333333","6500500","新莊區"
"242036","415-TV","2018/09/01 18:28:47","新北市樹林區中正路266號","121.417188333333","25.0079416666667","6500500","新莊區"
"242044","400-BY","2018/09/01 18:28:41","新北市新莊區新北大道七段630號","121.412146666667","25.0283416666667","6500500","新莊區"
"242061","353-BY","2018/09/01 18:28:32","新北市新莊區民安路188巷4號","121.425235","25.0235583333333","6500500","新莊區"
"242009","132-UY","2018/09/01 18:28:50","新北市新莊區中華路二段9號","121.453771666667","25.0455066666667","6500500","新莊區"
"242039","133-UY","2018/09/01 18:28:49","新北市新莊區新樹路607號","121.433241666667","25.00537","6500500","新莊區"
"242002","349-TH","2018/09/01 18:28:39","新北市新莊區瓊泰路4號","121.44494","25.0286733333333","6500500","新莊區"
"238015","755-BX","2018/09/01 18:28:44","新北市樹林區復興路382號","121.415093333333","24.9855133333333","6500700","樹林區"
"238023","601-UM","2018/09/01 18:28:39","新北市樹林區三寶街2號","121.406646666667","25.0162766666667","6500700","樹林區"
"238019","599-UM","2018/09/01 18:28:39","新北市樹林區中山路三段337號","121.390583333333","24.971265","6500700","樹林區"
"238018","571-TV","2018/09/01 18:28:43","新北市樹林區樹新路50巷5弄2號","121.429325","24.9966016666667","6500700","樹林區"
"238024","5061-A6","2018/09/01 18:28:34","新北市樹林區中山路一段340號","121.419531666667","24.9860633333333","6500700","樹林區"
"238025","303-VK","2018/09/01 18:28:44","新北市樹林區中山路三段125號","121.398963333333","24.9742933333333","6500700","樹林區"
"238017","283-BY","2018/09/01 18:28:51","新北市樹林區光興街44號","121.409886666667","25.002715","6500700","樹林區"
"238014","282-BY","2018/09/01 18:28:50","新北市樹林區大安路111巷25號","121.423213333333","24.9976183333333","6500700","樹林區"
"238020","268-VK","2018/09/01 18:28:44","新北市樹林區三龍街14巷2號","121.410253333333","25.01806","6500700","樹林區"
"238026","172-UY","2018/09/01 18:28:32","新北市樹林區八德街828-14號","121.392563333333","24.9690083333333","6500700","樹林區"
"238016","169-UY","2018/09/01 18:28:36","新北市樹林區文化街23號","121.419221666667","24.987645","6500700","樹林區"
"239007","AAC-297","2018/09/01 18:28:44","新北市鶯歌區中正一路478號","121.366481666667","24.9568383333333","6500800","鶯歌區"
"239006","891-R6","2018/09/01 18:28:51","新北市鶯歌區德昌街140巷2號","121.331995","24.96067","6500800","鶯歌區"
"239008","527-UM","2018/09/01 18:28:36","新北市鶯歌區國際一路179號","121.336218333333","24.9764766666667","6500800","鶯歌區"
"239005","526-UM","2018/09/01 18:28:40","新北市鶯歌區鶯桃路668巷23號","121.32897","24.970275","6500800","鶯歌區"
"239001","417-VK","2018/09/01 18:28:43","新北市鶯歌區二橋街80號","121.337108333333","24.93838","6500800","鶯歌區"
"239003","360-BY","2018/09/01 18:28:45","新北市鶯歌區永和街61號","121.332848333333","24.96764","6500800","鶯歌區"
"239002","359-BY","2018/09/01 18:28:45","新北市鶯歌區中正一路441號","121.36233","24.95686","6500800","鶯歌區"
"239004","193-VK","2018/09/01 18:28:36","新北市鶯歌區國中街100號","121.340528333333","24.9406283333333","6500800","鶯歌區"
"221008","489-VK","2018/09/01 18:28:41","新北市汐止區康寧街901號","121.651331666667","25.0750116666667","6501100","汐止區"
"221036","130-UY","2018/09/01 18:28:39","新北市汐止區南昌街31號","121.663108333333","25.0692116666667","6501100","汐止區"
"221015","131-UY","2018/09/01 18:28:42","新北市汐止區鄉友街35號","121.668755","25.08129","6501100","汐止區"
"221010","269-BY","2018/09/01 18:28:49","新北市汐止區瑞松街18巷9號","121.645161666667","25.1047983333333","6501100","汐止區"
"221012","278-VK","2018/09/01 18:28:52","新北市汐止區保長路51巷1號","121.673265","25.0788516666667","6501100","汐止區"
"221023","279-VK","2018/09/01 18:28:44","新北市汐止區康寧街520-1號","121.633746666667","25.068695","6501100","汐止區"
"221032","280-BY","2018/09/01 18:28:51","新北市汐止區福山街62巷7號","121.618276666667","25.046725","6501100","汐止區"
"221027","281-BY","2018/09/01 18:28:38","新北市汐止區和平街46巷18號","121.662576666667","25.071625","6501100","汐止區"
"221029","298-VK","2018/09/01 18:28:46","新北市汐止區樟樹二路330巷72-1號","121.642998333333","25.06998","6501100","汐止區"
"221021","299-VK","2018/09/01 18:28:42","新北市汐止區復興路59號","121.657095","25.0623316666667","6501100","汐止區"
"221031","353-TW","2018/09/01 18:28:50","新北市汐止區光復街7巷34號","121.64103","25.06007","6501100","汐止區"
"221002","129-UY","2018/09/01 18:28:53","新北市汐止區福德一路139號","121.636831666667","25.0670816666667","6501100","汐止區"
"221035","622-UM","2018/09/01 18:28:49","新北市汐止區大同路二段103巷2號","121.6493","25.06377","6501100","汐止區"
"221025","623-UM","2018/09/01 18:28:53","新北市汐止區仁愛路122巷6號","121.66311","25.0635233333333","6501100","汐止區"
"221038","646-BX","2018/09/01 18:28:37","新北市汐止區秀峰路6巷6號","121.65907","25.0666633333333","6501100","汐止區"
"221033","647-BX","2018/09/01 18:28:38","新北市汐止區宜興街75號","121.622945","25.0432866666667","6501100","汐止區"
"221018","753-BX","2018/09/01 18:28:50","新北市汐止區茄苳路210號","121.670648333333","25.0688633333333","6501100","汐止區"
"220080","200-UY","2018/09/01 18:28:53","新北市板橋區華東街1-9號","121.448076666667","24.9950116666667","6500100","板橋區"
"220082","610-BX","2018/09/01 18:28:36","新北市板橋區華東街1-9號","121.448251666667","24.994925","6500100","板橋區"
"220072","277-BY","2018/09/01 18:28:36","新北市板橋區華東街1-10號","121.448251666667","24.99509","6500100","板橋區"
"220071","283-VK","2018/09/01 18:28:39","新北市板橋區華東街1-9號","121.44804","24.994905","6500100","板橋區"
"220084","296-UM","2018/09/01 18:28:41","新北市板橋區華東街1-9號","121.448126666667","24.9949733333333","6500100","板橋區"
"242011","281-VK","2018/09/01 18:28:40","新北市新莊區中港路615巷14號","121.45067","25.05335","6500500","新莊區"
"220075","303-R5","2018/09/01 18:28:40","新北市板橋區華東街1-9號","121.448205","24.994965","6500100","板橋區"
"220064","486-VK","2018/09/01 18:28:48","新北市板橋區南雅南路二段120-8號","121.452273333333","24.9995833333333","6500100","板橋區"
"220035","560-BX","2018/09/01 18:28:55","新北市板橋區南雅南路二段100號","121.453473333333","25.0011416666667","6500100","板橋區"
"220057","686-BX","2018/09/01 18:28:43","新北市板橋區華東街1-9號","121.44818","24.994935","6500100","板橋區"
"220077","687-BX","2018/09/01 18:28:31","新北市板橋區華東街1-10號","121.44831","24.9949433333333","6500100","板橋區"
"220054","741-BX","2018/09/01 18:28:47","新北市板橋區華東街1-9號","121.448071666667","24.9949316666667","6500100","板橋區"
"220074","895-R6","2018/09/01 18:28:40","新北市板橋區華東街1-9號","121.448201666667","24.994975","6500100","板橋區"
"220073","985-R7","2018/09/01 18:28:44","新北市板橋區華東街1-10號","121.448288333333","24.9949483333333","6500100","板橋區"
"235068","KEA-2873","2018/09/01 18:28:46","新北市中和區圓通路222號","121.495531666667","24.9931233333333","6500300","中和區"
"235061","KEA-2875","2018/09/01 18:28:26","新北市中和區民享街97巷11號","121.475225","24.9994033333333","6500300","中和區"
