"lineid","car","time","location","longitude","latitude","cityid","cityname"
"234046","148-BY","2018/09/01 18:38:49","新北市永和區永元路68號","121.522501666667","25.0015966666667","6500400","永和區"
"234007","207-UY","2018/09/01 18:38:36","新北市永和區文化路170號","121.511823333333","25.0155433333333","6500400","永和區"
"234081","298-R6","2018/09/01 18:38:38","新北市永和區林森路81號","121.523968333333","25.0037483333333","6500400","永和區"
"234038","336-UY","2018/09/01 18:38:33","新北市永和區福和路1號","121.526725","25.010225","6500400","永和區"
"234064","337-UY","2018/09/01 18:38:46","新北市永和區福和路1號","121.526591666667","25.010115","6500400","永和區"
"234086","338-UY","2018/09/01 18:38:48","新北市永和區永貞路175號","121.51518","25.003945","6500400","永和區"
"234070","552-UM","2018/09/01 18:38:35","新北市永和區福和路1號","121.525408333333","25.009395","6500400","永和區"
"234017","745-BX","2018/09/01 18:38:52","新北市永和區福和路1號","121.526528333333","25.0096866666667","6500400","永和區"
"234030","746-BX","2018/09/01 18:38:49","新北市永和區成功路一段36號","121.526923333333","25.0045033333333","6500400","永和區"
"234054","KEA-2590","2018/09/01 18:38:55","新北市永和區福和路1號","121.526051666667","25.00964","6500400","永和區"
"234061","AAD-866","2018/09/01 18:38:44","新北市永和區福和路1號","121.526036666667","25.009555","6500400","永和區"
"234013","847-RS","2018/09/01 18:38:48","新北市永和區保福路二段105號","121.510251666667","25.0133833333333","6500400","永和區"
"234042","862-TW","2018/09/01 18:38:50","新北市永和區永貞路306號","121.511868333333","25.0048466666667","6500400","永和區"
"234050","863-TW","2018/09/01 18:38:40","新北市永和區福和路1號","121.52634","25.00989","6500400","永和區"
"234026","9371-KE","2018/09/01 18:38:38","新北市永和區永貞路443號","121.506701666667","25.0101766666667","6500400","永和區"
"234011","9373-KE","2018/09/01 18:38:42","新北市永和區文化路113巷21弄26號","121.51375","25.0139516666667","6500400","永和區"
"249005","172-UM","2018/09/01 18:38:40","新北市八里區中華路三段34-2號","121.388653333333","25.125505","6502300","八里區"
"249001","173-UM","2018/09/01 18:38:49","新北市八里區龍米路一段398號","121.451425","25.1328666666667","6502300","八里區"
"249004","303-UY","2018/09/01 18:38:36","新北市八里區大崁腳48-53號","121.424801666667","25.1592483333333","6502300","八里區"
"249002","305-UY","2018/09/01 18:38:50","新北市八里區龍形一街21號","121.44982","25.1304283333333","6502300","八里區"
"248016","026-BX","2018/09/01 18:38:45","新北市五股區凌雲路一段133巷27-3號","121.448628333333","25.1008816666667","6501500","五股區"
"248008","095-VK","2018/09/01 18:38:43","新北市五股區中興路一段152號","121.464611666667","25.07389","6501500","五股區"
"248020","225-UY","2018/09/01 18:37:50","新北市五股區孝義路102號","121.445093333333","25.1198016666667","6501500","五股區"
"248012","247-BX","2018/09/01 18:38:39","新北市五股區成泰路三段2巷1-20號","121.441216666667","25.08666","6501500","五股區"
"248014","261-SL","2018/09/01 18:38:38","新北市五股區成泰路一段235-1號","121.436136666667","25.07952","6501500","五股區"
"248010","272-BY","2018/09/01 18:38:37","新北市五股區水碓一路92號","121.43177","25.07365","6501500","五股區"
"248004","677-BX","2018/09/01 18:38:46","新北市五股區民義路一段255-3號","121.427345","25.0912833333333","6501500","五股區"
"248002","678-BX","2018/09/01 18:38:49","新北市五股區西雲路199號","121.447993333333","25.096015","6501500","五股區"
"234023","9380-KE","2018/09/01 18:38:36","新北市永和區福和路76巷5弄14號","121.522316666667","25.0083916666667","6500400","永和區"
"234077","969-R7","2018/09/01 18:38:49","新北市永和區中正路39-1號","121.514508333333","24.9960633333333","6500400","永和區"
"234067","AAC-212","2018/09/01 18:38:55","新北市永和區永貞路62號","121.520621666667","25.0056483333333","6500400","永和區"
"244007","080-UY","2018/09/01 18:38:43","新北市林口區後湖4-2號","121.389646666667","25.0977633333333","6501700","林口區"
"244019","403-UM","2018/09/01 18:38:43","新北市林口區麗園二街12巷4-3號","121.378571666667","25.0685316666667","6501700","林口區"
"244013","KEA-2802","2018/09/01 18:38:41","新北市林口區文化一路一段227號","121.379501666667","25.0761116666667","6501700","林口區"
"244023","483-VK","2018/09/01 18:38:44","新北市林口區文化一路二段68號","121.381248333333","25.0779783333333","6501700","林口區"
"244017","485-VK","2018/09/01 18:38:41","新北市林口區八德路78號","121.365636666667","25.0657016666667","6501700","林口區"
"244009","656-BX","2018/09/01 18:38:43","新北市林口區民生路166號","121.379635","25.0878933333333","6501700","林口區"
"244011","657-BX","2018/09/01 18:38:32","新北市林口區興林路17巷3弄1號","121.390183333333","25.0770183333333","6501700","林口區"
"244025","837-TS","2018/09/01 18:38:45","新北市林口區南勢六街238號","121.355911666667","25.074285","6501700","林口區"
"244021","838-TS","2018/09/01 18:38:35","新北市林口區自強二街1-4號","121.397271666667","25.0784966666667","6501700","林口區"
"243013","AAD-798","2018/09/01 18:25:04","新北市泰山區明志路三段206巷3號","121.423315","25.037925","6501600","泰山區"
"243016","KEA-2801","2018/09/01 18:38:48","新北市泰山區黎明路25號","121.421945","25.0607066666667","6501600","泰山區"
"243010","KEA-2216","2018/09/01 18:38:47","新北市泰山區黎明路31號","121.421705","25.0607783333333","6501600","泰山區"
"243012","646-TV","2018/09/01 18:38:36","新北市泰山區泰林路二段92號","121.434901666667","25.0587316666667","6501600","泰山區"
"222003","436-BY","2018/09/01 18:38:51","新北市深坑區翠谷街37巷1號","121.62649","25.0093983333333","6501800","深坑區"
"222002","659-BX","2018/09/01 18:38:47","新北市深坑區雲鄉路1號","121.620995","24.999745","6501800","深坑區"
"231041","002-UM","2018/09/01 18:38:47","新北市新店區安華路28-1號","121.519735","24.9608433333333","6500600","新店區"
"231059","046-UY","2018/09/01 18:38:40","新北市新店區安華路28-1號","121.519703333333","24.9609616666667","6500600","新店區"
"231040","047-UY","2018/09/01 18:38:37","新北市新店區安華路28-1號","121.51913","24.9608883333333","6500600","新店區"
"231044","106-UY","2018/09/01 18:38:51","新北市新店區安康路一段5號","121.533791666667","24.9604933333333","6500600","新店區"
"231046","107-UY","2018/09/01 18:38:40","新北市新店區直潭二街1號","121.535508333333","24.943185","6500600","新店區"
"231052","108-UY","2018/09/01 18:38:45","新北市新店區永興路38號","121.543356666667","24.93861","6500600","新店區"
"231064","110-UY","2018/09/01 18:38:36","新北市新店區安一路一段1-1號","121.519728333333","24.9613083333333","6500600","新店區"
"231048","187-VK","2018/09/01 18:38:36","新北市新店區安一路一段1-1號","121.519713333333","24.9613216666667","6500600","新店區"
"231054","KEA-2219","2018/09/01 18:38:43","新北市新店區安一路一段1-1號","121.519935","24.9612333333333","6500600","新店區"
"231057","256-BX","2018/09/01 18:38:46","新北市新店區新烏路一段215號","121.549325","24.9314866666667","6500600","新店區"
"231042","268-BY","2018/09/01 18:38:48","新北市新店區安華路28-1號","121.519475","24.9605533333333","6500600","新店區"
"231051","278-BY","2018/09/01 18:38:50","新北市新店區中央路97號","121.531163333333","24.975035","6500600","新店區"
"231050","AAD-862","2018/09/01 18:38:45","新北市新店區安一路一段1-1號","121.51982","24.9614133333333","6500600","新店區"
"231060","355-BY","2018/09/01 18:38:34","新北市新店區安華路28-1號","121.518995","24.9609466666667","6500600","新店區"
"231058","3713-VJ","2018/09/01 18:38:44","新北市新店區北宜路一段168號","121.540365","24.952925","6500600","新店區"
"231066","4716-K9","2018/09/01 18:38:49","新北市新店區安一路一段1-1號","121.519313333333","24.96134","6500600","新店區"
"231056","4715-K9","2018/09/01 18:38:36","新北市新店區建國路151號","121.538755","24.97877","6500600","新店區"
"231067","4772-VM","2018/09/01 18:38:51","新北市新店區安華路28-1號","121.519093333333","24.9606566666667","6500600","新店區"
"231065","512-UM","2018/09/01 18:38:47","新北市新店區安一路一段1-1號","121.51934","24.961185","6500600","新店區"
"231049","513-UM","2018/09/01 18:38:36","新北市新店區安一路一段1-1號","121.519738333333","24.9612483333333","6500600","新店區"
"231045","617-UM","2018/09/01 18:38:36","新北市新店區安華路28-1號","121.519481666667","24.960915","6500600","新店區"
"231061","619-UM","2018/09/01 18:38:54","新北市新店區安華路28-1號","121.519785","24.9606166666667","6500600","新店區"
"231063","641-BX","2018/09/01 18:38:35","新北市新店區安華路28-1號","121.519576666667","24.960585","6500600","新店區"
"231062","720-UM","2018/09/01 18:38:33","新北市新店區安一路一段1-1號","121.51934","24.9613816666667","6500600","新店區"
"231043","899-TW","2018/09/01 18:38:46","新北市新店區安華路28-1號","121.519198333333","24.9609283333333","6500600","新店區"
"231055","AKT-0513","2018/09/01 18:38:53","新北市新店區北新路一段271巷33號","121.539763333333","24.9671166666667","6500600","新店區"
"235066","003-UY","2018/09/01 18:38:35","新北市中和區水源路20號","121.5042","25.0035316666667","6500300","中和區"
"235064","005-UY","2018/09/01 18:38:36","新北市中和區連城路103號","121.496436666667","24.9996583333333","6500300","中和區"
"235063","006-UY","2018/09/01 18:38:44","新北市中和區連城路347巷4弄2號","121.488208333333","24.995605","6500300","中和區"
"235056","096-UM","2018/09/01 18:38:54","新北市中和區員山路611巷5弄5號","121.478095","25.0112116666667","6500300","中和區"
"235039","097-UM","2018/09/01 18:38:46","新北市永和區中正路3-1號","121.513836666667","24.99543","6500300","中和區"
"235065","098-UM","2018/09/01 18:38:49","新北市中和區莊敬路49巷27號","121.501513333333","25.00614","6500300","中和區"
"235040","150-BY","2018/09/01 18:38:46","新北市中和區安平路59號","121.509685","24.9950233333333","6500300","中和區"
"235058","151-BY","2018/09/01 18:38:41","新北市中和區圓通路296巷1號","121.487336666667","24.9882383333333","6500300","中和區"
"235055","183-VK","2018/09/01 18:38:49","新北市中和區中山路三段229巷61-3號","121.468815","25.005115","6500300","中和區"
"235038","185-VK","2018/09/01 18:38:49","新北市中和區大勇街60巷43號","121.519221666667","24.994675","6500300","中和區"
"235049","186-VK","2018/09/01 18:38:49","新北市中和區明義街11巷10弄1號","121.503853333333","24.994835","6500300","中和區"
"235067","255-BX","2018/09/01 18:38:51","新北市中和區中正路887號","121.484291666667","25.0043833333333","6500300","中和區"
"235044","293-VK","2018/09/01 18:38:41","新北市中和區復興路280號","121.502265","24.9906916666667","6500300","中和區"
"235072","301-VK","2018/09/01 18:38:47","新北市中和區中山路二段189號","121.500228333333","25.0027366666667","6500300","中和區"
"235043","352-BY","2018/09/01 18:38:39","新北市中和區景平路163號","121.512406666667","24.9925033333333","6500300","中和區"
"235042","KEA-2878","2018/09/01 18:38:44","新北市中和區成功路51巷1號","121.526521666667","24.9928766666667","6500300","中和區"
"235050","4979-A6","2018/09/01 18:38:42","新北市中和區信義街115號","121.512148333333","24.9868366666667","6500300","中和區"
"235069","4980-A6","2018/09/01 18:38:24","新北市中和區連城路99巷71號","121.497418333333","24.99837","6500300","中和區"
"235070","558-UM","2018/09/01 18:38:36","新北市中和區景平路435號","121.501006666667","24.995935","6500300","中和區"
"235045","565-BX","2018/09/01 18:38:40","新北市中和區南山路236巷36弄15號","121.504053333333","24.9878266666667","6500300","中和區"
"235054","640-BX","2018/09/01 18:38:38","新北市中和區民享街86巷30弄6號","121.473141666667","25.0010366666667","6500300","中和區"
"235060","647-TV","2018/09/01 18:38:45","新北市中和區中山路二段585號","121.480046666667","25.0058133333333","6500300","中和區"
"235047","732-UM","2018/09/01 18:38:45","新北市中和區南山路539號","121.507946666667","24.9868783333333","6500300","中和區"
"235046","733-UM","2018/09/01 18:38:36","新北市中和區忠孝街126-1號","121.512103333333","24.9862366666667","6500300","中和區"
"235062","800-TS","2018/09/01 18:38:43","新北市中和區景平路750號","121.49649","25.0043516666667","6500300","中和區"
"235057","801-TS","2018/09/01 18:38:45","新北市中和區員山路327巷3號","121.480793333333","25.00133","6500300","中和區"
"235041","802-TS","2018/09/01 18:38:53","新北市中和區中安街178巷13弄14號","121.510551666667","24.99842","6500300","中和區"
"235052","805-TS","2018/09/01 18:38:51","新北市中和區興南路三段46號","121.495488333333","24.9763266666667","6500300","中和區"
"235048","896-TW","2018/09/01 18:38:44","新北市中和區南山路319號","121.50512","24.991415","6500300","中和區"
"235053","900-TW","2018/09/01 18:38:39","新北市土城區延壽路77巷4弄11號","121.469121666667","24.9930116666667","6500300","中和區"
"235051","157-BY","2018/09/01 18:38:46","新北市中和區華新街143巷106弄23號","121.506623333333","24.97828","6500300","中和區"
"235037","AAC-213","2018/09/01 18:38:36","新北市中和區景德街59號","121.51741","24.9914483333333","6500300","中和區"
"235059","AAC-215","2018/09/01 18:38:35","新北市中和區錦和路354巷15號","121.49005","24.9915433333333","6500300","中和區"
"220065","072-UY","2018/09/01 18:38:53","新北市板橋區忠孝路148號","121.463925","25.0024133333333","6500100","板橋區"
"220086","073-UY","2018/09/01 18:38:40","新北市板橋區南雅西路二段192巷1弄1號","121.452013333333","25.014465","6500100","板橋區"
"220069","AAD-861","2018/09/01 18:38:37","新北市板橋區華東街1-10號","121.44835","24.9950733333333","6500100","板橋區"
"226004","312-R5","2018/09/01 18:38:52","新北市平溪區石底里公園街18-3號","121.733253333333","25.0258316666667","6502400","平溪區"
"228003","097-TW","2018/09/01 18:38:38","新北市貢寮區和美里龍洞街40號","121.913881666667","25.1122333333333","6502600","貢寮區"
"228001","212-TW","2018/09/01 18:38:52","新北市貢寮區仁理村保健街73號","121.92373","25.0516733333333","6502600","貢寮區"
"228002","663-BX","2018/09/01 18:38:45","新北市貢寮區福隆里東興街6-11號","121.95075","25.0210816666667","6502600","貢寮區"
"224010","AGQ-8101","2018/09/01 18:37:46","新北市瑞芳區崙頂路137號","121.844406666667","25.107055","6501200","瑞芳區"
"224002","639-TC","2018/09/01 18:38:36","新北市瑞芳區三爪子坑路63號","121.812666666667","25.10738","6501200","瑞芳區"
"224008","285-BY","2018/09/01 18:38:43","新北市瑞芳區岳王路17號","121.807276666667","25.1109333333333","6501200","瑞芳區"
"224007","275-VK","2018/09/01 18:38:51","新北市瑞芳區大埔路115巷27號","121.762906666667","25.10127","6501200","瑞芳區"
"224009","273-VK","2018/09/01 18:38:35","新北市瑞芳區祈堂路14號","121.859046666667","25.1113616666667","6501200","瑞芳區"
"224005","271-BY","2018/09/01 18:38:50","新北市瑞芳區瑞濱路161號","121.817866666667","25.1184366666667","6501200","瑞芳區"
"227010","642-TC","2018/09/01 18:38:48","新北市雙溪區牡丹里下坑11號","121.851041666667","25.0561833333333","6502500","雙溪區"
"227002","400-TW","2018/09/01 18:38:39","新北市雙溪區魚行里坤溪3-5號","121.874958333333","25.0217266666667","6502500","雙溪區"
"253006","032-BX","2018/09/01 18:38:41","新北市石門區崁子腳28-1號","121.539778333333","25.2898866666667","6502200","石門區"
"253005","295-VK","2018/09/01 18:38:33","新北市石門區石門街7號","121.565853333333","25.2909033333333","6502200","石門區"
"222001","KEA-2212","2018/09/01 18:38:35","新北市深坑區北深路一段84號","121.636275","25.01064","6501800","深坑區"
"208002","KEA-2872","2018/09/01 18:38:44","新北市金山區忠孝一路19巷6-1號","121.637871666667","25.2180083333333","6502700","金山區"
"208003","665-BX","2018/09/01 18:38:45","新北市金山區中山路251號","121.637131666667","25.222025","6502700","金山區"
"208001","761-BX","2018/09/01 18:38:54","新北市金山區文化三路42號","121.635348333333","25.224885","6502700","金山區"
"251001","011-UM","2018/09/01 18:38:42","新北市淡水區自強路415巷2號","121.465543333333","25.1342066666667","6501000","淡水區"
"251013","KEA-2871","2018/09/01 18:38:52","新北市淡水區椿子林4號","121.486385","25.2038866666667","6501000","淡水區"
"251016","179-VK","2018/09/01 18:38:36","新北市淡水區下圭柔山84號","121.437668333333","25.2057433333333","6501000","淡水區"
"251014","180-VK","2018/09/01 18:38:39","新北市淡水區崙頂12-8號","121.495583333333","25.21723","6501000","淡水區"
"251015","181-VK","2018/09/01 18:38:41","新北市淡水區興福寮66巷243號","121.486733333333","25.1619916666667","6501000","淡水區"
"251010","413-VK","2018/09/01 18:38:51","新北市淡水區沙崙路122號","121.423341666667","25.18272","6501000","淡水區"
"251012","441-VK","2018/09/01 18:38:34","新北市淡水區北新路121號","121.448953333333","25.1786666666667","6501000","淡水區"
"251008","442-VK","2018/09/01 18:38:39","新北市淡水區北新路一段28號","121.454931666667","25.1809683333333","6501000","淡水區"
"251004","443-VK","2018/09/01 18:38:50","新北市淡水區竹林路156號","121.462611666667","25.1421033333333","6501000","淡水區"
"251006","561-UM","2018/09/01 18:38:50","新北市淡水區崁頂27號","121.439405","25.1930633333333","6501000","淡水區"
"251007","577-R6","2018/09/01 18:38:42","新北市淡水區中正東路二段143巷2弄5號","121.460606666667","25.1468916666667","6501000","淡水區"
"251011","650-BX","2018/09/01 18:38:46","新北市淡水區鄧公路36巷15號","121.455521666667","25.1692133333333","6501000","淡水區"
"251002","672-BX","2018/09/01 18:38:51","新北市淡水區中正東路一段3巷14弄1號","121.450901666667","25.1641633333333","6501000","淡水區"
"251003","673-BX","2018/09/01 18:38:41","新北市淡水區北新路69巷26號","121.446791666667","25.180115","6501000","淡水區"
"207003","550-UM","2018/09/01 18:38:55","新北市萬里區野柳里港西路78-9號","121.6858","25.2063216666667","6502800","萬里區"
"207004","225-TW","2018/09/01 18:38:51","新北市萬里區萬里里獅頭路7號","121.691823333333","25.17822","6502800","萬里區"
"252002","178-VK","2018/09/01 18:38:33","新北市三芝區民生街64巷14號","121.503758333333","25.2549816666667","6502100","三芝區"
"252003","249-BX","2018/09/01 18:38:52","新北市三芝區後厝里土地公坑73-8號","121.460305","25.2473883333333","6502100","三芝區"
"252001","292-VK","2018/09/01 18:38:36","新北市三芝區中興街二段260號","121.501563333333","25.2531416666667","6502100","三芝區"
"237004","KEA-2597","2018/09/01 18:38:42","新北市三峽區圳頭95號","121.380998333333","24.8773766666667","6500900","三峽區"
"237007","153-BY","2018/09/01 18:38:46","新北市三峽區中正路三段250號","121.34149","24.9020566666667","6500900","三峽區"
"237011","572-TV","2018/09/01 18:38:47","新北市三峽區溪東路373號","121.411736666667","24.929235","6500900","三峽區"
"237009","210-TH","2018/09/01 18:38:45","新北市三峽區大同路280號","121.364853333333","24.925275","6500900","三峽區"
"237013","252-BX","2018/09/01 18:38:42","新北市三峽區光明路69巷24號","121.376661666667","24.9290866666667","6500900","三峽區"
"237012","275-BY","2018/09/01 18:38:39","新北市三峽區三樹路210號","121.379518333333","24.9419983333333","6500900","三峽區"
"237008","302-VK","2018/09/01 18:38:48","新北市三峽區白雞67-5號","121.398763333333","24.9114233333333","6500900","三峽區"
"237014","433-BY","2018/09/01 18:38:48","新北市三峽區復興路316號","121.366215","24.939065","6500900","三峽區"
"237006","5529-G3","2018/09/01 18:38:39","新北市三峽區溪東路371巷4弄10號","121.412428333333","24.9297616666667","6500900","三峽區"
"237016","649-BX","2018/09/01 18:38:38","新北市三峽區竹崙路89號","121.432335","24.91875","6500900","三峽區"
"237010","706-TV","2018/09/01 18:38:46","新北市三峽區復興路489號","121.361241666667","24.9384316666667","6500900","三峽區"
"237005","AKY-6261","2018/09/01 18:38:42","新北市三峽區民生街107號","121.374011666667","24.9355033333333","6500900","三峽區"
"236070","105-UM","2018/09/01 18:38:45","新北市土城區永豐路157巷29弄6-1號","121.468366666667","24.981475","6501300","土城區"
"236042","107-UM","2018/09/01 18:38:48","新北市土城區學成路130號","121.449178333333","24.9895966666667","6501300","土城區"
"236079","166-UM","2018/09/01 18:38:42","新北市土城區中央路四段52巷4號","121.420305","24.961055","6501300","土城區"
"236030","253-BX","2018/09/01 18:38:50","新北市土城區福仁街56號","121.439576666667","24.9747983333333","6501300","土城區"
"236026","269-VK","2018/09/01 18:38:49","新北市土城區忠義路47號","121.440465","24.9693316666667","6501300","土城區"
"236014","270-VK","2018/09/01 18:38:35","新北市土城區青雲路183巷10號","121.459466666667","24.9826716666667","6501300","土城區"
"236038","271-VK","2018/09/01 18:38:48","新北市土城區青山路2巷20號","121.461106666667","24.976125","6501300","土城區"
"236021","401-BY","2018/09/01 18:38:50","新北市土城區明德路一段22號","121.465146666667","24.98496","6501300","土城區"
"236059","912-UM","2018/09/01 18:38:51","新北市土城區中央路三段209-1號","121.429783333333","24.9646533333333","6501300","土城區"
"236049","913-UM","2018/09/01 18:38:41","新北市土城區明德路一段22號","121.465041666667","24.9849633333333","6501300","土城區"
"236063","915-UM","2018/09/01 18:38:49","新北市土城區延壽路13巷19號","121.469918333333","24.9913466666667","6501300","土城區"
"236055","AAC-216","2018/09/01 18:38:52","新北市土城區裕民路26號","121.447796666667","24.9885633333333","6501300","土城區"
"242058","986-R7","2018/09/01 18:38:40","新北市新莊區中正路879-14號","121.417658333333","25.0259866666667","6500500","新莊區"
"242042","566-BX","2018/09/01 18:38:45","新北市新莊區天祥街72巷14號","121.416233333333","25.02972","6500500","新莊區"
"242044","400-BY","2018/09/01 18:38:41","新北市新莊區中正路新旺巷4號","121.415616666667","25.023515","6500500","新莊區"
"238015","755-BX","2018/09/01 18:38:51","新北市樹林區大安路576號","121.411823333333","24.9836633333333","6500700","樹林區"
"238023","601-UM","2018/09/01 18:38:39","新北市樹林區三福街114號","121.406533333333","25.01634","6500700","樹林區"
"238018","571-TV","2018/09/01 18:38:43","新北市樹林區樹新路13號","121.426605","24.993975","6500700","樹林區"
"238024","5061-A6","2018/09/01 18:38:53","新北市樹林區太順街79巷17號","121.417235","24.9781183333333","6500700","樹林區"
"238025","303-VK","2018/09/01 18:38:44","新北市樹林區中山路三段22號","121.395571666667","24.9729233333333","6500700","樹林區"
"238017","283-BY","2018/09/01 18:38:51","新北市樹林區光興街50號","121.40987","25.0027416666667","6500700","樹林區"
"238014","282-BY","2018/09/01 18:38:50","新北市樹林區大安路111巷4號","121.42307","24.9974883333333","6500700","樹林區"
"238020","268-VK","2018/09/01 18:38:44","新北市樹林區俊安街22號","121.419281666667","25.0138333333333","6500700","樹林區"
"238026","172-UY","2018/09/01 18:38:52","新北市樹林區育德街78-1號","121.387943333333","24.9682016666667","6500700","樹林區"
"238016","169-UY","2018/09/01 18:38:36","新北市樹林區文化街28號","121.419235","24.9876916666667","6500700","樹林區"
"239007","AAC-297","2018/09/01 18:38:44","新北市鶯歌區中正一路建德巷18號","121.364851666667","24.957215","6500800","鶯歌區"
"239006","891-R6","2018/09/01 18:38:51","新北市鶯歌區鶯桃路294-1號","121.33496","24.9603683333333","6500800","鶯歌區"
"239008","527-UM","2018/09/01 18:38:36","新北市鶯歌區國際一路179號","121.336196666667","24.976495","6500800","鶯歌區"
"239005","526-UM","2018/09/01 18:38:40","新北市鶯歌區鳳吉二街39號","121.326295","24.9731316666667","6500800","鶯歌區"
"239001","417-VK","2018/09/01 18:38:43","新北市鶯歌區尖山埔路二段47號","121.342103333333","24.9488","6500800","鶯歌區"
"239003","360-BY","2018/09/01 18:38:45","新北市鶯歌區鶯桃路562號","121.330816666667","24.9676333333333","6500800","鶯歌區"
"239002","359-BY","2018/09/01 18:38:45","新北市鶯歌區中山路313號","121.344123333333","24.9569033333333","6500800","鶯歌區"
"239004","193-VK","2018/09/01 18:38:36","新北市鶯歌區中正三路156巷8-8號","121.332705","24.9406316666667","6500800","鶯歌區"
"221008","489-VK","2018/09/01 18:38:41","新北市汐止區康寧街901號","121.651326666667","25.0750233333333","6501100","汐止區"
"221036","130-UY","2018/09/01 18:38:49","新北市汐止區忠孝東路336號","121.665138333333","25.0694066666667","6501100","汐止區"
"221015","131-UY","2018/09/01 18:38:42","新北市汐止區鄉長路二段8號","121.668795","25.080785","6501100","汐止區"
"221010","269-BY","2018/09/01 18:38:49","新北市汐止區汐萬路三段74巷2號","121.644025","25.0955733333333","6501100","汐止區"
"221012","278-VK","2018/09/01 18:38:52","新北市汐止區鄉長路二段2號","121.668838333333","25.0806083333333","6501100","汐止區"
"221023","279-VK","2018/09/01 18:38:44","新北市汐止區康寧街600號","121.635748333333","25.070535","6501100","汐止區"
"221032","280-BY","2018/09/01 18:38:50","新北市汐止區福山街60巷16號","121.618363333333","25.0461516666667","6501100","汐止區"
"221027","281-BY","2018/09/01 18:38:38","新北市汐止區汐萬路一段143號","121.653486666667","25.0711633333333","6501100","汐止區"
"221029","298-VK","2018/09/01 18:38:46","新北市汐止區樟樹一路146號","121.642336666667","25.0650933333333","6501100","汐止區"
"221021","299-VK","2018/09/01 18:38:42","新北市汐止區大同路二段273號","121.652351666667","25.0673516666667","6501100","汐止區"
"221031","353-TW","2018/09/01 18:38:50","新北市汐止區福德一路274號","121.632093333333","25.0639383333333","6501100","汐止區"
"221002","129-UY","2018/09/01 18:38:33","新北市汐止區中興路22-1號","121.636945","25.0596816666667","6501100","汐止區"
"221035","622-UM","2018/09/01 18:38:49","新北市汐止區大同路二段278號","121.654796666667","25.0663283333333","6501100","汐止區"
"221025","623-UM","2018/09/01 18:38:53","新北市汐止區福安街20巷22號","121.661896666667","25.064515","6501100","汐止區"
"221038","646-BX","2018/09/01 18:38:37","新北市汐止區汐萬路一段256巷3號","121.65339","25.0746333333333","6501100","汐止區"
"221033","647-BX","2018/09/01 18:38:37","新北市汐止區宜興街1號","121.620715","25.0411383333333","6501100","汐止區"
"221018","753-BX","2018/09/01 18:38:50","新北市汐止區茄苳路255號","121.671848333333","25.0682583333333","6501100","汐止區"
"220079","145-BY","2018/09/01 18:38:41","新北市板橋區大觀路一段61號","121.447276666667","25.0054933333333","6500100","板橋區"
"220080","200-UY","2018/09/01 18:38:54","新北市板橋區大觀路二段265巷76弄37號","121.441098333333","24.996735","6500100","板橋區"
"220082","610-BX","2018/09/01 18:38:52","新北市板橋區大觀路三段52號","121.432221666667","24.99594","6500100","板橋區"
"220056","276-BY","2018/09/01 18:38:47","新北市板橋區華東街1-10號","121.448515","24.9949483333333","6500100","板橋區"
"220072","277-BY","2018/09/01 18:38:36","新北市板橋區大觀路三段131號","121.43244","24.9941416666667","6500100","板橋區"
"220071","283-VK","2018/09/01 18:38:39","新北市板橋區四川路二段140巷2號","121.449983333333","24.993195","6500100","板橋區"
"220094","285-UM","2018/09/01 18:38:43","新北市板橋區民生路二段166號","121.471411666667","25.02025","6500100","板橋區"
"220083","286-VK","2018/09/01 18:38:34","新北市板橋區大觀路二段163巷32號","121.446753333333","24.999905","6500100","板橋區"
"220081","287-VK","2018/09/01 18:38:48","新北市板橋區大觀路二段109巷1號","121.44727","25.0011566666667","6500100","板橋區"
"220084","296-UM","2018/09/01 18:38:41","新北市板橋區板城路407號","121.447445","24.99518","6500100","板橋區"
"220062","299-UM","2018/09/01 18:38:51","新北市板橋區民生路二段120號","121.47054","25.019935","6500100","板橋區"
"220075","303-R5","2018/09/01 18:38:40","新北市板橋區華東街310號","121.452698333333","25.003035","6500100","板橋區"
"220064","486-VK","2018/09/01 18:38:48","新北市板橋區縣民大道二段82號","121.465433333333","25.0144466666667","6500100","板橋區"
"241031","AAD-800","2018/09/01 18:35:37","新北市板橋區民生路二段56-6號","121.470788333333","25.01891","6500200","三重區"
"220035","560-BX","2018/09/01 18:38:35","新北市板橋區南雅西路二段145巷10號","121.45157","25.0119333333333","6500100","板橋區"
"220103","561-BX","2018/09/01 18:38:52","新北市板橋區民生路二段180號","121.470825","25.02012","6500100","板橋區"
"220063","609-BX","2018/09/01 18:38:51","新北市板橋區民生路二段161巷1號","121.469963333333","25.020075","6500100","板橋區"
"220057","686-BX","2018/09/01 18:38:43","新北市板橋區華東街1-9號","121.448196666667","24.9949166666667","6500100","板橋區"
"220077","687-BX","2018/09/01 18:38:51","新北市板橋區大觀路二段156巷59號","121.440983333333","25.0001916666667","6500100","板橋區"
"220054","741-BX","2018/09/01 18:38:47","新北市板橋區大觀路2段435-7號","121.44791","24.9955266666667","6500100","板橋區"
"220055","827-TW","2018/09/01 18:38:52","新北市板橋區板城路421號","121.448288333333","24.9958066666667","6500100","板橋區"
"220074","895-R6","2018/09/01 18:38:40","新北市板橋區南雅南路二段20號","121.45452","25.0032566666667","6500100","板橋區"
"220073","985-R7","2018/09/01 18:38:44","新北市板橋區南雅南路二段11-18號","121.454508333333","25.0016366666667","6500100","板橋區"
"220070","AAC-253","2018/09/01 18:38:52","新北市板橋區板城路421號","121.448156666667","24.9957033333333","6500100","板橋區"
"235068","KEA-2873","2018/09/01 18:38:46","新北市中和區中正路219號","121.496461666667","24.9937533333333","6500300","中和區"
"235061","KEA-2875","2018/09/01 18:38:26","新北市中和區民享街93巷8號","121.475493333333","25.0007","6500300","中和區"
