"lineid","car","time","location","longitude","latitude","cityid","cityname"
"234046","148-BY","2018/09/01 20:09:49","新北市永和區得和路311號","121.523121666667","24.99966","6500400","永和區"
"234007","207-UY","2018/09/01 20:09:35","新北市永和區保順路37巷16號","121.502891666667","25.0104616666667","6500400","永和區"
"234081","298-R6","2018/09/01 20:09:39","新北市永和區國中路86巷2號","121.524713333333","25.0059","6500400","永和區"
"234038","336-UY","2018/09/01 20:09:53","新北市永和區環河東路三段96號","121.528065","25.0039866666667","6500400","永和區"
"234064","337-UY","2018/09/01 20:09:46","新北市永和區永元路14號","121.522056666667","25.0003316666667","6500400","永和區"
"234086","338-UY","2018/09/01 20:09:55","新北市永和區中正路626號","121.51694","25.0079233333333","6500400","永和區"
"234070","552-UM","2018/09/01 20:09:35","新北市永和區中正路632號","121.516963333333","25.0080966666667","6500400","永和區"
"234017","745-BX","2018/09/01 20:09:52","新北市永和區文化路86號","121.513908333333","25.01517","6500400","永和區"
"234030","746-BX","2018/09/01 20:09:49","新北市永和區民權路49巷18號","121.52099","24.9972966666667","6500400","永和區"
"234054","KEA-2590","2018/09/01 20:09:35","新北市永和區博愛街15號","121.517181666667","25.0158183333333","6500400","永和區"
"234061","AAD-866","2018/09/01 20:09:44","新北市永和區中正路151巷8弄2號","121.516058333333","24.99856","6500400","永和區"
"234013","847-RS","2018/09/01 20:09:48","新北市永和區永貞路387號","121.508076666667","25.008675","6500400","永和區"
"234042","862-TW","2018/09/01 20:09:50","新北市永和區雙和街14號","121.509563333333","25.0020666666667","6500400","永和區"
"234050","863-TW","2018/09/01 20:09:40","新北市永和區新生路210巷2號","121.505478333333","25.0131016666667","6500400","永和區"
"234026","9371-KE","2018/09/01 20:09:38","新北市永和區保生路55-1號","121.504538333333","25.01089","6500400","永和區"
"234011","9373-KE","2018/09/01 20:09:42","新北市永和區仁愛路352巷122弄13號","121.500725","25.0088866666667","6500400","永和區"
"249005","172-UM","2018/09/01 20:09:40","新北市八里區下罟子57-32號","121.387453333333","25.136825","6502300","八里區"
"249001","173-UM","2018/09/01 20:09:45","新北市八里區中華路二段328號","121.40317","25.1479716666667","6502300","八里區"
"249004","303-UY","2018/09/01 20:09:40","新北市八里區中山路一段418-7號","121.41078","25.15833","6502300","八里區"
"249002","305-UY","2018/09/01 20:09:50","新北市五股區成泰路四段24-10號","121.45377","25.1072533333333","6502300","八里區"
"249003","593-UM","2018/09/01 20:09:44","新北市八里區中山路二段540巷3號","121.39712","25.14686","6502300","八里區"
"248016","026-BX","2018/09/01 20:09:45","新北市五股區凌雲路一段158巷50弄2號","121.447128333333","25.104455","6501500","五股區"
"248008","095-VK","2018/09/01 20:09:43","新北市五股區中興路一段1巷15號","121.469751666667","25.07118","6501500","五股區"
"248020","225-UY","2018/09/01 20:09:50","新北市五股區凌雲路三段24巷21號","121.433861666667","25.1067683333333","6501500","五股區"
"248012","247-BX","2018/09/01 20:09:39","新北市五股區六合街118號","121.43027","25.090805","6501500","五股區"
"248014","261-SL","2018/09/01 20:09:57","新北市五股區成泰路三段362號","121.451561666667","25.098395","6501500","五股區"
"248010","272-BY","2018/09/01 20:09:37","新北市五股區成泰路一段7巷66號","121.43262","25.0678516666667","6501500","五股區"
"248004","677-BX","2018/09/01 20:09:56","新北市五股區成泰路二段24號","121.436938333333","25.0809466666667","6501500","五股區"
"248002","678-BX","2018/09/01 20:09:48","新北市五股區成泰路三段369-3號","121.448963333333","25.0959933333333","6501500","五股區"
"234023","9380-KE","2018/09/01 20:09:36","新北市永和區中正路662巷25號","121.517693333333","25.008885","6500400","永和區"
"234077","969-R7","2018/09/01 20:09:48","新北市永和區民享街23巷23號","121.516561666667","24.9955433333333","6500400","永和區"
"234074","AAC-211","2018/09/01 20:09:45","新北市永和區豫溪街148號","121.521798333333","25.0104033333333","6500400","永和區"
"234067","AAC-212","2018/09/01 20:09:55","新北市永和區保平路218號","121.509678333333","25.0060183333333","6500400","永和區"
"234003","AAC-295","2018/09/01 20:09:50","新北市永和區中正路660-1號","121.516913333333","25.0086933333333","6500400","永和區"
"243013","AAD-798","2018/09/01 20:09:53","新北市泰山區明志路三段74巷23號","121.42395","25.0416933333333","6501600","泰山區"
"243009","297-R6","2018/09/01 20:09:46","新北市泰山區泰林路二段128號","121.434473333333","25.0594983333333","6501600","泰山區"
"243016","KEA-2801","2018/09/01 20:09:48","新北市泰山區貴陽街13號","121.421643333333","25.0333233333333","6501600","泰山區"
"243015","421-VK","2018/09/01 20:09:46","新北市泰山區明志路一段282號","121.431963333333","25.06","6501600","泰山區"
"243011","KEA-2215","2018/09/01 20:09:45","新北市泰山區明志路三段342號","121.421981666667","25.035335","6501600","泰山區"
"243010","KEA-2216","2018/09/01 20:09:46","新北市泰山區明志路二段136巷20弄1號","121.426363333333","25.0517466666667","6501600","泰山區"
"243012","646-TV","2018/09/01 20:09:56","新北市泰山區楓江路39-2號","121.435065","25.0624816666667","6501600","泰山區"
"243014","680-BX","2018/09/01 20:09:47","新北市泰山區明志路一段143號","121.433443333333","25.0628383333333","6501600","泰山區"
"222003","436-BY","2018/09/01 20:09:51","新北市深坑區埔新街64號","121.620035","25.002385","6501800","深坑區"
"222002","659-BX","2018/09/01 20:09:47","新北市深坑區北深路三段180號","121.602143333333","25.0039","6501800","深坑區"
"231061","001-UM","2018/09/01 20:09:45","新北市新店區安興路81號","121.515578333333","24.9752433333333","6500600","新店區"
"231041","002-UM","2018/09/01 20:09:47","新北市新店區中正路468號","121.534015","24.97956","6500600","新店區"
"231059","046-UY","2018/09/01 20:09:40","新北市新店區安成街28號","121.510165","24.9609966666667","6500600","新店區"
"231040","047-UY","2018/09/01 20:09:37","新北市新店區中正路106號","121.543075","24.9704933333333","6500600","新店區"
"231044","106-UY","2018/09/01 20:09:51","新北市新店區寶慶街58巷2號","121.542056666667","24.9867883333333","6500600","新店區"
"231052","108-UY","2018/09/01 20:09:45","新北市新店區新烏路三段寶島巷4號","121.550521666667","24.8986533333333","6500600","新店區"
"231064","110-UY","2018/09/01 20:09:36","新北市新店區安光路13-1號","121.513295","24.963835","6500600","新店區"
"231048","187-VK","2018/09/01 20:09:56","新北市新店區永華街44號","121.545056666667","24.975115","6500600","新店區"
"231054","KEA-2219","2018/09/01 20:09:43","新北市新店區光明街314號","121.540598333333","24.9651466666667","6500600","新店區"
"231057","256-BX","2018/09/01 20:09:45","新北市新店區花園一路一段2號","121.553178333333","24.9323933333333","6500600","新店區"
"231042","268-BY","2018/09/01 20:09:48","新北市新店區中興路二段89號","121.54705","24.9714133333333","6500600","新店區"
"231051","278-BY","2018/09/01 20:09:50","新北市新店區中央六街6號","121.530281666667","24.974395","6500600","新店區"
"231050","AAD-862","2018/09/01 20:09:45","新北市新店區北宜路一段42號","121.538348333333","24.9565783333333","6500600","新店區"
"231060","355-BY","2018/09/01 20:09:53","新北市新店區安康路三段391號","121.483428333333","24.950195","6500600","新店區"
"231066","4716-K9","2018/09/01 20:09:33","新北市新店區柴埕路2-1號","121.514891666667","24.9658833333333","6500600","新店區"
"231056","4715-K9","2018/09/01 20:09:36","新北市新店區中正路275巷45號","121.536641666667","24.97265","6500600","新店區"
"231067","4772-VM","2018/09/01 20:09:51","新北市新店區溪洲路6巷40-1號","121.533665","24.9629533333333","6500600","新店區"
"231065","512-UM","2018/09/01 20:09:47","新北市新店區安祥路106巷288號","121.472608333333","24.9582","6500600","新店區"
"231049","513-UM","2018/09/01 20:09:56","新北市新店區明德路11號","121.542281666667","24.9767166666667","6500600","新店區"
"231045","617-UM","2018/09/01 20:09:36","新北市新店區北宜路一段127巷4號","121.54179","24.9529266666667","6500600","新店區"
"231063","641-BX","2018/09/01 20:09:35","新北市新店區黎明路53巷1號","121.50232","24.9488016666667","6500600","新店區"
"231068","718-UY","2018/09/01 20:09:38","新北市新店區中興路三段88號","121.545295","24.9789233333333","6500600","新店區"
"231062","720-UM","2018/09/01 20:09:53","新北市新店區安康路二段66號","121.514771666667","24.9636316666667","6500600","新店區"
"231043","899-TW","2018/09/01 20:09:46","新北市新店區民族路172號","121.537205","24.9764466666667","6500600","新店區"
"231055","AKT-0513","2018/09/01 20:09:53","新北市新店區北新路一段297巷34號","121.540438333333","24.9683516666667","6500600","新店區"
"241011","013-R5","2018/09/01 20:09:44","新北市三重區仁愛街57號","121.496368333333","25.072105","6500200","三重區"
"241028","022-UY","2018/09/01 20:09:52","新北市三重區仁化街120號","121.494458333333","25.0580866666667","6500200","三重區"
"241008","059-VK","2018/09/01 20:09:36","新北市三重區永福街197巷4號","121.479028333333","25.0744466666667","6500200","三重區"
"241022","060-VK","2018/09/01 20:09:39","新北市三重區新北大道一段58號","121.487335","25.0614383333333","6500200","三重區"
"241031","061-VK","2018/09/01 20:09:42","新北市三重區過圳街9-1號","121.488858333333","25.0599633333333","6500200","三重區"
"241015","062-VK","2018/09/01 20:09:53","新北市三重區福德北路24號","121.502265","25.064865","6500200","三重區"
"241017","063-VK","2018/09/01 20:09:54","新北市三重區長壽西街193號","121.492211666667","25.06621","6500200","三重區"
"241024","065-VK","2018/09/01 20:09:43","新北市三重區中正北路314號","121.479281666667","25.0689633333333","6500200","三重區"
"241026","066-VK","2018/09/01 20:09:45","新北市三重區福德南路61號","121.502408333333","25.0606933333333","6500200","三重區"
"241002","090-VK","2018/09/01 20:09:43","新北市三重區仁忠街23號","121.496703333333","25.082545","6500200","三重區"
"241003","091-VK","2018/09/01 20:09:49","新北市三重區富華街22號","121.489685","25.0825183333333","6500200","三重區"
"241016","266-UM","2018/09/01 20:09:38","新北市三重區中正北路25巷2號","121.493203333333","25.0627133333333","6500200","三重區"
"241009","267-UM","2018/09/01 20:09:39","新北市三重區永福街46-2號","121.481931666667","25.0782033333333","6500200","三重區"
"241018","268-UM","2018/09/01 20:09:51","新北市三重區正義北路256巷146號","121.493106666667","25.0676783333333","6500200","三重區"
"241032","269-UM","2018/09/01 20:09:53","新北市三重區捷運路65號","121.483425","25.055565","6500200","三重區"
"241013","270-UM","2018/09/01 20:09:39","新北市三重區三和路三段151巷39號","121.493686666667","25.0742566666667","6500200","三重區"
"241025","271-UM","2018/09/01 20:09:55","新北市三重區中正北路235號","121.475781666667","25.070705","6500200","三重區"
"241007","398-BY","2018/09/01 20:09:49","新北市三重區三和路四段111-2號","121.48573","25.0772366666667","6500200","三重區"
"241019","413-TH","2018/09/01 20:09:48","新北市三重區自強路二段33巷48號","121.490608333333","25.0699033333333","6500200","三重區"
"241035","462-BY","2018/09/01 20:09:56","新北市三重區平安街7號","121.498786666667","25.0643133333333","6500200","三重區"
"241004","475-VK","2018/09/01 20:09:49","新北市三重區自強路四段80號","121.490595","25.0789533333333","6500200","三重區"
"241020","478-VK","2018/09/01 20:09:55","新北市三重區三和路三段158號","121.492863333333","25.0730266666667","6500200","三重區"
"241030","480-VK","2018/09/01 20:09:43","新北市三重區集美街75巷27號","121.488003333333","25.0529916666667","6500200","三重區"
"241014","543-UM","2018/09/01 20:09:54","新北市三重區長樂街100號","121.501421666667","25.0695516666667","6500200","三重區"
"241023","545-UM","2018/09/01 20:09:46","新北市三重區頂崁街220巷2號","121.476896666667","25.0680966666667","6500200","三重區"
"241001","547-UM","2018/09/01 20:09:44","新北市三重區三和路四段89巷38號","121.490653333333","25.0762633333333","6500200","三重區"
"241033","557-UM","2018/09/01 20:09:40","新北市三重區光復路一段61巷21號","121.473115","25.0492366666667","6500200","三重區"
"241006","AAD-863","2018/09/01 20:09:53","新北市三重區車路頭街139巷14號","121.48428","25.0762116666667","6500200","三重區"
"241005","887-TS","2018/09/01 20:09:34","新北市三重區溪尾街327號","121.488426666667","25.0847766666667","6500200","三重區"
"241012","941-UM","2018/09/01 20:09:43","新北市三重區仁福街64巷32號","121.497471666667","25.07565","6500200","三重區"
"241029","942-UM","2018/09/01 20:09:34","新北市三重區光明路32巷32號","121.492078333333","25.0588483333333","6500200","三重區"
"235066","003-UY","2018/09/01 20:09:35","新北市中和區保平路231號","121.507988333333","25.00436","6500300","中和區"
"235039","097-UM","2018/09/01 20:09:46","新北市中和區立人街8-4號","121.519545","24.9942066666667","6500300","中和區"
"235065","098-UM","2018/09/01 20:09:49","新北市中和區福祥路85巷15號","121.498305","25.00552","6500300","中和區"
"235040","150-BY","2018/09/01 20:09:46","新北市中和區保健路33巷7號","121.509091666667","24.997995","6500300","中和區"
"235058","151-BY","2018/09/01 20:09:40","新北市中和區員山路104號","121.481045","24.9954583333333","6500300","中和區"
"247010","KEA-2869","2018/09/01 20:09:35","新北市蘆洲區集賢路400號","121.480196666667","25.082025","6501400","蘆洲區"
"235050","4979-A6","2018/09/01 20:09:54","新北市中和區安樂路1號","121.511498333333","24.9918683333333","6500300","中和區"
"235069","4980-A6","2018/09/01 20:09:44","新北市中和區景新街132巷8-4號","121.504651666667","24.99813","6500300","中和區"
"235070","558-UM","2018/09/01 20:09:36","新北市中和區永和路103巷17號","121.495128333333","25.0073016666667","6500300","中和區"
"235054","640-BX","2018/09/01 20:09:38","新北市板橋區民生路三段64號","121.466858333333","25.0253983333333","6500300","中和區"
"235048","896-TW","2018/09/01 20:09:44","新北市中和區景新街447-1號","121.51313","24.9886016666667","6500300","中和區"
"235051","157-BY","2018/09/01 20:09:46","新北市中和區景安路220巷1弄2號","121.503303333333","24.9909516666667","6500300","中和區"
"235037","AAC-213","2018/09/01 20:09:56","新北市中和區自強路64號","121.5201","24.9943866666667","6500300","中和區"
"235059","AAC-215","2018/09/01 20:09:55","新北市中和區圓通路335巷37弄12號","121.493666666667","24.98885","6500300","中和區"
"220086","073-UY","2018/09/01 20:09:39","新北市八里區商港路50號","121.395701666667","25.145785","6500100","板橋區"
"247024","893-R6","2018/09/01 20:09:53","新北市蘆洲區光榮路118-2號","121.464983333333","25.088915","6501400","蘆洲區"
"247014","546-UM","2018/09/01 20:09:53","新北市蘆洲區中山二路253號","121.469991666667","25.0798116666667","6501400","蘆洲區"
"247022","500-BY","2018/09/01 20:09:43","新北市蘆洲區三民路169號","121.471096666667","25.0870616666667","6501400","蘆洲區"
"247012","339-TH","2018/09/01 20:09:42","新北市蘆洲區民族路252號","121.479105","25.0887283333333","6501400","蘆洲區"
"247004","337-TH","2018/09/01 20:09:46","新北市蘆洲區永安南路二段328巷17弄11號","121.456145","25.0838833333333","6501400","蘆洲區"
"247006","336-TH","2018/09/01 20:09:39","新北市蘆洲區中山二路288號","121.468943333333","25.0777383333333","6501400","蘆洲區"
"247018","057-VK","2018/09/01 20:09:47","新北市蘆洲區民族路314巷11-2號","121.47798","25.0907066666667","6501400","蘆洲區"
"247008","056-VK","2018/09/01 20:09:34","新北市蘆洲區中山一路135巷6弄23號","121.47506","25.0809466666667","6501400","蘆洲區"
"247016","007-UY","2018/09/01 20:09:50","新北市蘆洲區光華路167號","121.465083333333","25.0820083333333","6501400","蘆洲區"
"247002","002-UY","2018/09/01 20:09:45","新北市蘆洲區永康街2巷6號","121.459303333333","25.086125","6501400","蘆洲區"
"247020","001-UY","2018/09/01 20:09:47","新北市蘆洲區民義街68巷5號","121.473636666667","25.08952","6501400","蘆洲區"
"226004","312-R5","2018/09/01 20:09:51","新北市平溪區十分里十分街311號","121.775163333333","25.043475","6502400","平溪區"
"224010","AGQ-8101","2018/09/01 20:09:54","新北市瑞芳區基山街125號","121.844108333333","25.1085266666667","6501200","瑞芳區"
"222001","KEA-2212","2018/09/01 20:09:34","新北市深坑區北深路三段208號","121.601271666667","25.003775","6501800","深坑區"
"208002","KEA-2872","2018/09/01 20:09:51","新北市金山區中正路141巷8號","121.632165","25.2208183333333","6502700","金山區"
"208003","665-BX","2018/09/01 20:09:45","新北市金山區海興路1-3號","121.63395","25.2444833333333","6502700","金山區"
"208001","761-BX","2018/09/01 20:09:16","新北市金山區南勢110號","121.625413333333","25.2201016666667","6502700","金山區"
"251009","008-UM","2018/09/01 20:09:42","新北市淡水區清水街9-3號","121.444816666667","25.1703333333333","6501000","淡水區"
"251001","011-UM","2018/09/01 20:09:42","新北市淡水區淡金路二段599號","121.445983333333","25.1924966666667","6501000","淡水區"
"251013","KEA-2871","2018/09/01 20:09:52","新北市淡水區下圭柔山29-1號","121.454931666667","25.205505","6501000","淡水區"
"251016","179-VK","2018/09/01 20:09:56","新北市淡水區番子田18-1號","121.456896666667","25.2293416666667","6501000","淡水區"
"251014","180-VK","2018/09/01 20:09:39","新北市淡水區石頭厝1號","121.458738333333","25.2355183333333","6501000","淡水區"
"251015","181-VK","2018/09/01 20:09:41","新北市淡水區埤島76-2號","121.451796666667","25.1929416666667","6501000","淡水區"
"251010","413-VK","2018/09/01 20:09:50","新北市淡水區新市五路一段152號","121.426053333333","25.19874","6501000","淡水區"
"251012","441-VK","2018/09/01 20:09:34","新北市淡水區淡金路三段347號","121.448855","25.2067533333333","6501000","淡水區"
"251008","442-VK","2018/09/01 20:09:39","新北市淡水區淡海路72巷28弄1號","121.424211666667","25.18214","6501000","淡水區"
"251004","443-VK","2018/09/01 20:09:37","新北市淡水區民族路31-16號","121.461715","25.13658","6501000","淡水區"
"251006","561-UM","2018/09/01 20:09:42","新北市淡水區北新路141巷29號","121.44813","25.179615","6501000","淡水區"
"251002","672-BX","2018/09/01 20:09:53","新北市淡水區中正路21巷1-10號","121.43627","25.1728083333333","6501000","淡水區"
"251003","673-BX","2018/09/01 20:09:41","新北市淡水區中山北路二段189巷15弄31號","121.443448333333","25.18413","6501000","淡水區"
"207003","550-UM","2018/09/01 20:09:41","新北市萬里區大鵬里萬里加投172號","121.643195","25.2157533333333","6502800","萬里區"
"207004","225-TW","2018/09/01 20:09:39","新北市萬里區北基里愛三街11號","121.681776666667","25.17664","6502800","萬里區"
"252002","178-VK","2018/09/01 20:09:52","新北市三芝區中正路一段72號","121.503945","25.25769","6502100","三芝區"
"252001","292-VK","2018/09/01 20:09:35","新北市三芝區長安街89號","121.499635","25.2575683333333","6502100","三芝區"
"237007","153-BY","2018/09/01 20:09:46","新北市三峽區二鬮路136巷24弄69號","121.357546666667","24.910535","6500900","三峽區"
"237012","275-BY","2018/09/01 20:09:39","新北市三峽區中華路74-5號","121.37155","24.929195","6500900","三峽區"
"237006","5529-G3","2018/09/01 20:09:39","新北市三峽區嘉添105號","121.36973","24.9096","6500900","三峽區"
"237005","AKY-6261","2018/09/01 20:09:42","新北市三峽區三樹路98巷121號","121.382745","24.9386933333333","6500900","三峽區"
"236070","105-UM","2018/09/01 20:09:45","新北市土城區中央路三段185-6號","121.43178","24.964815","6501300","土城區"
"236042","107-UM","2018/09/01 20:09:48","新北市土城區學成路10號","121.453353333333","24.98655","6501300","土城區"
"236079","166-UM","2018/09/01 20:09:51","新北市土城區中山路47號","121.420606666667","24.9630466666667","6501300","土城區"
"236030","253-BX","2018/09/01 20:09:50","新北市土城區中央路一段143巷2弄1號","121.447003333333","24.98776","6501300","土城區"
"236026","269-VK","2018/09/01 20:09:44","新北市土城區裕生路83巷16弄2號","121.447166666667","24.9840866666667","6501300","土城區"
"236014","270-VK","2018/09/01 20:09:55","新北市土城區德興街137號","121.455146666667","24.9916766666667","6501300","土城區"
"236038","271-VK","2018/09/01 20:09:48","新北市土城區延吉街353巷10號","121.464473333333","24.9834866666667","6501300","土城區"
"236021","401-BY","2018/09/01 20:09:50","新北市土城區延吉街23巷17號","121.474145","24.9875966666667","6501300","土城區"
"236059","912-UM","2018/09/01 20:09:42","新北市土城區中央路二段392-1號","121.439688333333","24.9708883333333","6501300","土城區"
"236049","913-UM","2018/09/01 20:09:53","新北市土城區清水路237號","121.46129","24.9829666666667","6501300","土城區"
"236063","915-UM","2018/09/01 20:09:49","新北市土城區延和路14號","121.46407","24.98781","6501300","土城區"
"236055","AAC-216","2018/09/01 20:09:52","新北市土城區中華路一段30號","121.447053333333","24.9898983333333","6501300","土城區"
"242034","AAC-296","2018/09/01 20:09:51","新北市新莊區建中街81巷10弄14號","121.446723333333","25.0359466666667","6500500","新莊區"
"242058","986-R7","2018/09/01 20:09:43","新北市新莊區八德街167號","121.423408333333","25.01912","6500500","新莊區"
"242053","751-BX","2018/09/01 20:09:43","新北市新莊區西盛街385號","121.42807","25.013005","6500500","新莊區"
"242027","615-BX","2018/09/01 20:09:34","新北市新莊區幸福路732號","121.448671666667","25.0491783333333","6500500","新莊區"
"242025","613-BX","2018/09/01 20:09:50","新北市新莊區五權一路12巷25弄20號","121.458518333333","25.0643716666667","6500500","新莊區"
"242042","566-BX","2018/09/01 20:09:37","新北市新莊區青山路一段200-4號","121.39777","25.0317533333333","6500500","新莊區"
"242046","497-BY","2018/09/01 20:09:37","新北市新莊區裕民街105號","121.41835","25.0230233333333","6500500","新莊區"
"242056","440-UM","2018/09/01 20:09:45","新北市新莊區新莊路649巷15弄13號","121.445573333333","25.0315533333333","6500500","新莊區"
"242036","415-TV","2018/09/01 20:09:53","新北市新莊區建安街9巷11號","121.42943","25.0267433333333","6500500","新莊區"
"242007","413-TV","2018/09/01 20:09:37","新北市新莊區福壽街164巷20號","121.459293333333","25.0527916666667","6500500","新莊區"
"242044","400-BY","2018/09/01 20:09:41","新北市新莊區中正路929巷7弄26號","121.411706666667","25.01988","6500500","新莊區"
"242023","362-BY","2018/09/01 20:09:52","新北市新莊區化成路648號","121.466045","25.0555883333333","6500500","新莊區"
"242061","353-BY","2018/09/01 20:09:52","新北市新莊區瓊林路100巷1號","121.443486666667","25.0264283333333","6500500","新莊區"
"242009","132-UY","2018/09/01 20:09:47","新北市新莊區昌盛街35巷4弄1號","121.45412","25.050535","6500500","新莊區"
"242039","133-UY","2018/09/01 20:09:49","新北市新莊區民安西路104號","121.426638333333","25.0190066666667","6500500","新莊區"
"242031","135-UY","2018/09/01 20:09:50","新北市新莊區中正路449號","121.443095","25.0339633333333","6500500","新莊區"
"242048","172-VK","2018/09/01 20:09:45","新北市新莊區四維路152巷32號","121.421858333333","25.02243","6500500","新莊區"
"242017","175-VK","2018/09/01 20:09:40","新北市新莊區中港路340號","121.452011666667","25.0460266666667","6500500","新莊區"
"242015","346-TH","2018/09/01 20:09:15","新北市新莊區中平路26巷32號","121.446188333333","25.04318","6500500","新莊區"
"242021","348-TH","2018/09/01 20:09:39","新北市新莊區中興街15巷1號","121.44892","25.03612","6500500","新莊區"
"242002","349-TH","2018/09/01 20:09:39","新北市新莊區中正路121-1號","121.459933333333","25.038525","6500500","新莊區"
"242019","350-TH","2018/09/01 20:09:45","新北市新莊區博愛路1巷2號","121.45651","25.0427516666667","6500500","新莊區"
"242013","351-TH","2018/09/01 20:09:51","新北市新莊區幸福路710巷1弄2號","121.449628333333","25.0496733333333","6500500","新莊區"
"221008","489-VK","2018/09/01 20:09:41","台北市內湖區康樂街193-2號","121.620531666667","25.07582","6501100","汐止區"
"221036","130-UY","2018/09/01 20:09:39","新北市汐止區仁愛路143號","121.663378333333","25.064355","6501100","汐止區"
"221015","131-UY","2018/09/01 20:09:42","新北市汐止區建成路15號","121.664513333333","25.0725116666667","6501100","汐止區"
"221010","269-BY","2018/09/01 20:09:54","新北市汐止區八連路一段215號","121.640658333333","25.081415","6501100","汐止區"
"221012","278-VK","2018/09/01 20:09:52","新北市汐止區汐平路二段49-2號","121.696771666667","25.0628866666667","6501100","汐止區"
"221023","279-VK","2018/09/01 20:09:44","新北市汐止區明峰街298巷4號","121.62511","25.0682916666667","6501100","汐止區"
"221032","280-BY","2018/09/01 20:09:50","新北市汐止區弘道街8巷5弄6號","121.617353333333","25.04785","6501100","汐止區"
"221027","281-BY","2018/09/01 20:09:38","新北市汐止區光明街28號","121.66015","25.068535","6501100","汐止區"
"221029","298-VK","2018/09/01 20:09:46","新北市汐止區樟樹一路119巷10弄1號","121.641226666667","25.0645183333333","6501100","汐止區"
"221021","299-VK","2018/09/01 20:09:42","新北市汐止區連興街120號","121.653715","25.0623866666667","6501100","汐止區"
"221031","353-TW","2018/09/01 20:09:50","新北市汐止區原興路74巷1號","121.632043333333","25.0662466666667","6501100","汐止區"
"221035","622-UM","2018/09/01 20:09:55","新北市汐止區長江街67巷2弄1號","121.65671","25.07231","6501100","汐止區"
"221025","623-UM","2018/09/01 20:09:53","新北市汐止區仁愛路1-2號","121.658981666667","25.0646066666667","6501100","汐止區"
"221038","646-BX","2018/09/01 20:09:37","新北市汐止區大同路三段41號","121.666836666667","25.0764016666667","6501100","汐止區"
"221033","647-BX","2018/09/01 20:09:37","新北市汐止區東勢街201巷104號","121.633558333333","25.042955","6501100","汐止區"
"221018","753-BX","2018/09/01 20:09:49","新北市汐止區茄福街35巷13號","121.67299","25.06668","6501100","汐止區"
"220079","145-BY","2018/09/01 20:09:41","新北市板橋區僑中一街124巷72-3號","121.448406666667","25.017175","6500100","板橋區"
"220080","200-UY","2018/09/01 20:09:33","新北市板橋區大觀路二段153巷44弄53號","121.446036666667","24.9989733333333","6500100","板橋區"
"220082","610-BX","2018/09/01 20:09:36","新北市板橋區溪城路89號","121.426905","24.98318","6500100","板橋區"
"220101","245-BX","2018/09/01 20:08:52","新北市板橋區雙十路二段47巷8弄6號","121.474705","25.025795","6500100","板橋區"
"220089","280-UM","2018/09/01 20:09:47","新北市板橋區互助街9號","121.46313","25.0276183333333","6500100","板橋區"
"220083","286-VK","2018/09/01 20:09:34","新北市板橋區大觀路一段38巷156弄168號","121.444265","25.0094916666667","6500100","板橋區"
"220081","287-VK","2018/09/01 20:09:47","新北市板橋區僑中一街102巷5弄5號","121.446521666667","25.0126283333333","6500100","板橋區"
"220061","295-UM","2018/09/01 20:09:40","新北市板橋區新民街45號","121.46394","25.010915","6500100","板橋區"
"242011","281-VK","2018/09/01 20:09:40","新北市新莊區中信街67巷9號","121.448606666667","25.0507233333333","6500500","新莊區"
"220092","307-R5","2018/09/01 20:09:44","新北市板橋區文化路一段55號","121.460766666667","25.013505","6500100","板橋區"
"220098","317-R6","2018/09/01 20:09:44","新北市板橋區新海路72巷5弄17號","121.461703333333","25.0226833333333","6500100","板橋區"
"220064","486-VK","2018/09/01 20:09:49","新北市板橋區長安街331巷67-4號","121.472691666667","25.0130666666667","6500100","板橋區"
"241031","AAD-800","2018/09/01 20:05:07","新北市板橋區民生路二段89-6號","121.470756666667","25.01902","6500200","三重區"
"220088","491-VK","2018/09/01 20:09:48","新北市板橋區民治街88號","121.479313333333","25.031875","6500100","板橋區"
"220035","560-BX","2018/09/01 20:09:55","新北市板橋區新生街44號","121.456656666667","25.0210883333333","6500100","板橋區"
"220103","561-BX","2018/09/01 20:09:52","新北市板橋區陽明街130號","121.463701666667","25.023685","6500100","板橋區"
"220093","689-BX","2018/09/01 20:09:36","新北市板橋區中正路601號","121.457105","25.0294616666667","6500100","板橋區"
"220102","KEA-2699","2018/09/01 20:09:45","新北市板橋區民治街124號","121.477925","25.030955","6500100","板橋區"
"220055","827-TW","2018/09/01 20:09:52","新北市板橋區仁愛路86巷8號","121.461","24.9992516666667","6500100","板橋區"
"220067","829-TW","2018/09/01 20:09:50","新北市板橋區中山路一段206巷71號","121.471571666667","25.0130233333333","6500100","板橋區"
"220068","830-TW","2018/09/01 20:09:44","新北市板橋區中山路二段318巷4號","121.480205","25.0191933333333","6500100","板橋區"
"220074","895-R6","2018/09/01 20:09:50","新北市板橋區館前西路102號","121.457141666667","25.007355","6500100","板橋區"
"220097","AAC-210","2018/09/01 20:09:47","新北市板橋區光正街9巷22弄12號","121.46206","25.0167583333333","6500100","板橋區"
"220070","AAC-253","2018/09/01 20:09:52","新北市板橋區四川路二段245巷55弄1號","121.452456666667","24.9925733333333","6500100","板橋區"
"235068","KEA-2873","2018/09/01 20:09:46","新北市中和區福祥路102號","121.499058333333","25.0060566666667","6500300","中和區"
"235061","KEA-2875","2018/09/01 20:09:27","新北市中和區新生街176巷32號","121.482398333333","24.9996733333333","6500300","中和區"
