"lineid","car","time","location","longitude","latitude","cityid","cityname"
"234081","298-R6","2018/09/01 20:29:18","新北市永和區國中路146號","121.52311","25.0070016666667","6500400","永和區"
"234064","337-UY","2018/09/01 20:29:06","新北市永和區中正路435號","121.517038333333","25.0051016666667","6500400","永和區"
"234086","338-UY","2018/09/01 20:29:08","新北市永和區光復街21號","121.51651","25.0174433333333","6500400","永和區"
"234070","552-UM","2018/09/01 20:29:14","新北市永和區永亨路7號","121.519363333333","25.0056383333333","6500400","永和區"
"234017","745-BX","2018/09/01 20:29:12","新北市永和區仁愛路91號","121.513026666667","25.0130433333333","6500400","永和區"
"234030","746-BX","2018/09/01 20:29:18","新北市永和區民族街81巷60號","121.52014","24.9964683333333","6500400","永和區"
"234054","KEA-2590","2018/09/01 20:29:22","新北市永和區博愛街45巷25弄5號","121.518895","25.0169283333333","6500400","永和區"
"234061","AAD-866","2018/09/01 20:29:04","新北市永和區得和路10號","121.515026666667","25.0005216666667","6500400","永和區"
"234042","862-TW","2018/09/01 20:29:10","新北市永和區安樂路431號","121.514443333333","25.0042133333333","6500400","永和區"
"234050","863-TW","2018/09/01 20:29:20","新北市永和區新生路191號","121.506773333333","25.0142933333333","6500400","永和區"
"234026","9371-KE","2018/09/01 20:29:18","新北市永和區中山路一段76號","121.51231","25.01078","6500400","永和區"
"249001","173-UM","2018/09/01 20:29:25","新北市八里區商港路40號","121.39642","25.1450916666667","6502300","八里區"
"249004","303-UY","2018/09/01 20:29:21","新北市八里區中山路一段151號","121.41278","25.15893","6502300","八里區"
"249002","305-UY","2018/09/01 20:29:12","新北市八里區龍米路二段125巷3號","121.446421666667","25.14496","6502300","八里區"
"249003","593-UM","2018/09/01 20:29:24","新北市八里區華峰一街26號","121.3991","25.146595","6502300","八里區"
"248002","678-BX","2018/09/01 20:29:08","新北市五股區成泰路三段17-1號","121.441656666667","25.0880683333333","6501500","五股區"
"234023","9380-KE","2018/09/01 20:29:16","新北市永和區光復街2巷16弄38號","121.518185","25.0162916666667","6500400","永和區"
"234074","AAC-211","2018/09/01 20:29:25","新北市永和區福和路10巷15號","121.524265","25.0093316666667","6500400","永和區"
"234067","AAC-212","2018/09/01 20:29:15","新北市永和區保平路292巷46弄2號","121.507465","25.0053016666667","6500400","永和區"
"234003","AAC-295","2018/09/01 20:29:10","新北市永和區中正路618號","121.517098333333","25.007705","6500400","永和區"
"243013","AAD-798","2018/09/01 20:29:20","新北市泰山區貴子路9巷6-1號","121.425541666667","25.04236","6501600","泰山區"
"243009","297-R6","2018/09/01 20:29:06","新北市泰山區忠孝街40巷5號","121.428443333333","25.065315","6501600","泰山區"
"243016","KEA-2801","2018/09/01 20:29:13","新北市泰山區新生路23號","121.427175","25.045535","6501600","泰山區"
"243015","421-VK","2018/09/01 20:29:06","新北市泰山區泰林路二段177號","121.433605","25.06087","6501600","泰山區"
"243011","KEA-2215","2018/09/01 20:29:25","新北市泰山區貴陽街55號","121.422988333333","25.0326633333333","6501600","泰山區"
"243010","KEA-2216","2018/09/01 20:29:26","新北市泰山區明志路二段273巷16弄14號","121.427788333333","25.0467116666667","6501600","泰山區"
"243012","646-TV","2018/09/01 20:29:16","新北市泰山區楓江路39-2號","121.435088333333","25.06246","6501600","泰山區"
"243014","680-BX","2018/09/01 20:29:07","新北市泰山區泰林路二段2-10號","121.41991","25.0649616666667","6501600","泰山區"
"222003","436-BY","2018/09/01 20:29:11","新北市深坑區深坑街27號","121.616018333333","25.0023133333333","6501800","深坑區"
"222002","659-BX","2018/09/01 20:25:07","新北市深坑區萬福路16巷3號","121.602871666667","25.0080283333333","6501800","深坑區"
"231061","001-UM","2018/09/01 20:29:25","新北市新店區安興路141號","121.516541666667","24.9793366666667","6500600","新店區"
"231041","002-UM","2018/09/01 20:29:07","新北市新店區中正路501-4號","121.533611666667","24.9837966666667","6500600","新店區"
"231059","046-UY","2018/09/01 20:29:20","新北市新店區安德街173號","121.508736666667","24.9588466666667","6500600","新店區"
"231040","047-UY","2018/09/01 20:29:17","新北市新店區中正路327號","121.536275","24.9751566666667","6500600","新店區"
"231044","106-UY","2018/09/01 20:29:19","新北市新店區建國路148號","121.538855","24.9790866666667","6500600","新店區"
"231052","108-UY","2018/09/01 20:29:24","新北市新店區松林路36號","121.54623","24.9102633333333","6500600","新店區"
"231064","110-UY","2018/09/01 20:29:16","新北市新店區永安街93號","121.520293333333","24.98627","6500600","新店區"
"231048","187-VK","2018/09/01 20:29:16","新北市新店區寶慶街58巷21-1號","121.541993333333","24.9873033333333","6500600","新店區"
"231054","KEA-2219","2018/09/01 20:29:23","新北市新店區檳榔路109號","121.544521666667","24.9616416666667","6500600","新店區"
"231057","256-BX","2018/09/01 20:29:05","新北市新店區花園五路二段1號","121.553548333333","24.9341733333333","6500600","新店區"
"231042","268-BY","2018/09/01 20:29:08","新北市新店區寶橋路78巷2-1號","121.546915","24.9746916666667","6500600","新店區"
"231051","278-BY","2018/09/01 20:29:09","新北市新店區中央七街21號","121.529841666667","24.9751666666667","6500600","新店區"
"231050","AAD-862","2018/09/01 20:29:25","新北市新店區建國路85號","121.540438333333","24.976515","6500600","新店區"
"231060","355-BY","2018/09/01 20:29:13","新北市新店區錦秀路55號","121.479098333333","24.94336","6500600","新店區"
"231058","3713-VJ","2018/09/01 20:29:17","新北市新店區自由街53號","121.534475","24.97357","6500600","新店區"
"231066","4716-K9","2018/09/01 20:29:13","新北市新店區安興路105號","121.514755","24.9778183333333","6500600","新店區"
"231056","4715-K9","2018/09/01 20:29:16","新北市新店區中央路200號","121.530598333333","24.9742966666667","6500600","新店區"
"231067","4772-VM","2018/09/01 20:29:11","新北市新店區安華路28-1號","121.519825","24.960725","6500600","新店區"
"231065","512-UM","2018/09/01 20:29:07","新北市新店區安祥路102巷28號","121.484111666667","24.96399","6500600","新店區"
"231049","513-UM","2018/09/01 20:29:15","新北市新店區安康路一段20號","121.530988333333","24.9610266666667","6500600","新店區"
"231045","617-UM","2018/09/01 20:29:16","新北市新店區新坡一街2號","121.548188333333","24.9604716666667","6500600","新店區"
"231063","641-BX","2018/09/01 20:29:15","新北市新店區玫瑰路4-1號","121.493586666667","24.95139","6500600","新店區"
"231068","718-UY","2018/09/01 20:29:18","新北市新店區中興路三段238號","121.543186666667","24.983535","6500600","新店區"
"231062","720-UM","2018/09/01 20:29:13","新北市新店區安泰路7巷16號","121.485691666667","24.9509733333333","6500600","新店區"
"231043","899-TW","2018/09/01 20:29:06","新北市新店區民族路60號","121.539725","24.9784283333333","6500600","新店區"
"241011","013-R5","2018/09/01 20:29:24","新北市三重區龍門路42號","121.496025","25.072455","6500200","三重區"
"241028","022-UY","2018/09/01 20:29:12","新北市三重區光興街91號","121.497396666667","25.0598716666667","6500200","三重區"
"241008","059-VK","2018/09/01 20:29:17","新北市三重區下竹圍街91號","121.481123333333","25.0748766666667","6500200","三重區"
"241022","060-VK","2018/09/01 20:29:20","新北市三重區民生街61巷18弄2號","121.487795","25.0630583333333","6500200","三重區"
"241031","061-VK","2018/09/01 20:29:22","新北市三重區三寧街15號","121.489471666667","25.059765","6500200","三重區"
"241015","062-VK","2018/09/01 20:29:13","新北市三重區文化北路90號","121.498723333333","25.0658133333333","6500200","三重區"
"241017","063-VK","2018/09/01 20:29:14","新北市三重區自強路一段290號","121.491466666667","25.0682816666667","6500200","三重區"
"241024","065-VK","2018/09/01 20:29:16","新北市三重區中正北路276巷14號","121.480526666667","25.0678666666667","6500200","三重區"
"241026","066-VK","2018/09/01 20:29:25","新北市三重區福德南路33號","121.502708333333","25.0625133333333","6500200","三重區"
"241002","090-VK","2018/09/01 20:29:23","新北市三重區仁義街211巷53號","121.498256666667","25.08267","6500200","三重區"
"241003","091-VK","2018/09/01 20:27:29","新北市三重區富華街125號","121.492581666667","25.0844983333333","6500200","三重區"
"241016","266-UM","2018/09/01 20:29:17","新北市三重區正義北路75號","121.497143333333","25.0648533333333","6500200","三重區"
"241009","267-UM","2018/09/01 20:29:20","新北市三重區永福街52號","121.481573333333","25.078075","6500200","三重區"
"241018","268-UM","2018/09/01 20:29:23","新北市三重區正義北路222號","121.496098333333","25.0678033333333","6500200","三重區"
"241032","269-UM","2018/09/01 20:29:13","新北市三重區重陽路一段120巷48號","121.485063333333","25.0601483333333","6500200","三重區"
"241013","270-UM","2018/09/01 20:29:19","新北市三重區溪尾街3號","121.491736666667","25.074285","6500200","三重區"
"241025","271-UM","2018/09/01 20:29:15","新北市三重區頂崁街210巷23弄1號","121.475891666667","25.0681816666667","6500200","三重區"
"241007","398-BY","2018/09/01 20:29:09","新北市三重區自強路四段22號","121.488608333333","25.0764733333333","6500200","三重區"
"241019","413-TH","2018/09/01 20:29:08","新北市三重區重陽路四段79號","121.492636666667","25.0708516666667","6500200","三重區"
"241035","462-BY","2018/09/01 20:29:14","新北市三重區正義北路98號","121.497005","25.0649566666667","6500200","三重區"
"241004","475-VK","2018/09/01 20:29:08","新北市三重區溪尾街238號","121.487666666667","25.0818383333333","6500200","三重區"
"241020","478-VK","2018/09/01 20:29:26","新北市三重區三和路三段142號","121.493428333333","25.0726833333333","6500200","三重區"
"241030","480-VK","2018/09/01 20:29:17","新北市三重區成功路60號","121.488655","25.0509116666667","6500200","三重區"
"241014","543-UM","2018/09/01 20:29:16","新北市三重區長興街109號","121.501973333333","25.06921","6500200","三重區"
"241023","545-UM","2018/09/01 20:29:26","新北市三重區自由街16號","121.479826666667","25.0664716666667","6500200","三重區"
"241001","547-UM","2018/09/01 20:29:24","新北市三重區溪尾街56號","121.490458333333","25.0777883333333","6500200","三重區"
"241033","557-UM","2018/09/01 20:29:20","新北市三重區五谷王北街80巷59號","121.474651666667","25.05317","6500200","三重區"
"241006","AAD-863","2018/09/01 20:29:13","新北市三重區車路頭街139巷14號","121.484316666667","25.076245","6500200","三重區"
"241005","887-TS","2018/09/01 20:29:14","新北市三重區碧華街317號","121.491018333333","25.084255","6500200","三重區"
"241012","941-UM","2018/09/01 20:29:23","新北市三重區龍濱路257號","121.501486666667","25.0728766666667","6500200","三重區"
"241029","942-UM","2018/09/01 20:29:14","新北市三重區集美街116號","121.488846666667","25.0539883333333","6500200","三重區"
"235066","003-UY","2018/09/01 20:29:15","新北市中和區光華街31巷22弄28號","121.505918333333","25.0043333333333","6500300","中和區"
"235065","098-UM","2018/09/01 20:29:09","新北市中和區永和路67-1號","121.496543333333","25.0053816666667","6500300","中和區"
"247010","KEA-2869","2018/09/01 20:29:15","新北市蘆洲區信義路222巷57號","121.480976666667","25.0854516666667","6501400","蘆洲區"
"235050","4979-A6","2018/09/01 20:29:22","新北市中和區景新街162號","121.505738333333","24.9972066666667","6500300","中和區"
"235069","4980-A6","2018/09/01 20:29:24","新北市中和區中正路450號","121.490888333333","24.99421","6500300","中和區"
"235059","AAC-215","2018/09/01 20:29:15","新北市中和區員山路8-6號","121.484826666667","24.9813666666667","6500300","中和區"
"247024","893-R6","2018/09/01 20:29:14","新北市蘆洲區光復路70巷16號","121.46464","25.0850733333333","6501400","蘆洲區"
"247014","546-UM","2018/09/01 20:29:13","新北市蘆洲區中山二路135號","121.472013333333","25.0815933333333","6501400","蘆洲區"
"247022","500-BY","2018/09/01 20:29:23","新北市蘆洲區中正路313巷1號","121.466441666667","25.0884566666667","6501400","蘆洲區"
"247012","339-TH","2018/09/01 20:29:21","新北市蘆洲區復興路252號","121.479848333333","25.0896533333333","6501400","蘆洲區"
"247004","337-TH","2018/09/01 20:29:06","新北市蘆洲區長安街297號","121.458035","25.08488","6501400","蘆洲區"
"247006","336-TH","2018/09/01 20:29:19","新北市蘆洲區九芎街90巷6號","121.466041666667","25.0802083333333","6501400","蘆洲區"
"247018","057-VK","2018/09/01 20:29:07","新北市蘆洲區民族路327巷3號","121.47446","25.0910383333333","6501400","蘆洲區"
"247008","056-VK","2018/09/01 20:29:14","新北市蘆洲區永安北路二段76巷8號","121.48323","25.0849683333333","6501400","蘆洲區"
"247016","007-UY","2018/09/01 20:29:10","新北市蘆洲區光華路96號","121.467536666667","25.0825966666667","6501400","蘆洲區"
"247002","002-UY","2018/09/01 20:29:24","新北市蘆洲區長安街361巷36號","121.45566","25.0875433333333","6501400","蘆洲區"
"247020","001-UY","2018/09/01 20:29:27","新北市蘆洲區仁愛街134號","121.469076666667","25.094465","6501400","蘆洲區"
"224010","AGQ-8101","2018/09/01 20:29:08","新北市瑞芳區輕便路81號","121.84504","25.1092633333333","6501200","瑞芳區"
"222001","KEA-2212","2018/09/01 20:29:14","新北市深坑區北深路三段329號","121.597275","25.005065","6501800","深坑區"
"251009","008-UM","2018/09/01 20:29:22","新北市淡水區中正東路二段37號","121.459048333333","25.1563516666667","6501000","淡水區"
"251001","011-UM","2018/09/01 20:29:22","新北市淡水區水源街二段177巷2弄8號","121.455865","25.17694","6501000","淡水區"
"251013","KEA-2871","2018/09/01 20:29:18","新北市淡水區奎柔山路460號","121.463846666667","25.2046666666667","6501000","淡水區"
"251016","179-VK","2018/09/01 20:29:16","新北市淡水區新埔子11-7號","121.44745","25.22849","6501000","淡水區"
"251014","180-VK","2018/09/01 20:29:19","新北市淡水區石頭厝9-3號","121.458421666667","25.2365916666667","6501000","淡水區"
"251015","181-VK","2018/09/01 20:29:21","新北市淡水區興仁路103巷60號","121.449898333333","25.21653","6501000","淡水區"
"251010","413-VK","2018/09/01 20:29:11","新北市淡水區沙崙路181巷1號","121.424083333333","25.1842283333333","6501000","淡水區"
"251012","441-VK","2018/09/01 20:29:14","新北市淡水區興仁路108號","121.451663333333","25.2181633333333","6501000","淡水區"
"251008","442-VK","2018/09/01 20:29:19","新北市淡水區淡海路215號","121.420276666667","25.18522","6501000","淡水區"
"251006","561-UM","2018/09/01 20:29:22","新北市淡水區商工路296號","121.460628333333","25.185985","6501000","淡水區"
"251002","672-BX","2018/09/01 20:29:11","新北市淡水區中正路90-3號","121.442376666667","25.16957","6501000","淡水區"
"251003","673-BX","2018/09/01 20:29:21","新北市淡水區新生街104號","121.43998","25.1747166666667","6501000","淡水區"
"252002","178-VK","2018/09/01 20:29:13","新北市三芝區淡金路二段47-2號","121.5037","25.2605366666667","6502100","三芝區"
"252001","292-VK","2018/09/01 20:29:16","新北市三芝區中山路一段35號","121.500651666667","25.2579616666667","6502100","三芝區"
"242034","AAC-296","2018/09/01 20:29:11","新北市新莊區新泰路199巷6號","121.446713333333","25.0380766666667","6500500","新莊區"
"242058","986-R7","2018/09/01 20:29:23","新北市新莊區四維路147號","121.422653333333","25.0221566666667","6500500","新莊區"
"242053","751-BX","2018/09/01 20:29:03","新北市新莊區西盛街362巷14號","121.427268333333","25.0137533333333","6500500","新莊區"
"242027","615-BX","2018/09/01 20:29:15","新北市新莊區思源路245號","121.459913333333","25.0470116666667","6500500","新莊區"
"242025","613-BX","2018/09/01 20:29:10","新北市新莊區五工三路62巷5號","121.459713333333","25.0646916666667","6500500","新莊區"
"242042","566-BX","2018/09/01 20:29:17","新北市新莊區壽山路61-2號","121.410848333333","25.0326383333333","6500500","新莊區"
"242046","497-BY","2018/09/01 20:29:16","新北市新莊區中正路新雅巷2弄18號","121.417783333333","25.0248833333333","6500500","新莊區"
"242051","441-UM","2018/09/01 20:29:24","新北市新莊區民安西路252巷31號","121.42502","25.0137433333333","6500500","新莊區"
"242056","440-UM","2018/09/01 20:29:25","新北市新莊區瓊泰路152號","121.44316","25.03238","6500500","新莊區"
"242036","415-TV","2018/09/01 20:29:06","新北市新莊區後港一路76巷10弄1號","121.427141666667","25.0259466666667","6500500","新莊區"
"242007","413-TV","2018/09/01 20:29:18","新北市新莊區思源路273號","121.45976","25.04792","6500500","新莊區"
"242044","400-BY","2018/09/01 20:29:21","新北市新莊區中正路新建巷39號","121.41444","25.0217866666667","6500500","新莊區"
"242023","362-BY","2018/09/01 20:29:21","新北市新莊區化成路433-1號","121.464783333333","25.0601683333333","6500500","新莊區"
"242061","353-BY","2018/09/01 20:29:12","新北市新莊區民安路322號","121.428973333333","25.0219633333333","6500500","新莊區"
"242009","132-UY","2018/09/01 20:29:18","新北市新莊區昌盛街81巷2弄1號","121.455488333333","25.050325","6500500","新莊區"
"242039","133-UY","2018/09/01 20:29:09","新北市新莊區成功街18號","121.425245","25.0209833333333","6500500","新莊區"
"242031","135-UY","2018/09/01 20:29:19","新北市新莊區三和路13-20號","121.440763333333","25.0366533333333","6500500","新莊區"
"242048","172-VK","2018/09/01 20:29:25","新北市新莊區富國路51號","121.419383333333","25.0261283333333","6500500","新莊區"
"242017","175-VK","2018/09/01 20:29:20","新北市新莊區中港三街9巷2弄2號","121.451073333333","25.046265","6500500","新莊區"
"242015","346-TH","2018/09/01 20:29:22","新北市新莊區中平路44號","121.444766666667","25.0437916666667","6500500","新莊區"
"242021","348-TH","2018/09/01 20:29:19","新北市新莊區公園路11號","121.448453333333","25.0393433333333","6500500","新莊區"
"242002","349-TH","2018/09/01 20:29:25","新北市新莊區中正路72號","121.458781666667","25.0380116666667","6500500","新莊區"
"242019","350-TH","2018/09/01 20:29:25","新北市新莊區銘德街49巷4弄1號","121.457276666667","25.0430633333333","6500500","新莊區"
"242013","351-TH","2018/09/01 20:29:11","新北市新莊區中平路292巷1弄1號","121.445461666667","25.0517716666667","6500500","新莊區"
"221008","489-VK","2018/09/01 20:29:21","新北市汐止區康寧街706-2號","121.63849","25.0731066666667","6501100","汐止區"
"221036","130-UY","2018/09/01 20:29:19","新北市汐止區忠孝東路225號","121.662386666667","25.0669866666667","6501100","汐止區"
"221015","131-UY","2018/09/01 20:29:22","新北市汐止區建成路160巷16號","121.661866666667","25.07395","6501100","汐止區"
"221010","269-BY","2018/09/01 20:29:09","新北市汐止區八連路二段494號","121.628938333333","25.1061933333333","6501100","汐止區"
"221012","278-VK","2018/09/01 20:29:12","新北市汐止區大同路二段667號","121.664951666667","25.0718166666667","6501100","汐止區"
"221023","279-VK","2018/09/01 20:29:24","新北市汐止區湖東街21號","121.635611666667","25.0725766666667","6501100","汐止區"
"221032","280-BY","2018/09/01 20:29:10","新北市汐止區弘道街53巷22號","121.61877","25.0494133333333","6501100","汐止區"
"221027","281-BY","2018/09/01 20:29:18","新北市汐止區中正路214號","121.65822","25.0688916666667","6501100","汐止區"
"221029","298-VK","2018/09/01 20:29:26","新北市汐止區樟樹一路129巷34弄2號","121.64059","25.06526","6501100","汐止區"
"221021","299-VK","2018/09/01 20:29:22","新北市汐止區水源路一段284號","121.654175","25.0582466666667","6501100","汐止區"
"221031","353-TW","2018/09/01 20:29:10","新北市汐止區福德一路237號","121.634256666667","25.0646966666667","6501100","汐止區"
"221002","129-UY","2018/09/01 20:29:13","新北市汐止區福德一路6號","121.639035","25.069785","6501100","汐止區"
"221035","622-UM","2018/09/01 20:29:16","新北市汐止區長江街101-5號","121.658688333333","25.073285","6501100","汐止區"
"221025","623-UM","2018/09/01 20:29:13","新北市汐止區水源路二段88巷1弄2號","121.656315","25.0558433333333","6501100","汐止區"
"221038","646-BX","2018/09/01 20:29:17","新北市汐止區水源路一段56-1號","121.657176666667","25.0653666666667","6501100","汐止區"
"221033","647-BX","2018/09/01 20:29:17","新北市汐止區林森街124號","121.624523333333","25.0407166666667","6501100","汐止區"
"221018","753-BX","2018/09/01 20:29:10","新北市汐止區茄苳路225巷11弄10號","121.671215","25.0695766666667","6501100","汐止區"
"220101","245-BX","2018/09/01 20:29:12","新北市五股區中直路15-2號","121.42357","25.1109816666667","6500100","板橋區"
"220089","280-UM","2018/09/01 20:29:08","新北市板橋區長江路一段188號","121.462173333333","25.0304","6500100","板橋區"
"220083","286-VK","2018/09/01 20:29:14","新北市板橋區僑中二街108巷24號","121.444831666667","25.0074783333333","6500100","板橋區"
"220061","295-UM","2018/09/01 20:29:20","新北市板橋區大觀路一段28巷1弄94號","121.451745","25.00661","6500100","板橋區"
"242011","281-VK","2018/09/01 20:29:20","新北市新莊區中義街36號","121.450083333333","25.05118","6500500","新莊區"
"241031","AAD-800","2018/09/01 20:23:03","新北市板橋區民生路二段161巷9號","121.470221666667","25.0195033333333","6500200","三重區"
"220088","491-VK","2018/09/01 20:29:08","新北市八里區下罟子5-6號","121.386183333333","25.1456066666667","6500100","板橋區"
"220103","561-BX","2018/09/01 20:29:24","新北市板橋區漢生東路33巷52號","121.466338333333","25.0178783333333","6500100","板橋區"
"220097","AAC-210","2018/09/01 20:29:20","新北市板橋區館前西路166-1號","121.452421666667","25.0085733333333","6500100","板橋區"
"220070","AAC-253","2018/09/01 20:29:12","新北市新莊區中環路三段200號","121.442396666667","25.05465","6500100","板橋區"
