"lineid","car","time","location","longitude","latitude","cityid","cityname"
"234054","KEA-2590","2018/09/01 22:08:54","新北市永和區福和路1號","121.526333333333","25.0098566666667","6500400","永和區"
"247010","KEA-2869","2018/09/01 22:08:55","新北市五股區成泰路三段590-3號","121.453396666667","25.105575","6501400","蘆洲區"
"235010","733-UM","2018/09/01 21:44:43","新北市中和區員山路36巷13號","121.484178333333","24.9908083333333","6500300","中和區"
"251005","010-UM","2018/09/01 22:08:50","新北市淡水區鄧公路19號","121.451368333333","25.1699966666667","6501000","淡水區"
"251010","413-VK","2018/09/01 22:08:50","新北市淡水區沙崙路200號","121.424681666667","25.183935","6501000","淡水區"
"251008","442-VK","2018/09/01 22:08:58","新北市淡水區學府路104號","121.449841666667","25.171835","6501000","淡水區"
"251004","443-VK","2018/09/01 22:08:57","新北市淡水區民族路33號","121.462235","25.1357966666667","6501000","淡水區"
"251007","577-R6","2018/09/01 22:08:41","新北市淡水區北新路186-3號","121.449548333333","25.1787666666667","6501000","淡水區"
"251011","650-BX","2018/09/01 22:08:55","新北市淡水區水碓街15-1號","121.443198333333","25.177215","6501000","淡水區"
"241031","AAD-800","2018/09/01 22:05:47","新北市板橋區民生路二段161巷9號","121.470133333333","25.0194416666667","6500200","三重區"
