"lineid","car","time","location","longitude","latitude","cityid","cityname"
"248010","682-TV","2018/03/29 07:09:34","新北市五股區新五路二段109號","121.437256666667","25.0766783333333","6501500","五股區"
"232001","290-BY","2018/03/29 07:09:29","新北市坪林區桶盤嶼9號","121.707601666667","24.9578","6502000","坪林區"
"232014","291-BY","2018/03/29 07:09:15","新北市坪林區金瓜寮3-1號","121.680873333333","24.91824","6502000","坪林區"
"232010","375-UM","2018/03/29 07:09:18","新北市坪林區水聳淒坑7-3號","121.725565","24.927505","6502000","坪林區"
"232018","705-BZ","2018/03/29 07:09:24","新北市坪林區樟空子1-1號","121.727373333333","24.9670416666667","6502000","坪林區"
"232007","758-BX","2018/03/29 07:09:33","新北市坪林區魚堀52-1號","121.704808333333","24.9315416666667","6502000","坪林區"
"244003","248-BX","2018/03/29 07:09:19","新北市林口區頭湖84-1號","121.368723333333","25.0831433333333","6501700","林口區"
"243005","646-TV","2018/03/29 07:09:17","新北市泰山區明志路一段110號","121.433358333333","25.0637366666667","6501600","泰山區"
"222006","289-BY","2018/03/29 06:57:43","新北市深坑區平埔街14號","121.615571666667","25.0012333333333","6501800","深坑區"
"235044","293-VK","2018/03/29 07:09:29","新北市中和區和平街88號","121.507465","24.9911883333333","6500300","中和區"
"235001","611-BX","2018/03/29 07:09:25","新北市中和區圓通路367巷4號","121.49141","24.9892716666667","6500300","中和區"
"226005","5620-A6","2018/03/29 07:09:14","新北市平溪區菁桐里菁桐街117號","121.724146666667","25.0238633333333","6502400","平溪區"
"226002","7418-A5","2018/03/29 07:09:27","新北市平溪區石底里石筍尖8-2號","121.73566","25.0256","6502400","平溪區"
"226003","AGD-0702","2018/03/29 07:09:17","新北市平溪區靜安路二段486號","121.743358333333","25.0262633333333","6502400","平溪區"
"223006","022-BY","2018/03/29 07:09:26","新北市石碇區新興坑31號","121.649616666667","25.0139983333333","6501900","石碇區"
"223008","406-TH","2018/03/29 07:09:22","新北市石碇區靜安路一段252號","121.677688333333","25.0102333333333","6501900","石碇區"
"223001","592-UM","2018/03/29 07:09:33","新北市石碇區溪邊寮1號","121.658286666667","24.9797716666667","6501900","石碇區"
"223004","660-BX","2018/03/29 07:09:30","新北市石碇區碇坪路一段8號","121.651475","25.00616","6501900","石碇區"
"223007","661-BX","2018/03/29 07:09:16","新北市石碇區蚯蚓坑19-6號","121.686021666667","25.0011766666667","6501900","石碇區"
"223005","677-TV","2018/03/29 07:09:35","新北市石碇區碇坪路一段2號","121.651705","25.0060966666667","6501900","石碇區"
"227007","282-VK","2018/03/29 07:09:27","新北市雙溪區新基里自強路5號","121.866326666667","25.0390283333333","6502500","雙溪區"
"252004","249-BX","2018/03/29 07:09:30","新北市三芝區錫板里小坑子11-1號","121.502048333333","25.23622","6502100","三芝區"
"252007","AAC-283","2018/03/29 07:09:18","新北市三芝區福德里埔尾27號","121.502546666667","25.2401966666667","6502100","三芝區"
"236009","165-UM","2018/03/29 07:09:26","新北市土城區中華路一段108號","121.444315","24.9868816666667","6501300","土城區"
"236003","339-SR","2018/03/29 07:09:27","新北市土城區和平路49號","121.443576666667","24.9720533333333","6501300","土城區"
