"lineid","car","time","location","longitude","latitude","cityid","cityname"
"248010","682-TV","2018/03/29 07:29:34","新北市五股區明德路12巷6號","121.433375","25.071785","6501500","五股區"
"232001","290-BY","2018/03/29 07:29:29","新北市坪林區上坑子口5號","121.699426666667","24.9601316666667","6502000","坪林區"
"232014","291-BY","2018/03/29 07:29:35","新北市坪林區金瓜寮24-3號","121.679788333333","24.9083466666667","6502000","坪林區"
"232010","375-UM","2018/03/29 07:29:18","新北市坪林區水聳淒坑29號","121.711231666667","24.933405","6502000","坪林區"
"232018","705-BZ","2018/03/29 07:29:23","新北市坪林區樟空子4號","121.726628333333","24.9680166666667","6502000","坪林區"
"232007","758-BX","2018/03/29 07:29:33","新北市坪林區魚堀35-1號","121.699546666667","24.929095","6502000","坪林區"
"244003","248-BX","2018/03/29 07:29:19","新北市林口區南福路69號","121.356361666667","25.0786016666667","6501700","林口區"
"243005","646-TV","2018/03/29 07:29:17","新北市泰山區明志路一段108號","121.433451666667","25.0638266666667","6501600","泰山區"
"222006","289-BY","2018/03/29 07:23:23","新北市深坑區文化街37號","121.619036666667","25.001425","6501800","深坑區"
"231069","189-VK","2018/03/29 07:29:27","新北市新店區安華路28-1號","121.51979","24.9614266666667","6500600","新店區"
"235044","293-VK","2018/03/29 07:29:29","新北市中和區和平街29-1號","121.507445","24.9910783333333","6500300","中和區"
"235001","611-BX","2018/03/29 07:29:25","新北市中和區圓通路367巷4號","121.491328333333","24.989245","6500300","中和區"
"226005","5620-A6","2018/03/29 07:29:34","新北市平溪區靜安路二段240號","121.724538333333","25.0220216666667","6502400","平溪區"
"226002","7418-A5","2018/03/29 07:22:47","新北市平溪區望古里灰4-2號","121.76332","25.029415","6502400","平溪區"
"226003","AGD-0702","2018/03/29 07:28:57","新北市平溪區嶺腳里嶺腳寮96號","121.744266666667","25.040205","6502400","平溪區"
"223006","022-BY","2018/03/29 07:29:29","新北市石碇區蚯蚓坑22-1號","121.688131666667","25.0072683333333","6501900","石碇區"
"223001","205-TH","2018/03/29 07:29:21","新北市石碇區中楒子腳2-5號","121.637648333333","24.9725316666667","6501900","石碇區"
"223008","406-TH","2018/03/29 07:24:35","新北市石碇區靜安路一段337號","121.699001666667","25.0147016666667","6501900","石碇區"
"223001","592-UM","2018/03/29 07:29:33","新北市石碇區中楒子腳5號","121.638261666667","24.9730816666667","6501900","石碇區"
"223004","660-BX","2018/03/29 07:29:21","新北市石碇區八分寮56-1號","121.644951666667","25.0177666666667","6501900","石碇區"
"223007","661-BX","2018/03/29 07:29:36","新北市石碇區靜安路一段337號","121.698846666667","25.014595","6501900","石碇區"
"223005","677-TV","2018/03/29 07:29:35","新北市石碇區八分寮43號","121.642358333333","25.0118566666667","6501900","石碇區"
"227007","282-VK","2018/03/29 07:29:27","新北市雙溪區新基里自強路7號","121.866278333333","25.03898","6502500","雙溪區"
"252004","249-BX","2018/03/29 07:29:30","新北市三芝區興華里楓子林50-6號","121.501878333333","25.209785","6502100","三芝區"
"252007","AAC-283","2018/03/29 07:29:18","新北市三芝區古庄里茂興店73-1號","121.493295","25.2637783333333","6502100","三芝區"
"237001","159-UY","2018/03/29 07:29:22","新北市三峽區大義路380號","121.376483333333","24.9486233333333","6500900","三峽區"
"236009","165-UM","2018/03/29 07:29:25","新北市土城區延壽路2巷5號","121.471858333333","24.9904033333333","6501300","土城區"
"236003","339-SR","2018/03/29 07:29:27","新北市土城區南天母路73號","121.446533333333","24.9572466666667","6501300","土城區"
"242052","751-BX","2018/03/29 07:29:30","新北市新莊區新泰路357巷3弄57號","121.442123333333","25.03918","6500500","新莊區"
"242028","705-TV","2018/03/29 07:29:27","新北市新莊區新泰路357巷3弄57號","121.442218333333","25.03921","6500500","新莊區"
"242024","613-BX","2018/03/29 07:29:30","新北市新莊區新泰路255巷83號","121.442248333333","25.0390883333333","6500500","新莊區"
"242040","566-BX","2018/03/29 07:29:23","新北市新莊區新泰路255巷83號","121.442193333333","25.0391133333333","6500500","新莊區"
"242045","497-BY","2018/03/29 07:29:19","新北市新莊區新泰路357巷3弄57號","121.442138333333","25.0394033333333","6500500","新莊區"
"242022","362-BY","2018/03/29 07:29:13","新北市新莊區三和路12-21號","121.442223333333","25.0385","6500500","新莊區"
"242030","135-UY","2018/03/29 07:29:34","新北市新莊區三和路12-21號","121.441981666667","25.03882","6500500","新莊區"
"242016","175-VK","2018/03/29 07:29:28","新北市新莊區三和路12-21號","121.44198","25.0388266666667","6500500","新莊區"
"242014","346-TH","2018/03/29 07:29:17","新北市新莊區三和路12-15號","121.442051666667","25.0373433333333","6500500","新莊區"
"242012","351-TH","2018/03/29 07:29:24","新北市新莊區新泰路357巷3弄57號","121.441938333333","25.03955","6500500","新莊區"
