"lineid","car","time","location","longitude","latitude","cityid","cityname"
"232001","290-BY","2018/12/06 08:48:47","新北市坪林區虎寮潭1號","121.74089","24.9505033333333","6502000","坪林區"
"244022","069-UM","2018/12/06 08:48:57","新北市林口區東明二街61號","121.389741666667","25.0694283333333","6501700","林口區"
"244006","080-UY","2018/12/06 08:48:52","新北市林口區林口路277號","121.386168333333","25.084575","6501700","林口區"
"244003","248-BX","2018/12/06 08:48:56","新北市林口區下福里97號","121.289118333333","25.1172166666667","6501700","林口區"
"244018","402-UM","2018/12/06 08:48:55","新北市林口區忠孝路512巷42號","121.37182","25.0684883333333","6501700","林口區"
"244012","KEA-2802","2018/12/06 08:48:56","新北市林口區佳林路165-2號","121.386313333333","25.079295","6501700","林口區"
"244016","485-VK","2018/12/06 08:49:01","新北市林口區八德路48巷29號","121.367113333333","25.0673416666667","6501700","林口區"
"244008","656-BX","2018/12/06 08:48:57","新北市林口區竹林路606巷24號","121.385425","25.08296","6501700","林口區"
"244010","701-TV","2018/12/06 08:49:01","新北市林口區新生街5號","121.394291666667","25.0769333333333","6501700","林口區"
"244024","837-TS","2018/12/06 08:48:57","新北市林口區南勢四街315號","121.356496666667","25.0746533333333","6501700","林口區"
"244020","838-TS","2018/12/06 08:48:56","新北市林口區自強二街47號","121.398936666667","25.0773866666667","6501700","林口區"
"222006","289-BY","2018/12/06 08:48:44","新北市深坑區風格街31巷46號","121.627006666667","25.0180383333333","6501800","深坑區"
"231069","189-VK","2018/12/06 08:48:59","新北市新店區平廣路二段220號","121.491586666667","24.8963283333333","6500600","新店區"
"231008","192-VK","2018/12/06 08:48:59","新北市新店區廣興路2-1號","121.546413333333","24.9117933333333","6500600","新店區"
"231007","515-UM","2018/12/06 08:49:03","新北市新店區雙峰路12號","121.581091666667","24.9501766666667","6500600","新店區"
"226005","5620-A6","2018/12/06 08:49:06","新北市平溪區十分里十分街156號","121.778045","25.0433683333333","6502400","平溪區"
"226007","7418-A5","2018/12/06 08:49:05","新北市平溪區東勢里芊蓁坑30號","121.727496666667","24.9792066666667","6502400","平溪區"
"226003","AGD-0702","2018/12/06 08:48:51","新北市平溪區十分里十分街246號","121.77755","25.0445266666667","6502400","平溪區"
"223006","022-BY","2018/12/06 08:48:50","新北市深坑區昇高坑路43號","121.629151666667","24.9972016666667","6501900","石碇區"
"223003","205-TH","2018/12/06 08:48:52","新北市石碇區北宜路六段水底寮巷7號","121.664276666667","24.9494033333333","6501900","石碇區"
"223008","406-TH","2018/12/06 08:48:53","新北市石碇區光明路10-3號","121.680823333333","25.0288266666667","6501900","石碇區"
"223004","437-BY","2018/12/06 08:48:51","新北市石碇區崩山53號","121.682256666667","24.9692066666667","6501900","石碇區"
"223001","592-UM","2018/12/06 08:48:52","新北市石碇區北宜路六段水底寮巷6號","121.662213333333","24.9485833333333","6501900","石碇區"
"223005","677-TV","2018/12/06 08:48:54","新北市石碇區崩山53號","121.682361666667","24.9688866666667","6501900","石碇區"
"252004","249-BX","2018/12/06 08:48:52","新北市三芝區興華里田心子15-13號","121.493001666667","25.2042583333333","6502100","三芝區"
"252007","AAC-283","2018/12/06 08:49:09","新北市三芝區錫板里海尾15-11號","121.47676","25.2546966666667","6502100","三芝區"
"242035","AAC-296","2018/12/06 08:49:01","新北市新莊區民安路207巷32弄5號","121.428285","25.0242566666667","6500500","新莊區"
"242057","986-R7","2018/12/06 08:48:54","新北市新莊區中正路887-13號","121.416291666667","25.0243516666667","6500500","新莊區"
"242055","751-BX","2018/12/06 08:48:56","新北市新莊區瓊林路13-3號","121.448726666667","25.0309466666667","6500500","新莊區"
"242026","615-BX","2018/12/06 08:49:01","新北市新莊區立信三街25號","121.442951666667","25.0504266666667","6500500","新莊區"
"242024","613-BX","2018/12/06 08:49:06","新北市新莊區五權一路12巷12號","121.457303333333","25.06459","6500500","新莊區"
"242028","612-BX","2018/12/06 08:49:10","新北市新莊區中榮街152巷38號","121.445611666667","25.0537666666667","6500500","新莊區"
"242043","566-BX","2018/12/06 08:48:52","新北市新莊區龍安路9-5號","121.415105","25.02285","6500500","新莊區"
"242047","497-BY","2018/12/06 08:49:02","新北市新莊區建安街121巷30號","121.426546666667","25.02331","6500500","新莊區"
"242052","441-UM","2018/12/06 08:49:03","新北市新莊區民安西路408號","121.428813333333","25.0098766666667","6500500","新莊區"
"242001","440-UM","2018/12/06 08:49:04","新北市新莊區中正路219號","121.450858333333","25.03579","6500500","新莊區"
"242038","415-TV","2018/12/06 08:48:57","新北市新莊區民安路299巷30號","121.429493333333","25.0232416666667","6500500","新莊區"
"242008","413-TV","2018/12/06 08:48:55","新北市新莊區昌隆街58巷1弄12號","121.455478333333","25.05061","6500500","新莊區"
"242045","400-BY","2018/12/06 08:49:07","新北市新莊區福營路374號","121.420835","25.0264516666667","6500500","新莊區"
"242022","362-BY","2018/12/06 08:49:06","新北市新莊區化成路283號","121.466118333333","25.0546233333333","6500500","新莊區"
"242059","353-BY","2018/12/06 08:48:52","新北市新莊區四維路11號","121.424026666667","25.0240766666667","6500500","新莊區"
"242010","132-UY","2018/12/06 08:49:03","新北市新莊區中港路615巷5號","121.450923333333","25.0532583333333","6500500","新莊區"
"242033","135-UY","2018/12/06 08:49:02","新北市新莊區華興街55號","121.445723333333","25.0365283333333","6500500","新莊區"
"242049","172-VK","2018/12/06 08:49:05","新北市新莊區民安西路196巷21號","121.42502","25.0153766666667","6500500","新莊區"
"242012","173-VK","2018/12/06 08:48:54","新北市新莊區幸福路678巷3弄2號","121.45048","25.0496766666667","6500500","新莊區"
"242018","175-VK","2018/12/06 08:49:02","新北市新莊區長青街35巷1號","121.456748333333","25.0421316666667","6500500","新莊區"
"242016","233-RS","2018/12/06 08:48:52","新北市新莊區中港一街73號","121.449866666667","25.0453283333333","6500500","新莊區"
"242030","348-TH","2018/12/06 08:49:10","新北市新莊區新泰路225巷20號","121.445343333333","25.0392183333333","6500500","新莊區"
"242003","349-TH","2018/12/06 08:49:06","新北市新莊區化成路29巷69號","121.462195","25.0440016666667","6500500","新莊區"
"242020","350-TH","2018/12/06 08:48:53","新北市新莊區建中街48巷6弄1號","121.448318333333","25.037875","6500500","新莊區"
"242014","351-TH","2018/12/06 08:49:02","新北市新莊區中平路26巷15號","121.445491666667","25.0433116666667","6500500","新莊區"
"242040","281-VK","2018/12/06 08:49:02","新北市新莊區天祥街96號","121.415018333333","25.0296133333333","6500500","新莊區"
"220023","303-R5","2018/12/06 08:48:42","新北市樹林區八德街370號","121.408076666667","24.9695783333333","6500100","板橋區"
"242006","280-VK","2018/12/06 08:49:03","新北市新莊區福壽街184巷20號","121.459261666667","25.0530816666667","6500500","新莊區"
"235001","KEA-2876","2018/12/06 08:48:43","新北市鶯歌區鶯桃路36號","121.341643333333","24.952535","6500300","中和區"
