"lineid","car","time","location","longitude","latitude","cityid","cityname"
"244022","069-UM","2018/12/06 09:48:56","新北市林口區信義路112號","121.380753333333","25.0793033333333","6501700","林口區"
"244018","402-UM","2018/12/06 09:48:55","新北市林口區麗園二街3巷5號","121.377778333333","25.0700433333333","6501700","林口區"
"244016","485-VK","2018/12/06 09:49:01","新北市林口區公園路131巷1號","121.369065","25.070455","6501700","林口區"
"222006","289-BY","2018/12/06 09:49:04","新北市深坑區昇高坑路14-1號","121.624723333333","24.9991566666667","6501800","深坑區"
"231069","189-VK","2018/12/06 09:48:59","新北市新店區新潭路三段215巷25號","121.508148333333","24.9040683333333","6500600","新店區"
"231008","192-VK","2018/12/06 09:48:53","新北市新店區小坑一路21-1號","121.530291666667","24.9119133333333","6500600","新店區"
"231007","515-UM","2018/12/06 09:49:03","新北市新店區翠峰路70巷70號","121.564393333333","24.944605","6500600","新店區"
"223008","406-TH","2018/12/06 09:48:13","新北市石碇區小粗坑(潭邊里)15-8號","121.687101666667","24.9848783333333","6501900","石碇區"
"252004","249-BX","2018/12/06 09:46:12","新北市三芝區圓山里石曹子坑66號","121.52242","25.2142316666667","6502100","三芝區"
"252007","AAC-283","2018/12/06 09:49:09","新北市三芝區新庄里新庄子78-1號","121.508183333333","25.2722816666667","6502100","三芝區"
"242057","986-R7","2018/12/06 09:48:53","新北市新莊區八德街167號","121.42328","25.01914","6500500","新莊區"
"242055","751-BX","2018/12/06 09:48:56","新北市新莊區瓊泰路80巷45號","121.445005","25.0291666666667","6500500","新莊區"
"242024","613-BX","2018/12/06 09:48:26","新北市新莊區新泰路255巷83號","121.442361666667","25.0391383333333","6500500","新莊區"
"242059","353-BY","2018/12/06 09:48:52","新北市新莊區新樹路262-2號","121.432595","25.0149016666667","6500500","新莊區"
"242030","348-TH","2018/12/06 09:49:10","新北市新莊區中正路508巷5弄2號","121.435028333333","25.0339","6500500","新莊區"
"242003","349-TH","2018/12/06 09:49:00","新北市新莊區思源路59號","121.459881666667","25.0403116666667","6500500","新莊區"
"220023","303-R5","2018/12/06 09:48:50","新北市板橋區溪城路90-2號","121.429121666667","24.9804416666667","6500100","板橋區"
