"lineid","car","time","location","longitude","latitude","cityid","cityname"
"244022","069-UM","2018/12/06 10:18:56","新北市林口區文林六街62巷26號","121.371781666667","25.0818116666667","6501700","林口區"
"244019","402-UM","2018/12/06 10:18:55","新北市林口區粉寮69號","121.405083333333","25.0908383333333","6501700","林口區"
"222006","289-BY","2018/12/06 10:18:04","新北市深坑區大崙尾1-1號","121.615678333333","24.9754633333333","6501800","深坑區"
"231069","189-VK","2018/12/06 10:18:59","新北市新店區新潭路三段211號","121.50518","24.9047266666667","6500600","新店區"
"231008","192-VK","2018/12/06 10:18:53","新北市新店區成功路43號","121.543335","24.9016666666667","6500600","新店區"
"231007","515-UM","2018/12/06 10:19:03","新北市新店區安康路二段268號","121.508503333333","24.958805","6500600","新店區"
"252007","AAC-283","2018/12/06 10:19:09","新北市三芝區新庄里番社后18-2號","121.496045","25.2748066666667","6502100","三芝區"
"242057","986-R7","2018/12/06 10:19:13","新北市樹林區中山路三段210-2號","121.380848333333","24.9671166666667","6500500","新莊區"
