"lineid","car","time","location","longitude","latitude","cityid","cityname"
"234044","148-BY","2018/12/06 12:58:34","新北市永和區得和路373巷14號","121.525185","25.0001883333333","6500400","永和區"
"234005","207-UY","2018/12/06 12:58:28","新北市永和區中山路一段23號","121.51365","25.0104216666667","6500400","永和區"
"234036","336-UY","2018/12/06 12:58:39","新北市中和區秀朗路三段36巷2號","121.526511666667","24.996165","6500400","永和區"
"234062","337-UY","2018/12/06 12:58:35","新北市永和區秀朗路一段144號","121.51807","25.003335","6500400","永和區"
"234068","552-UM","2018/12/06 12:58:28","新北市永和區竹林路96巷21號","121.51861","25.0118766666667","6500400","永和區"
"234078","553-UM","2018/12/06 12:58:39","新北市永和區福和路57巷14弄4號","121.522753333333","25.0071316666667","6500400","永和區"
"234015","745-BX","2018/12/06 12:58:38","新北市永和區永和路二段299號","121.515953333333","25.0161","6500400","永和區"
"234028","746-BX","2018/12/06 12:58:39","新北市永和區秀朗路二段264號","121.526101666667","24.9983766666667","6500400","永和區"
"234052","KEA-2590","2018/12/06 12:58:41","新北市永和區竹林路66巷4號","121.518168333333","25.01337","6500400","永和區"
"234012","KEA-2591","2018/12/06 12:58:30","新北市永和區中山路一段60巷8號","121.513168333333","25.0110616666667","6500400","永和區"
"234060","AAD-866","2018/12/06 12:58:40","新北市永和區福和路299號","121.516481666667","25.0071916666667","6500400","永和區"
"234084","748-BX","2018/12/06 12:58:30","新北市永和區中正路397號","121.517231666667","25.0041683333333","6500400","永和區"
"234040","862-TW","2018/12/06 12:58:31","新北市永和區永貞路267號","121.511861666667","25.00477","6500400","永和區"
"234048","863-TW","2018/12/06 12:58:31","新北市永和區環河西路一段101號","121.511151666667","25.01768","6500400","永和區"
"234025","9371-KE","2018/12/06 12:58:35","新北市永和區永和路一段5號","121.512815","25.0051866666667","6500400","永和區"
"234010","9373-KE","2018/12/06 12:58:41","新北市永和區文化路113巷17號","121.513138333333","25.014155","6500400","永和區"
"248013","025-BX","2018/12/06 12:58:35","新北市五股區中興路二段83巷26-6號","121.459885","25.07515","6501500","五股區"
"248015","026-BX","2018/12/06 12:58:36","新北市五股區中興路二段63巷17號","121.46022","25.0755216666667","6501500","五股區"
"248005","077-UY","2018/12/06 12:58:39","新北市五股區中興路二段83巷26-6號","121.459658333333","25.0753333333333","6501500","五股區"
"248007","095-VK","2018/12/06 12:58:25","新北市五股區中興路二段150號","121.458591666667","25.0785766666667","6501500","五股區"
"248017","225-UY","2018/12/06 12:58:24","新北市五股區中興路二段83巷26-6號","121.459871666667","25.0751983333333","6501500","五股區"
"248011","247-BX","2018/12/06 12:58:34","新北市五股區中興路二段37巷24號","121.460661666667","25.0750666666667","6501500","五股區"
"248003","677-BX","2018/12/06 12:58:33","新北市五股區中興路二段83巷26-6號","121.459731666667","25.0751","6501500","五股區"
"234022","9380-KE","2018/12/06 12:58:41","新北市永和區環河東路一段200號","121.521911666667","25.01382","6500400","永和區"
"234076","969-R7","2018/12/06 12:58:25","新北市永和區民享街2巷1號","121.514823333333","24.9957666666667","6500400","永和區"
"234066","AAC-212","2018/12/06 12:58:28","新北市永和區永和路一段36號","121.513058333333","25.0051766666667","6500400","永和區"
"234001","AAC-295","2018/12/06 12:58:30","新北市永和區永平路20號","121.513491666667","25.0088283333333","6500400","永和區"
"243005","AAD-798","2018/12/06 12:58:37","新北市泰山區黎明路25號","121.421943333333","25.06059","6501600","泰山區"
"231002","002-UM","2018/12/06 12:58:40","新北市新店區安華路28-1號","121.519733333333","24.9609466666667","6500600","新店區"
"231027","0293-UT","2018/12/06 12:58:39","新北市新店區安華路28-1號","121.519526666667","24.9606183333333","6500600","新店區"
"231028","046-UY","2018/12/06 12:58:42","新北市新店區安華路28-1號","121.519583333333","24.9608883333333","6500600","新店區"
"231001","047-UY","2018/12/06 12:58:40","新北市新店區安一路一段1-1號","121.519021666667","24.96104","6500600","新店區"
"231005","106-UY","2018/12/06 12:58:34","新北市新店區安華路28-1號","121.519581666667","24.9608283333333","6500600","新店區"
"231010","107-UY","2018/12/06 12:58:22","新北市新店區安一路一段1-1號","121.519468333333","24.9613533333333","6500600","新店區"
"231021","108-UY","2018/12/06 12:58:41","新北市新店區安一路一段1-1號","121.519441666667","24.9612016666667","6500600","新店區"
"231011","187-VK","2018/12/06 12:58:31","新北市新店區安一路一段1-1號","121.519628333333","24.9611616666667","6500600","新店區"
"231018","188-VK","2018/12/06 12:58:25","新北市新店區安一路一段1-1號","121.519051666667","24.9612333333333","6500600","新店區"
"231003","268-BY","2018/12/06 12:58:37","新北市新店區安一路一段1-1號","121.519778333333","24.961105","6500600","新店區"
"231017","AAD-862","2018/12/06 12:58:34","新北市新店區安一路一段1-1號","121.519816666667","24.961145","6500600","新店區"
"231037","4716-K9","2018/12/06 12:58:28","新北市新店區安一路一段1-1號","121.519255","24.9611783333333","6500600","新店區"
"231036","512-UM","2018/12/06 12:58:38","新北市新店區安一路一段1-1號","121.5195","24.9612816666667","6500600","新店區"
"231013","513-UM","2018/12/06 12:58:33","新北市新店區安一路一段1-1號","121.51968","24.9611633333333","6500600","新店區"
"231006","617-UM","2018/12/06 12:58:25","新北市新店區安華路28-1號","121.519435","24.9608933333333","6500600","新店區"
"231030","619-UM","2018/12/06 12:58:39","新北市新店區安華路28-1號","121.519775","24.960825","6500600","新店區"
"231035","719-UY","2018/12/06 12:58:40","新北市新店區安一路一段1-1號","121.519613333333","24.9611766666667","6500600","新店區"
"231031","720-UM","2018/12/06 12:58:38","新北市新店區安一路一段1-1號","121.518966666667","24.961525","6500600","新店區"
"231029","897-TW","2018/12/06 12:58:31","新北市新店區安華路28-1號","121.519591666667","24.96072","6500600","新店區"
"231004","898-TW","2018/12/06 12:58:31","新北市新店區安華路28-1號","121.519405","24.9608733333333","6500600","新店區"
"235028","005-UY","2018/12/06 12:58:41","新北市中和區員山路36巷16-3號","121.485041666667","24.991235","6500300","中和區"
"235022","151-BY","2018/12/06 12:58:36","新北市中和區錦和路400號","121.491035","24.9898983333333","6500300","中和區"
"235002","185-VK","2018/12/06 12:58:34","新北市永和區民生路67巷44號","121.52498","24.99722","6500300","中和區"
"235031","255-BX","2018/12/06 12:58:31","新北市中和區中山路二段568巷26號","121.482621666667","25.0064783333333","6500300","中和區"
"235034","558-UM","2018/12/06 12:58:41","新北市中和區員山路36巷16-2號","121.485133333333","24.9915783333333","6500300","中和區"
"235018","640-BX","2018/12/06 12:58:27","新北市中和區員山路36巷16-2號","121.48508","24.9918133333333","6500300","中和區"
"235035","783-BX","2018/12/06 12:58:40","新北市中和區民樂路65號","121.483721666667","25.0012966666667","6500300","中和區"
"235026","800-TS","2018/12/06 12:58:41","新北市中和區員山路36巷16-2號","121.485361666667","24.99177","6500300","中和區"
"235029","911-UM","2018/12/06 12:58:39","新北市中和區景平路685號","121.496573333333","25.0030383333333","6500300","中和區"
"235015","157-BY","2018/12/06 12:58:39","新北市中和區員山路36巷13號","121.484203333333","24.9908483333333","6500300","中和區"
"235001","AAC-213","2018/12/06 12:58:32","新北市中和區員山路36巷16號","121.484416666667","24.9915033333333","6500300","中和區"
"228005","097-TW","2018/12/06 12:58:39","新北市貢寮區福隆里桂安街17號","121.965315","25.0217266666667","6502600","貢寮區"
"228004","212-TW","2018/12/06 12:58:32","新北市貢寮區吉林里內寮街10-2號","121.887428333333","24.9894666666667","6502600","貢寮區"
"207002","749-BX","2018/12/06 12:58:25","新北市萬里區雙興里大坪路37-4號","121.629041666667","25.1696066666667","6502800","萬里區"
"252005","073-UM","2018/12/06 12:58:39","新北市三芝區埔坪里埔頭坑41號","121.504455","25.2644883333333","6502100","三芝區"
"207001","662-BX","2018/12/06 12:58:33","新北市萬里區萬里里獅頭路22-1號","121.693095","25.178305","6502800","萬里區"
"221010","269-BY","2018/12/06 12:58:33","台北市內湖區康樂街204-1號","121.621773333333","25.0764483333333","6501100","汐止區"
"221032","280-BY","2018/12/06 12:58:35","新北市汐止區大同路二段685號","121.665095","25.07215","6501100","汐止區"
"221033","647-BX","2018/12/06 12:58:33","新北市汐止區莊敬街29巷7號","121.657241666667","25.0609516666667","6501100","汐止區"
