"lineid","car","time","location","longitude","latitude","cityid","cityname"
"234044","148-BY","2018/12/06 13:08:34","新北市永和區永元路18巷5-1號","121.522838333333","25.0003666666667","6500400","永和區"
"234005","207-UY","2018/12/06 13:08:24","新北市永和區中山路一段146號","121.509856666667","25.009535","6500400","永和區"
"234036","336-UY","2018/12/06 13:08:39","新北市永和區民樂街90巷1號","121.527218333333","24.9973783333333","6500400","永和區"
"234062","337-UY","2018/12/06 13:08:32","新北市永和區秀朗路二段20號","121.520848333333","25.0026716666667","6500400","永和區"
"234068","552-UM","2018/12/06 13:08:38","新北市永和區豫溪街95巷9號","121.518201666667","25.0105616666667","6500400","永和區"
"234078","553-UM","2018/12/06 13:08:39","新北市永和區福和路143號","121.520773333333","25.0077133333333","6500400","永和區"
"234015","745-BX","2018/12/06 13:08:38","新北市永和區文化路90巷15弄1號","121.513738333333","25.0159466666667","6500400","永和區"
"234028","746-BX","2018/12/06 13:08:39","新北市永和區四維街91號","121.524466666667","24.9981266666667","6500400","永和區"
"234052","KEA-2590","2018/12/06 13:08:41","新北市永和區中興街133巷12號","121.518503333333","25.0125433333333","6500400","永和區"
"234012","KEA-2591","2018/12/06 13:08:30","新北市永和區保福路二段14-1號","121.510931666667","25.01141","6500400","永和區"
"234060","AAD-866","2018/12/06 13:08:40","新北市永和區安樂路461號","121.514338333333","25.00511","6500400","永和區"
"234084","748-BX","2018/12/06 13:08:30","新北市永和區永貞路144號","121.518098333333","25.0045466666667","6500400","永和區"
"234040","862-TW","2018/12/06 13:08:31","新北市永和區保平路93巷2弄9號","121.51134","25.0063216666667","6500400","永和區"
"234048","863-TW","2018/12/06 13:08:31","新北市永和區文化路135巷6號","121.51084","25.0157466666667","6500400","永和區"
"234025","9371-KE","2018/12/06 13:08:35","新北市永和區自由街33號","121.514325","25.006375","6500400","永和區"
"234010","9373-KE","2018/12/06 13:08:41","新北市永和區仁愛路31巷2弄4號","121.514083333333","25.0129733333333","6500400","永和區"
"248013","025-BX","2018/12/06 13:08:35","新北市五股區中興路四段57號","121.437895","25.0828183333333","6501500","五股區"
"248015","026-BX","2018/12/06 13:08:36","新北市五股區成泰路三段115-1號","121.444301666667","25.0906016666667","6501500","五股區"
"248005","077-UY","2018/12/06 13:08:39","新北市五股區中興路二段81號","121.460841666667","25.07721","6501500","五股區"
"248007","095-VK","2018/12/06 13:08:25","新北市五股區中興路二段182巷15弄13-3號","121.457358333333","25.081075","6501500","五股區"
"248017","225-UY","2018/12/06 13:08:43","新北市五股區新五路二段258號","121.440911666667","25.0822133333333","6501500","五股區"
"248011","247-BX","2018/12/06 13:08:34","新北市五股區中興路三段192號","121.442546666667","25.0817516666667","6501500","五股區"
"248003","677-BX","2018/12/06 13:08:33","新北市五股區工商路65號","121.438898333333","25.0844466666667","6501500","五股區"
"248001","678-BX","2018/12/06 13:08:27","新北市五股區成泰路一段98巷102號","121.451203333333","25.0793833333333","6501500","五股區"
"248009","682-TV","2018/12/06 13:08:38","新北市五股區成泰路一段219-19號","121.434533333333","25.0777116666667","6501500","五股區"
"234022","9380-KE","2018/12/06 13:08:41","新北市永和區中興街38號","121.516461666667","25.0116933333333","6500400","永和區"
"234076","969-R7","2018/12/06 13:08:25","新北市永和區民光街14號","121.515596666667","24.9960633333333","6500400","永和區"
"234072","AAC-211","2018/12/06 13:08:41","新北市永和區竹林路206號","121.520718333333","25.0084966666667","6500400","永和區"
"234066","AAC-212","2018/12/06 13:08:33","新北市永和區保平路23號","121.512686666667","25.0073066666667","6500400","永和區"
"234001","AAC-295","2018/12/06 13:08:30","新北市永和區中山路一段28巷11號","121.513851666667","25.0109033333333","6500400","永和區"
"243005","AAD-798","2018/12/06 13:08:37","新北市泰山區南林路93號","121.41545","25.0511866666667","6501600","泰山區"
"231002","002-UM","2018/12/06 13:08:41","新北市新店區安華路28-1號","121.519591666667","24.9609066666667","6500600","新店區"
"231027","0293-UT","2018/12/06 13:08:39","新北市新店區安華路28-1號","121.519511666667","24.9606066666667","6500600","新店區"
"231028","046-UY","2018/12/06 13:08:41","新北市新店區安華路28-1號","121.519578333333","24.96089","6500600","新店區"
"231001","047-UY","2018/12/06 13:08:40","新北市新店區安一路一段1-1號","121.519293333333","24.9611183333333","6500600","新店區"
"231005","106-UY","2018/12/06 13:08:34","新北市新店區安華路28-1號","121.519585","24.9608083333333","6500600","新店區"
"231010","107-UY","2018/12/06 13:08:42","新北市新店區安一路一段1-1號","121.519421666667","24.961275","6500600","新店區"
"231021","108-UY","2018/12/06 13:08:41","新北市新店區安一路一段1-1號","121.519518333333","24.9612333333333","6500600","新店區"
"231011","187-VK","2018/12/06 13:08:31","新北市新店區安一路一段1-1號","121.51953","24.9611666666667","6500600","新店區"
"231018","188-VK","2018/12/06 13:08:25","新北市新店區安一路一段1-1號","121.518973333333","24.9611683333333","6500600","新店區"
"231023","KEA-2219","2018/12/06 13:08:39","新北市新店區安一路一段1-1號","121.519653333333","24.9612916666667","6500600","新店區"
"231026","256-BX","2018/12/06 13:08:39","新北市新店區安一路一段1-1號","121.519956666667","24.96116","6500600","新店區"
"231003","268-BY","2018/12/06 13:08:37","新北市新店區安一路一段1-1號","121.519843333333","24.9611","6500600","新店區"
"231017","AAD-862","2018/12/06 13:08:34","新北市新店區安一路一段1-1號","121.519723333333","24.9612066666667","6500600","新店區"
"231038","3712-VJ","2018/12/06 13:08:38","新北市新店區安華路28-1號","121.519223333333","24.9605516666667","6500600","新店區"
"231037","4716-K9","2018/12/06 13:08:28","新北市新店區安華路28-1號","121.51956","24.9607683333333","6500600","新店區"
"231025","4715-K9","2018/12/06 13:08:33","新北市新店區安康路一段355-10號","121.520791666667","24.963885","6500600","新店區"
"231036","512-UM","2018/12/06 13:08:38","新北市新店區安一路一段1-1號","121.519463333333","24.9612883333333","6500600","新店區"
"231013","513-UM","2018/12/06 13:08:33","新北市新店區安一路一段1-1號","121.519556666667","24.9611616666667","6500600","新店區"
"231034","616-UM","2018/12/06 13:08:32","新北市新店區安華路28-1號","121.519423333333","24.9605766666667","6500600","新店區"
"231006","617-UM","2018/12/06 13:08:25","新北市新店區安華路28-1號","121.519431666667","24.9609033333333","6500600","新店區"
"231030","619-UM","2018/12/06 13:08:39","新北市新店區安華路28-1號","121.51971","24.9607","6500600","新店區"
"231035","719-UY","2018/12/06 13:08:40","新北市新店區安一路一段1-1號","121.519576666667","24.9611783333333","6500600","新店區"
"231031","720-UM","2018/12/06 13:08:38","新北市新店區安一路一段1-1號","121.518953333333","24.9613133333333","6500600","新店區"
"231029","897-TW","2018/12/06 13:08:31","新北市新店區安華路28-1號","121.51954","24.960725","6500600","新店區"
"231004","898-TW","2018/12/06 13:08:31","新北市新店區安華路28-1號","121.519396666667","24.96089","6500600","新店區"
"235028","005-UY","2018/12/06 13:08:41","新北市中和區中正路305號","121.492818333333","24.993955","6500300","中和區"
"235027","006-UY","2018/12/06 13:08:37","新北市中和區員山路36巷16-3號","121.48502","24.9913533333333","6500300","中和區"
"235003","097-UM","2018/12/06 13:08:32","新北市中和區中正路637巷60弄61號","121.485491666667","24.992925","6500300","中和區"
"235022","151-BY","2018/12/06 13:08:36","新北市中和區圓通路367巷59弄2號","121.492408333333","24.9834533333333","6500300","中和區"
"235002","185-VK","2018/12/06 13:08:34","新北市中和區景平路120號","121.519258333333","24.991855","6500300","中和區"
"235031","255-BX","2018/12/06 13:08:31","新北市中和區中山路二段550號","121.48389","25.005485","6500300","中和區"
"235007","352-BY","2018/12/06 13:08:24","新北市中和區員山路36巷16-3號","121.484861666667","24.9916633333333","6500300","中和區"
"235034","558-UM","2018/12/06 13:08:41","新北市中和區圓通路207號","121.497221666667","24.9943666666667","6500300","中和區"
"235009","565-BX","2018/12/06 13:08:41","新北市中和區中正路637巷52弄1號","121.485451666667","24.99336","6500300","中和區"
"235018","640-BX","2018/12/06 13:08:27","新北市中和區民享街465號","121.470241666667","24.9919616666667","6500300","中和區"
"235011","732-UM","2018/12/06 13:08:44","新北市中和區中正路637巷60弄61號","121.485353333333","24.9930566666667","6500300","中和區"
"235035","783-BX","2018/12/06 13:08:40","新北市中和區板南路520巷15號","121.483603333333","25.0088783333333","6500300","中和區"
"235026","800-TS","2018/12/06 13:08:41","新北市中和區建一路120號","121.48808","25.000225","6500300","中和區"
"235029","911-UM","2018/12/06 13:08:39","新北市中和區中山路二段62號","121.503985","25.0047366666667","6500300","中和區"
"235015","157-BY","2018/12/06 13:08:39","新北市中和區南山路291號","121.504453333333","24.99205","6500300","中和區"
"235001","AAC-213","2018/12/06 13:08:32","新北市中和區景平路392號","121.510131666667","24.9928716666667","6500300","中和區"
"228005","097-TW","2018/12/06 13:08:39","新北市貢寮區仁理村研海街62-2號","121.92576","25.04359","6502600","貢寮區"
"228004","212-TW","2018/12/06 13:08:32","新北市貢寮區吉林里內寮街75號","121.891101666667","24.9718116666667","6502600","貢寮區"
"253003","6232-TK","2018/12/06 13:08:14","新北市石門區石崩山6號","121.564286666667","25.2835733333333","6502200","石門區"
"253004","6251-TK","2018/12/06 13:08:42","新北市石門區阿里荖33-1號","121.606626666667","25.2808766666667","6502200","石門區"
"253002","637-UY","2018/12/06 13:08:32","新北市石門區老崩山35號","121.557366666667","25.276715","6502200","石門區"
"253001","KEC-0718","2018/12/06 13:08:32","新北市石門區崁子腳28-1號","121.540423333333","25.2914616666667","6502200","石門區"
"207002","749-BX","2018/12/06 13:08:25","新北市萬里區崁腳里內崁路10-1號","121.64158","25.1594916666667","6502800","萬里區"
"252005","073-UM","2018/12/06 13:08:39","新北市三芝區忠孝街1-37號","121.505808333333","25.2534483333333","6502100","三芝區"
"207001","662-BX","2018/12/06 13:08:33","新北市萬里區萬里里獅頭路4-1號","121.6922","25.1779616666667","6502800","萬里區"
"221010","269-BY","2018/12/06 13:08:33","新北市汐止區忠三街8號","121.62481","25.0783416666667","6501100","汐止區"
"221032","280-BY","2018/12/06 13:08:35","新北市汐止區大同路二段553號","121.662396666667","25.0695633333333","6501100","汐止區"
"221033","647-BX","2018/12/06 13:08:33","新北市汐止區秀峰路137巷6號","121.660713333333","25.0624283333333","6501100","汐止區"
"235032","KEA-2873","2018/12/06 13:08:19","新北市中和區員山路36巷16-3號","121.485073333333","24.991345","6500300","中和區"
"235025","KEA-2875","2018/12/06 13:08:24","新北市土城區延壽路41號","121.47083","24.9915683333333","6500300","中和區"
