"lineid","car","time","location","longitude","latitude","cityid","cityname"
"234044","148-BY","2018/12/06 13:58:34","新北市永和區永利路107號","121.523436666667","25.0027033333333","6500400","永和區"
"234005","207-UY","2018/12/06 13:58:44","新北市中和區中和路362號","121.510361666667","25.001815","6500400","永和區"
"234036","336-UY","2018/12/06 13:58:39","新北市永和區成功路二段122號","121.526548333333","24.997685","6500400","永和區"
"234062","337-UY","2018/12/06 13:58:32","新北市永和區中正路412巷20弄14號","121.518848333333","25.0015416666667","6500400","永和區"
"234068","552-UM","2018/12/06 13:58:34","新北市永和區國光路8號","121.51939","25.0084716666667","6500400","永和區"
"234078","553-UM","2018/12/06 13:58:39","新北市永和區林森路112巷9弄3號","121.522053333333","25.0041883333333","6500400","永和區"
"234015","745-BX","2018/12/06 13:58:37","新北市永和區文化路92號","121.513821666667","25.015225","6500400","永和區"
"234028","746-BX","2018/12/06 13:58:40","新北市永和區民生路67巷55號","121.525575","24.9976166666667","6500400","永和區"
"234052","KEA-2590","2018/12/06 13:58:41","新北市永和區竹林路39巷35-1號","121.520158333333","25.0153266666667","6500400","永和區"
"234012","KEA-2591","2018/12/06 13:58:30","新北市永和區永平路316號","121.506933333333","25.0126266666667","6500400","永和區"
"234060","AAD-866","2018/12/06 13:58:40","新北市永和區中正路283巷53弄1號","121.515988333333","24.9995066666667","6500400","永和區"
"234084","748-BX","2018/12/06 13:58:39","新北市永和區福和路130號","121.521966666667","25.0080083333333","6500400","永和區"
"234040","862-TW","2018/12/06 13:58:31","新北市永和區中和路335巷18弄5號","121.507601666667","25.0003533333333","6500400","永和區"
"234048","863-TW","2018/12/06 13:58:41","新北市永和區保安路168號","121.507988333333","25.0143683333333","6500400","永和區"
"234025","9371-KE","2018/12/06 13:58:35","新北市永和區安樂路451號","121.514318333333","25.00496","6500400","永和區"
"234010","9373-KE","2018/12/06 13:58:41","新北市永和區仁愛路352巷112弄1號","121.500571666667","25.00839","6500400","永和區"
"248015","026-BX","2018/12/06 13:58:36","新北市五股區成泰路三段543巷16號","121.450925","25.1022083333333","6501500","五股區"
"248007","095-VK","2018/12/06 13:58:45","新北市五股區中興路一段128巷36號","121.465753333333","25.0753216666667","6501500","五股區"
"248017","225-UY","2018/12/06 13:58:24","新北市五股區民義路二段22巷2號","121.420213333333","25.0969183333333","6501500","五股區"
"248011","247-BX","2018/12/06 13:58:34","新北市五股區成泰路二段195巷1號","121.440326666667","25.08736","6501500","五股區"
"248003","677-BX","2018/12/06 13:58:33","新北市五股區民義路二段76-1號","121.403818333333","25.1111566666667","6501500","五股區"
"248001","678-BX","2018/12/06 13:57:29","新北市五股區凌雲路一段93號","121.450551666667","25.101475","6501500","五股區"
"248009","682-TV","2018/12/06 13:58:38","新北市五股區水碓一路23號","121.43058","25.07126","6501500","五股區"
"234022","9380-KE","2018/12/06 13:58:41","新北市永和區復興街16巷10號","121.5157","25.012505","6500400","永和區"
"234076","969-R7","2018/12/06 13:58:25","新北市永和區民治街29號","121.51961","24.9977216666667","6500400","永和區"
"234072","AAC-211","2018/12/06 13:58:41","新北市永和區豫溪街185號","121.522505","25.01037","6500400","永和區"
"234066","AAC-212","2018/12/06 13:58:28","新北市永和區永貞路358號","121.510261666667","25.0066583333333","6500400","永和區"
"234001","AAC-295","2018/12/06 13:58:31","新北市永和區福和路326號","121.515566666667","25.0072933333333","6500400","永和區"
"243005","AAD-798","2018/12/06 13:58:41","新北市泰山區明志路三段206巷11號","121.423153333333","25.0376066666667","6501600","泰山區"
"243001","297-R6","2018/12/06 13:58:46","新北市泰山區泰林路二段396號","121.427738333333","25.0641833333333","6501600","泰山區"
"243008","KEA-2801","2018/12/06 13:58:43","新北市泰山區明志路二段152-1號","121.427498333333","25.0506533333333","6501600","泰山區"
"243007","421-VK","2018/12/06 13:58:41","新北市泰山區泰林路二段267號","121.430833333333","25.0626016666667","6501600","泰山區"
"243003","KEA-2215","2018/12/06 13:58:34","新北市泰山區明志路二段246-1號","121.427023333333","25.04816","6501600","泰山區"
"243002","KEA-2216","2018/12/06 13:58:29","新北市泰山區辭修路34巷1號","121.428908333333","25.0580916666667","6501600","泰山區"
"243004","646-TV","2018/12/06 13:58:30","新北市泰山區同義街13巷32號","121.43235","25.0570383333333","6501600","泰山區"
"243006","680-BX","2018/12/06 13:58:29","新北市泰山區黎明路23號","121.420891666667","25.062575","6501600","泰山區"
"231002","002-UM","2018/12/06 13:58:41","新北市新店區中正路630號","121.533921666667","24.9890583333333","6500600","新店區"
"231027","0293-UT","2018/12/06 13:58:39","新北市新店區北宜路一段3號","121.53855","24.958585","6500600","新店區"
"231028","046-UY","2018/12/06 13:58:41","新北市新店區安和路三段7號","121.518153333333","24.9804583333333","6500600","新店區"
"231001","047-UY","2018/12/06 13:58:40","新北市新店區三民路43號","121.537135","24.9708633333333","6500600","新店區"
"231005","106-UY","2018/12/06 13:58:34","新北市新店區中興路三段202號","121.543788333333","24.98197","6500600","新店區"
"231010","107-UY","2018/12/06 13:58:42","新北市新店區中央路133巷15弄31號","121.531918333333","24.974755","6500600","新店區"
"231021","108-UY","2018/12/06 13:58:41","新北市新店區新烏路二段9號","121.544875","24.9290483333333","6500600","新店區"
"231011","187-VK","2018/12/06 13:58:31","新北市新店區中興路二段67巷4號","121.546445","24.971035","6500600","新店區"
"231018","188-VK","2018/12/06 13:58:25","新北市新店區中央路206號","121.530365","24.9739566666667","6500600","新店區"
"231023","KEA-2219","2018/12/06 13:58:39","新北市新店區文中路40號","121.539785","24.9565533333333","6500600","新店區"
"231026","256-BX","2018/12/06 13:58:39","新北市新店區環河路114巷2號","121.536851666667","24.9644316666667","6500600","新店區"
"231003","268-BY","2018/12/06 13:58:37","新北市新店區中興路一段112-1號","121.54059","24.961385","6500600","新店區"
"231017","AAD-862","2018/12/06 13:58:34","新北市新店區郵政路1巷6號","121.557358333333","24.9520966666667","6500600","新店區"
"231038","3712-VJ","2018/12/06 13:58:38","新北市新店區安華路30巷1號","121.519538333333","24.95925","6500600","新店區"
"231037","4716-K9","2018/12/06 13:58:28","新北市新店區安康路三段359巷12弄27號","121.483961666667","24.9492616666667","6500600","新店區"
"231025","4715-K9","2018/12/06 13:58:33","新北市新店區中正路328巷41號","121.537928333333","24.9763133333333","6500600","新店區"
"231036","512-UM","2018/12/06 13:58:38","新北市新店區安祥路110巷55號","121.473376666667","24.95698","6500600","新店區"
"231013","513-UM","2018/12/06 13:58:33","新北市新店區明德路111號","121.541505","24.979455","6500600","新店區"
"231034","616-UM","2018/12/06 13:58:32","新北市新店區達觀路30號","121.502061666667","24.94027","6500600","新店區"
"231006","617-UM","2018/12/06 13:58:25","新北市新店區北宜路二段213號","121.553233333333","24.9534683333333","6500600","新店區"
"231030","619-UM","2018/12/06 13:58:39","新北市新店區安康路一段230-3號","121.522418333333","24.963765","6500600","新店區"
"231035","719-UY","2018/12/06 13:58:39","新北市新店區安康路二段52號","121.515143333333","24.963725","6500600","新店區"
"231031","720-UM","2018/12/06 13:58:38","新北市新店區莒光路44巷21弄11-3號","121.518418333333","24.9522033333333","6500600","新店區"
"231029","897-TW","2018/12/06 13:58:31","新北市新店區安康路二段140號","121.512425","24.9617833333333","6500600","新店區"
"231004","898-TW","2018/12/06 13:58:31","新北市新店區北新路二段107號","121.542926666667","24.974495","6500600","新店區"
"231024","AKT-0513","2018/12/06 13:58:34","新北市新店區力行路14巷8號","121.539298333333","24.9650366666667","6500600","新店區"
"235030","003-UY","2018/12/06 13:58:41","新北市中和區廣福路84巷1弄2號","121.502705","25.0017083333333","6500300","中和區"
"235028","005-UY","2018/12/06 13:58:41","新北市中和區泰和街44巷35號","121.497976666667","25.0013383333333","6500300","中和區"
"235027","006-UY","2018/12/06 13:58:37","新北市中和區中正路484號","121.489353333333","24.9943933333333","6500300","中和區"
"235020","096-UM","2018/12/06 13:58:34","新北市中和區中正路1206巷3號","121.480211666667","25.0109333333333","6500300","中和區"
"235003","097-UM","2018/12/06 13:58:32","新北市中和區秀朗路三段179號","121.524431666667","24.9907883333333","6500300","中和區"
"235004","150-BY","2018/12/06 13:58:26","新北市中和區保健路48巷16號","121.509715","24.9966283333333","6500300","中和區"
"235022","151-BY","2018/12/06 13:58:36","新北市中和區連城路428巷7-3號","121.479901666667","24.9953216666667","6500300","中和區"
"235019","183-VK","2018/12/06 13:58:40","新北市板橋區民族路310號","121.470835","25.0065433333333","6500300","中和區"
"235002","185-VK","2018/12/06 13:58:34","新北市中和區立人街24-5號","121.518891666667","24.9941816666667","6500300","中和區"
"235013","186-VK","2018/12/06 13:58:38","新北市中和區景新街210巷2弄2號","121.50703","24.994145","6500300","中和區"
"235031","255-BX","2018/12/06 13:58:30","新北市中和區新生街266號","121.483505","24.9972316666667","6500300","中和區"
"235008","293-VK","2018/12/06 13:58:30","新北市中和區復興路280巷33弄15號","121.501495","24.9910183333333","6500300","中和區"
"235036","301-VK","2018/12/06 13:58:43","新北市中和區中山路二段123號","121.502651666667","25.0035516666667","6500300","中和區"
"235007","352-BY","2018/12/06 13:58:44","新北市中和區成功路89號","121.526031666667","24.99192","6500300","中和區"
"235006","KEA-2878","2018/12/06 13:58:36","新北市中和區秀朗路三段18號","121.526385","24.9964466666667","6500300","中和區"
"247005","KED-0682","2018/12/06 13:58:35","新北市蘆洲區中山二路320號","121.46828","25.076465","6501400","蘆洲區"
"235014","4979-A6","2018/12/06 13:58:29","新北市中和區忠孝街58巷7號","121.512038333333","24.98336","6500300","中和區"
"235033","4980-A6","2018/12/06 13:58:42","新北市中和區中和路217巷20號","121.504745","25.0004966666667","6500300","中和區"
"235005","551-UM","2018/12/06 13:58:36","新北市中和區永貞路239巷7號","121.512783333333","25.0033733333333","6500300","中和區"
"235034","558-UM","2018/12/06 13:58:41","新北市中和區中和路279號","121.505813333333","24.9997683333333","6500300","中和區"
"235009","565-BX","2018/12/06 13:58:40","新北市中和區景新街467巷20弄130號","121.515113333333","24.9872416666667","6500300","中和區"
"235018","640-BX","2018/12/06 13:58:27","新北市中和區民享街30巷1號","121.474053333333","25.0034733333333","6500300","中和區"
"235024","647-TV","2018/12/06 13:58:40","新北市中和區民治街10巷1號","121.475065","25.0046233333333","6500300","中和區"
"235011","732-UM","2018/12/06 13:58:43","新北市中和區興南路二段54巷2-8號","121.50604","24.98559","6500300","中和區"
"235010","733-UM","2018/12/06 13:58:35","新北市中和區興南路一段164號","121.508098333333","24.9865816666667","6500300","中和區"
"235035","783-BX","2018/12/06 13:58:40","新北市中和區立德街23號","121.488556666667","25.0072533333333","6500300","中和區"
"235026","800-TS","2018/12/06 13:58:41","新北市中和區中山路二段340巷61號","121.492961666667","25.0046633333333","6500300","中和區"
"235021","801-TS","2018/12/06 13:58:32","新北市中和區民利街100巷6弄2號","121.47709","24.998345","6500300","中和區"
"235016","805-TS","2018/12/06 13:58:35","新北市中和區興南路二段301-1號","121.502245","24.9813283333333","6500300","中和區"
"235012","896-TW","2018/12/06 13:58:38","新北市中和區華新街23號","121.507593333333","24.9849533333333","6500300","中和區"
"235017","900-TW","2018/12/06 13:58:44","新北市中和區民德路360號","121.466218333333","24.9938466666667","6500300","中和區"
"235029","911-UM","2018/12/06 13:58:39","新北市中和區勝利路31號","121.498985","25.0078366666667","6500300","中和區"
"235015","157-BY","2018/12/06 13:58:39","新北市中和區忠孝街19巷12號","121.5101","24.9832233333333","6500300","中和區"
"235001","AAC-213","2018/12/06 13:58:32","新北市中和區秀朗路三段10巷14弄108號","121.522866666667","24.996775","6500300","中和區"
"235023","AAC-215","2018/12/06 13:58:38","新北市中和區圓通路367巷20弄23號","121.491453333333","24.98834","6500300","中和區"
"220013","072-UY","2018/12/06 13:58:38","新北市板橋區漢生東路337號","121.472016666667","25.0075666666667","6500100","板橋區"
"220034","073-UY","2018/12/06 13:58:38","新北市板橋區中正路236巷17號","121.456663333333","25.0192233333333","6500100","板橋區"
"220105","075-UY","2018/12/06 13:58:35","新北市板橋區雙十路三段18巷1弄2號","121.471888333333","25.0306866666667","6500100","板橋區"
"220017","AAD-861","2018/12/06 13:58:42","新北市板橋區東興街93-2號","121.457476666667","25.0051983333333","6500100","板橋區"
"247001","893-R6","2018/12/06 13:58:39","新北市蘆洲區永平街32巷64弄1號","121.460196666667","25.0931983333333","6501400","蘆洲區"
"247015","546-UM","2018/12/06 13:58:44","新北市蘆洲區光華路43號","121.468803333333","25.08304","6501400","蘆洲區"
"247003","341-TH","2018/12/06 13:58:43","新北市蘆洲區長榮路39號","121.463196666667","25.0825783333333","6501400","蘆洲區"
"247009","337-TH","2018/12/06 13:58:27","新北市蘆洲區中興街38-5號","121.48153","25.0866666666667","6501400","蘆洲區"
"247019","057-VK","2018/12/06 13:58:37","新北市蘆洲區民族路422巷11號","121.47396","25.092415","6501400","蘆洲區"
"247013","053-VK","2018/12/06 13:58:32","新北市蘆洲區中正路157號","121.469015","25.0850483333333","6501400","蘆洲區"
"247017","007-UY","2018/12/06 13:58:44","新北市蘆洲區民權路96巷26號","121.475661666667","25.0889333333333","6501400","蘆洲區"
"247021","001-UY","2018/12/06 13:58:36","新北市蘆洲區中正路263巷2號","121.4674","25.087515","6501400","蘆洲區"
"228005","097-TW","2018/12/06 13:52:59","新北市貢寮區美豐里土地公嶺24號","121.890803333333","25.0644783333333","6502600","貢寮區"
"228004","212-TW","2018/12/06 13:58:32","新北市貢寮區龍崗里嵩陽街40號","121.90545","25.0149583333333","6502600","貢寮區"
"253003","6232-TK","2018/12/06 13:58:36","新北市石門區尖子鹿51號","121.580456666667","25.2733083333333","6502200","石門區"
"253004","6251-TK","2018/12/06 13:58:41","新北市石門區小坑40號","121.599008333333","25.265505","6502200","石門區"
"253002","637-UY","2018/12/06 13:54:09","新北市石門區尖山湖18號","121.558548333333","25.2471083333333","6502200","石門區"
"253001","KEC-0718","2018/12/06 13:58:32","新北市石門區下員坑50-1號","121.518351666667","25.2724083333333","6502200","石門區"
"207002","749-BX","2018/12/06 13:58:25","新北市萬里區溪底里烏塗炭9號","121.637656666667","25.1516383333333","6502800","萬里區"
"252005","073-UM","2018/12/06 13:58:39","新北市三芝區圓山里二坪頂46號","121.541168333333","25.2317333333333","6502100","三芝區"
"207001","662-BX","2018/12/06 13:58:33","新北市萬里區磺潭里清水2-2號","121.641131666667","25.20245","6502800","萬里區"
"236068","105-UM","2018/12/06 13:58:31","新北市土城區金城路一段88巷26號","121.446118333333","24.9734366666667","6501300","土城區"
"236040","KED-0685","2018/12/06 13:58:36","新北市土城區城林路6巷80號","121.438451666667","24.9797316666667","6501300","土城區"
"236074","166-UM","2018/12/06 13:58:31","新北市土城區永寧路25號","121.43042","24.9637216666667","6501300","土城區"
"236029","253-BX","2018/12/06 13:58:41","新北市土城區中央路二段239-1號","121.440203333333","24.9719866666667","6501300","土城區"
"236024","269-VK","2018/12/06 13:58:37","新北市土城區承天路1號","121.435863333333","24.966595","6501300","土城區"
"236012","270-VK","2018/12/06 13:58:28","新北市土城區城林路6巷80號","121.438508333333","24.979755","6501300","土城區"
"236032","271-VK","2018/12/06 13:58:32","新北市土城區城林路6巷80號","121.438293333333","24.9795533333333","6501300","土城區"
"247007","KED-0683","2018/12/06 13:58:35","新北市蘆洲區重陽街13號","121.480878333333","25.0821133333333","6501400","蘆洲區"
"236017","401-BY","2018/12/06 13:58:28","新北市土城區城林路6巷80號","121.438501666667","24.9798116666667","6501300","土城區"
"236057","912-UM","2018/12/06 13:58:36","新北市土城區中央路三段238-5號","121.428268333333","24.9643416666667","6501300","土城區"
"236045","913-UM","2018/12/06 13:58:34","新北市土城區城林路6巷80號","121.438476666667","24.9797666666667","6501300","土城區"
"236060","915-UM","2018/12/06 13:58:34","新北市土城區城林路6巷80號","121.438475","24.9797083333333","6501300","土城區"
"236054","AAC-216","2018/12/06 13:58:26","新北市土城區城林路6巷80號","121.43861","24.9796883333333","6501300","土城區"
"221010","269-BY","2018/12/06 13:58:33","新北市汐止區八連路二段610巷11-1號","121.626926666667","25.1092016666667","6501100","汐止區"
"221033","647-BX","2018/12/06 13:58:32","新北市汐止區明峰街206號","121.627571666667","25.069345","6501100","汐止區"
"220027","145-BY","2018/12/06 13:58:38","新北市板橋區民權路209號","121.457921666667","25.0148816666667","6500100","板橋區"
"220028","200-UY","2018/12/06 13:58:28","新北市板橋區合宜一路121-5號","121.442665","24.9974483333333","6500100","板橋區"
"220030","610-BX","2018/12/06 13:58:38","新北市板橋區溪崑一街112號","121.429248333333","24.9887266666667","6500100","板橋區"
"220050","245-BX","2018/12/06 13:58:30","新北市板橋區民生路二段120號","121.470903333333","25.0194","6500100","板橋區"
"220004","276-BY","2018/12/06 13:58:33","新北市板橋區信義路28-6號","121.457083333333","24.99521","6500100","板橋區"
"220020","277-BY","2018/12/06 13:58:47","新北市板橋區大觀路三段50巷67-4號","121.431658333333","24.9961666666667","6500100","板橋區"
"220043","283-UM","2018/12/06 13:58:42","新北市板橋區光武街171號","121.46519","25.030115","6500100","板橋區"
"220019","283-VK","2018/12/06 13:58:28","新北市板橋區重慶路245巷21號","121.464226666667","25.0008783333333","6500100","板橋區"
"220001","285-VK","2018/12/06 13:58:39","新北市板橋區太和街5巷12號","121.473326666667","25.0199033333333","6500100","板橋區"
"220031","286-VK","2018/12/06 13:58:43","新北市板橋區僑中二街152號","121.444911666667","25.0043283333333","6500100","板橋區"
"220029","287-VK","2018/12/06 13:58:44","新北市板橋區光華街19巷4號","121.453795","25.0121416666667","6500100","板橋區"
"220039","288-VK","2018/12/06 13:58:39","新北市板橋區裕民街52號","121.461486666667","25.02874","6500100","板橋區"
"220009","293-UM","2018/12/06 13:58:36","新北市板橋區懷仁街85巷6號","121.477708333333","25.0185533333333","6500100","板橋區"
"220032","296-UM","2018/12/06 13:58:32","新北市板橋區大觀路二段265巷130弄32號","121.44096","24.996245","6500100","板橋區"
"220023","303-R5","2018/12/06 13:58:42","新北市板橋區南雅西路二段117號","121.45246","25.010835","6500100","板橋區"
"220010","305-R5","2018/12/06 13:58:27","新北市板橋區三民路二段245巷2弄24-1號","121.480806666667","25.011795","6500100","板橋區"
"220041","307-R5","2018/12/06 13:58:31","新北市板橋區吳鳳路50巷18號","121.469025","25.0301233333333","6500100","板橋區"
"220047","317-R6","2018/12/06 13:58:31","新北市板橋區民生路二段226巷35號","121.471248333333","25.022325","6500100","板橋區"
"220038","487-VK","2018/12/06 13:58:34","新北市板橋區文化路二段239號","121.47106","25.0286233333333","6500100","板橋區"
"220037","491-VK","2018/12/06 13:58:30","新北市板橋區莒光路165巷8號","121.47414","25.0241316666667","6500100","板橋區"
"220104","560-BX","2018/12/06 13:58:42","新北市板橋區中正路341巷36號","121.453896666667","25.019995","6500100","板橋區"
"220052","561-BX","2018/12/06 13:58:27","新北市板橋區介壽街66號","121.469236666667","25.0194766666667","6500100","板橋區"
"220011","609-BX","2018/12/06 13:58:43","新北市板橋區中山路二段311號","121.478846666667","25.0184866666667","6500100","板橋區"
"220040","637-BX","2018/12/06 13:58:38","新北市板橋區大同街14-4號","121.477501666667","25.0270033333333","6500100","板橋區"
"220005","686-BX","2018/12/06 13:58:39","新北市板橋區重慶路290-1號","121.463461666667","24.9989366666667","6500100","板橋區"
"220025","687-BX","2018/12/06 13:58:31","新北市板橋區大觀路三段59巷17弄5-1號","121.434918333333","24.995465","6500100","板橋區"
"220042","689-BX","2018/12/06 13:58:34","新北市板橋區民生路三段131號","121.466113333333","25.0260233333333","6500100","板橋區"
"220002","741-BX","2018/12/06 13:58:44","新北市板橋區重慶路93巷47號","121.463356666667","25.00604","6500100","板橋區"
"220051","KEA-2699","2018/12/06 13:58:41","新北市板橋區田單街2巷25號","121.482065","25.0282516666667","6500100","板橋區"
"220003","827-TW","2018/12/06 13:58:29","新北市板橋區中山路一段104號","121.462711666667","25.0105","6500100","板橋區"
"220016","830-TW","2018/12/06 13:58:37","新北市板橋區三民路一段31巷36弄9號","121.481086666667","25.0227483333333","6500100","板橋區"
"220014","831-TW","2018/12/06 13:58:33","新北市板橋區三民路二段186巷28-1號","121.477733333333","25.0141666666667","6500100","板橋區"
"220022","895-R6","2018/12/06 13:58:44","新北市板橋區南雅南路一段115號","121.455348333333","25.004865","6500100","板橋區"
"220021","985-R7","2018/12/06 13:58:36","新北市板橋區館前西路195號","121.455278333333","25.0083766666667","6500100","板橋區"
"220046","AAC-210","2018/12/06 13:58:37","新北市板橋區新海路135巷33號","121.45992","25.0228233333333","6500100","板橋區"
"220012","AAC-253","2018/12/06 13:58:39","新北市板橋區板新路191號","121.468915","25.0158083333333","6500100","板橋區"
"235032","KEA-2873","2018/12/06 13:58:19","新北市中和區圓通路160-1號","121.49755","24.9955866666667","6500300","中和區"
"235025","KEA-2875","2018/12/06 13:58:35","新北市中和區員山路394巷12弄1號","121.481308333333","25.0043116666667","6500300","中和區"
