"lineid","car","time","location","longitude","latitude","cityid","cityname"
"248015","026-BX","2018/12/06 15:08:36","新北市五股區凌雲路一段158巷44號","121.447105","25.10385","6501500","五股區"
"248007","095-VK","2018/12/06 15:08:45","新北市五股區中興路一段1巷18號","121.469776666667","25.071055","6501500","五股區"
"248017","225-UY","2018/12/06 15:08:32","新北市五股區登林路97-1號","121.417013333333","25.0750533333333","6501500","五股區"
"248003","677-BX","2018/12/06 15:08:33","新北市五股區成泰路一段204號","121.436011666667","25.078745","6501500","五股區"
"248009","682-TV","2018/12/06 15:08:37","新北市五股區中興路二段103巷14號","121.458403333333","25.0763316666667","6501500","五股區"
"244003","248-BX","2018/12/06 15:08:36","新北市林口區竹林路267號","121.389556666667","25.08083","6501700","林口區"
"243001","297-R6","2018/12/06 15:08:39","新北市泰山區忠孝街19巷2弄24號","121.429015","25.0655033333333","6501600","泰山區"
"243008","KEA-2801","2018/12/06 15:08:43","新北市泰山區新生路28號","121.429236666667","25.0444716666667","6501600","泰山區"
"243007","421-VK","2018/12/06 15:08:41","新北市泰山區泰林路三段370巷23號","121.4118","25.0696616666667","6501600","泰山區"
"243003","KEA-2215","2018/12/06 15:08:34","新北市泰山區新北大道六段313巷13弄11號","121.424745","25.0338716666667","6501600","泰山區"
"243004","646-TV","2018/12/06 15:08:30","新北市泰山區忠孝街19巷3號","121.427461666667","25.0656766666667","6501600","泰山區"
"243006","680-BX","2018/12/06 15:08:29","新北市泰山區泰林路三段745巷145號","121.40561","25.0678483333333","6501600","泰山區"
"231002","002-UM","2018/12/06 15:08:41","新北市新店區中正路542-6號","121.533541666667","24.9861066666667","6500600","新店區"
"231027","0293-UT","2018/12/06 15:08:39","新北市新店區安民街35巷9弄6號","121.514908333333","24.9656933333333","6500600","新店區"
"231028","046-UY","2018/12/06 15:08:41","新北市新店區僑信路66號","121.499391666667","24.9491316666667","6500600","新店區"
"231001","047-UY","2018/12/06 15:08:40","新北市新店區中正路272號","121.538891666667","24.973625","6500600","新店區"
"231005","106-UY","2018/12/06 15:08:34","新北市新店區北新路三段198號","121.541456666667","24.9834383333333","6500600","新店區"
"231021","108-UY","2018/12/06 15:08:41","新北市新店區永福路54-2號","121.558128333333","24.92869","6500600","新店區"
"231011","187-VK","2018/12/06 15:08:31","新北市新店區寶元路一段65號","121.542253333333","24.985845","6500600","新店區"
"231018","188-VK","2018/12/06 15:08:45","新北市新店區中央六街76號","121.527048333333","24.9763533333333","6500600","新店區"
"231023","KEA-2219","2018/12/06 15:08:39","新北市新店區檳榔路109號","121.544481666667","24.9616533333333","6500600","新店區"
"231026","256-BX","2018/12/06 15:08:41","新北市新店區建興街9巷1號","121.539903333333","24.976365","6500600","新店區"
"231003","268-BY","2018/12/06 15:08:37","新北市新店區中興路二段224號","121.547865","24.9750666666667","6500600","新店區"
"231017","AAD-862","2018/12/06 15:08:34","新北市新店區明山路109號","121.56595","24.9595383333333","6500600","新店區"
"231038","3712-VJ","2018/12/06 15:08:37","新北市新店區安華路28-1號","121.519821666667","24.9610583333333","6500600","新店區"
"231037","4716-K9","2018/12/06 15:08:28","新北市新店區薏仁坑路自強巷1號","121.49745","24.95778","6500600","新店區"
"231025","4715-K9","2018/12/06 15:08:33","新北市新店區民權路188號","121.534208333333","24.98283","6500600","新店區"
"231036","512-UM","2018/12/06 15:08:38","新北市新店區安祥路104巷11弄11號","121.480855","24.96341","6500600","新店區"
"231034","616-UM","2018/12/06 15:08:32","新北市新店區玫瑰路4-1號","121.493546666667","24.9514233333333","6500600","新店區"
"231006","617-UM","2018/12/06 15:08:45","新北市新店區新坡一街18巷5弄23號","121.550765","24.961865","6500600","新店區"
"231030","619-UM","2018/12/06 15:08:39","新北市新店區安民街341-1號","121.51691","24.97497","6500600","新店區"
"231039","718-UY","2018/12/06 15:08:40","新北市新店區北新路三段78號","121.542273333333","24.9806683333333","6500600","新店區"
"231035","719-UY","2018/12/06 15:08:41","新北市新店區永安街56巷6-1號","121.518588333333","24.986295","6500600","新店區"
"231031","720-UM","2018/12/06 15:08:38","新北市新店區安泰路60巷85號","121.484173333333","24.9445133333333","6500600","新店區"
"231029","897-TW","2018/12/06 15:08:30","新北市新店區安康路三段738號","121.473878333333","24.9420016666667","6500600","新店區"
"231004","898-TW","2018/12/06 15:08:31","新北市新店區建國路51號","121.540561666667","24.9756766666667","6500600","新店區"
"231024","AKT-0513","2018/12/06 15:08:36","新北市新店區北新路一段297巷28號","121.540568333333","24.96819","6500600","新店區"
"241013","270-UM","2018/12/06 15:08:28","新北市三重區重新路四段121號","121.485073333333","25.0520216666667","6500200","三重區"
"235030","003-UY","2018/12/06 15:08:41","新北市中和區中山路二段41號","121.504538333333","25.0051266666667","6500300","中和區"
"235004","150-BY","2018/12/06 15:08:45","新北市中和區保健路26巷5號","121.508633333333","24.9975433333333","6500300","中和區"
"235036","301-VK","2018/12/06 15:08:43","新北市中和區板南路413號","121.492738333333","25.00028","6500300","中和區"
"235007","352-BY","2018/12/06 15:08:44","新北市中和區興南路二段159巷12號","121.505065","24.9831116666667","6500300","中和區"
"247011","KEA-2869","2018/12/06 15:08:28","新北市八里區商港路105巷15-1號","121.391628333333","25.1494433333333","6501400","蘆洲區"
"235014","4979-A6","2018/12/06 15:08:29","新北市中和區安樂路66號","121.512131666667","24.9932566666667","6500300","中和區"
"235033","4980-A6","2018/12/06 15:08:42","新北市中和區景新街96巷6號","121.50462","24.9983266666667","6500300","中和區"
"235034","558-UM","2018/12/06 15:08:40","新北市中和區中正路358號","121.493543333333","24.9941616666667","6500300","中和區"
"235018","640-BX","2018/12/06 15:08:26","新北市中和區民享街35巷19號","121.475","25.0040666666667","6500300","中和區"
"235035","783-BX","2018/12/06 15:08:40","新北市中和區中正路988巷15號","121.48195","25.0101316666667","6500300","中和區"
"235012","896-TW","2018/12/06 15:08:38","新北市中和區興南路一段156號","121.508271666667","24.9868783333333","6500300","中和區"
"235029","911-UM","2018/12/06 15:08:39","新北市中和區福美路312巷7號","121.496535","25.0051916666667","6500300","中和區"
"235001","AAC-213","2018/12/06 15:08:32","新北市中和區秀朗路三段177號","121.52435","24.9911683333333","6500300","中和區"
"235023","AAC-215","2018/12/06 15:08:38","新北市中和區圓通路335巷37弄12號","121.493753333333","24.9888766666667","6500300","中和區"
"220013","072-UY","2018/12/06 15:08:45","新北市板橋區忠孝路161號","121.463798333333","25.002455","6500100","板橋區"
"220105","075-UY","2018/12/06 15:08:35","新北市板橋區文聖街13號","121.475628333333","25.0322933333333","6500100","板橋區"
"228004","212-TW","2018/12/06 15:08:31","新北市貢寮區雙玉里田寮洋街16-2號","121.921833333333","25.025095","6502600","貢寮區"
"253003","6232-TK","2018/12/06 15:08:34","新北市石門區尖子鹿103-3號","121.582328333333","25.294795","6502200","石門區"
"253004","6251-TK","2018/12/06 15:08:41","新北市石門區小坑9號","121.594711666667","25.2865316666667","6502200","石門區"
"253002","637-UY","2018/12/06 15:07:49","新北市石門區中央路37-5號","121.570293333333","25.2967533333333","6502200","石門區"
"253001","KEC-0718","2018/12/06 15:08:32","新北市石門區中央路4-1號","121.565416666667","25.29124","6502200","石門區"
"207002","749-BX","2018/12/06 15:08:30","新北市萬里區崁腳里內中福路92號","121.654213333333","25.16455","6502800","萬里區"
"207001","662-BX","2018/12/06 15:08:33","新北市萬里區雙興里麗水路8-1號","121.649745","25.1875233333333","6502800","萬里區"
"236068","105-UM","2018/12/06 15:08:31","新北市土城區中央路一段57號","121.447811666667","24.990285","6501300","土城區"
"236040","KED-0685","2018/12/06 15:08:36","新北市土城區學士路13號","121.45365","24.9828316666667","6501300","土城區"
"236074","166-UM","2018/12/06 15:08:43","新北市土城區中州路3巷11弄4號","121.414058333333","24.9569183333333","6501300","土城區"
"236029","253-BX","2018/12/06 15:08:41","新北市土城區中央路二段80巷11弄1號","121.441433333333","24.9792883333333","6501300","土城區"
"236024","269-VK","2018/12/06 15:08:37","新北市土城區中正路6號","121.44241","24.975045","6501300","土城區"
"236012","270-VK","2018/12/06 15:08:28","新北市土城區學府路一段37巷30號","121.457378333333","24.987575","6501300","土城區"
"236032","271-VK","2018/12/06 15:08:32","新北市土城區青雲路295巷16弄57號","121.460341666667","24.9791466666667","6501300","土城區"
"236017","401-BY","2018/12/06 15:08:28","新北市土城區延峰街27巷2號","121.469361666667","24.9852333333333","6501300","土城區"
"236057","912-UM","2018/12/06 15:08:29","新北市土城區金城路二段217號","121.454813333333","24.9819116666667","6501300","土城區"
"236045","913-UM","2018/12/06 15:08:37","新北市土城區清水路149號","121.458496666667","24.98155","6501300","土城區"
"236060","915-UM","2018/12/06 15:08:42","新北市土城區延平街31號","121.468091666667","24.9917416666667","6501300","土城區"
"236054","AAC-216","2018/12/06 15:08:46","新北市土城區學府路一段276號","121.450246666667","24.9832983333333","6501300","土城區"
"238002","755-BX","2018/12/06 15:08:30","新北市樹林區東佳路18號","121.40841","24.9812533333333","6500700","樹林區"
"238006","599-UM","2018/12/06 15:08:43","新北市樹林區八德街108號","121.421108333333","24.9798583333333","6500700","樹林區"
"238005","571-TV","2018/12/06 15:08:48","新北市板橋區金門街215巷81弄5-1號","121.435006666667","24.989545","6500700","樹林區"
"238009","KEA-2213","2018/12/06 15:08:30","新北市樹林區八德街251巷17號","121.42296","24.97891","6500700","樹林區"
"238008","KEA-2539","2018/12/06 15:08:42","新北市樹林區西圳街一段165巷20弄11號","121.39565","24.9601816666667","6500700","樹林區"
"238012","303-VK","2018/12/06 15:08:37","新北市樹林區中山路一段296號","121.420358333333","24.9864266666667","6500700","樹林區"
"238004","283-BY","2018/12/06 15:08:43","新北市樹林區中華路190-6號","121.41008","24.9805466666667","6500700","樹林區"
"238001","282-BY","2018/12/06 15:08:32","新北市樹林區中山路三段107-1號","121.399863333333","24.9747083333333","6500700","樹林區"
"238007","268-VK","2018/12/06 15:08:33","新北市板橋區金門街215巷119號","121.43423","24.9869516666667","6500700","樹林區"
"238013","172-UY","2018/12/06 15:08:46","新北市樹林區東順街123號","121.406961666667","24.9751083333333","6500700","樹林區"
"238003","169-UY","2018/12/06 15:08:45","新北市樹林區中山路二段10號","121.41765","24.98508","6500700","樹林區"
"220030","610-BX","2018/12/06 15:08:38","新北市板橋區篤行路二段131巷19號","121.431633333333","24.990395","6500100","板橋區"
"220050","245-BX","2018/12/06 15:08:30","新北市板橋區莊敬路47號","121.473205","25.026795","6500100","板橋區"
"220031","286-VK","2018/12/06 15:08:43","新北市板橋區僑中二街90巷11號","121.445796666667","25.0092283333333","6500100","板橋區"
"220029","287-VK","2018/12/06 15:08:24","新北市板橋區僑中一街80巷10弄2號","121.447945","25.0127533333333","6500100","板橋區"
"220009","293-UM","2018/12/06 15:08:36","新北市板橋區中山路一段1號","121.459568333333","25.0074083333333","6500100","板橋區"
"220032","296-UM","2018/12/06 15:08:32","新北市樹林區八德街226-7號","121.414645","24.9711366666667","6500100","板橋區"
"220038","487-VK","2018/12/06 15:08:33","新北市板橋區四維路187號","121.464193333333","25.02675","6500100","板橋區"
"220037","491-VK","2018/12/06 15:08:30","新北市板橋區大同街71號","121.479473333333","25.0280216666667","6500100","板橋區"
"220052","561-BX","2018/12/06 15:08:47","新北市板橋區漢生東路53巷8號","121.466196666667","25.0169116666667","6500100","板橋區"
"220011","609-BX","2018/12/06 15:08:43","新北市板橋區三民路一段210號","121.479103333333","25.01955","6500100","板橋區"
"220005","686-BX","2018/12/06 15:08:37","新北市板橋區南雅南路二段49號","121.451485","24.9944116666667","6500100","板橋區"
"220025","687-BX","2018/12/06 15:08:42","新北市板橋區僑中一街128號","121.445666666667","25.0117633333333","6500100","板橋區"
"220042","689-BX","2018/12/06 15:08:34","新北市板橋區長江路二段6號","121.464603333333","25.03116","6500100","板橋區"
"220051","KEA-2699","2018/12/06 15:08:40","新北市板橋區莒光路79巷13-3號","121.472013333333","25.024675","6500100","板橋區"
"220003","827-TW","2018/12/06 15:08:35","新北市板橋區忠孝路48巷11弄9-2號","121.46176","24.9998366666667","6500100","板橋區"
"220016","830-TW","2018/12/06 15:08:37","新北市板橋區光復街230號","121.484815","25.0213783333333","6500100","板橋區"
"220014","831-TW","2018/12/06 15:08:33","新北市板橋區中山路一段206巷4弄1號","121.470288333333","25.0130833333333","6500100","板橋區"
"220022","895-R6","2018/12/06 15:08:43","新北市板橋區南雅南路一段7巷22弄11號","121.455648333333","25.0045816666667","6500100","板橋區"
"220021","985-R7","2018/12/06 15:08:35","新北市板橋區大觀路一段22號","121.450265","25.008535","6500100","板橋區"
"220012","AAC-253","2018/12/06 15:08:25","新北市板橋區民族路169號","121.468436666667","25.0075566666667","6500100","板橋區"
