"lineid","car","time","location","longitude","latitude","cityid","cityname"
"243012","646-TV","2018/12/06 15:36:59","新北市泰山區黎明路25號","121.422055","25.060685","6501600","泰山區"
"243014","680-BX","2018/12/06 15:41:14","新北市泰山區犁頭窠3-1號","121.422223333333","25.0605116666667","6501600","泰山區"
"231046","107-UY","2018/12/06 15:48:42","新北市新店區安一路一段1-1號","121.519845","24.9613883333333","6500600","新店區"
"231021","108-UY","2018/12/06 15:49:01","新北市新店區新烏路一段106號","121.545386666667","24.9366016666667","6500600","新店區"
"231011","187-VK","2018/12/06 15:48:51","新北市新店區中興路三段160號","121.544541666667","24.9807183333333","6500600","新店區"
"231018","188-VK","2018/12/06 15:48:45","新北市新店區中正路663巷7弄15號","121.53292","24.990095","6500600","新店區"
"231023","KEA-2219","2018/12/06 15:48:59","新北市新店區中興路一段252號","121.544258333333","24.9664983333333","6500600","新店區"
"231026","256-BX","2018/12/06 15:49:01","新北市新店區中正路546號","121.533533333333","24.9864416666667","6500600","新店區"
"231003","268-BY","2018/12/06 15:48:57","新北市新店區寶興路60巷3號","121.54992","24.9718733333333","6500600","新店區"
"231017","AAD-862","2018/12/06 15:48:54","新北市新店區中華路83巷2弄20號","121.538378333333","24.9691816666667","6500600","新店區"
"231038","3712-VJ","2018/12/06 15:48:57","新北市新店區安德街163號","121.508445","24.95934","6500600","新店區"
"231037","4716-K9","2018/12/06 15:48:48","新北市新店區安興路105-1號","121.514653333333","24.9776966666667","6500600","新店區"
"231013","513-UM","2018/12/06 15:48:53","新北市新店區華潭街52號","121.52904","24.9551783333333","6500600","新店區"
"231034","616-UM","2018/12/06 15:48:52","新北市新店區吉祥街15巷1號","121.497751666667","24.9455833333333","6500600","新店區"
"231030","619-UM","2018/12/06 15:48:59","新北市新店區永安街60號","121.51887","24.98688","6500600","新店區"
"231035","719-UY","2018/12/06 15:48:59","新北市新店區安興路83號","121.515118333333","24.97534","6500600","新店區"
"231031","720-UM","2018/12/06 15:48:58","新北市新店區玫瑰路58巷37號","121.49304","24.945925","6500600","新店區"
"231029","897-TW","2018/12/06 15:48:50","新北市新店區薏仁坑路8-2號","121.499485","24.9588833333333","6500600","新店區"
"241011","013-R5","2018/12/06 15:49:00","新北市三重區文化北路232-1號","121.49758","25.0693866666667","6500200","三重區"
"241028","022-UY","2018/12/06 15:48:54","新北市三重區中正南路113號","121.494055","25.0576166666667","6500200","三重區"
"241008","059-VK","2018/12/06 15:49:00","新北市三重區重新路四段121號","121.48493","25.051965","6500200","三重區"
"241022","060-VK","2018/12/06 15:48:52","新北市三重區三陽路170-1號","121.481163333333","25.0585233333333","6500200","三重區"
"241015","062-VK","2018/12/06 15:48:45","新北市三重區重新路四段121號","121.485031666667","25.0520483333333","6500200","三重區"
"241017","063-VK","2018/12/06 15:48:54","新北市三重區大仁街1號","121.491608333333","25.0636916666667","6500200","三重區"
"241024","065-VK","2018/12/06 15:48:48","新北市三重區成功路110-10號","121.485481666667","25.05043","6500200","三重區"
"241002","090-VK","2018/12/06 15:48:55","新北市三重區泉州街84巷20號","121.495871666667","25.0543716666667","6500200","三重區"
"241003","091-VK","2018/12/06 15:48:48","新北市三重區正義南路183號","121.49914","25.0563483333333","6500200","三重區"
"241005","262-UM","2018/12/06 15:48:58","新北市三重區環河南路99號","121.500906666667","25.0578133333333","6500200","三重區"
"241016","265-UM","2018/12/06 15:48:42","新北市三重區重新路四段121號","121.484708333333","25.052095","6500200","三重區"
"241009","267-UM","2018/12/06 15:48:46","新北市三重區捷運路36號","121.482965","25.0549916666667","6500200","三重區"
"241018","268-UM","2018/12/06 15:49:00","新北市三重區重新路四段121號","121.484765","25.05201","6500200","三重區"
"241013","270-UM","2018/12/06 15:48:48","新北市三重區六張街30號","121.495205","25.0705233333333","6500200","三重區"
"241025","271-UM","2018/12/06 15:48:56","新北市三重區名源街61巷17號","121.480971666667","25.0589666666667","6500200","三重區"
"241007","398-BY","2018/12/06 15:48:52","新北市三重區忠孝路二段102號","121.483328333333","25.0691516666667","6500200","三重區"
"241004","475-VK","2018/12/06 15:48:52","新北市三重區重新路四段121號","121.48485","25.0520216666667","6500200","三重區"
"241020","478-VK","2018/12/06 15:48:56","新北市三重區忠孝路二段46號","121.485131666667","25.0704716666667","6500200","三重區"
"241014","543-UM","2018/12/06 15:48:48","新北市三重區重新路四段121號","121.484883333333","25.0520416666667","6500200","三重區"
"241023","545-UM","2018/12/06 15:49:00","新北市三重區忠孝路三段84巷18號","121.480816666667","25.06468","6500200","三重區"
"241026","743-BX","2018/12/06 15:48:14","新北市三重區環河南路231號","121.492211666667","25.05143","6500200","三重區"
"241006","887-TS","2018/12/06 15:48:47","新北市三重區捷運路36號","121.482805","25.055265","6500200","三重區"
"241012","941-UM","2018/12/06 15:49:01","新北市三重區文化北路132巷1號","121.498441666667","25.0667433333333","6500200","三重區"
"241029","942-UM","2018/12/06 15:48:45","新北市三重區大同南路246號","121.496978333333","25.0557","6500200","三重區"
"235033","4980-A6","2018/12/06 15:48:53","新北市中和區連城路469巷44弄16號","121.482815","24.99419","6500300","中和區"
"235026","800-TS","2018/12/06 15:49:01","新北市中和區橋和路88-1號","121.490368333333","25.0053883333333","6500300","中和區"
"235023","AAC-215","2018/12/06 15:48:58","新北市中和區員山路49-8號","121.480553333333","24.9914016666667","6500300","中和區"
"228003","097-TW","2018/12/06 15:36:31","新北市貢寮區貢寮里朝陽街1-2號","121.912373333333","25.0212633333333","6502600","貢寮區"
"224007","275-VK","2018/12/06 15:48:51","新北市瑞芳區大寮路356-1號","121.784833333333","25.1032966666667","6501200","瑞芳區"
"227004","642-TC","2018/12/06 15:48:53","新北市雙溪區平林里外平林44號","121.852925","25.0363266666667","6502500","雙溪區"
"227010","400-TW","2018/12/06 15:48:55","新北市雙溪區牡丹里聖南8號","121.859343333333","25.0521383333333","6502500","雙溪區"
"253003","6232-TK","2018/12/06 15:48:54","新北市石門區小坑9號","121.593865","25.2876816666667","6502200","石門區"
"236068","105-UM","2018/12/06 15:48:51","新北市土城區中山路28號","121.423348333333","24.9634","6501300","土城區"
"236074","166-UM","2018/12/06 15:48:51","新北市土城區福安街100號","121.417453333333","24.9639916666667","6501300","土城區"
"236024","269-VK","2018/12/06 15:48:56","新北市土城區中央路一段249巷17號","121.445971666667","24.9855816666667","6501300","土城區"
"247008","KED-0683","2018/12/06 15:48:54","新北市五股區中興路三段2巷10號","121.449045","25.0810766666667","6501400","蘆洲區"
"236017","401-BY","2018/12/06 15:49:00","新北市土城區延吉街21巷1號","121.472368333333","24.98851","6501300","土城區"
"236057","912-UM","2018/12/06 15:48:50","新北市土城區中央路一段179號","121.446211666667","24.9873633333333","6501300","土城區"
"236045","913-UM","2018/12/06 15:48:54","新北市土城區金城路三段1號","121.464135","24.9860433333333","6501300","土城區"
"236054","AAC-216","2018/12/06 15:48:53","新北市土城區中華路二段62號","121.438866666667","24.976685","6501300","土城區"
"238002","755-BX","2018/12/06 15:48:57","新北市樹林區樹德街136巷13弄3號","121.419711666667","24.9934016666667","6500700","樹林區"
"238010","601-UM","2018/12/06 15:48:51","新北市樹林區龍興街29號","121.403126666667","25.0159666666667","6500700","樹林區"
"238006","599-UM","2018/12/06 15:48:43","新北市樹林區忠孝街99號","121.424486666667","24.980955","6500700","樹林區"
"238005","571-TV","2018/12/06 15:48:48","新北市樹林區博愛街215號","121.42401","24.9868266666667","6500700","樹林區"
"238011","5061-A6","2018/12/06 15:48:50","新北市樹林區山佳街57-1號","121.392956666667","24.9724533333333","6500700","樹林區"
"238009","KEA-2213","2018/12/06 15:48:50","新北市樹林區太順街62巷3弄10號","121.417143333333","24.9796483333333","6500700","樹林區"
"238008","KEA-2539","2018/12/06 15:48:46","新北市樹林區柑園街二段150號","121.38228","24.9544116666667","6500700","樹林區"
"238012","303-VK","2018/12/06 15:48:57","新北市樹林區保安二街125號","121.42312","24.995435","6500700","樹林區"
"238004","283-BY","2018/12/06 15:48:53","新北市樹林區保安街二段197巷8號","121.413935","25.0031083333333","6500700","樹林區"
"238001","282-BY","2018/12/06 15:48:52","新北市樹林區保安二街40巷23號","121.42584","24.9942983333333","6500700","樹林區"
"238007","268-VK","2018/12/06 15:48:54","新北市樹林區三俊街199巷35-3號","121.420991666667","25.0181866666667","6500700","樹林區"
"238013","172-UY","2018/12/06 15:48:46","新北市樹林區佳園路一段2-8號","121.392653333333","24.9717683333333","6500700","樹林區"
"238003","169-UY","2018/12/06 15:48:54","新北市樹林區復興路356號","121.415998333333","24.9861116666667","6500700","樹林區"
"220012","AAC-253","2018/12/06 15:48:45","新北市板橋區金門街369巷99號","121.428373333333","24.9812416666667","6500100","板橋區"
