"lineid","car","time","location","longitude","latitude","cityid","cityname"
"249005","172-UM","2018/12/06 17:28:54","新北市八里區荖阡坑路38號","121.408998333333","25.12518","6502300","八里區"
"249001","173-UM","2018/12/06 17:28:48","新北市八里區中華路一段5-1號","121.42271","25.1583133333333","6502300","八里區"
"249004","303-UY","2018/12/06 17:28:52","新北市八里區賢一街219號","121.415638333333","25.1558666666667","6502300","八里區"
"249002","305-UY","2018/12/06 17:29:01","新北市八里區龍形五街29號","121.4497","25.133295","6502300","八里區"
"249003","593-UM","2018/12/06 17:28:46","新北市八里區中山路二段398號","121.40056","25.1478316666667","6502300","八里區"
"244023","069-UM","2018/12/06 17:28:53","新北市林口區東明一街35巷6號","121.392368333333","25.07195","6501700","林口區"
"244007","080-UY","2018/12/06 17:28:53","新北市林口區湖子8-2號","121.392063333333","25.0921","6501700","林口區"
"244019","402-UM","2018/12/06 17:28:53","新北市林口區文化一路一段83巷14弄59號","121.37163","25.0708966666667","6501700","林口區"
"244013","KEA-2802","2018/12/06 17:28:56","新北市林口區粉寮路二段157號","121.404243333333","25.0881533333333","6501700","林口區"
"244017","485-VK","2018/12/06 17:28:43","新北市林口區中山路262-1號","121.3845","25.08002","6501700","林口區"
"244009","656-BX","2018/12/06 17:28:46","新北市林口區文化一路二段197巷10號","121.38321","25.0828683333333","6501700","林口區"
"244011","701-TV","2018/12/06 17:28:54","新北市林口區仁愛路一段641號","121.388883333333","25.0766633333333","6501700","林口區"
"244025","837-TS","2018/12/06 17:29:00","新北市林口區忠孝一路20號","121.364271666667","25.073095","6501700","林口區"
"244021","838-TS","2018/12/06 17:28:50","新北市林口區醒吾新村13號","121.396245","25.079185","6501700","林口區"
"243014","680-BX","2018/12/06 17:28:52","新北市泰山區黎明路37-2號","121.42199","25.0600266666667","6501600","泰山區"
"231046","107-UY","2018/12/06 17:29:02","新北市新店區直潭路92號","121.530925","24.9375733333333","6500600","新店區"
"241015","062-VK","2018/12/06 17:29:05","新北市三重區長元街65巷20弄18號","121.503538333333","25.0661266666667","6500200","三重區"
"241017","063-VK","2018/12/06 17:28:54","新北市三重區大同北路34巷38號","121.494138333333","25.0622533333333","6500200","三重區"
"241024","065-VK","2018/12/06 17:28:48","新北市三重區中正北路193巷21弄18號","121.477325","25.070655","6500200","三重區"
"241003","091-VK","2018/12/06 17:28:48","新北市三重區五華街141巷57號","121.493551666667","25.0864066666667","6500200","三重區"
"251014","742-BX","2018/12/06 17:28:29","新北市淡水區公埔子20-8號","121.469296666667","25.2280283333333","6501000","淡水區"
"241005","262-UM","2018/12/06 17:28:58","新北市三重區永安北路二段43巷18號","121.482948333333","25.0827516666667","6500200","三重區"
"241016","265-UM","2018/12/06 17:29:02","新北市三重區信義西街148號","121.495355","25.0639133333333","6500200","三重區"
"241009","267-UM","2018/12/06 17:28:45","新北市三重區車路頭街142號","121.484106666667","25.075735","6500200","三重區"
"241018","268-UM","2018/12/06 17:29:00","新北市三重區中正北路23號","121.492276666667","25.0615466666667","6500200","三重區"
"241032","269-UM","2018/12/06 17:29:02","新北市三重區名源街31號","121.481831666667","25.06053","6500200","三重區"
"241013","270-UM","2018/12/06 17:28:48","新北市三重區仁愛街97號","121.495696666667","25.07364","6500200","三重區"
"241025","271-UM","2018/12/06 17:28:56","新北市三重區中正北路402號","121.475691666667","25.070385","6500200","三重區"
"241007","398-BY","2018/12/06 17:28:51","新北市三重區三和路四段145巷105號","121.487016666667","25.0790016666667","6500200","三重區"
"241004","475-VK","2018/12/06 17:28:52","新北市三重區集賢路83號","121.494516666667","25.08697","6500200","三重區"
"241020","478-VK","2018/12/06 17:28:56","新北市三重區忠孝路二段35號","121.485891666667","25.0710516666667","6500200","三重區"
"241030","480-VK","2018/12/06 17:28:56","新北市三重區新興路53號","121.491476666667","25.05384","6500200","三重區"
"241014","543-UM","2018/12/06 17:28:48","新北市三重區安和路13號","121.501291666667","25.0683333333333","6500200","三重區"
"241023","545-UM","2018/12/06 17:29:00","新北市三重區忠孝路三段84巷26號","121.481443333333","25.064445","6500200","三重區"
"241019","KEA-2593","2018/12/06 17:28:44","新北市三重區六張街160號","121.489353333333","25.0687816666667","6500200","三重區"
"241012","941-UM","2018/12/06 17:29:01","新北市三重區仁昌街93-2號","121.499643333333","25.0749833333333","6500200","三重區"
"247012","KEA-2869","2018/12/06 17:28:58","新北市蘆洲區民族路100號","121.478233333333","25.085165","6501400","蘆洲區"
"247006","KED-0682","2018/12/06 17:28:44","新北市蘆洲區長安街48號","121.463426666667","25.07974","6501400","蘆洲區"
"235062","800-TS","2018/12/06 17:00:47","新北市中和區員山路36巷16-3號","121.484886666667","24.9915433333333","6500300","中和區"
"235065","911-UM","2018/12/06 17:28:59","新北市中和區員山路36巷16-2號","121.485293333333","24.991785","6500300","中和區"
"247002","893-R6","2018/12/06 17:28:51","新北市蘆洲區永樂街38巷57弄2號","121.458546666667","25.090205","6501400","蘆洲區"
"247016","546-UM","2018/12/06 17:28:51","新北市蘆洲區光華路22巷39號","121.468361666667","25.08467","6501400","蘆洲區"
"247024","500-BY","2018/12/06 17:28:48","新北市蘆洲區長興路393號","121.461168333333","25.09179","6501400","蘆洲區"
"247004","341-TH","2018/12/06 17:28:53","新北市蘆洲區中原路33號","121.460178333333","25.082515","6501400","蘆洲區"
"247010","337-TH","2018/12/06 17:28:54","新北市蘆洲區中山一路120巷29號","121.478231666667","25.0821133333333","6501400","蘆洲區"
"247020","057-VK","2018/12/06 17:28:55","新北市蘆洲區水湳街172-1號","121.47032","25.093835","6501400","蘆洲區"
"247014","053-VK","2018/12/06 17:29:00","新北市蘆洲區三民路105號","121.47272","25.0855533333333","6501400","蘆洲區"
"247018","007-UY","2018/12/06 17:28:58","新北市蘆洲區民權路113號","121.472341666667","25.0894183333333","6501400","蘆洲區"
"247022","001-UY","2018/12/06 17:28:49","新北市蘆洲區三民路341-2號","121.464891666667","25.090935","6501400","蘆洲區"
"228003","097-TW","2018/12/06 17:28:58","新北市貢寮區仁理村研海街45號","121.925773333333","25.0432516666667","6502600","貢寮區"
"228001","212-TW","2018/12/06 17:28:59","新北市貢寮區仁理村仁愛路39號","121.925026666667","25.0533766666667","6502600","貢寮區"
"228002","585-TW","2018/12/06 17:28:44","新北市貢寮區福隆里興隆街36號","121.941003333333","25.0174033333333","6502600","貢寮區"
"224010","AGQ-8101","2018/12/06 17:29:03","新北市瑞芳區逢甲路139號","121.807196666667","25.1097283333333","6501200","瑞芳區"
"224006","676-BX","2018/12/06 17:29:00","新北市瑞芳區傑魚坑路87號","121.792678333333","25.110455","6501200","瑞芳區"
"224008","285-BY","2018/12/06 17:28:56","新北市瑞芳區侯硐路204號","121.8304","25.0881983333333","6501200","瑞芳區"
"224009","273-VK","2018/12/06 17:29:05","新北市瑞芳區汽車路87號","121.843355","25.109765","6501200","瑞芳區"
"224005","271-BY","2018/12/06 17:28:44","新北市瑞芳區南雅路1號","121.89491","25.1198833333333","6501200","瑞芳區"
"227004","642-TC","2018/12/06 17:28:53","新北市雙溪區平林里外平林72號","121.844151666667","25.032835","6502500","雙溪區"
"251009","008-UM","2018/12/06 17:28:45","新北市淡水區重建街1巷6-1號","121.439765","25.1733633333333","6501000","淡水區"
"251004","009-UM","2018/12/06 17:19:14","新北市淡水區中正東路二段88巷15號","121.459003333333","25.1505966666667","6501000","淡水區"
"251005","010-UM","2018/12/06 17:28:59","新北市淡水區鄧公路31巷3號","121.451411666667","25.17078","6501000","淡水區"
"251002","012-UM","2018/12/06 17:28:58","新北市淡水區中正路437號","121.431963333333","25.17474","6501000","淡水區"
"251013","KEA-2871","2018/12/06 17:28:43","新北市淡水區大竹圍5-1號","121.4665","25.1946316666667","6501000","淡水區"
"251016","179-VK","2018/12/06 17:28:55","新北市淡水區社厝坑12號","121.464223333333","25.1916633333333","6501000","淡水區"
"251008","181-VK","2018/12/06 17:28:51","新北市淡水區大同路105巷12號","121.462813333333","25.1408366666667","6501000","淡水區"
"251015","182-VK","2018/12/06 17:28:46","新北市淡水區三空泉17-5號","121.473386666667","25.16547","6501000","淡水區"
"251010","413-VK","2018/12/06 17:28:50","新北市淡水區中正路二段211號","121.426218333333","25.1891283333333","6501000","淡水區"
"251012","441-VK","2018/12/06 17:28:51","新北市淡水區北新路111號","121.448071666667","25.1783816666667","6501000","淡水區"
"251007","442-VK","2018/12/06 17:29:01","新北市淡水區民生路60號","121.462126666667","25.13795","6501000","淡水區"
"251006","561-UM","2018/12/06 17:28:58","新北市淡水區大仁街12號","121.442326666667","25.174885","6501000","淡水區"
"251011","650-BX","2018/12/06 17:29:03","新北市淡水區坪頂路712號","121.482533333333","25.1585","6501000","淡水區"
"251003","766-UM","2018/12/06 17:28:51","新北市淡水區中山路157號","121.440626666667","25.172555","6501000","淡水區"
"207003","550-UM","2018/12/06 17:28:47","新北市萬里區龜吼里玉田路46-1號","121.68326","25.1894583333333","6502800","萬里區"
"207004","225-TW","2018/12/06 17:29:00","新北市萬里區萬里里景美路16號","121.68666","25.17334","6502800","萬里區"
"252002","178-VK","2018/12/06 17:29:03","新北市三芝區忠孝街1-15號","121.505545","25.2539383333333","6502100","三芝區"
"252001","292-VK","2018/12/06 17:29:01","新北市三芝區長安街119號","121.498066666667","25.2596416666667","6502100","三芝區"
"237012","275-BY","2018/12/06 17:29:04","新北市三峽區中山路459巷137號","121.349948333333","24.933945","6500900","三峽區"
"237016","649-BX","2018/12/06 17:28:47","新北市三峽區中山路196號","121.363438333333","24.9370183333333","6500900","三峽區"
"247008","KED-0683","2018/12/06 17:29:00","新北市蘆洲區信義路30巷15號","121.474548333333","25.0788016666667","6501400","蘆洲區"
"242036","AAC-296","2018/12/06 17:28:57","新北市新莊區建國二路1號","121.434968333333","25.0235566666667","6500500","新莊區"
"242058","986-R7","2018/12/06 17:28:57","新北市新莊區中正路615號","121.432355","25.0320033333333","6500500","新莊區"
"242056","751-BX","2018/12/06 17:28:54","新北市新莊區新莊路457號","121.449553333333","25.03325","6500500","新莊區"
"242027","615-BX","2018/12/06 17:28:56","新北市新莊區思源路32號","121.460238333333","25.0405","6500500","新莊區"
"242025","613-BX","2018/12/06 17:28:56","新北市新莊區復興路二段21巷15號","121.454251666667","25.0442616666667","6500500","新莊區"
"242029","612-BX","2018/12/06 17:28:54","新北市新莊區復興路二段168號","121.45818","25.044325","6500500","新莊區"
"242044","566-BX","2018/12/06 17:29:00","新北市新莊區富國路101-1號","121.421383333333","25.0255216666667","6500500","新莊區"
"242048","497-BY","2018/12/06 17:28:44","新北市新莊區四維路210號","121.421443333333","25.0200966666667","6500500","新莊區"
"242053","441-UM","2018/12/06 17:28:45","新北市新莊區新樹路607號","121.43346","25.005555","6500500","新莊區"
"242002","440-UM","2018/12/06 17:28:53","新北市新莊區新莊路154號","121.455228333333","25.0354366666667","6500500","新莊區"
"242039","415-TV","2018/12/06 17:28:54","新北市新莊區民安路278號","121.427785","25.02146","6500500","新莊區"
"242009","413-TV","2018/12/06 17:28:44","新北市新莊區中原路111號","121.455708333333","25.0543733333333","6500500","新莊區"
"242046","400-BY","2018/12/06 17:28:48","新北市新莊區新樹路65-10號","121.439325","25.030035","6500500","新莊區"
"242023","362-BY","2018/12/06 17:28:50","新北市新莊區中華路一段108號","121.452475","25.0399783333333","6500500","新莊區"
"242061","353-BY","2018/12/06 17:29:03","新北市新莊區瓊林南路1號","121.43861","25.020785","6500500","新莊區"
"242011","132-UY","2018/12/06 17:28:53","新北市新莊區中誠街16巷20號","121.452153333333","25.0488983333333","6500500","新莊區"
"242034","135-UY","2018/12/06 17:29:01","新北市新莊區新莊路368號","121.44937","25.0334666666667","6500500","新莊區"
"242051","172-VK","2018/12/06 17:28:51","新北市新莊區新樹路449巷8弄1號","121.433173333333","25.01366","6500500","新莊區"
"242013","173-VK","2018/12/06 17:28:47","新北市新莊區中誠街145號","121.448803333333","25.0474216666667","6500500","新莊區"
"242019","175-VK","2018/12/06 17:28:57","新北市新莊區中港路105號","121.455368333333","25.0395316666667","6500500","新莊區"
"242017","233-RS","2018/12/06 17:28:58","新北市新莊區中華路一段246號","121.45274","25.0436516666667","6500500","新莊區"
"242031","348-TH","2018/12/06 17:29:02","新北市新莊區新泰路401巷29-1號","121.442436666667","25.0438766666667","6500500","新莊區"
"242004","349-TH","2018/12/06 17:28:47","新北市新莊區中港路282號","121.453006666667","25.044105","6500500","新莊區"
"242021","350-TH","2018/12/06 17:28:55","新北市新莊區中華路一段18號","121.451983333333","25.0371283333333","6500500","新莊區"
"242015","351-TH","2018/12/06 17:28:53","新北市新莊區新泰路157號","121.447745","25.0369333333333","6500500","新莊區"
"238015","755-BX","2018/12/06 17:28:52","新北市樹林區大安路201號","121.420645","24.9956866666667","6500700","樹林區"
"238023","601-UM","2018/12/06 17:28:51","新北市樹林區三福街114號","121.406498333333","25.0164216666667","6500700","樹林區"
"238019","599-UM","2018/12/06 17:28:43","新北市樹林區太平路13號","121.41904","24.983635","6500700","樹林區"
"238018","571-TV","2018/12/06 17:29:02","新北市樹林區鎮前街159號","121.423776666667","24.9886733333333","6500700","樹林區"
"238024","5061-A6","2018/12/06 17:28:58","新北市樹林區鎮前街152號","121.424561666667","24.9903083333333","6500700","樹林區"
"238022","KEA-2213","2018/12/06 17:28:54","新北市樹林區仁愛街16號","121.422148333333","24.9819383333333","6500700","樹林區"
"238021","KEA-2539","2018/12/06 17:28:51","新北市樹林區民權街5巷17號","121.395711666667","24.9582583333333","6500700","樹林區"
"238025","303-VK","2018/12/06 17:28:45","新北市樹林區保安街二段37-1號","121.416188333333","25.000105","6500700","樹林區"
"238017","283-BY","2018/12/06 17:29:02","新北市樹林區三德街12號","121.413313333333","25.0128883333333","6500700","樹林區"
"238014","282-BY","2018/12/06 17:28:52","新北市樹林區長壽街88號","121.419966666667","24.99601","6500700","樹林區"
"238020","268-VK","2018/12/06 17:28:53","新北市樹林區千歲街111-1號","121.42926","25.0016466666667","6500700","樹林區"
"238026","172-UY","2018/12/06 17:28:46","新北市樹林區中山路二段249巷35號","121.4037","24.97533","6500700","樹林區"
"238016","169-UY","2018/12/06 17:27:24","新北市樹林區日新街24號","121.422803333333","24.99294","6500700","樹林區"
"239007","AAC-297","2018/12/06 17:28:54","新北市鶯歌區仁愛路17號","121.353736666667","24.95618","6500800","鶯歌區"
"239006","891-R6","2018/12/06 17:29:00","新北市鶯歌區鶯桃路362-1號","121.333841666667","24.962845","6500800","鶯歌區"
"239008","527-UM","2018/12/06 17:28:49","新北市鶯歌區大湖路349號","121.337993333333","24.9719933333333","6500800","鶯歌區"
"239005","526-UM","2018/12/06 17:29:03","新北市鶯歌區福德三街15號","121.329723333333","24.9674333333333","6500800","鶯歌區"
"239001","417-VK","2018/12/06 17:28:55","新北市鶯歌區高職西街68號","121.336558333333","24.9420466666667","6500800","鶯歌區"
"239003","360-BY","2018/12/06 17:28:44","新北市鶯歌區德昌街201號","121.330043333333","24.96026","6500800","鶯歌區"
"239002","359-BY","2018/12/06 17:28:53","新北市鶯歌區國慶街82號","121.35027","24.9546016666667","6500800","鶯歌區"
"239004","193-VK","2018/12/06 17:28:56","新北市鶯歌區三鶯路9號","121.356466666667","24.941235","6500800","鶯歌區"
"221008","489-VK","2018/12/06 17:28:56","新北市汐止區康寧街901號","121.651375","25.0750533333333","6501100","汐止區"
"221010","269-BY","2018/12/06 17:28:59","新北市汐止區汐萬路一段256巷3號","121.652096666667","25.0747216666667","6501100","汐止區"
"242042","281-VK","2018/12/06 17:28:56","新北市新莊區新樹路111號","121.43786","25.0266566666667","6500500","新莊區"
"242007","280-VK","2018/12/06 17:28:45","新北市新莊區自強街33號","121.454708333333","25.0465266666667","6500500","新莊區"
"220012","AAC-253","2018/12/06 17:29:05","新北市板橋區華東街1-10號","121.448385","24.994915","6500100","板橋區"
"235061","KEA-2875","2018/12/06 17:24:55","新北市中和區員山路36巷16-2號","121.485366666667","24.9916083333333","6500300","中和區"
