"lineid","car","time","location","longitude","latitude","cityid","cityname"
"234026","9371-KE","2018/12/06 17:38:52","新北市永和區永和路一段208號","121.514296666667","25.0093666666667","6500400","永和區"
"249005","172-UM","2018/12/06 17:38:54","新北市八里區荖阡坑路34-1號","121.402656666667","25.1296583333333","6502300","八里區"
"249001","173-UM","2018/12/06 17:38:48","新北市八里區龍米路二段168號","121.434715","25.158045","6502300","八里區"
"249004","303-UY","2018/12/06 17:38:52","新北市八里區大崁二街12-1號","121.418556666667","25.1573166666667","6502300","八里區"
"249002","305-UY","2018/12/06 17:38:57","新北市八里區龍形五街37巷20號","121.445668333333","25.1341816666667","6502300","八里區"
"249003","593-UM","2018/12/06 17:38:46","新北市八里區中山路二段173號","121.404873333333","25.1504416666667","6502300","八里區"
"232011","375-UM","2018/12/06 17:38:56","新北市坪林區水柳腳37號","121.709861666667","24.9351766666667","6502000","坪林區"
"244023","069-UM","2018/12/06 17:36:53","新北市林口區東明一街142巷12-1號","121.389875","25.0712033333333","6501700","林口區"
"244007","080-UY","2018/12/06 17:38:53","新北市林口區林口路287號","121.386031666667","25.0847683333333","6501700","林口區"
"244019","402-UM","2018/12/06 17:38:53","新北市林口區忠孝路512巷25號","121.371051666667","25.0683366666667","6501700","林口區"
"244013","KEA-2802","2018/12/06 17:38:56","新北市林口區中正路555號","121.381135","25.076865","6501700","林口區"
"244017","485-VK","2018/12/06 17:39:03","新北市林口區文化二路一段170號","121.369135","25.0716433333333","6501700","林口區"
"244009","656-BX","2018/12/06 17:38:46","新北市林口區文化一路二段179號","121.383291666667","25.0815866666667","6501700","林口區"
"244011","701-TV","2018/12/06 17:38:54","新北市林口區中正路354號","121.386405","25.077705","6501700","林口區"
"244025","837-TS","2018/12/06 17:39:00","新北市林口區文化三路一段375號","121.364715","25.0732166666667","6501700","林口區"
"244021","838-TS","2018/12/06 17:37:50","新北市林口區仁愛路一段179號","121.398578333333","25.0735166666667","6501700","林口區"
"243014","680-BX","2018/12/06 17:38:52","新北市泰山區犁頭窠3-1號","121.422478333333","25.0605783333333","6501600","泰山區"
"222002","016-RS","2018/12/06 17:38:57","新北市深坑區深南路1號","121.622048333333","25.0049866666667","6501800","深坑區"
"231046","107-UY","2018/12/06 17:38:42","新北市新店區直潭路92號","121.530915","24.9375666666667","6500600","新店區"
"251014","742-BX","2018/12/06 17:38:49","新北市淡水區公埔子15-1號","121.479205","25.226685","6501000","淡水區"
"241005","262-UM","2018/12/06 17:38:58","新北市三重區永安北路二段5巷27號","121.482541666667","25.0810483333333","6500200","三重區"
"241016","265-UM","2018/12/06 17:39:02","新北市三重區正義北路22號","121.497575","25.063135","6500200","三重區"
"241007","398-BY","2018/12/06 17:38:32","新北市三重區車路頭街98號","121.484333333333","25.074545","6500200","三重區"
"241024","462-BY","2018/12/06 17:39:00","新北市三重區大勇街15號","121.483313333333","25.071475","6500200","三重區"
"241014","543-UM","2018/12/06 17:38:48","新北市三重區長元街98巷21弄28號","121.503365","25.0678333333333","6500200","三重區"
"241023","545-UM","2018/12/06 17:39:00","新北市三重區中華路101號","121.483645","25.063225","6500200","三重區"
"241012","941-UM","2018/12/06 17:39:01","新北市三重區仁興街40號","121.49905","25.0757283333333","6500200","三重區"
"247012","KEA-2869","2018/12/06 17:38:58","新北市蘆洲區民權路35號","121.47587","25.0865666666667","6501400","蘆洲區"
"247006","KED-0682","2018/12/06 17:38:43","新北市蘆洲區長安街22巷37號","121.464905","25.0802566666667","6501400","蘆洲區"
"235065","911-UM","2018/12/06 17:38:59","新北市中和區員山路36巷16-2號","121.48524","24.991765","6500300","中和區"
"247002","893-R6","2018/12/06 17:38:51","新北市蘆洲區永平街32巷11弄25號","121.457985","25.091705","6501400","蘆洲區"
"247016","546-UM","2018/12/06 17:38:51","新北市蘆洲區光華路72號","121.468011666667","25.0828783333333","6501400","蘆洲區"
"247024","500-BY","2018/12/06 17:38:48","新北市蘆洲區長樂路125-1號","121.462111666667","25.0880733333333","6501400","蘆洲區"
"247004","341-TH","2018/12/06 17:38:53","新北市蘆洲區永安南路二段306號","121.457331666667","25.0823316666667","6501400","蘆洲區"
"247010","337-TH","2018/12/06 17:38:54","新北市蘆洲區中山一路43號","121.478883333333","25.08092","6501400","蘆洲區"
"247020","057-VK","2018/12/06 17:38:55","新北市蘆洲區民族路341號","121.472773333333","25.0918966666667","6501400","蘆洲區"
"247014","053-VK","2018/12/06 17:39:00","新北市蘆洲區中山二路44號","121.47407","25.0821266666667","6501400","蘆洲區"
"247018","007-UY","2018/12/06 17:38:58","新北市蘆洲區三民路110巷51號","121.472621666667","25.0882066666667","6501400","蘆洲區"
"247022","001-UY","2018/12/06 17:38:49","新北市蘆洲區中正路315號","121.466223333333","25.0885383333333","6501400","蘆洲區"
"228003","097-TW","2018/12/06 17:38:58","新北市貢寮區仁理村仁和路224號","121.923861666667","25.0535416666667","6502600","貢寮區"
"228002","585-TW","2018/12/06 17:39:04","新北市貢寮區福隆里龜壽谷街12號","121.956048333333","25.0062316666667","6502600","貢寮區"
"224010","AGQ-8101","2018/12/06 17:38:43","新北市瑞芳區岳王路10-5號","121.8075","25.11103","6501200","瑞芳區"
"224006","676-BX","2018/12/06 17:39:04","新北市瑞芳區中山路326號","121.7965","25.110115","6501200","瑞芳區"
"224008","285-BY","2018/12/06 17:38:56","新北市瑞芳區瑞柑新村31號","121.830736666667","25.1066133333333","6501200","瑞芳區"
"224009","273-VK","2018/12/06 17:39:03","新北市瑞芳區山尖路174號","121.847786666667","25.1117933333333","6501200","瑞芳區"
"224005","271-BY","2018/12/06 17:38:44","新北市瑞芳區海濱路8-6號","121.831668333333","25.12617","6501200","瑞芳區"
"227004","642-TC","2018/12/06 17:37:32","新北市雙溪區共和里東榮街52號","121.866318333333","25.0336683333333","6502500","雙溪區"
"251009","008-UM","2018/12/06 17:38:45","新北市淡水區中正路32號","121.443946666667","25.1691716666667","6501000","淡水區"
"251004","009-UM","2018/12/06 17:39:00","新北市淡水區中正東路二段88巷37-22號","121.459301666667","25.1437933333333","6501000","淡水區"
"251005","010-UM","2018/12/06 17:38:59","新北市淡水區鄧公路33巷14號","121.451873333333","25.1708883333333","6501000","淡水區"
"251002","012-UM","2018/12/06 17:38:58","新北市淡水區中山路151-7號","121.440291666667","25.1725","6501000","淡水區"
"251013","KEA-2871","2018/12/06 17:38:43","新北市淡水區演戲埔腳12號","121.469316666667","25.1942616666667","6501000","淡水區"
"251016","179-VK","2018/12/06 17:38:55","新北市淡水區埤島39-15號","121.452761666667","25.1958683333333","6501000","淡水區"
"251008","181-VK","2018/12/06 17:38:51","新北市淡水區八勢路一段110號","121.467236666667","25.15592","6501000","淡水區"
"251015","182-VK","2018/12/06 17:38:46","新北市淡水區樹林口168號","121.476225","25.1668133333333","6501000","淡水區"
"251010","413-VK","2018/12/06 17:38:50","新北市淡水區淡海路280巷16號","121.419788333333","25.18974","6501000","淡水區"
"251012","441-VK","2018/12/06 17:38:51","新北市淡水區北新路200巷8號","121.451785","25.1797083333333","6501000","淡水區"
"251007","442-VK","2018/12/06 17:39:01","新北市淡水區民生路124巷10號","121.463933333333","25.137945","6501000","淡水區"
"251006","561-UM","2018/12/06 17:38:58","新北市淡水區大信街32號","121.442223333333","25.1770816666667","6501000","淡水區"
"251011","650-BX","2018/12/06 17:39:03","新北市淡水區小坪頂12-2號","121.48687","25.1560216666667","6501000","淡水區"
"251003","766-UM","2018/12/06 17:38:51","新北市淡水區中山北路一段52號","121.441853333333","25.175615","6501000","淡水區"
"207003","550-UM","2018/12/06 17:38:47","新北市萬里區野柳里東澳路66號","121.692825","25.20097","6502800","萬里區"
"207004","225-TW","2018/12/06 17:38:46","新北市萬里區中幅里中福路22號","121.682165","25.1652366666667","6502800","萬里區"
"252002","178-VK","2018/12/06 17:38:43","新北市三芝區中正路二段11號","121.504603333333","25.255565","6502100","三芝區"
"252001","292-VK","2018/12/06 17:39:01","新北市三芝區淡金路一段87號","121.502256666667","25.25901","6502100","三芝區"
"237007","153-BY","2018/12/06 17:38:54","新北市三峽區中山路237號","121.362698333333","24.937195","6500900","三峽區"
"237012","275-BY","2018/12/06 17:38:44","新北市三峽區中山路459巷163-3號","121.34903","24.9333033333333","6500900","三峽區"
"237011","KEA-2596","2018/12/06 17:38:55","新北市三峽區大智路61號","121.36052","24.93604","6500900","三峽區"
"237016","649-BX","2018/12/06 17:38:47","新北市三峽區正義街5號","121.370016666667","24.9200783333333","6500900","三峽區"
"237010","706-TV","2018/12/06 17:39:00","新北市三峽區中山路157號","121.364643333333","24.9364283333333","6500900","三峽區"
"236070","105-UM","2018/12/06 17:39:00","新北市土城區明德路二段112號","121.444991666667","24.9842133333333","6501300","土城區"
"236042","KED-0685","2018/12/06 17:38:55","新北市土城區城林路6巷80號","121.438526666667","24.9797183333333","6501300","土城區"
"236078","166-UM","2018/12/06 17:39:04","新北市土城區城林路6巷80號","121.438468333333","24.9796483333333","6501300","土城區"
"236014","270-VK","2018/12/06 17:38:45","新北市土城區城林路6巷80號","121.43849","24.9795933333333","6501300","土城區"
"236038","271-VK","2018/12/06 17:38:57","新北市土城區城林路6巷80號","121.438573333333","24.9796416666667","6501300","土城區"
"247008","KED-0683","2018/12/06 17:38:53","新北市蘆洲區民生街131巷2號","121.472578333333","25.0790016666667","6501400","蘆洲區"
"236021","401-BY","2018/12/06 17:38:42","新北市土城區城林路6巷80號","121.438808333333","24.9796366666667","6501300","土城區"
"236055","AAC-216","2018/12/06 17:38:59","新北市土城區城林路6巷80號","121.438725","24.9796383333333","6501300","土城區"
"242036","AAC-296","2018/12/06 17:38:57","新北市新莊區建福路59巷39號","121.428361666667","25.0278366666667","6500500","新莊區"
"242058","986-R7","2018/12/06 17:38:56","新北市新莊區中正路723-9號","121.422908333333","25.0290633333333","6500500","新莊區"
"242056","751-BX","2018/12/06 17:39:00","新北市新莊區新莊路543巷9弄23號","121.448483333333","25.03195","6500500","新莊區"
"242027","615-BX","2018/12/06 17:38:56","新北市新莊區福壽街107號","121.457965","25.050805","6500500","新莊區"
"242025","613-BX","2018/12/06 17:38:56","新北市新莊區思源路70號","121.460001666667","25.044555","6500500","新莊區"
"242029","612-BX","2018/12/06 17:38:54","新北市新莊區復興路一段143號","121.450298333333","25.043225","6500500","新莊區"
"242044","566-BX","2018/12/06 17:39:00","新北市新莊區中正路875號","121.418113333333","25.0269066666667","6500500","新莊區"
"242048","497-BY","2018/12/06 17:38:44","新北市新莊區萬安街131號","121.420603333333","25.0222183333333","6500500","新莊區"
"242053","441-UM","2018/12/06 17:38:56","新北市新莊區新樹路699巷42號","121.433053333333","25.0011083333333","6500500","新莊區"
"242002","440-UM","2018/12/06 17:38:53","新北市新莊區新莊路413號","121.450685","25.0335","6500500","新莊區"
"242039","415-TV","2018/12/06 17:38:54","新北市新莊區民安東路20號","121.428341666667","25.0208816666667","6500500","新莊區"
"242009","413-TV","2018/12/06 17:38:59","新北市新莊區福壽街169巷14號","121.457188333333","25.0537966666667","6500500","新莊區"
"242046","400-BY","2018/12/06 17:38:48","新北市新莊區福營路25巷20號","121.43729","25.031845","6500500","新莊區"
"242023","362-BY","2018/12/06 17:38:50","新北市新莊區公園路236號","121.457438333333","25.0407283333333","6500500","新莊區"
"242061","353-BY","2018/12/06 17:38:57","新北市新莊區瓊林南路60號","121.434666666667","25.0138716666667","6500500","新莊區"
"242011","132-UY","2018/12/06 17:38:56","新北市新莊區中華路二段205巷10號","121.451536666667","25.052735","6500500","新莊區"
"242034","135-UY","2018/12/06 17:39:01","新北市新莊區新莊路637號","121.445263333333","25.0328433333333","6500500","新莊區"
"242051","172-VK","2018/12/06 17:38:44","新北市新莊區西盛街169號","121.428186666667","25.01747","6500500","新莊區"
"242013","173-VK","2018/12/06 17:38:54","新北市新莊區中誠街89號","121.450183333333","25.0476816666667","6500500","新莊區"
"242019","175-VK","2018/12/06 17:39:01","新北市新莊區中港路236號","121.454046666667","25.0430216666667","6500500","新莊區"
"242017","233-RS","2018/12/06 17:38:58","新北市新莊區復興路一段149巷21弄1號","121.450213333333","25.04406","6500500","新莊區"
"242031","348-TH","2018/12/06 17:39:04","新北市新莊區新泰路359號","121.443251666667","25.04279","6500500","新莊區"
"242004","349-TH","2018/12/06 17:38:43","新北市新莊區自立街188號","121.456261666667","25.0454166666667","6500500","新莊區"
"242021","350-TH","2018/12/06 17:38:55","新北市新莊區中華路一段180號","121.452685","25.0419","6500500","新莊區"
"242015","351-TH","2018/12/06 17:38:53","新北市新莊區新泰路300號","121.445418333333","25.040975","6500500","新莊區"
"238015","755-BX","2018/12/06 17:38:52","新北市樹林區樹德街121號","121.41961","24.99257","6500700","樹林區"
"238023","601-UM","2018/12/06 17:38:51","新北市樹林區三福街114號","121.406498333333","25.0163983333333","6500700","樹林區"
"238019","599-UM","2018/12/06 17:39:03","新北市樹林區太平路127巷10號","121.419741666667","24.9806016666667","6500700","樹林區"
"238018","571-TV","2018/12/06 17:39:02","新北市樹林區鎮前街10號","121.426245","24.9932383333333","6500700","樹林區"
"238022","KEA-2213","2018/12/06 17:38:50","新北市樹林區太元街30號","121.418053333333","24.9802316666667","6500700","樹林區"
"238021","KEA-2539","2018/12/06 17:39:00","新北市樹林區柑園街一段323號","121.39181","24.956355","6500700","樹林區"
"238025","303-VK","2018/12/06 17:39:05","新北市樹林區保安街三段16號","121.412588333333","25.011145","6500700","樹林區"
"238017","283-BY","2018/12/06 17:39:02","新北市樹林區三德街22號","121.414068333333","25.012965","6500700","樹林區"
"238014","282-BY","2018/12/06 17:38:52","新北市樹林區保安街一段336巷25號","121.417661666667","24.999085","6500700","樹林區"
"238020","268-VK","2018/12/06 17:38:54","新北市樹林區俊英街116巷106號","121.428555","25.0060933333333","6500700","樹林區"
"238026","172-UY","2018/12/06 17:38:46","新北市樹林區新興街21號","121.400363333333","24.9727483333333","6500700","樹林區"
"238016","169-UY","2018/12/06 17:38:04","新北市樹林區育英街120號","121.419981666667","24.9894133333333","6500700","樹林區"
"239007","AAC-297","2018/12/06 17:38:54","新北市鶯歌區鶯桃路182巷27號","121.339208333333","24.9575383333333","6500800","鶯歌區"
"239006","891-R6","2018/12/06 17:39:00","新北市鶯歌區鶯桃路466號","121.3324","24.9655416666667","6500800","鶯歌區"
"239008","527-UM","2018/12/06 17:38:49","新北市鶯歌區宏德司法新村61號","121.334305","24.9788233333333","6500800","鶯歌區"
"239005","526-UM","2018/12/06 17:38:43","新北市鶯歌區福隆一街25號","121.325213333333","24.9715433333333","6500800","鶯歌區"
"239001","417-VK","2018/12/06 17:38:55","新北市鶯歌區中正三路236-8號","121.33036","24.93689","6500800","鶯歌區"
"239003","360-BY","2018/12/06 17:38:45","新北市鶯歌區鶯桃路297-1號","121.334666666667","24.9603633333333","6500800","鶯歌區"
"239002","359-BY","2018/12/06 17:38:53","新北市鶯歌區育智路88號","121.345001666667","24.95443","6500800","鶯歌區"
"239004","193-VK","2018/12/06 17:38:56","新北市鶯歌區三鶯路107號","121.359481666667","24.9442216666667","6500800","鶯歌區"
"221008","489-VK","2018/12/06 17:38:56","新北市汐止區康寧街901號","121.651386666667","25.07508","6501100","汐止區"
"221010","269-BY","2018/12/06 17:38:59","新北市汐止區汐萬路一段418巷37號","121.650811666667","25.078855","6501100","汐止區"
"221023","279-VK","2018/12/06 17:38:55","新北市汐止區汐萬路一段256巷1號","121.651701666667","25.0748833333333","6501100","汐止區"
"221021","299-VK","2018/12/06 17:38:55","新北市汐止區汐萬路一段256巷3號","121.652091666667","25.07487","6501100","汐止區"
"221031","353-TW","2018/12/06 17:38:51","新北市汐止區康寧街901號","121.650881666667","25.075215","6501100","汐止區"
"221002","707-TV","2018/12/06 17:38:50","新北市汐止區康寧街901號","121.651483333333","25.075025","6501100","汐止區"
"242042","281-VK","2018/12/06 17:39:05","新北市新莊區中正路514巷85號","121.431451666667","25.0341783333333","6500500","新莊區"
"242007","280-VK","2018/12/06 17:38:45","新北市新莊區福樂街69號","121.457151666667","25.047785","6500500","新莊區"
"220012","AAC-253","2018/12/06 17:38:45","新北市板橋區華東街1-10號","121.448376666667","24.994925","6500100","板橋區"
"235061","KEA-2875","2018/12/06 17:24:55","新北市中和區員山路36巷16-2號","121.485366666667","24.9916083333333","6500300","中和區"
