"lineid","car","time","location","longitude","latitude","cityid","cityname"
"234007","207-UY","2018/12/06 18:18:49","新北市永和區光復街33巷7號","121.515606666667","25.0181233333333","6500400","永和區"
"234026","9371-KE","2018/12/06 18:18:52","新北市永和區豫溪街28巷22號","121.515008333333","25.0089083333333","6500400","永和區"
"234011","9373-KE","2018/12/06 18:18:56","新北市永和區保福路二段158巷1號","121.509133333333","25.0150616666667","6500400","永和區"
"249005","172-UM","2018/12/06 18:18:54","新北市八里區荖阡坑路15-3號","121.401043333333","25.14026","6502300","八里區"
"249001","173-UM","2018/12/06 18:18:48","新北市八里區龍米路一段178號","121.452041666667","25.1273516666667","6502300","八里區"
"249004","303-UY","2018/12/06 18:18:52","新北市八里區龍米路二段236-2號","121.431535","25.1589666666667","6502300","八里區"
"249002","305-UY","2018/12/06 18:18:57","新北市八里區龍形二街41號","121.450095","25.1329683333333","6502300","八里區"
"248014","025-BX","2018/12/06 18:18:49","新北市五股區自強路21號","121.43449","25.0740666666667","6501500","五股區"
"248016","026-BX","2018/12/06 18:19:04","新北市五股區西雲路293號","121.449295","25.0993166666667","6501500","五股區"
"248006","077-UY","2018/12/06 18:18:52","新北市五股區中興路一段155號","121.464941666667","25.0737","6501500","五股區"
"248008","095-VK","2018/12/06 18:18:54","新北市五股區更洲路32巷8弄14號","121.459248333333","25.0796233333333","6501500","五股區"
"248020","225-UY","2018/12/06 18:18:59","新北市五股區孝義路47巷11號","121.453461666667","25.110025","6501500","五股區"
"248012","247-BX","2018/12/06 18:18:53","新北市五股區御成路33號","121.441111666667","25.0912616666667","6501500","五股區"
"248004","677-BX","2018/12/06 18:18:56","新北市五股區成泰路二段87號","121.438251666667","25.0841183333333","6501500","五股區"
"248002","678-BX","2018/12/06 18:19:02","新北市五股區西雲路46號","121.443483333333","25.0909716666667","6501500","五股區"
"248010","682-TV","2018/12/06 18:18:48","新北市五股區成泰路一段139巷2弄3號","121.435041666667","25.0730516666667","6501500","五股區"
"232011","375-UM","2018/12/06 18:18:56","新北市坪林區坪雙路一段43號","121.711721666667","24.9424166666667","6502000","坪林區"
"244023","069-UM","2018/12/06 18:18:53","新北市林口區仁愛路二段71號","121.384913333333","25.0756283333333","6501700","林口區"
"244007","080-UY","2018/12/06 18:18:53","新北市林口區湖子16號","121.385398333333","25.0901216666667","6501700","林口區"
"244019","402-UM","2018/12/06 18:18:52","新北市林口區忠孝路594巷8號","121.37595","25.0676716666667","6501700","林口區"
"244013","KEA-2802","2018/12/06 18:18:56","新北市林口區中山路235號","121.386093333333","25.0793916666667","6501700","林口區"
"244017","485-VK","2018/12/06 18:19:03","新北市林口區八德路78號","121.365476666667","25.065645","6501700","林口區"
"244009","656-BX","2018/12/06 18:18:46","新北市林口區文化三路二段291-10號","121.378025","25.0863516666667","6501700","林口區"
"244011","658-BX","2018/12/06 18:18:59","新北市林口區中正路74巷5弄4號","121.39454","25.0779983333333","6501700","林口區"
"244025","837-TS","2018/12/06 18:19:00","新北市林口區南勢六街23號","121.356791666667","25.0707833333333","6501700","林口區"
"244021","838-TS","2018/12/06 18:18:50","新北市林口區自強三街21號","121.397818333333","25.07763","6501700","林口區"
"243014","680-BX","2018/12/06 17:49:59","新北市泰山區黎明路25號","121.422023333333","25.0606233333333","6501600","泰山區"
"222002","016-RS","2018/12/06 18:18:57","新北市深坑區雲鄉路2號","121.620936666667","24.99989","6501800","深坑區"
"222003","436-BY","2018/12/06 18:18:47","新北市深坑區旺耽路67號","121.626271666667","25.0029983333333","6501800","深坑區"
"231041","002-UM","2018/12/06 18:18:57","新北市新店區安華路28-1號","121.519691666667","24.9608133333333","6500600","新店區"
"231059","046-UY","2018/12/06 18:19:01","新北市新店區安華路28-1號","121.519615","24.96084","6500600","新店區"
"231040","047-UY","2018/12/06 18:18:57","新北市新店區安華路28-1號","121.51912","24.9609216666667","6500600","新店區"
"231044","106-UY","2018/12/06 18:18:56","新北市新店區安華路28-1號","121.519561666667","24.960855","6500600","新店區"
"231046","107-UY","2018/12/06 18:19:02","新北市新店區直潭七街60號","121.532236666667","24.939785","6500600","新店區"
"231052","108-UY","2018/12/06 18:19:03","新北市新店區安一路一段1-1號","121.519676666667","24.9611083333333","6500600","新店區"
"231047","187-VK","2018/12/06 18:18:56","新北市新店區安一路一段1-1號","121.519633333333","24.96115","6500600","新店區"
"231054","KEA-2219","2018/12/06 18:18:55","新北市新店區安華路28-1號","121.520156666667","24.961065","6500600","新店區"
"231057","256-BX","2018/12/06 18:18:56","新北市新店區安一路一段1-1號","121.519593333333","24.9610683333333","6500600","新店區"
"231042","268-BY","2018/12/06 18:18:48","新北市新店區安華路1-1號","121.519438333333","24.9602283333333","6500600","新店區"
"231051","278-BY","2018/12/06 18:18:55","新北市新店區安華路28-1號","121.519778333333","24.9609516666667","6500600","新店區"
"231050","AAD-862","2018/12/06 18:18:58","新北市新店區安華路28-1號","121.52023","24.96094","6500600","新店區"
"231058","3713-VJ","2018/12/06 18:19:02","新北市新店區安康路一段323-1號","121.52176","24.9637783333333","6500600","新店區"
"231056","4715-K9","2018/12/06 18:19:01","新北市新店區中央路3號","121.533846666667","24.9787383333333","6500600","新店區"
"231067","4772-VM","2018/12/06 18:18:58","新北市新店區安華路1-1號","121.519191666667","24.9604666666667","6500600","新店區"
"231065","512-UM","2018/12/06 18:18:51","新北市新店區安一路一段1-1號","121.51922","24.9612733333333","6500600","新店區"
"231049","513-UM","2018/12/06 18:19:00","新北市新店區安一路一段1-1號","121.51961","24.9611766666667","6500600","新店區"
"231063","616-UM","2018/12/06 18:18:47","新北市新店區安華路1-1號","121.519486666667","24.960465","6500600","新店區"
"231045","617-UM","2018/12/06 18:18:56","新北市新店區安華路28-1號","121.519295","24.9607616666667","6500600","新店區"
"231061","619-UM","2018/12/06 18:18:57","新北市新店區安華路28-1號","121.519518333333","24.960535","6500600","新店區"
"231064","719-UY","2018/12/06 18:18:50","新北市新店區安一路一段1-1號","121.519691666667","24.9611183333333","6500600","新店區"
"231062","720-UM","2018/12/06 18:19:02","新北市新店區安一路一段1-1號","121.519355","24.9611616666667","6500600","新店區"
"231060","897-TW","2018/12/06 18:18:55","新北市新店區安華路28-1號","121.519476666667","24.9608166666667","6500600","新店區"
"231043","898-TW","2018/12/06 18:18:59","新北市新店區安華路28-1號","121.519093333333","24.9608433333333","6500600","新店區"
"231055","AKT-0513","2018/12/06 18:19:02","新北市新店區北新路一段89號","121.53845","24.9616433333333","6500600","新店區"
"251014","742-BX","2018/12/06 18:18:49","新北市淡水區崙頂16號","121.491953333333","25.2215433333333","6501000","淡水區"
"235066","003-UY","2018/12/06 18:19:01","新北市中和區中山路二段121號","121.502751666667","25.0035683333333","6500300","中和區"
"235064","005-UY","2018/12/06 18:18:54","新北市中和區圓通路145巷9弄2號","121.498025","24.9949333333333","6500300","中和區"
"235063","006-UY","2018/12/06 18:18:44","新北市中和區中正路579號","121.486305","24.9944166666667","6500300","中和區"
"235056","096-UM","2018/12/06 18:19:04","新北市中和區中山路二段479號","121.483061666667","25.0049833333333","6500300","中和區"
"235039","097-UM","2018/12/06 18:18:57","新北市中和區安平路65號","121.510021666667","24.99548","6500300","中和區"
"235040","150-BY","2018/12/06 18:14:41","新北市中和區中正路305號","121.492731666667","24.9939166666667","6500300","中和區"
"235058","151-BY","2018/12/06 18:18:43","新北市中和區圓通路367巷2號","121.491348333333","24.989425","6500300","中和區"
"235055","183-VK","2018/12/06 18:18:49","新北市中和區連城路469巷70弄4號","121.483316666667","24.9936616666667","6500300","中和區"
"235038","185-VK","2018/12/06 18:18:46","新北市中和區自立路48號","121.522991666667","24.9921683333333","6500300","中和區"
"235049","186-VK","2018/12/06 18:19:05","新北市中和區中正路525號","121.488031666667","24.9935766666667","6500300","中和區"
"235067","255-BX","2018/12/06 18:18:52","新北市中和區和城路一段271巷1號","121.485711666667","24.991705","6500300","中和區"
"235072","301-VK","2018/12/06 18:18:47","新北市中和區連城路301號","121.489806666667","24.9961566666667","6500300","中和區"
"235043","352-BY","2018/12/06 18:18:57","新北市中和區景平路381號","121.503913333333","24.99329","6500300","中和區"
"235042","KEA-2878","2018/12/06 18:19:01","新北市中和區大仁街20巷25弄21號","121.518656666667","24.9936416666667","6500300","中和區"
"247012","KEA-2869","2018/12/06 18:18:58","新北市五股區中興路二段182巷15弄13號","121.457255","25.081405","6501400","蘆洲區"
"235050","4979-A6","2018/12/06 18:18:52","新北市中和區捷運路61巷3號","121.508805","24.9895366666667","6500300","中和區"
"235069","4980-A6","2018/12/06 18:18:46","新北市中和區中正路577號","121.486395","24.9945366666667","6500300","中和區"
"235041","551-UM","2018/12/06 18:18:55","新北市中和區中正路545巷1號","121.487325","24.993575","6500300","中和區"
"235070","558-UM","2018/12/06 18:18:59","新北市中和區圓通路88號","121.499781666667","24.9969333333333","6500300","中和區"
"235045","565-BX","2018/12/06 18:18:57","新北市中和區景安路200巷9號","121.503186666667","24.9918366666667","6500300","中和區"
"235054","640-BX","2018/12/06 18:19:01","新北市中和區莒光路203-2號","121.471675","24.9978983333333","6500300","中和區"
"235060","647-TV","2018/12/06 18:19:00","新北市中和區員山路109號","121.480853333333","24.994665","6500300","中和區"
"235047","732-UM","2018/12/06 18:18:57","新北市中和區南山路250巷2號","121.507768333333","24.98897","6500300","中和區"
"235046","733-UM","2018/12/06 18:18:57","新北市中和區中正路571巷1弄9號","121.48713","24.9935633333333","6500300","中和區"
"235071","783-BX","2018/12/06 18:18:53","新北市中和區員山路36巷16-3號","121.48516","24.9912183333333","6500300","中和區"
"235062","800-TS","2018/12/06 18:19:02","新北市中和區景平路999巷3號","121.495353333333","25.0058066666667","6500300","中和區"
"235057","801-TS","2018/12/06 18:19:05","新北市中和區民享街97巷19號","121.475388333333","24.9995383333333","6500300","中和區"
"235052","805-TS","2018/12/06 18:18:46","新北市中和區興南路一段137號","121.508918333333","24.9876066666667","6500300","中和區"
"235048","896-TW","2018/12/06 18:18:53","新北市中和區中正路525號","121.488061666667","24.9935133333333","6500300","中和區"
"235053","900-TW","2018/12/06 18:18:50","新北市中和區員山路36巷16-3號","121.484815","24.9917266666667","6500300","中和區"
"235065","911-UM","2018/12/06 18:18:59","新北市中和區莊敬路49巷18號","121.501651666667","25.0062116666667","6500300","中和區"
"235051","157-BY","2018/12/06 18:18:52","新北市中和區信義街103號","121.512016666667","24.9870983333333","6500300","中和區"
"235037","AAC-213","2018/12/06 18:18:57","新北市中和區景德街63號","121.517148333333","24.99145","6500300","中和區"
"226004","312-R5","2018/12/06 18:18:54","新北市平溪區薯榔里一坑路1號","121.713998333333","25.0213666666667","6502400","平溪區"
"228003","097-TW","2018/12/06 18:18:58","新北市貢寮區和美里和美街63號","121.922633333333","25.0705016666667","6502600","貢寮區"
"228001","212-TW","2018/12/06 18:19:03","新北市貢寮區真理里新港街26巷55弄2-1號","121.92736","25.0528433333333","6502600","貢寮區"
"228002","585-TW","2018/12/06 18:19:04","新北市貢寮區福連里馬崗街1號","121.998183333333","25.016055","6502600","貢寮區"
"224006","676-BX","2018/12/06 18:18:52","新北市瑞芳區三爪子坑路64-32號","121.808898333333","25.1057616666667","6501200","瑞芳區"
"224008","285-BY","2018/12/06 18:18:56","新北市瑞芳區明燈路二段79號","121.810441666667","25.1082366666667","6501200","瑞芳區"
"224007","275-VK","2018/12/06 18:18:50","新北市瑞芳區大埔路有勝新村2號","121.764825","25.1013983333333","6501200","瑞芳區"
"224009","273-VK","2018/12/06 18:19:03","新北市瑞芳區五號路4號","121.854788333333","25.1104033333333","6501200","瑞芳區"
"224005","271-BY","2018/12/06 18:19:04","新北市瑞芳區建基路二段5號","121.81029","25.1323583333333","6501200","瑞芳區"
"227004","642-TC","2018/12/06 18:18:56","新北市雙溪區共和里中山路2號","121.863806666667","25.03376","6502500","雙溪區"
"227010","400-TW","2018/12/06 18:19:01","新北市雙溪區牡丹里牡丹73號","121.85171","25.0593333333333","6502500","雙溪區"
"253006","032-BX","2018/12/06 18:18:55","新北市石門區老梅路56號","121.54648","25.28914","6502200","石門區"
"253005","295-VK","2018/12/06 18:19:01","新北市石門區中央路18號","121.567836666667","25.2924583333333","6502200","石門區"
"222001","KEA-2212","2018/12/06 18:18:52","新北市深坑區北深路二段58號","121.619076666667","25.0042233333333","6501800","深坑區"
"208002","KEA-2872","2018/12/06 18:18:58","新北市金山區清泉里清水路60巷4號","121.62977","25.2357866666667","6502700","金山區"
"208003","665-BX","2018/12/06 18:18:48","新北市金山區民生路88號","121.648246666667","25.223795","6502700","金山區"
"208001","761-BX","2018/12/06 18:18:59","新北市金山區民生路151-2號","121.644673333333","25.2227033333333","6502700","金山區"
"251004","009-UM","2018/12/06 18:19:00","新北市淡水區民族路71號","121.463008333333","25.13446","6501000","淡水區"
"251005","010-UM","2018/12/06 18:18:59","新北市淡水區水源街一段122巷37號","121.447095","25.1704966666667","6501000","淡水區"
"251001","011-UM","2018/12/06 18:18:48","新北市淡水區自強路110-8號","121.461665","25.13139","6501000","淡水區"
"251002","012-UM","2018/12/06 18:18:58","新北市淡水區中正東路一段77號","121.452826666667","25.162105","6501000","淡水區"
"251013","KEA-2871","2018/12/06 18:19:04","新北市淡水區行忠路592號","121.468908333333","25.1992583333333","6501000","淡水區"
"251016","179-VK","2018/12/06 18:18:55","新北市淡水區淡金路三段194號","121.44892","25.2035133333333","6501000","淡水區"
"251008","181-VK","2018/12/06 18:18:50","新北市淡水區水源街二段210號","121.459533333333","25.17656","6501000","淡水區"
"251015","182-VK","2018/12/06 18:18:46","新北市淡水區興福寮88巷1號","121.485263333333","25.1648983333333","6501000","淡水區"
"251010","413-VK","2018/12/06 18:18:50","新北市淡水區淡海路196號","121.420258333333","25.185335","6501000","淡水區"
"251012","441-VK","2018/12/06 18:18:51","新北市淡水區北新路二段77-5號","121.480505","25.1855266666667","6501000","淡水區"
"251006","561-UM","2018/12/06 18:18:58","新北市淡水區新民街76巷47-1號","121.43935","25.17794","6501000","淡水區"
"251011","650-BX","2018/12/06 18:19:03","新北市淡水區坪頂路51巷2號","121.458121666667","25.1625716666667","6501000","淡水區"
"251003","766-UM","2018/12/06 18:18:51","新北市淡水區北新路180號","121.449418333333","25.178765","6501000","淡水區"
"207003","550-UM","2018/12/06 18:18:47","新北市萬里區野柳里港東路7號","121.686778333333","25.2033016666667","6502800","萬里區"
"207004","225-TW","2018/12/06 18:18:46","新北市萬里區中幅里中福路125號","121.67581","25.1659366666667","6502800","萬里區"
"252002","178-VK","2018/12/06 18:19:03","新北市三芝區中山路二段39號","121.502901666667","25.2550983333333","6502100","三芝區"
"252003","249-BX","2018/12/06 18:19:02","新北市三芝區錫板里南勢崗8號","121.479091666667","25.2617783333333","6502100","三芝區"
"252001","292-VK","2018/12/06 18:19:01","新北市三芝區中興街二段2號","121.498423333333","25.256655","6502100","三芝區"
"237004","KEA-2597","2018/12/06 18:18:48","新北市三峽區大埔路417號","121.37327","24.8926116666667","6500900","三峽區"
"237007","153-BY","2018/12/06 18:18:54","新北市三峽區中正路三段42號","121.357253333333","24.9046033333333","6500900","三峽區"
"237009","210-TH","2018/12/06 18:18:55","新北市三峽區中山路106巷28號","121.366218333333","24.9370716666667","6500900","三峽區"
"237013","252-BX","2018/12/06 18:18:48","新北市三峽區長泰街10號","121.378765","24.9308966666667","6500900","三峽區"
"237012","275-BY","2018/12/06 18:19:04","新北市三峽區民生街1巷5-11號","121.378651666667","24.9358716666667","6500900","三峽區"
"237008","302-VK","2018/12/06 18:18:59","新北市三峽區白雞64-9號","121.38434","24.9124816666667","6500900","三峽區"
"237014","433-BY","2018/12/06 18:18:58","新北市三峽區國光街81巷1號","121.373938333333","24.9384783333333","6500900","三峽區"
"237006","5529-G3","2018/12/06 18:18:50","新北市三峽區溪東路231號","121.406381666667","24.93262","6500900","三峽區"
"237011","KEA-2596","2018/12/06 18:18:55","新北市三峽區溪東路215號","121.406021666667","24.9328383333333","6500900","三峽區"
"237016","649-BX","2018/12/06 18:18:47","新北市三峽區紫微路42-1號","121.422356666667","24.9201566666667","6500900","三峽區"
"237010","706-TV","2018/12/06 18:19:00","新北市三峽區民族街83號","121.369503333333","24.9292716666667","6500900","三峽區"
"237005","AKY-6261","2018/12/06 18:18:55","新北市三峽區忠孝街25-7號","121.37131","24.9342833333333","6500900","三峽區"
"236070","105-UM","2018/12/06 18:19:00","新北市土城區明德路一段97號","121.465603333333","24.982975","6501300","土城區"
"236042","KED-0685","2018/12/06 18:19:01","新北市土城區裕生路21巷6弄2-1號","121.448773333333","24.98706","6501300","土城區"
"236078","166-UM","2018/12/06 18:19:04","新北市土城區中央路三段281巷23弄20號","121.426393333333","24.961485","6501300","土城區"
"236030","253-BX","2018/12/06 18:19:04","新北市土城區中央路二段180巷15號","121.440971666667","24.9765583333333","6501300","土城區"
"236026","269-VK","2018/12/06 18:18:48","新北市土城區承天路67號","121.439536666667","24.9634866666667","6501300","土城區"
"236014","270-VK","2018/12/06 18:18:45","新北市土城區立清街69號","121.460246666667","24.98731","6501300","土城區"
"236038","271-VK","2018/12/06 18:18:38","新北市土城區青雲路451巷8弄12號","121.459496666667","24.9741116666667","6501300","土城區"
"236021","401-BY","2018/12/06 18:19:02","新北市土城區金城路二段48號","121.451403333333","24.9789616666667","6501300","土城區"
"236059","912-UM","2018/12/06 18:18:56","新北市土城區中央路四段291號","121.411308333333","24.9523716666667","6501300","土城區"
"236049","913-UM","2018/12/06 18:18:54","新北市土城區明德路一段375-1號","121.455023333333","24.9780583333333","6501300","土城區"
"236063","915-UM","2018/12/06 18:18:54","新北市土城區金城路三段202號","121.469208333333","24.9884566666667","6501300","土城區"
"236055","AAC-216","2018/12/06 18:18:59","新北市土城區中華路二段102號","121.438038333333","24.9743216666667","6501300","土城區"
"242058","986-R7","2018/12/06 18:18:56","新北市新莊區新北大道七段842號","121.413701666667","25.0236516666667","6500500","新莊區"
"242056","751-BX","2018/12/06 18:18:54","新北市新莊區瓊林路13-3號","121.44881","25.0309766666667","6500500","新莊區"
"242027","615-BX","2018/12/06 18:18:56","新北市新莊區幸福路821號","121.445325","25.0490383333333","6500500","新莊區"
"242025","613-BX","2018/12/06 18:18:55","新北市新莊區五工三路97號","121.45804","25.0653416666667","6500500","新莊區"
"242044","566-BX","2018/12/06 18:19:02","新北市新莊區鳳山街56巷19號","121.414006666667","25.026235","6500500","新莊區"
"242053","441-UM","2018/12/06 18:19:05","新北市新莊區新樹路685號","121.432263333333","25.0025233333333","6500500","新莊區"
"242002","440-UM","2018/12/06 18:18:53","新北市新莊區武前街29號","121.450345","25.0325116666667","6500500","新莊區"
"242009","413-TV","2018/12/06 18:18:58","新北市新莊區中港路349號","121.452008333333","25.0457066666667","6500500","新莊區"
"242046","400-BY","2018/12/06 18:18:48","新北市新莊區福營路385-2號","121.422515","25.0273566666667","6500500","新莊區"
"242061","353-BY","2018/12/06 18:19:03","新北市新莊區新樹路247號","121.434911666667","25.0221966666667","6500500","新莊區"
"242011","132-UY","2018/12/06 18:18:53","新北市新莊區中榮街33號","121.450041666667","25.0527666666667","6500500","新莊區"
"242051","172-VK","2018/12/06 18:18:44","新北市新莊區民安東路182號","121.433401666667","25.02022","6500500","新莊區"
"242019","175-VK","2018/12/06 18:18:57","新北市新莊區三和路12-21號","121.442005","25.0386933333333","6500500","新莊區"
"242031","348-TH","2018/12/06 18:19:02","新北市新莊區新泰路255巷51號","121.444031666667","25.0394666666667","6500500","新莊區"
"242004","349-TH","2018/12/06 18:19:03","新北市新莊區中港一街2號","121.451933333333","25.0457366666667","6500500","新莊區"
"242021","350-TH","2018/12/06 18:18:55","新北市新莊區新泰路260號","121.446065","25.0400316666667","6500500","新莊區"
"242015","351-TH","2018/12/06 18:18:53","新北市新莊區中平路184巷10弄18號","121.445535","25.0482916666667","6500500","新莊區"
"238015","755-BX","2018/12/06 18:18:52","新北市樹林區文化街79巷1號","121.4168","24.9890333333333","6500700","樹林區"
"238023","601-UM","2018/12/06 18:19:01","新北市樹林區忠信街18號","121.407935","25.0154933333333","6500700","樹林區"
"238019","599-UM","2018/12/06 18:19:03","新北市樹林區國凱街136巷31號","121.42377","24.9794933333333","6500700","樹林區"
"238018","571-TV","2018/12/06 18:19:02","新北市樹林區保安街一段16巷24號","121.428446666667","24.993885","6500700","樹林區"
"238024","5061-A6","2018/12/06 18:18:59","新北市樹林區中山路一段157號","121.422083333333","24.9886783333333","6500700","樹林區"
"238025","303-VK","2018/12/06 18:18:45","新北市樹林區保安街一段193號","121.421085","24.9958733333333","6500700","樹林區"
"238017","283-BY","2018/12/06 18:19:02","新北市樹林區保安街二段335號","121.412461666667","25.0078683333333","6500700","樹林區"
"238020","268-VK","2018/12/06 18:18:54","新北市樹林區三俊街65巷6號","121.413425","25.016585","6500700","樹林區"
"238026","172-UY","2018/12/06 18:19:06","新北市樹林區佳園路一段77號","121.393355","24.9699333333333","6500700","樹林區"
"238016","169-UY","2018/12/06 18:19:04","新北市樹林區中山路二段78號","121.415211666667","24.9841133333333","6500700","樹林區"
"239007","AAC-297","2018/12/06 18:18:54","新北市鶯歌區文昌街27-4號","121.350033333333","24.951515","6500800","鶯歌區"
"239006","891-R6","2018/12/06 18:19:00","新北市鶯歌區鶯桃路365巷36號","121.332055","24.9624516666667","6500800","鶯歌區"
"239008","527-UM","2018/12/06 18:18:49","新北市鶯歌區國際一路179號","121.33621","24.9764783333333","6500800","鶯歌區"
"239005","526-UM","2018/12/06 18:19:02","新北市鶯歌區鶯桃路668巷73號","121.329835","24.9717333333333","6500800","鶯歌區"
"239001","417-VK","2018/12/06 18:18:55","新北市鶯歌區國中街203號","121.338051666667","24.9389833333333","6500800","鶯歌區"
"239003","360-BY","2018/12/06 18:19:04","新北市鶯歌區福安街28號","121.334423333333","24.964165","6500800","鶯歌區"
"239002","359-BY","2018/12/06 18:18:53","新北市鶯歌區中正一路305號","121.35654","24.957075","6500800","鶯歌區"
"239004","193-VK","2018/12/06 18:18:56","新北市鶯歌區尖山路174巷15號","121.344621666667","24.9480916666667","6500800","鶯歌區"
"221008","489-VK","2018/12/06 18:18:56","新北市汐止區康寧街627號","121.637328333333","25.0719883333333","6501100","汐止區"
"221036","130-UY","2018/12/06 18:18:55","新北市汐止區長安路77巷2號","121.66911","25.0783983333333","6501100","汐止區"
"221015","131-UY","2018/12/06 18:18:50","新北市汐止區鄉長路二段40巷1號","121.66741","25.0837066666667","6501100","汐止區"
"221010","269-BY","2018/12/06 18:18:59","新北市汐止區祥雲街33號","121.646833333333","25.0900466666667","6501100","汐止區"
"221012","278-VK","2018/12/06 18:18:57","新北市汐止區長興街二段4巷14號","121.67328","25.080445","6501100","汐止區"
"221023","279-VK","2018/12/06 18:18:55","新北市汐止區明峰街198號","121.627785","25.0693816666667","6501100","汐止區"
"221032","280-BY","2018/12/06 18:18:58","新北市汐止區橫科路2巷11號","121.616441666667","25.050735","6501100","汐止區"
"221027","281-BY","2018/12/06 18:19:00","新北市汐止區和平街21號","121.662846666667","25.070675","6501100","汐止區"
"221029","298-VK","2018/12/06 18:18:59","新北市汐止區康寧街777-1號","121.644911666667","25.075595","6501100","汐止區"
"221021","299-VK","2018/12/06 18:18:55","新北市汐止區連興街120號","121.653716666667","25.0623466666667","6501100","汐止區"
"221031","353-TW","2018/12/06 18:18:51","新北市汐止區光復街8巷50-1號","121.63766","25.0568283333333","6501100","汐止區"
"221035","622-UM","2018/12/06 18:18:50","新北市汐止區大同路二段187巷13號","121.652145","25.0648966666667","6501100","汐止區"
"221025","623-UM","2018/12/06 18:18:53","新北市汐止區勤進路12巷31號","121.659211666667","25.0625766666667","6501100","汐止區"
"221038","646-BX","2018/12/06 18:19:01","新北市汐止區仁愛路322號","121.664543333333","25.0678533333333","6501100","汐止區"
"221033","647-BX","2018/12/06 18:18:58","新北市汐止區宜興街50巷2號","121.622443333333","25.04232","6501100","汐止區"
"221002","707-TV","2018/12/06 18:18:50","新北市汐止區福德一路213巷35號","121.635855","25.0648033333333","6501100","汐止區"
"221018","753-BX","2018/12/06 18:18:58","新北市汐止區茄苳路72巷9號","121.66669","25.0700483333333","6501100","汐止區"
"224002","257-TC","2018/12/06 18:19:00","新北市瑞芳區三爪子坑路149巷32號","121.811851666667","25.1066383333333","6501200","瑞芳區"
"242042","281-VK","2018/12/06 18:18:56","新北市新莊區天祥街71巷21號","121.415606666667","25.0285833333333","6500500","新莊區"
"220073","985-R7","2018/12/06 18:19:03","新北市板橋區華東街1-10號","121.448283333333","24.9948966666667","6500100","板橋區"
"220012","AAC-253","2018/12/06 18:18:52","新北市板橋區華東街1-10號","121.44838","24.9949116666667","6500100","板橋區"
"235061","KEA-2875","2018/12/06 18:18:52","新北市中和區國光街85巷10號","121.4704","24.999925","6500300","中和區"
