"lineid","car","time","location","longitude","latitude","cityid","cityname"
"234046","148-BY","2018/12/06 18:39:03","新北市永和區永元路52巷9號","121.522696666667","25.001145","6500400","永和區"
"234007","207-UY","2018/12/06 18:38:49","新北市永和區文化路210號","121.510171666667","25.016605","6500400","永和區"
"234064","337-UY","2018/12/06 18:38:53","新北市永和區福和路1號","121.526336666667","25.010015","6500400","永和區"
"234070","552-UM","2018/12/06 18:38:50","新北市永和區福和路1號","121.526023333333","25.009095","6500400","永和區"
"234081","553-UM","2018/12/06 18:39:01","新北市永和區林森路68號","121.523836666667","25.0039833333333","6500400","永和區"
"234017","745-BX","2018/12/06 18:38:52","新北市永和區福和路1號","121.526405","25.0095866666667","6500400","永和區"
"234030","746-BX","2018/12/06 18:39:05","新北市永和區得和路342號","121.523725","24.9994733333333","6500400","永和區"
"234013","KEA-2591","2018/12/06 18:38:49","新北市永和區信義路11號","121.514413333333","25.0119983333333","6500400","永和區"
"234086","748-BX","2018/12/06 18:38:53","新北市永和區中正路388號","121.517585","25.0014433333333","6500400","永和區"
"234042","862-TW","2018/12/06 18:39:05","新北市永和區永貞路302號","121.512126666667","25.0047866666667","6500400","永和區"
"234026","9371-KE","2018/12/06 18:38:52","新北市永和區永貞路417巷16號","121.506351666667","25.0090683333333","6500400","永和區"
"234011","9373-KE","2018/12/06 18:38:56","新北市永和區永和路二段235-1號","121.515298333333","25.01445","6500400","永和區"
"249005","172-UM","2018/12/06 18:38:54","新北市八里區中華路三段198號","121.388623333333","25.1257533333333","6502300","八里區"
"249001","173-UM","2018/12/06 18:38:48","新北市八里區龍米路一段360號","121.451545","25.131365","6502300","八里區"
"249004","303-UY","2018/12/06 18:38:52","新北市八里區忠四街16號","121.424853333333","25.15988","6502300","八里區"
"249002","305-UY","2018/12/06 18:38:57","新北市八里區龍形一街33巷6-1號","121.449358333333","25.1294966666667","6502300","八里區"
"248014","025-BX","2018/12/06 18:38:49","新北市五股區蓬萊路8號","121.435421666667","25.0794766666667","6501500","五股區"
"248016","026-BX","2018/12/06 18:38:48","新北市五股區凌雲路一段149巷13-1號","121.448583333333","25.100875","6501500","五股區"
"248008","095-VK","2018/12/06 18:38:54","新北市五股區中興路一段148號","121.464621666667","25.0740583333333","6501500","五股區"
"248020","225-UY","2018/12/06 18:38:19","新北市五股區孝義路69-2號","121.447238333333","25.1181583333333","6501500","五股區"
"248012","247-BX","2018/12/06 18:38:53","新北市五股區成泰路三段21號","121.441751666667","25.088225","6501500","五股區"
"248004","677-BX","2018/12/06 18:38:56","新北市五股區六合街21號","121.431091666667","25.0886483333333","6501500","五股區"
"248002","678-BX","2018/12/06 18:39:02","新北市五股區西雲路199號","121.448071666667","25.0962316666667","6501500","五股區"
"248010","682-TV","2018/12/06 18:38:48","新北市五股區水碓九路166號","121.430536666667","25.07389","6501500","五股區"
"234023","9380-KE","2018/12/06 18:38:57","新北市永和區福和路76巷5弄14號","121.522303333333","25.008375","6500400","永和區"
"234077","969-R7","2018/12/06 18:39:03","新北市永和區中正路610-1號","121.517128333333","25.0073083333333","6500400","永和區"
"234067","AAC-212","2018/12/06 18:39:02","新北市永和區永貞路84號","121.519981666667","25.00492","6500400","永和區"
"234003","AAC-295","2018/12/06 18:38:56","新北市永和區福和路1號","121.526411666667","25.0099833333333","6500400","永和區"
"244023","069-UM","2018/12/06 18:38:53","新北市林口區文化一路二段68號","121.38126","25.07797","6501700","林口區"
"244007","080-UY","2018/12/06 18:38:53","新北市林口區湖北里61號","121.383428333333","25.107225","6501700","林口區"
"244019","402-UM","2018/12/06 18:38:53","新北市林口區麗園二街47巷39號","121.382261666667","25.0696166666667","6501700","林口區"
"244013","KEA-2802","2018/12/06 18:38:56","新北市林口區麗園一街1號","121.375675","25.0729583333333","6501700","林口區"
"244017","485-VK","2018/12/06 18:39:03","新北市林口區文化二路一段86號","121.36632","25.06962","6501700","林口區"
"244009","656-BX","2018/12/06 18:38:46","新北市林口區竹林路358巷1號","121.391621666667","25.0843683333333","6501700","林口區"
"244011","658-BX","2018/12/06 18:38:59","新北市林口區興林路17巷5弄2號","121.390576666667","25.0769866666667","6501700","林口區"
"244025","837-TS","2018/12/06 18:39:00","新北市林口區南勢四街310號","121.357223333333","25.0758016666667","6501700","林口區"
"244021","838-TS","2018/12/06 18:38:50","新北市林口區工六路78號","121.400436666667","25.07725","6501700","林口區"
"243016","KEA-2801","2018/12/06 18:39:01","新北市泰山區泰林路二段603號","121.421398333333","25.0633916666667","6501600","泰山區"
"243011","KEA-2215","2018/12/06 18:38:51","新北市泰山區黎明路26號","121.420993333333","25.0605083333333","6501600","泰山區"
"243010","KEA-2216","2018/12/06 18:39:04","新北市泰山區黎明路25號","121.42182","25.0607983333333","6501600","泰山區"
"243012","646-TV","2018/12/06 18:39:00","新北市泰山區福興三街7號","121.43484","25.0579266666667","6501600","泰山區"
"243014","680-BX","2018/12/06 18:38:30","新北市泰山區黎明路25號","121.421841666667","25.0609116666667","6501600","泰山區"
"222002","016-RS","2018/12/06 18:38:57","新北市深坑區文山路一段62巷25號","121.62175","25.00078","6501800","深坑區"
"222003","436-BY","2018/12/06 18:38:47","新北市深坑區翠谷街18號","121.627078333333","25.0086966666667","6501800","深坑區"
"231041","002-UM","2018/12/06 18:38:57","新北市新店區安華路28-1號","121.519751666667","24.9607133333333","6500600","新店區"
"231059","046-UY","2018/12/06 18:39:01","新北市新店區安華路28-1號","121.519528333333","24.96097","6500600","新店區"
"231040","047-UY","2018/12/06 18:38:57","新北市新店區安華路28-1號","121.519123333333","24.9609516666667","6500600","新店區"
"231044","106-UY","2018/12/06 18:38:56","新北市新店區環河路29巷1號","121.536941666667","24.961325","6500600","新店區"
"231046","107-UY","2018/12/06 18:39:02","新北市新店區直潭二街1號","121.535513333333","24.94321","6500600","新店區"
"231052","108-UY","2018/12/06 18:39:03","新北市新店區永興路34號","121.543535","24.938775","6500600","新店區"
"231047","187-VK","2018/12/06 18:38:56","新北市新店區安一路一段1-1號","121.519596666667","24.9612166666667","6500600","新店區"
"231054","KEA-2219","2018/12/06 18:38:55","新北市新店區安華路28-1號","121.520151666667","24.9610933333333","6500600","新店區"
"231057","256-BX","2018/12/06 18:38:55","新北市新店區新烏路一段217號","121.54905","24.9310633333333","6500600","新店區"
"231042","268-BY","2018/12/06 18:38:48","新北市新店區安華路28-1號","121.519381666667","24.96054","6500600","新店區"
"231051","278-BY","2018/12/06 18:38:55","新北市新店區中央路181-3號","121.536068333333","24.9689266666667","6500600","新店區"
"231050","AAD-862","2018/12/06 18:38:58","新北市新店區安華路28-1號","121.520376666667","24.961015","6500600","新店區"
"231058","3713-VJ","2018/12/06 18:39:02","新北市新店區國校路76-1號","121.53863","24.9530916666667","6500600","新店區"
"231066","4716-K9","2018/12/06 18:39:00","新北市新店區安一路一段1-1號","121.519218333333","24.9614083333333","6500600","新店區"
"231056","4715-K9","2018/12/06 18:39:00","新北市新店區建國路148號","121.53876","24.9791133333333","6500600","新店區"
"231067","4772-VM","2018/12/06 18:38:59","新北市新店區安華路1-1號","121.51917","24.9604483333333","6500600","新店區"
"231065","512-UM","2018/12/06 18:38:51","新北市新店區安一路一段1-1號","121.519226666667","24.9611366666667","6500600","新店區"
"231049","513-UM","2018/12/06 18:39:00","新北市新店區安華路28-1號","121.519576666667","24.9610216666667","6500600","新店區"
"231063","616-UM","2018/12/06 18:38:47","新北市新店區安華路1-1號","121.519461666667","24.960465","6500600","新店區"
"231045","617-UM","2018/12/06 18:38:56","新北市新店區安華路28-1號","121.519343333333","24.9609","6500600","新店區"
"231061","619-UM","2018/12/06 18:38:57","新北市新店區安華路28-1號","121.519381666667","24.9607233333333","6500600","新店區"
"231064","719-UY","2018/12/06 18:38:50","新北市新店區安一路一段1-1號","121.519695","24.9611","6500600","新店區"
"231062","720-UM","2018/12/06 18:39:02","新北市新店區安一路一段1-1號","121.519078333333","24.9612233333333","6500600","新店區"
"231060","897-TW","2018/12/06 18:38:55","新北市新店區安華路28-1號","121.519538333333","24.960745","6500600","新店區"
"231043","898-TW","2018/12/06 18:38:59","新北市新店區安華路28-1號","121.519261666667","24.9608","6500600","新店區"
"231055","AKT-0513","2018/12/06 18:39:02","新北市新店區中華路47巷7號","121.539716666667","24.9675033333333","6500600","新店區"
"251014","742-BX","2018/12/06 18:38:49","新北市淡水區崙頂12-8號","121.495585","25.2172216666667","6501000","淡水區"
"235066","003-UY","2018/12/06 18:39:01","新北市中和區水源路37號","121.504475","25.0035433333333","6500300","中和區"
"235064","005-UY","2018/12/06 18:38:54","新北市中和區連城路87號","121.496741666667","25.0003766666667","6500300","中和區"
"235063","006-UY","2018/12/06 18:39:04","新北市中和區連城路347巷4弄34號","121.48679","24.9956316666667","6500300","中和區"
"235056","096-UM","2018/12/06 18:39:04","新北市中和區員山路611巷1號","121.477898333333","25.0112666666667","6500300","中和區"
"235039","097-UM","2018/12/06 18:38:57","新北市中和區宜安路26巷5號","121.513476666667","24.9960266666667","6500300","中和區"
"235040","150-BY","2018/12/06 18:39:00","新北市中和區中正路303號","121.492928333333","24.9940266666667","6500300","中和區"
"235058","151-BY","2018/12/06 18:39:03","新北市中和區員山路28-11號","121.481176666667","24.9863166666667","6500300","中和區"
"235055","183-VK","2018/12/06 18:38:49","新北市板橋區民族路276巷3弄4號","121.469945","25.0060583333333","6500300","中和區"
"235038","185-VK","2018/12/06 18:38:46","新北市中和區大勇街60巷8號","121.518658333333","24.99471","6500300","中和區"
"235049","186-VK","2018/12/06 18:38:45","新北市中和區明義街11巷12弄2號","121.503745","24.9946766666667","6500300","中和區"
"235067","255-BX","2018/12/06 18:38:52","新北市中和區中正路891號","121.484296666667","25.0045266666667","6500300","中和區"
"235044","293-VK","2018/12/06 18:38:52","新北市中和區復興路268號","121.502861666667","24.9904166666667","6500300","中和區"
"235072","301-VK","2018/12/06 18:38:47","新北市中和區中山路二段131-6號","121.502291666667","25.003215","6500300","中和區"
"235043","352-BY","2018/12/06 18:38:57","新北市中和區景平路161-1號","121.512705","24.9923466666667","6500300","中和區"
"235042","KEA-2878","2018/12/06 18:39:00","新北市中和區成功路97巷5弄17號","121.526486666667","24.9921633333333","6500300","中和區"
"247012","KEA-2869","2018/12/06 18:37:17","新北市林口區太平里180號","121.36654","25.1342733333333","6501400","蘆洲區"
"235050","4979-A6","2018/12/06 18:38:50","新北市中和區忠孝街124巷10號","121.51287","24.9859133333333","6500300","中和區"
"235069","4980-A6","2018/12/06 18:39:06","新北市中和區連城路99巷71號","121.497385","24.9983433333333","6500300","中和區"
"235041","551-UM","2018/12/06 18:38:55","新北市中和區宜安路117號","121.510146666667","24.9979366666667","6500300","中和區"
"235070","558-UM","2018/12/06 18:38:59","新北市中和區景平路598號","121.500893333333","24.9963316666667","6500300","中和區"
"235045","565-BX","2018/12/06 18:38:57","新北市中和區復興路1號","121.506398333333","24.9897166666667","6500300","中和區"
"235054","640-BX","2018/12/06 18:39:01","新北市中和區民享街32巷20號","121.47289","25.0031633333333","6500300","中和區"
"235060","647-TV","2018/12/06 18:39:00","新北市中和區中山路二段585號","121.480156666667","25.0057983333333","6500300","中和區"
"235047","732-UM","2018/12/06 18:38:57","新北市中和區南山路320巷10弄2號","121.507081666667","24.9863316666667","6500300","中和區"
"235046","733-UM","2018/12/06 18:38:57","新北市中和區忠孝街99-3號","121.511896666667","24.986065","6500300","中和區"
"235071","783-BX","2018/12/06 18:38:53","新北市中和區員山路36巷16-3號","121.485183333333","24.9911983333333","6500300","中和區"
"235062","800-TS","2018/12/06 18:39:02","新北市中和區景平路703巷8-3號","121.495805","25.00343","6500300","中和區"
"235057","801-TS","2018/12/06 18:38:45","新北市中和區民安街22巷7號","121.480111666667","25.00098","6500300","中和區"
"235052","805-TS","2018/12/06 18:39:06","新北市中和區興南路三段46號","121.495666666667","24.9763983333333","6500300","中和區"
"235048","896-TW","2018/12/06 18:38:53","新北市中和區南山路307號","121.504778333333","24.9915766666667","6500300","中和區"
"235053","900-TW","2018/12/06 18:38:49","新北市中和區民德路264號","121.46805","24.9966166666667","6500300","中和區"
"235065","911-UM","2018/12/06 18:38:59","新北市中和區莊敬路49巷29弄26號","121.500871666667","25.0065483333333","6500300","中和區"
"235051","157-BY","2018/12/06 18:39:03","新北市中和區華新街143巷37號","121.506363333333","24.9804966666667","6500300","中和區"
"235037","AAC-213","2018/12/06 18:38:57","新北市中和區景德街141號","121.514526666667","24.9909816666667","6500300","中和區"
"235059","AAC-215","2018/12/06 18:38:49","新北市中和區錦和路350-1號","121.490535","24.9935416666667","6500300","中和區"
"220065","072-UY","2018/12/06 18:38:55","新北市板橋區成都街89號","121.462908333333","25.005195","6500100","板橋區"
"220086","073-UY","2018/12/06 18:38:48","新北市板橋區南雅西路二段145巷6號","121.45162","25.0117783333333","6500100","板橋區"
"226004","312-R5","2018/12/06 18:38:54","新北市平溪區石底里公園街18-3號","121.733271666667","25.0258","6502400","平溪區"
"228003","097-TW","2018/12/06 18:38:58","新北市貢寮區和美里龍洞街40-2號","121.915235","25.1116816666667","6502600","貢寮區"
"228001","212-TW","2018/12/06 18:39:03","新北市貢寮區仁理村研海街12-1號","121.923786666667","25.051635","6502600","貢寮區"
"228002","585-TW","2018/12/06 18:39:04","新北市貢寮區福隆里東興街6-11號","121.950713333333","25.021115","6502600","貢寮區"
"224010","AGQ-8101","2018/12/06 18:39:03","新北市瑞芳區崙頂路75號","121.845223333333","25.10673","6501200","瑞芳區"
"224006","676-BX","2018/12/06 18:38:58","新北市瑞芳區明燈路三段79號","121.805331666667","25.1082983333333","6501200","瑞芳區"
"224008","285-BY","2018/12/06 18:38:56","新北市瑞芳區瑞芳街10號","121.806708333333","25.1098216666667","6501200","瑞芳區"
"224007","275-VK","2018/12/06 18:38:50","新北市瑞芳區大埔路115巷27號","121.76295","25.1012366666667","6501200","瑞芳區"
"224009","273-VK","2018/12/06 18:39:03","新北市瑞芳區祈堂路108號","121.859013333333","25.1094083333333","6501200","瑞芳區"
"224005","271-BY","2018/12/06 18:39:04","新北市瑞芳區永龍新村1號","121.81939","25.1196366666667","6501200","瑞芳區"
"227004","642-TC","2018/12/06 18:38:56","新北市雙溪區魚行里坤溪3-5號","121.876186666667","25.0208183333333","6502500","雙溪區"
"227010","400-TW","2018/12/06 18:38:55","新北市雙溪區牡丹里下坑11號","121.851005","25.0561733333333","6502500","雙溪區"
"253006","032-BX","2018/12/06 18:38:55","新北市石門區楓林28-5號","121.542638333333","25.2898133333333","6502200","石門區"
"253005","295-VK","2018/12/06 18:39:01","新北市石門區中山路64號","121.567206666667","25.2907916666667","6502200","石門區"
"222001","KEA-2212","2018/12/06 18:38:52","新北市深坑區北深路一段82號","121.63632","25.01062","6501800","深坑區"
"208002","KEA-2872","2018/12/06 18:38:56","新北市金山區忠孝一路19巷13號","121.637613333333","25.2178833333333","6502700","金山區"
"208003","665-BX","2018/12/06 18:39:05","新北市金山區中山路280號","121.634921666667","25.2243666666667","6502700","金山區"
"208001","761-BX","2018/12/06 18:38:59","新北市金山區文化三路28號","121.635738333333","25.2246433333333","6502700","金山區"
"251004","009-UM","2018/12/06 18:39:00","新北市淡水區大同路2號","121.461575","25.1407816666667","6501000","淡水區"
"251001","011-UM","2018/12/06 18:38:48","新北市淡水區自強路415巷2號","121.465485","25.1342333333333","6501000","淡水區"
"251002","012-UM","2018/12/06 18:38:58","新北市淡水區中正東路一段3巷14弄1號","121.45091","25.1642116666667","6501000","淡水區"
"251013","KEA-2871","2018/12/06 18:39:04","新北市淡水區雲廣坑9號","121.47849","25.21019","6501000","淡水區"
"251016","179-VK","2018/12/06 18:38:55","新北市淡水區下圭柔山76-13號","121.444951666667","25.2055216666667","6501000","淡水區"
"251008","181-VK","2018/12/06 18:38:50","新北市淡水區北投子17-1號","121.45397","25.1837233333333","6501000","淡水區"
"251015","182-VK","2018/12/06 18:38:46","新北市淡水區興福寮66巷26號","121.486256666667","25.1622733333333","6501000","淡水區"
"251010","413-VK","2018/12/06 18:38:50","新北市淡水區沙崙路124號","121.423343333333","25.182905","6501000","淡水區"
"251012","441-VK","2018/12/06 18:38:51","新北市淡水區北新路117號","121.448895","25.17867","6501000","淡水區"
"251006","561-UM","2018/12/06 18:38:58","新北市淡水區濱海路一段53號","121.443826666667","25.1893016666667","6501000","淡水區"
"251011","650-BX","2018/12/06 18:39:03","新北市淡水區鄧公路36巷15號","121.45534","25.1692116666667","6501000","淡水區"
"251003","766-UM","2018/12/06 18:38:51","新北市淡水區北新路69巷26號","121.446706666667","25.1800683333333","6501000","淡水區"
"207003","550-UM","2018/12/06 18:38:47","新北市萬里區野柳里八斗60-1號","121.672611666667","25.20123","6502800","萬里區"
"207004","225-TW","2018/12/06 18:38:46","新北市萬里區萬里里獅頭路7號","121.692013333333","25.17835","6502800","萬里區"
"252002","178-VK","2018/12/06 18:39:03","新北市三芝區民生街64巷8號","121.503636666667","25.2551633333333","6502100","三芝區"
"252003","249-BX","2018/12/06 18:39:02","新北市三芝區後厝里土地公坑73號","121.460866666667","25.247615","6502100","三芝區"
"252001","292-VK","2018/12/06 18:39:01","新北市三芝區中興街二段262號","121.501966666667","25.2528566666667","6502100","三芝區"
"237004","KEA-2597","2018/12/06 18:38:48","新北市三峽區五寮4號","121.37859","24.8734183333333","6500900","三峽區"
"237007","153-BY","2018/12/06 18:38:54","新北市三峽區柑樹路2巷52號","121.361738333333","24.9050316666667","6500900","三峽區"
"237009","210-TH","2018/12/06 18:38:55","新北市三峽區大同路280號","121.364795","24.9252733333333","6500900","三峽區"
"237013","252-BX","2018/12/06 18:38:48","新北市三峽區大同路48巷17弄8-1號","121.376723333333","24.9290566666667","6500900","三峽區"
"237012","275-BY","2018/12/06 18:39:04","新北市三峽區三樹路214巷11號","121.37998","24.941635","6500900","三峽區"
"237008","302-VK","2018/12/06 18:38:59","新北市三峽區白雞120號","121.399015","24.9052783333333","6500900","三峽區"
"237014","433-BY","2018/12/06 18:38:58","新北市三峽區復興路465-1號","121.361551666667","24.93866","6500900","三峽區"
"237006","5529-G3","2018/12/06 18:38:50","新北市三峽區溪東路315巷106號","121.412148333333","24.9315266666667","6500900","三峽區"
"237011","KEA-2596","2018/12/06 18:38:55","新北市三峽區溪東路329號","121.410846666667","24.9299966666667","6500900","三峽區"
"237016","649-BX","2018/12/06 18:38:47","新北市三峽區竹崙路53號","121.430973333333","24.9220433333333","6500900","三峽區"
"237010","706-TV","2018/12/06 18:39:00","新北市三峽區復興路489號","121.361256666667","24.9384216666667","6500900","三峽區"
"237005","AKY-6261","2018/12/06 18:38:55","新北市三峽區民生街104巷2-2號","121.373715","24.93596","6500900","三峽區"
"236070","105-UM","2018/12/06 18:39:00","新北市土城區永豐路157巷29弄1號","121.468701666667","24.9813766666667","6501300","土城區"
"236042","KED-0685","2018/12/06 18:38:55","新北市土城區學成路108巷11號","121.450155","24.9896933333333","6501300","土城區"
"236078","166-UM","2018/12/06 18:39:04","新北市土城區中央路四段52巷38號","121.419781666667","24.960815","6501300","土城區"
"236030","253-BX","2018/12/06 18:39:04","新北市土城區慶利街37號","121.439071666667","24.9742716666667","6501300","土城區"
"236026","269-VK","2018/12/06 18:38:59","新北市土城區忠義路51-1號","121.440446666667","24.96889","6501300","土城區"
"236014","270-VK","2018/12/06 18:39:06","新北市土城區青雲路185號","121.459306666667","24.9826283333333","6501300","土城區"
"236038","271-VK","2018/12/06 18:38:57","新北市土城區明德路一段313巷11弄3號","121.460008333333","24.9758583333333","6501300","土城區"
"236021","401-BY","2018/12/06 18:39:02","新北市土城區明德路一段67號","121.465383333333","24.984225","6501300","土城區"
"236059","912-UM","2018/12/06 18:39:04","新北市土城區中央路三段149號","121.432281666667","24.9653183333333","6501300","土城區"
"236049","913-UM","2018/12/06 18:38:54","新北市土城區明德路一段101號","121.465641666667","24.98284","6501300","土城區"
"236063","915-UM","2018/12/06 18:38:54","新北市土城區延壽路13巷17號","121.469975","24.99132","6501300","土城區"
"236055","AAC-216","2018/12/06 18:38:59","新北市土城區裕民路38號","121.448063333333","24.9883816666667","6501300","土城區"
"242058","986-R7","2018/12/06 18:38:56","新北市新莊區中正路887號","121.41692","25.024755","6500500","新莊區"
"242025","613-BX","2018/12/06 18:38:55","新北市新莊區立信一街37號","121.44212","25.0492683333333","6500500","新莊區"
"242046","400-BY","2018/12/06 18:39:05","新北市新莊區民安路19號","121.422995","25.0279316666667","6500500","新莊區"
"242061","353-BY","2018/12/06 18:39:03","新北市新莊區富國路176巷5號","121.424126666667","25.0241983333333","6500500","新莊區"
"242011","132-UY","2018/12/06 18:38:53","新北市新莊區立信一街37號","121.442445","25.0492816666667","6500500","新莊區"
"242004","349-TH","2018/12/06 18:39:03","新北市新莊區三和路12-21號","121.44227","25.0384616666667","6500500","新莊區"
"238023","601-UM","2018/12/06 18:38:58","新北市樹林區三福街124號","121.405973333333","25.0162466666667","6500700","樹林區"
"238019","599-UM","2018/12/06 18:39:03","新北市樹林區中華路190-16號","121.41169","24.980565","6500700","樹林區"
"238018","571-TV","2018/12/06 18:39:02","新北市樹林區鎮前街165號","121.422225","24.9871466666667","6500700","樹林區"
"238024","5061-A6","2018/12/06 18:38:58","新北市樹林區太順街79巷17號","121.417131666667","24.978085","6500700","樹林區"
"238025","303-VK","2018/12/06 18:39:05","新北市樹林區中山路三段22號","121.395621666667","24.9729966666667","6500700","樹林區"
"238020","268-VK","2018/12/06 18:38:53","新北市樹林區俊安街22號","121.419286666667","25.0138316666667","6500700","樹林區"
"238026","172-UY","2018/12/06 18:38:46","新北市樹林區育德街78-1號","121.387971666667","24.9681066666667","6500700","樹林區"
"238016","169-UY","2018/12/06 18:39:04","新北市樹林區中山路二段10號","121.417555","24.9851416666667","6500700","樹林區"
"239007","AAC-297","2018/12/06 18:38:54","新北市鶯歌區中正一路460號","121.364193333333","24.9565366666667","6500800","鶯歌區"
"239006","891-R6","2018/12/06 18:39:00","新北市鶯歌區中山路162號","121.34917","24.9570033333333","6500800","鶯歌區"
"239008","527-UM","2018/12/06 18:38:49","新北市鶯歌區國際一路179號","121.336163333333","24.9764516666667","6500800","鶯歌區"
"239005","526-UM","2018/12/06 18:38:43","新北市鶯歌區鶯桃路668巷46號","121.32921","24.9703733333333","6500800","鶯歌區"
"239001","417-VK","2018/12/06 18:38:54","新北市鶯歌區中正三路17號","121.339226666667","24.9425816666667","6500800","鶯歌區"
"239003","360-BY","2018/12/06 18:39:04","新北市鶯歌區永和街176號","121.336163333333","24.97049","6500800","鶯歌區"
"239002","359-BY","2018/12/06 18:38:54","新北市鶯歌區中正一路6號","121.352521666667","24.9530033333333","6500800","鶯歌區"
"239004","193-VK","2018/12/06 18:38:56","新北市鶯歌區國中街109號","121.341596666667","24.9415583333333","6500800","鶯歌區"
"221008","489-VK","2018/12/06 18:38:56","新北市汐止區康寧街901號","121.651401666667","25.0750283333333","6501100","汐止區"
"221036","130-UY","2018/12/06 18:38:54","新北市汐止區水碓街2號","121.663775","25.06986","6501100","汐止區"
"221015","131-UY","2018/12/06 18:38:54","新北市汐止區鄉友街6號","121.668161666667","25.0806666666667","6501100","汐止區"
"221010","269-BY","2018/12/06 18:38:59","新北市汐止區汐萬路三段213號","121.64264","25.100065","6501100","汐止區"
"221012","278-VK","2018/12/06 18:38:57","新北市汐止區長興街一段50號","121.67085","25.079775","6501100","汐止區"
"221023","279-VK","2018/12/06 18:38:55","新北市汐止區康寧街541巷11號","121.633718333333","25.0693166666667","6501100","汐止區"
"221032","280-BY","2018/12/06 18:38:58","新北市汐止區民權街二段131號","121.618053333333","25.0456083333333","6501100","汐止區"
"221027","281-BY","2018/12/06 18:39:00","新北市汐止區汐萬路一段81號","121.654628333333","25.070205","6501100","汐止區"
"221029","298-VK","2018/12/06 18:38:59","新北市汐止區樟樹一路148號","121.642406666667","25.065215","6501100","汐止區"
"221021","299-VK","2018/12/06 18:38:55","新北市汐止區新興路42號","121.657053333333","25.06327","6501100","汐止區"
"221031","353-TW","2018/12/06 18:38:51","新北市汐止區福德一路270號","121.632221666667","25.06398","6501100","汐止區"
"221035","622-UM","2018/12/06 18:38:59","新北市汐止區大同路二段276號","121.654793333333","25.0662566666667","6501100","汐止區"
"221025","623-UM","2018/12/06 18:38:53","新北市汐止區仁愛路116號","121.662701666667","25.06365","6501100","汐止區"
"221038","646-BX","2018/12/06 18:39:01","新北市汐止區汐萬路一段256巷3號","121.65242","25.074575","6501100","汐止區"
"221033","647-BX","2018/12/06 18:38:58","新北市汐止區南勢街2號","121.627276666667","25.0374066666667","6501100","汐止區"
"221002","707-TV","2018/12/06 18:38:50","新北市汐止區中興路25號","121.636908333333","25.0596166666667","6501100","汐止區"
"221018","753-BX","2018/12/06 18:38:58","新北市汐止區茄苳路250巷7號","121.671333333333","25.0680266666667","6501100","汐止區"
"220079","145-BY","2018/12/06 18:38:54","新北市板橋區南雅西路二段147號","121.452128333333","25.0118066666667","6500100","板橋區"
"220080","200-UY","2018/12/06 18:39:00","新北市板橋區大觀路二段265巷76弄37號","121.441115","24.996725","6500100","板橋區"
"220082","610-BX","2018/12/06 18:39:04","新北市板橋區大觀路三段52號","121.432506666667","24.995995","6500100","板橋區"
"224002","257-TC","2018/12/06 18:39:00","新北市瑞芳區國中新村31號","121.816766666667","25.1077533333333","6501200","瑞芳區"
"220056","276-BY","2018/12/06 18:38:50","新北市板橋區館前西路4-1號","121.459141666667","25.0070866666667","6500100","板橋區"
"220072","277-BY","2018/12/06 18:38:50","新北市板橋區大觀路三段36巷5號","121.433558333333","24.9957883333333","6500100","板橋區"
"220071","283-VK","2018/12/06 18:38:56","新北市土城區四川路2號","121.45591","24.9961683333333","6500100","板橋區"
"220043","285-UM","2018/12/06 18:38:51","新北市板橋區民生路二段120號","121.470388333333","25.0197983333333","6500100","板橋區"
"220053","285-VK","2018/12/06 18:39:04","新北市板橋區民生路二段161巷9號","121.470291666667","25.0195266666667","6500100","板橋區"
"220083","286-VK","2018/12/06 18:38:50","新北市板橋區合安一路77-6號","121.448341666667","24.99874","6500100","板橋區"
"220081","287-VK","2018/12/06 18:39:01","新北市板橋區大觀路二段101巷4號","121.446566666667","25.001475","6500100","板橋區"
"220090","288-VK","2018/12/06 18:38:46","新北市板橋區民生路二段120號","121.470375","25.0195716666667","6500100","板橋區"
"220084","296-UM","2018/12/06 18:39:01","新北市板橋區大觀路二段205號","121.444473333333","24.9994983333333","6500100","板橋區"
"220075","303-R5","2018/12/06 18:38:54","新北市板橋區華東街328號","121.452748333333","25.0033583333333","6500100","板橋區"
"220092","307-R5","2018/12/06 18:38:54","新北市板橋區民生路二段120號","121.470366666667","25.0196866666667","6500100","板橋區"
"220035","560-BX","2018/12/06 18:38:54","新北市板橋區南雅西路二段145巷6號","121.451606666667","25.0118716666667","6500100","板橋區"
"220063","609-BX","2018/12/06 18:38:56","新北市板橋區民生路二段161巷1號","121.47007","25.02014","6500100","板橋區"
"220091","637-BX","2018/12/06 18:38:58","新北市板橋區民生路二段161巷1號","121.46999","25.02003","6500100","板橋區"
"220057","686-BX","2018/12/06 18:38:46","新北市板橋區南雅南路二段120號","121.452216666667","24.999655","6500100","板橋區"
"220077","687-BX","2018/12/06 18:38:52","新北市板橋區華東街1-10號","121.448323333333","24.9949333333333","6500100","板橋區"
"220093","689-BX","2018/12/06 18:38:55","新北市板橋區民生路二段120號","121.47032","25.0201466666667","6500100","板橋區"
"220054","741-BX","2018/12/06 18:39:04","新北市板橋區縣民大道一段112號","121.457131666667","25.0058766666667","6500100","板橋區"
"220102","KEA-2699","2018/12/06 18:38:45","新北市板橋區民生路二段161巷1號","121.470151666667","25.0199683333333","6500100","板橋區"
"220055","827-TW","2018/12/06 18:38:51","新北市板橋區忠孝路50號","121.460803333333","25.0019316666667","6500100","板橋區"
"220074","895-R6","2018/12/06 18:39:05","新北市板橋區南雅南路二段40號","121.4541","25.0026233333333","6500100","板橋區"
"220073","985-R7","2018/12/06 18:39:03","新北市板橋區四川路二段28號","121.454261666667","24.9957133333333","6500100","板橋區"
"220012","AAC-253","2018/12/06 18:38:52","新北市板橋區縣民大道二段82號","121.465061666667","25.0141083333333","6500100","板橋區"
"235068","KEA-2873","2018/12/06 18:38:49","新北市中和區中興街118巷10號","121.499868333333","24.993275","6500300","中和區"
"235061","KEA-2875","2018/12/06 18:39:01","新北市中和區民享街38-1號","121.473925","25.0029683333333","6500300","中和區"
