"lineid","car","time","location","longitude","latitude","cityid","cityname"
"234046","148-BY","2018/12/06 18:59:00","新北市永和區得和路373巷16弄1號","121.525125","25.0002666666667","6500400","永和區"
"234007","207-UY","2018/12/06 18:58:49","新北市永和區中山路一段50號","121.513296666667","25.010605","6500400","永和區"
"234038","336-UY","2018/12/06 18:59:02","新北市永和區成功路二段207號","121.526611666667","24.9959816666667","6500400","永和區"
"234064","337-UY","2018/12/06 18:58:53","新北市永和區秀朗路一段183號","121.517338333333","25.00351","6500400","永和區"
"234070","552-UM","2018/12/06 18:58:50","新北市永和區中興街84巷8號","121.518541666667","25.0116116666667","6500400","永和區"
"234081","553-UM","2018/12/06 18:59:01","新北市永和區國中路200號","121.522265","25.0062016666667","6500400","永和區"
"234017","745-BX","2018/12/06 18:58:52","新北市永和區永和路二段310號","121.516296666667","25.0160483333333","6500400","永和區"
"234030","746-BX","2018/12/06 18:58:46","新北市永和區秀朗路二段275號","121.526136666667","24.9985166666667","6500400","永和區"
"234054","KEA-2590","2018/12/06 18:58:49","新北市永和區竹林路64號","121.518283333333","25.0134833333333","6500400","永和區"
"234013","KEA-2591","2018/12/06 18:58:55","新北市永和區中山路一段60巷12號","121.513271666667","25.0110033333333","6500400","永和區"
"234061","AAD-866","2018/12/06 18:58:56","新北市永和區福和路309巷1號","121.516315","25.0070633333333","6500400","永和區"
"234086","748-BX","2018/12/06 18:58:52","新北市永和區中正路191號","121.517095","24.9991733333333","6500400","永和區"
"234042","862-TW","2018/12/06 18:59:05","新北市永和區永貞路306號","121.511853333333","25.0048333333333","6500400","永和區"
"234050","863-TW","2018/12/06 18:58:49","新北市永和區保安路26號","121.510431666667","25.0172033333333","6500400","永和區"
"234026","9371-KE","2018/12/06 18:59:00","新北市永和區安樂路467號","121.514295","25.0054983333333","6500400","永和區"
"234011","9373-KE","2018/12/06 18:58:58","新北市永和區仁愛路141巷3弄4號","121.511793333333","25.0124033333333","6500400","永和區"
"249005","172-UM","2018/12/06 18:58:54","新北市八里區長道坑13-1號","121.394125","25.1226633333333","6502300","八里區"
"249001","173-UM","2018/12/06 18:58:48","新北市八里區渡船頭街3-1號","121.434451666667","25.15834","6502300","八里區"
"248014","025-BX","2018/12/06 18:58:49","新北市五股區民義路一段107巷32號","121.431985","25.08489","6501500","五股區"
"248016","026-BX","2018/12/06 18:58:48","新北市五股區成泰路三段543巷29號","121.450275","25.102645","6501500","五股區"
"248006","077-UY","2018/12/06 18:58:49","新北市五股區四維路117號","121.467508333333","25.0736583333333","6501500","五股區"
"248008","095-VK","2018/12/06 18:58:54","新北市五股區中興路一段118巷6弄1號","121.466176666667","25.0738766666667","6501500","五股區"
"248020","225-UY","2018/12/06 18:58:59","新北市五股區凌雲路三段57號","121.425296666667","25.1250083333333","6501500","五股區"
"248012","247-BX","2018/12/06 18:58:53","新北市五股區工商路38號","121.439491666667","25.0837683333333","6501500","五股區"
"248004","677-BX","2018/12/06 18:58:56","新北市五股區民義路三段1號","121.402623333333","25.1143116666667","6501500","五股區"
"248002","678-BX","2018/12/06 18:58:29","新北市五股區凌雲路一段84號","121.45085","25.1015866666667","6501500","五股區"
"248010","682-TV","2018/12/06 18:58:48","新北市五股區水碓一路23號","121.430651666667","25.0712466666667","6501500","五股區"
"234023","9380-KE","2018/12/06 18:58:56","新北市永和區環河東路一段200號","121.521981666667","25.0138433333333","6500400","永和區"
"234077","969-R7","2018/12/06 18:59:03","新北市永和區中正路262號","121.516963333333","24.9986166666667","6500400","永和區"
"234074","AAC-211","2018/12/06 18:58:55","新北市永和區環河東路二段100號","121.524106666667","25.0103216666667","6500400","永和區"
"234067","AAC-212","2018/12/06 18:59:02","新北市永和區自由街58號","121.513766666667","25.0058466666667","6500400","永和區"
"234003","AAC-295","2018/12/06 18:58:56","新北市永和區和平街21號","121.513451666667","25.0098883333333","6500400","永和區"
"232011","375-UM","2018/12/06 18:59:04","新北市坪林區水聳淒坑25號","121.711505","24.9342083333333","6502000","坪林區"
"244023","069-UM","2018/12/06 18:58:53","新北市林口區文化三路二段115巷16號","121.37352","25.080925","6501700","林口區"
"244019","402-UM","2018/12/06 18:58:52","新北市林口區忠孝路597號","121.377706666667","25.0688183333333","6501700","林口區"
"244013","KEA-2802","2018/12/06 18:58:56","新北市林口區麗園二街1巷9-3號","121.378721666667","25.0705383333333","6501700","林口區"
"244017","485-VK","2018/12/06 18:59:03","新北市林口區文化二路一段20巷21號","121.36581","25.0676566666667","6501700","林口區"
"244011","658-BX","2018/12/06 18:58:59","新北市林口區仁愛路一段285巷21-1號","121.394868333333","25.074295","6501700","林口區"
"244025","837-TS","2018/12/06 18:59:00","新北市林口區南勢街192巷9號","121.36103","25.07504","6501700","林口區"
"243009","297-R6","2018/12/06 18:58:52","新北市泰山區泰林路二段364號","121.428638333333","25.063585","6501600","泰山區"
"243016","KEA-2801","2018/12/06 18:59:01","新北市泰山區明志路二段152-1號","121.427576666667","25.050655","6501600","泰山區"
"243015","421-VK","2018/12/06 18:58:47","新北市泰山區泰林路二段280巷1號","121.43144","25.0623966666667","6501600","泰山區"
"243011","KEA-2215","2018/12/06 18:58:51","新北市泰山區明志路二段246-1號","121.427098333333","25.0481883333333","6501600","泰山區"
"243010","KEA-2216","2018/12/06 18:59:04","新北市泰山區辭修路28號","121.429088333333","25.05835","6501600","泰山區"
"243012","646-TV","2018/12/06 18:59:00","新北市泰山區同義街13巷32號","121.432325","25.0570316666667","6501600","泰山區"
"243014","680-BX","2018/12/06 18:58:50","新北市泰山區泰林路二段588號","121.422113333333","25.0636","6501600","泰山區"
"222002","016-RS","2018/12/06 18:58:57","新北市深坑區文山路一段31巷2號","121.62989","25.0032766666667","6501800","深坑區"
"222003","436-BY","2018/12/06 18:58:47","新北市深坑區深南路51-1號","121.621396666667","25.010155","6501800","深坑區"
"231041","002-UM","2018/12/06 18:58:56","新北市新店區環河路62號","121.53702","24.962675","6500600","新店區"
"231059","046-UY","2018/12/06 18:59:01","新北市新店區安華路28-1號","121.519543333333","24.9608383333333","6500600","新店區"
"231040","047-UY","2018/12/06 18:58:57","新北市新店區中央路11號","121.5333","24.9785416666667","6500600","新店區"
"231044","106-UY","2018/12/06 18:58:56","新北市新店區寶中路72號","121.547878333333","24.9805783333333","6500600","新店區"
"231046","107-UY","2018/12/06 18:59:02","新北市新店區直潭五街28號","121.534221666667","24.9412833333333","6500600","新店區"
"231052","108-UY","2018/12/06 18:59:03","新北市新店區屈尺路12號","121.54891","24.9225766666667","6500600","新店區"
"231047","187-VK","2018/12/06 18:58:56","新北市新店區德正街23巷12-1號","121.54467","24.9721733333333","6500600","新店區"
"231054","KEA-2219","2018/12/06 18:58:55","新北市新店區新店路13號","121.540356666667","24.952895","6500600","新店區"
"231042","268-BY","2018/12/06 18:58:48","新北市新店區北新路一段132號","121.542798333333","24.969805","6500600","新店區"
"231051","278-BY","2018/12/06 18:58:55","新北市新店區百忍街17巷1號","121.534368333333","24.97563","6500600","新店區"
"231050","AAD-862","2018/12/06 18:58:58","新北市新店區北宜路二段30巷5弄28號","121.548755","24.950805","6500600","新店區"
"231058","3713-VJ","2018/12/06 18:59:02","新北市新店區檳榔路50號","121.541858333333","24.963385","6500600","新店區"
"231066","4716-K9","2018/12/06 18:59:00","新北市新店區安豐路46號","121.500186666667","24.9550216666667","6500600","新店區"
"231056","4715-K9","2018/12/06 18:59:00","新北市新店區二十張路46巷37弄16號","121.536148333333","24.9817766666667","6500600","新店區"
"231067","4772-VM","2018/12/06 18:58:59","新北市新店區安康路一段355號","121.519913333333","24.9634216666667","6500600","新店區"
"231065","512-UM","2018/12/06 18:58:51","新北市新店區安祥路190巷1號","121.478366666667","24.956535","6500600","新店區"
"231049","513-UM","2018/12/06 18:59:00","新北市新店區中正路454-5號","121.534438333333","24.9790216666667","6500600","新店區"
"231063","616-UM","2018/12/06 18:58:47","新北市新店區安華路1-1號","121.519448333333","24.9604033333333","6500600","新店區"
"231045","617-UM","2018/12/06 18:58:56","新北市新店區光明街51號","121.53856","24.9601616666667","6500600","新店區"
"231061","619-UM","2018/12/06 18:58:57","新北市新店區安華路28-1號","121.519565","24.960635","6500600","新店區"
"231064","719-UY","2018/12/06 18:58:50","新北市新店區安一路一段1-1號","121.519746666667","24.9611566666667","6500600","新店區"
"231062","720-UM","2018/12/06 18:59:02","新北市新店區安豐路60-1號","121.497805","24.9536","6500600","新店區"
"231060","897-TW","2018/12/06 18:58:55","新北市新店區安華路1-1號","121.51958","24.96045","6500600","新店區"
"231043","898-TW","2018/12/06 18:58:59","新北市新店區北新路二段17號","121.542691666667","24.9715116666667","6500600","新店區"
"231055","AKT-0513","2018/12/06 18:59:02","新北市新店區力行路92號","121.538346666667","24.96653","6500600","新店區"
"251014","742-BX","2018/12/06 18:58:49","新北市淡水區小中寮22號","121.489471666667","25.22963","6501000","淡水區"
"241035","KEA-2210","2018/12/06 18:58:47","新北市三重區三寧街15號","121.48948","25.05973","6500200","三重區"
"235066","003-UY","2018/12/06 18:59:01","新北市中和區中山路二段131巷5弄5號","121.502885","25.002875","6500300","中和區"
"235064","005-UY","2018/12/06 18:58:54","新北市中和區泰和街30巷6號","121.499251666667","25.0007616666667","6500300","中和區"
"235063","006-UY","2018/12/06 18:58:44","新北市中和區中正路562號","121.486721666667","24.9945166666667","6500300","中和區"
"235056","096-UM","2018/12/06 18:58:44","新北市中和區新民街12-3號","121.482053333333","25.0071033333333","6500300","中和區"
"235039","097-UM","2018/12/06 18:58:57","新北市永和區民有街100號","121.517581666667","24.99578","6500300","中和區"
"235040","150-BY","2018/12/06 18:49:00","新北市中和區中正路303號","121.492928333333","24.9940266666667","6500300","中和區"
"235058","151-BY","2018/12/06 18:59:03","新北市中和區員山路84號","121.480848333333","24.99419","6500300","中和區"
"235055","183-VK","2018/12/06 18:58:49","新北市中和區民德路21號","121.468828333333","25.0027533333333","6500300","中和區"
"235038","185-VK","2018/12/06 18:58:46","新北市中和區立人街24-5號","121.518821666667","24.9941283333333","6500300","中和區"
"235049","186-VK","2018/12/06 18:59:05","新北市中和區景安路167巷15號","121.506188333333","24.994825","6500300","中和區"
"235067","255-BX","2018/12/06 18:58:52","新北市中和區新生街162號","121.483686666667","25.0003316666667","6500300","中和區"
"235044","293-VK","2018/12/06 18:58:52","新北市中和區中興街161巷12弄2號","121.501431666667","24.9909333333333","6500300","中和區"
"235072","301-VK","2018/12/06 18:58:47","新北市中和區景平路701號","121.496488333333","25.0034933333333","6500300","中和區"
"235043","352-BY","2018/12/06 18:58:57","新北市中和區成功路1巷4號","121.526525","24.9943366666667","6500300","中和區"
"235042","KEA-2878","2018/12/06 18:59:00","新北市中和區秀朗路三段100巷5弄2號","121.52533","24.9932566666667","6500300","中和區"
"247012","KEA-2869","2018/12/06 18:58:58","新北市五股區新五路二段372巷20號","121.447688333333","25.0849133333333","6501400","蘆洲區"
"235050","4979-A6","2018/12/06 18:58:50","新北市中和區忠孝街60巷2弄9號","121.511808333333","24.9834383333333","6500300","中和區"
"235069","4980-A6","2018/12/06 18:59:06","新北市中和區景平路459巷1弄2號","121.500266666667","24.9963433333333","6500300","中和區"
"235041","551-UM","2018/12/06 18:58:55","新北市中和區宜安路66號","121.511475","24.99717","6500300","中和區"
"235070","558-UM","2018/12/06 18:58:59","新北市中和區中和路255號","121.505023333333","24.9997483333333","6500300","中和區"
"235045","565-BX","2018/12/06 18:58:57","新北市中和區景新街467巷20弄102號","121.514841666667","24.98725","6500300","中和區"
"235054","640-BX","2018/12/06 18:59:01","新北市中和區民享街86巷7號","121.474035","25.0007983333333","6500300","中和區"
"235060","647-TV","2018/12/06 18:59:00","新北市中和區民治街9巷2號","121.475168333333","25.004455","6500300","中和區"
"235047","732-UM","2018/12/06 18:58:57","新北市中和區興南路二段52號","121.506428333333","24.98509","6500300","中和區"
"235046","733-UM","2018/12/06 18:58:57","新北市中和區興南路二段3巷15弄5號","121.508838333333","24.9864933333333","6500300","中和區"
"235071","783-BX","2018/12/06 18:58:53","新北市中和區員山路36巷16-2號","121.48526","24.9913733333333","6500300","中和區"
"235062","800-TS","2018/12/06 18:59:02","新北市中和區中山路二段408號","121.490078333333","25.0037483333333","6500300","中和區"
"235057","801-TS","2018/12/06 18:59:05","新北市中和區民利街98號","121.477576666667","24.9978666666667","6500300","中和區"
"235052","805-TS","2018/12/06 18:59:06","新北市中和區興南路二段258號","121.502805","24.9816383333333","6500300","中和區"
"235048","896-TW","2018/12/06 18:58:53","新北市中和區華新街109巷16號","121.508745","24.98109","6500300","中和區"
"235053","900-TW","2018/12/06 18:58:54","新北市中和區和平路200巷35弄1號","121.465325","24.994605","6500300","中和區"
"235065","911-UM","2018/12/06 18:58:59","新北市中和區勝利路35巷3弄1號","121.49909","25.0071766666667","6500300","中和區"
"235051","157-BY","2018/12/06 18:58:52","新北市中和區忠孝街11巷12號","121.509913333333","24.9832133333333","6500300","中和區"
"235037","AAC-213","2018/12/06 18:58:57","新北市中和區自立路33號","121.522108333333","24.9955016666667","6500300","中和區"
"235059","AAC-215","2018/12/06 18:58:49","新北市中和區圓通路367巷2號","121.491181666667","24.98936","6500300","中和區"
"220065","072-UY","2018/12/06 18:58:55","新北市板橋區漢生東路340巷10號","121.471476666667","25.007355","6500100","板橋區"
"220086","073-UY","2018/12/06 18:58:48","新北市板橋區中正路250巷33號","121.457035","25.0195433333333","6500100","板橋區"
"220106","075-UY","2018/12/06 18:58:55","新北市板橋區文化路二段317號","121.472158333333","25.0298133333333","6500100","板橋區"
"226004","312-R5","2018/12/06 18:58:54","新北市平溪區平溪里平溪街32號","121.738761666667","25.0257316666667","6502400","平溪區"
"228003","097-TW","2018/12/06 18:58:58","新北市貢寮區和美里龍洞街60號","121.913925","25.1158933333333","6502600","貢寮區"
"228001","212-TW","2018/12/06 18:59:03","新北市貢寮區仁理村研海街12-1號","121.923768333333","25.05162","6502600","貢寮區"
"228002","585-TW","2018/12/06 18:59:04","新北市貢寮區福隆里東興街106巷23弄3號","121.946411666667","25.0182066666667","6502600","貢寮區"
"224010","AGQ-8101","2018/12/06 18:59:03","新北市瑞芳區街頂巷6-1號","121.845388333333","25.1093033333333","6501200","瑞芳區"
"224006","676-BX","2018/12/06 18:59:04","新北市瑞芳區中正路14號","121.808658333333","25.1070066666667","6501200","瑞芳區"
"224008","285-BY","2018/12/06 18:58:56","新北市瑞芳區逢甲路274號","121.804793333333","25.1108466666667","6501200","瑞芳區"
"224007","275-VK","2018/12/06 18:58:50","新北市瑞芳區中央路48巷56-30號","121.759205","25.1037933333333","6501200","瑞芳區"
"224009","273-VK","2018/12/06 18:59:03","新北市瑞芳區洞頂路148號","121.858573333333","25.11726","6501200","瑞芳區"
"224005","271-BY","2018/12/06 18:59:04","新北市瑞芳區瑞濱路32-6號","121.823518333333","25.12091","6501200","瑞芳區"
"227004","642-TC","2018/12/06 18:58:56","新北市雙溪區平林里康福家園17號","121.858838333333","25.0373183333333","6502500","雙溪區"
"227010","400-TW","2018/12/06 18:58:55","新北市雙溪區牡丹里中正路58巷23號","121.86645","25.0416183333333","6502500","雙溪區"
"253006","032-BX","2018/12/06 18:58:55","新北市石門區下員坑46-3號","121.517136666667","25.2769466666667","6502200","石門區"
"253005","295-VK","2018/12/06 18:59:01","新北市石門區中央路37-2號","121.568523333333","25.2944366666667","6502200","石門區"
"222001","KEA-2212","2018/12/06 18:58:52","新北市深坑區北深路一段232號","121.630191666667","25.0089183333333","6501800","深坑區"
"208002","KEA-2872","2018/12/06 18:58:56","新北市金山區仁愛路37-23號","121.635581666667","25.22048","6502700","金山區"
"208003","665-BX","2018/12/06 18:59:03","新北市金山區中正路39號","121.634975","25.22205","6502700","金山區"
"208001","761-BX","2018/12/06 18:58:59","新北市金山區中山路16號","121.641425","25.2176","6502700","金山區"
"251009","008-UM","2018/12/06 18:59:05","新北市淡水區重建街108號","121.440095","25.1728216666667","6501000","淡水區"
"251001","011-UM","2018/12/06 18:58:48","新北市淡水區自強路58號","121.463198333333","25.12742","6501000","淡水區"
"251002","012-UM","2018/12/06 18:59:05","新北市淡水區中正東路65號","121.447091666667","25.1676816666667","6501000","淡水區"
"251013","KEA-2871","2018/12/06 18:58:23","新北市淡水區安子內3-2號","121.485668333333","25.2159983333333","6501000","淡水區"
"251016","179-VK","2018/12/06 18:58:55","新北市淡水區淡金路三段331巷3號","121.448573333333","25.2060633333333","6501000","淡水區"
"251015","182-VK","2018/12/06 18:58:46","新北市淡水區糞箕湖60號","121.4852","25.1723033333333","6501000","淡水區"
"251010","413-VK","2018/12/06 18:58:50","新北市淡水區中正路二段22巷43號","121.421395","25.1824633333333","6501000","淡水區"
"251007","442-VK","2018/12/06 18:59:01","新北市淡水區民生路66號","121.462366666667","25.1380033333333","6501000","淡水區"
"251003","766-UM","2018/12/06 18:58:51","新北市淡水區中山北路一段149巷24號","121.442898333333","25.1780566666667","6501000","淡水區"
"207003","550-UM","2018/12/06 18:59:07","新北市萬里區大鵬里頂社28號","121.656781666667","25.2105616666667","6502800","萬里區"
"207004","225-TW","2018/12/06 18:58:54","新北市萬里區萬里里獅頭路23號","121.693435","25.1782433333333","6502800","萬里區"
"252002","178-VK","2018/12/06 18:59:03","新北市三芝區中正路一段68號","121.503795","25.2577183333333","6502100","三芝區"
"252003","249-BX","2018/12/06 18:59:02","新北市三芝區後厝里北勢子42-11號","121.471553333333","25.2520483333333","6502100","三芝區"
"252001","292-VK","2018/12/06 18:59:01","新北市三芝區中興街二段260號","121.501761666667","25.2530083333333","6502100","三芝區"
"237004","KEA-2597","2018/12/06 18:58:48","新北市三峽區有木189號","121.449541666667","24.8426933333333","6500900","三峽區"
"237007","153-BY","2018/12/06 18:58:54","新北市三峽區中正路二段42巷84號","121.364288333333","24.9205383333333","6500900","三峽區"
"237013","252-BX","2018/12/06 18:58:48","新北市三峽區大同路48巷17弄8-1號","121.376685","24.9290583333333","6500900","三峽區"
"237012","275-BY","2018/12/06 18:59:04","新北市三峽區三樹路222巷192-3號","121.388453333333","24.94237","6500900","三峽區"
"237008","302-VK","2018/12/06 18:58:59","新北市三峽區正義街123號","121.368616666667","24.91708","6500900","三峽區"
"237014","433-BY","2018/12/06 18:58:58","新北市三峽區隆恩街174號","121.362561666667","24.9427483333333","6500900","三峽區"
"237006","5529-G3","2018/12/06 18:58:50","新北市三峽區溪東路233巷47弄2號","121.410675","24.9346566666667","6500900","三峽區"
"237011","KEA-2596","2018/12/06 18:58:55","新北市三峽區介壽路三段245號","121.407983333333","24.94949","6500900","三峽區"
"237016","649-BX","2018/12/06 18:58:47","新北市三峽區建安89號","121.455716666667","24.92069","6500900","三峽區"
"237010","706-TV","2018/12/06 18:59:00","新北市三峽區復興路361號","121.363713333333","24.9386266666667","6500900","三峽區"
"237005","AKY-6261","2018/12/06 18:58:55","新北市三峽區中山路459巷163-3號","121.348656666667","24.9329216666667","6500900","三峽區"
"236070","105-UM","2018/12/06 18:59:00","新北市土城區裕民路285號","121.455973333333","24.9816316666667","6501300","土城區"
"236042","KED-0685","2018/12/06 18:58:55","新北市土城區學府路一段229巷6號","121.451411666667","24.9838233333333","6501300","土城區"
"236078","166-UM","2018/12/06 18:59:04","新北市土城區中央路四段466號","121.409981666667","24.9505266666667","6501300","土城區"
"236030","253-BX","2018/12/06 18:58:44","新北市土城區中央路二段223-9號","121.440578333333","24.9732483333333","6501300","土城區"
"236026","269-VK","2018/12/06 18:59:00","新北市土城區光明街35號","121.442126666667","24.9740516666667","6501300","土城區"
"236014","270-VK","2018/12/06 18:59:05","新北市土城區永豐路100號","121.463141666667","24.9871766666667","6501300","土城區"
"236038","271-VK","2018/12/06 18:58:57","新北市土城區青仁路17號","121.460008333333","24.9786616666667","6501300","土城區"
"236021","401-BY","2018/12/06 18:59:02","新北市土城區德峰街41巷6號","121.467993333333","24.9860166666667","6501300","土城區"
"236059","912-UM","2018/12/06 18:59:03","新北市土城區金城路二段228號","121.456483333333","24.9828883333333","6501300","土城區"
"236049","913-UM","2018/12/06 18:58:54","新北市土城區青雲路318號","121.45891","24.9772016666667","6501300","土城區"
"236063","915-UM","2018/12/06 18:58:54","新北市土城區延和路105巷1弄15號","121.466798333333","24.9901566666667","6501300","土城區"
"236055","AAC-216","2018/12/06 18:58:59","新北市土城區學成路148號","121.44853","24.989455","6501300","土城區"
"242004","349-TH","2018/12/06 18:59:03","新北市新莊區三和路12-21號","121.442308333333","25.0382766666667","6500500","新莊區"
"238019","599-UM","2018/12/06 18:59:03","新北市樹林區鎮前街415號","121.414186666667","24.9830433333333","6500700","樹林區"
"238022","KEA-2213","2018/12/06 18:58:49","新北市樹林區東興街14-2號","121.410075","24.978495","6500700","樹林區"
"238021","KEA-2539","2018/12/06 18:58:57","新北市樹林區柑園街二段276巷30號","121.372095","24.953445","6500700","樹林區"
"238025","303-VK","2018/12/06 18:59:05","新北市樹林區中山路三段136號","121.391856666667","24.9722266666667","6500700","樹林區"
"238017","283-BY","2018/12/06 18:59:02","新北市樹林區中山路二段209號","121.40369","24.9770383333333","6500700","樹林區"
"238014","282-BY","2018/12/06 18:58:52","新北市樹林區潭興街143巷11號","121.425401666667","25.00006","6500700","樹林區"
"238020","268-VK","2018/12/06 18:58:53","新北市樹林區俊英街79號","121.426108333333","25.0075466666667","6500700","樹林區"
"238026","172-UY","2018/12/06 18:58:46","新北市樹林區中和街11號","121.39205","24.9729033333333","6500700","樹林區"
"238016","169-UY","2018/12/06 18:59:04","新北市樹林區文化街28-1號","121.419238333333","24.9878016666667","6500700","樹林區"
"239007","AAC-297","2018/12/06 18:59:01","新北市鶯歌區中正一路221號","121.354018333333","24.95721","6500800","鶯歌區"
"239008","527-UM","2018/12/06 18:58:49","新北市鶯歌區國際二路20巷19號","121.337036666667","24.9754416666667","6500800","鶯歌區"
"239005","526-UM","2018/12/06 18:59:02","新北市鶯歌區鳳吉二街31號","121.326031666667","24.9731516666667","6500800","鶯歌區"
"239001","417-VK","2018/12/06 18:58:54","新北市鶯歌區永安街8號","121.33799","24.955525","6500800","鶯歌區"
"239003","360-BY","2018/12/06 18:59:04","新北市鶯歌區鶯桃路536號","121.331168333333","24.9670283333333","6500800","鶯歌區"
"239002","359-BY","2018/12/06 18:58:54","新北市鶯歌區中正一路281號","121.355456666667","24.957125","6500800","鶯歌區"
"239004","193-VK","2018/12/06 18:58:56","新北市鶯歌區中正三路230巷26號","121.329836666667","24.9398816666667","6500800","鶯歌區"
"221008","489-VK","2018/12/06 18:58:56","新北市汐止區翠峰街21巷3弄8號","121.643646666667","25.0757716666667","6501100","汐止區"
"221036","130-UY","2018/12/06 18:58:55","新北市汐止區仁愛路326號","121.664361666667","25.0681033333333","6501100","汐止區"
"221015","131-UY","2018/12/06 18:58:50","新北市汐止區鄉長路一段55巷5號","121.665736666667","25.075925","6501100","汐止區"
"221010","269-BY","2018/12/06 18:58:59","新北市汐止區康寧街901號","121.651276666667","25.0750983333333","6501100","汐止區"
"221012","278-VK","2018/12/06 18:58:57","新北市汐止區康寧街901號","121.650776666667","25.0752183333333","6501100","汐止區"
"221023","279-VK","2018/12/06 18:58:55","新北市汐止區康寧街901號","121.651743333333","25.0749566666667","6501100","汐止區"
"221032","280-BY","2018/12/06 18:58:58","新北市汐止區橫科路121巷52弄3號","121.622601666667","25.0509366666667","6501100","汐止區"
"221027","281-BY","2018/12/06 18:59:00","新北市汐止區康寧街901號","121.65142","25.0749883333333","6501100","汐止區"
"221029","298-VK","2018/12/06 18:58:59","新北市汐止區樟樹一路240號","121.642428333333","25.066845","6501100","汐止區"
"221021","299-VK","2018/12/06 18:58:55","新北市汐止區康寧街901號","121.651488333333","25.0750333333333","6501100","汐止區"
"221031","353-TW","2018/12/06 18:58:51","新北市汐止區中興路181巷29弄8號","121.629906666667","25.0657966666667","6501100","汐止區"
"221035","622-UM","2018/12/06 18:58:49","新北市汐止區康寧街901號","121.650708333333","25.0753316666667","6501100","汐止區"
"221025","623-UM","2018/12/06 18:58:53","新北市汐止區汐萬路一段267號","121.650688333333","25.0742916666667","6501100","汐止區"
"221038","646-BX","2018/12/06 18:59:01","新北市汐止區汐萬路一段312號","121.650588333333","25.0753133333333","6501100","汐止區"
"221033","647-BX","2018/12/06 18:58:58","新北市汐止區南勢街3號","121.627065","25.0374016666667","6501100","汐止區"
"221002","707-TV","2018/12/06 18:58:50","台北市南港區南港路一段30巷24號","121.618845","25.0556766666667","6501100","汐止區"
"221018","753-BX","2018/12/06 18:58:58","新北市汐止區茄苳路42號","121.665871666667","25.0708","6501100","汐止區"
"220079","145-BY","2018/12/06 18:58:54","新北市板橋區中正路183巷32號","121.455408333333","25.0161666666667","6500100","板橋區"
"220080","200-UY","2018/12/06 18:58:48","新北市板橋區大觀路二段265巷1弄14號","121.443516666667","24.99845","6500100","板橋區"
"220082","610-BX","2018/12/06 18:59:04","新北市板橋區滿平街67號","121.427588333333","24.989175","6500100","板橋區"
"220101","245-BX","2018/12/06 18:59:02","新北市板橋區民生路二段188號","121.470201666667","25.020805","6500100","板橋區"
"224002","257-TC","2018/12/06 18:59:00","新北市瑞芳區靜安路四段10號","121.79471","25.0868616666667","6501200","瑞芳區"
"220056","276-BY","2018/12/06 18:58:50","新北市板橋區信義路147號","121.458163333333","24.9928933333333","6500100","板橋區"
"220072","277-BY","2018/12/06 18:58:53","新北市板橋區大觀路三段50巷51號","121.431993333333","24.99584","6500100","板橋區"
"220071","283-VK","2018/12/06 18:58:56","新北市板橋區忠孝路176巷25號","121.465473333333","25.0018433333333","6500100","板橋區"
"220094","285-UM","2018/12/06 18:58:51","新北市板橋區光武街138號","121.46538","25.02995","6500100","板橋區"
"220053","285-VK","2018/12/06 18:59:04","新北市板橋區中山路二段89巷33號","121.473736666667","25.0169166666667","6500100","板橋區"
"220083","286-VK","2018/12/06 18:59:05","新北市板橋區大觀路一段38巷184號","121.4414","25.0046816666667","6500100","板橋區"
"220081","287-VK","2018/12/06 18:59:01","新北市板橋區光華街19巷13號","121.453265","25.0119666666667","6500100","板橋區"
"220090","288-VK","2018/12/06 18:59:06","新北市板橋區裕民街23-3號","121.462131666667","25.0290166666667","6500100","板橋區"
"220061","293-UM","2018/12/06 18:58:49","新北市板橋區懷仁街49-1號","121.47677","25.0191416666667","6500100","板橋區"
"220084","296-UM","2018/12/06 18:59:01","新北市板橋區龍興街63巷4號","121.442978333333","25.0013133333333","6500100","板橋區"
"220075","303-R5","2018/12/06 18:59:00","新北市板橋區南雅南路一段1巷21號","121.457046666667","25.0067933333333","6500100","板橋區"
"220062","305-R5","2018/12/06 18:58:53","新北市板橋區民享街101號","121.47733","25.0159616666667","6500100","板橋區"
"220092","307-R5","2018/12/06 18:58:54","新北市板橋區文化路二段225巷60弄44號","121.46915","25.0294133333333","6500100","板橋區"
"220098","317-R6","2018/12/06 18:58:52","新北市板橋區民生路二段250號","121.468683333333","25.0231516666667","6500100","板橋區"
"220089","487-VK","2018/12/06 18:58:57","新北市板橋區文化路二段173號","121.47051","25.02764","6500100","板橋區"
"220088","491-VK","2018/12/06 18:59:04","新北市板橋區文化路二段182巷3弄26號","121.47203","25.02802","6500100","板橋區"
"220035","560-BX","2018/12/06 18:58:54","新北市板橋區中正路341巷8號","121.454545","25.0203766666667","6500100","板橋區"
"220103","561-BX","2018/12/06 18:59:00","新北市板橋區介壽街84巷48號","121.46883","25.0185183333333","6500100","板橋區"
"220063","609-BX","2018/12/06 18:58:56","新北市板橋區中山路二段244號","121.478551666667","25.0181816666667","6500100","板橋區"
"220091","637-BX","2018/12/06 18:58:58","新北市板橋區大同街26巷5號","121.478106666667","25.0270883333333","6500100","板橋區"
"220057","686-BX","2018/12/06 18:58:53","新北市板橋區重慶路247號","121.463251666667","25.0005433333333","6500100","板橋區"
"220077","687-BX","2018/12/06 18:59:03","新北市板橋區龍興街58號","121.443448333333","25.00132","6500100","板橋區"
"220093","689-BX","2018/12/06 18:58:55","新北市板橋區民生路三段221號","121.464955","25.02837","6500100","板橋區"
"220054","741-BX","2018/12/06 18:59:04","新北市板橋區重慶路89巷4號","121.462545","25.0063966666667","6500100","板橋區"
"220102","KEA-2699","2018/12/06 18:59:05","新北市板橋區田單街2巷31號","121.482188333333","25.02799","6500100","板橋區"
"220055","827-TW","2018/12/06 18:58:51","新北市板橋區中山路一段128號","121.463345","25.0108833333333","6500100","板橋區"
"220068","830-TW","2018/12/06 18:59:04","新北市板橋區中山路二段465巷92-1號","121.481158333333","25.0225366666667","6500100","板橋區"
"220067","831-TW","2018/12/06 18:58:49","新北市板橋區民享街116巷11號","121.47846","25.0155483333333","6500100","板橋區"
"220074","895-R6","2018/12/06 18:58:45","新北市板橋區文昌街1號","121.456011666667","25.01008","6500100","板橋區"
"220073","985-R7","2018/12/06 18:59:03","新北市板橋區中正路163-1號","121.456571666667","25.0163466666667","6500100","板橋區"
"220097","AAC-210","2018/12/06 18:59:07","新北市板橋區新海路135巷33號","121.459931666667","25.0228583333333","6500100","板橋區"
"220064","AAC-253","2018/12/06 18:58:52","新北市板橋區板新路77號","121.473455","25.0136183333333","6500100","板橋區"
"235068","KEA-2873","2018/12/06 18:58:49","新北市中和區圓通路293-1號","121.495081666667","24.9926183333333","6500300","中和區"
"235061","KEA-2875","2018/12/06 18:58:52","新北市中和區中山路三段179巷12號","121.473561666667","25.0057033333333","6500300","中和區"
