"lineid","car","time","location","longitude","latitude","cityid","cityname"
"234007","207-UY","2018/12/06 20:19:09","新北市永和區環河西路二段217巷1號","121.501435","25.0101116666667","6500400","永和區"
"234038","336-UY","2018/12/06 20:19:02","新北市永和區成功路一段93巷21弄2號","121.52834","25.0026383333333","6500400","永和區"
"234064","337-UY","2018/12/06 20:18:53","新北市永和區得和路124號","121.518715","25.0001716666667","6500400","永和區"
"234070","552-UM","2018/12/06 20:19:04","新北市永和區福和路261號","121.517845","25.0072466666667","6500400","永和區"
"234081","553-UM","2018/12/06 20:19:01","新北市永和區國中路102號","121.524258333333","25.0064816666667","6500400","永和區"
"234017","745-BX","2018/12/06 20:18:52","新北市永和區仁愛路33號","121.51426","25.013365","6500400","永和區"
"234030","746-BX","2018/12/06 20:19:05","新北市永和區民有街65號","121.517845","24.9958166666667","6500400","永和區"
"234054","KEA-2590","2018/12/06 20:18:49","新北市永和區光復街2巷26弄1號","121.51762","25.0165766666667","6500400","永和區"
"234013","KEA-2591","2018/12/06 20:19:08","新北市永和區保生路25-1號","121.505973333333","25.0073016666667","6500400","永和區"
"234061","AAD-866","2018/12/06 20:19:06","新北市永和區得和路9號","121.51512","25.000695","6500400","永和區"
"234086","748-BX","2018/12/06 20:19:07","新北市永和區永和路二段253號","121.515885","25.0151433333333","6500400","永和區"
"234042","862-TW","2018/12/06 20:19:05","新北市中和區中安街166號","121.510845","25.000105","6500400","永和區"
"234050","863-TW","2018/12/06 20:19:01","新北市永和區環河西路二段17號","121.50782","25.0161333333333","6500400","永和區"
"234011","9373-KE","2018/12/06 20:18:55","新北市永和區保生路55-1號","121.504508333333","25.01092","6500400","永和區"
"249005","172-UM","2018/12/06 20:18:54","新北市八里區下罟子2-19號","121.387956666667","25.141765","6502300","八里區"
"249001","173-UM","2018/12/06 20:19:07","新北市八里區中華路二段341-10號","121.39911","25.1450066666667","6502300","八里區"
"249004","303-UY","2018/12/06 20:18:59","新北市八里區中山路一段129巷19-1號","121.413923333333","25.158685","6502300","八里區"
"249002","305-UY","2018/12/06 20:18:54","新北市八里區龍米路一段100巷12號","121.453838333333","25.1249583333333","6502300","八里區"
"249003","593-UM","2018/12/06 20:18:52","新北市八里區訊埔路20號","121.397578333333","25.1453733333333","6502300","八里區"
"248014","025-BX","2018/12/06 20:19:04","新北市八里區中山路三段387號","121.371373333333","25.137495","6501500","五股區"
"248012","247-BX","2018/12/06 20:18:53","新北市五股區民義路一段206號","121.430523333333","25.089155","6501500","五股區"
"248002","678-BX","2018/12/06 20:16:55","新北市五股區成泰路三段173號","121.44531","25.0921083333333","6501500","五股區"
"248010","682-TV","2018/12/06 20:19:08","新北市五股區新五路二段2巷26-1號","121.439915","25.0679133333333","6501500","五股區"
"234023","9380-KE","2018/12/06 20:18:56","新北市永和區中正路654巷40號","121.518","25.0084983333333","6500400","永和區"
"234077","969-R7","2018/12/06 20:19:03","新北市永和區中正路106號","121.514386666667","24.9958666666667","6500400","永和區"
"234074","AAC-211","2018/12/06 20:18:55","新北市永和區竹林路201巷22弄9號","121.522468333333","25.009335","6500400","永和區"
"234067","AAC-212","2018/12/06 20:19:02","新北市永和區保平路214巷1弄11號","121.509125","25.00578","6500400","永和區"
"234003","AAC-295","2018/12/06 20:18:56","新北市永和區自強街6巷1弄6號","121.514465","25.0079433333333","6500400","永和區"
"243009","297-R6","2018/12/06 20:18:52","新北市泰山區泰林路二段115號","121.434465","25.0592816666667","6501600","泰山區"
"243016","KEA-2801","2018/12/06 20:19:01","新北市泰山區明志路三段37號","121.424898333333","25.0426283333333","6501600","泰山區"
"243015","421-VK","2018/12/06 20:19:07","新北市泰山區仁德路109號","121.43287","25.05619","6501600","泰山區"
"243011","KEA-2215","2018/12/06 20:19:01","新北市泰山區壽山路160巷12號","121.417028333333","25.0311716666667","6501600","泰山區"
"243010","KEA-2216","2018/12/06 20:19:04","新北市泰山區明志路二段273巷14弄1號","121.427723333333","25.0473116666667","6501600","泰山區"
"243012","646-TV","2018/12/06 20:19:00","新北市泰山區楓江路67-1號","121.436486666667","25.0631116666667","6501600","泰山區"
"243014","680-BX","2018/12/06 20:18:50","新北市泰山區泰林路二段455號","121.425705","25.06399","6501600","泰山區"
"222002","016-RS","2018/12/06 20:18:57","新北市深坑區萬福路69-1號","121.6014","25.0094183333333","6501800","深坑區"
"222003","436-BY","2018/12/06 20:18:47","新北市深坑區文化街76號","121.618113333333","25.0020116666667","6501800","深坑區"
"231041","002-UM","2018/12/06 20:18:56","新北市新店區民權路46-4號","121.53985","24.9829883333333","6500600","新店區"
"231059","046-UY","2018/12/06 20:19:01","新北市新店區安德街60巷15號","121.510651666667","24.962695","6500600","新店區"
"231040","047-UY","2018/12/06 20:18:57","新北市新店區中正路125號","121.54204","24.9712733333333","6500600","新店區"
"231044","106-UY","2018/12/06 20:19:02","新北市新店區北新路三段148號","121.541461666667","24.982415","6500600","新店區"
"231052","108-UY","2018/12/06 20:19:03","新北市新店區松林路1號","121.547121666667","24.9122233333333","6500600","新店區"
"231047","187-VK","2018/12/06 20:18:55","新北市新店區寶橋路85巷5弄3號","121.545998333333","24.9756416666667","6500600","新店區"
"231054","KEA-2219","2018/12/06 20:18:55","新北市新店區檳榔路69號","121.543978333333","24.9621433333333","6500600","新店區"
"231057","256-BX","2018/12/06 20:19:02","新北市新店區花園五路二段27號","121.55461","24.9348833333333","6500600","新店區"
"231042","268-BY","2018/12/06 20:19:08","新北市新店區中興路二段186-2號","121.54806","24.97261","6500600","新店區"
"231051","278-BY","2018/12/06 20:18:35","新北市新店區中央六街84號","121.526703333333","24.9766033333333","6500600","新店區"
"231050","AAD-862","2018/12/06 20:18:58","新北市新店區博愛街13巷1號","121.541053333333","24.9733066666667","6500600","新店區"
"231058","3713-VJ","2018/12/06 20:19:02","新北市新店區安民街121巷12號","121.51543","24.9693216666667","6500600","新店區"
"231056","4715-K9","2018/12/06 20:19:00","新北市新店區中正路302巷16號","121.538146666667","24.975265","6500600","新店區"
"231067","4772-VM","2018/12/06 20:18:59","新北市新店區溪洲路8巷1號","121.533526666667","24.9611283333333","6500600","新店區"
"231065","512-UM","2018/12/06 20:18:52","新北市新店區安祥路104巷6弄10號","121.481916666667","24.962555","6500600","新店區"
"231049","513-UM","2018/12/06 20:19:00","新北市新店區北新路一段142號","121.542531666667","24.9707533333333","6500600","新店區"
"231063","616-UM","2018/12/06 20:19:07","新北市新店區柴埕路116號","121.504553333333","24.959655","6500600","新店區"
"231045","617-UM","2018/12/06 20:18:56","新北市新店區新坡一街82號","121.547643333333","24.9622633333333","6500600","新店區"
"231061","619-UM","2018/12/06 20:18:56","新北市新店區安興路33-1號","121.515883333333","24.970465","6500600","新店區"
"231068","718-UY","2018/12/06 20:18:58","新北市新店區寶安街30號","121.542068333333","24.982365","6500600","新店區"
"231064","719-UY","2018/12/06 20:18:50","新北市新店區安和路二段218號","121.518866666667","24.9763033333333","6500600","新店區"
"231062","720-UM","2018/12/06 20:19:02","新北市新店區安康路三段352號","121.48627","24.9518016666667","6500600","新店區"
"231060","897-TW","2018/12/06 20:18:54","新北市新店區錦秀路11巷92弄1號","121.4803","24.9427783333333","6500600","新店區"
"231043","898-TW","2018/12/06 20:18:59","新北市新店區建國路133號","121.539418333333","24.9782583333333","6500600","新店區"
"231055","AKT-0513","2018/12/06 20:19:02","新北市新店區北新路一段121號","121.539455","24.9626116666667","6500600","新店區"
"241011","013-R5","2018/12/06 20:18:58","新北市三重區龍門路248號","121.500956666667","25.0738116666667","6500200","三重區"
"241028","022-UY","2018/12/06 20:18:54","新北市三重區大同南路103號","121.496193333333","25.058725","6500200","三重區"
"241008","059-VK","2018/12/06 20:18:50","新北市三重區永福街211巷2弄2號","121.479918333333","25.0741916666667","6500200","三重區"
"241022","060-VK","2018/12/06 20:19:06","新北市三重區新北大道一段36號","121.488213333333","25.0614816666667","6500200","三重區"
"241031","061-VK","2018/12/06 20:18:59","新北市三重區三寧街15號","121.489516666667","25.0598366666667","6500200","三重區"
"241015","062-VK","2018/12/06 20:19:02","新北市三重區重新路一段116號","121.500586666667","25.063085","6500200","三重區"
"241017","063-VK","2018/12/06 20:18:53","新北市三重區自強路一段157號","121.493376666667","25.06717","6500200","三重區"
"241024","065-VK","2018/12/06 20:18:49","新北市三重區中正北路274號","121.480856666667","25.0685016666667","6500200","三重區"
"241002","090-VK","2018/12/06 20:18:54","新北市三重區仁義街101巷2號","121.497771666667","25.0800366666667","6500200","三重區"
"241003","091-VK","2018/12/06 20:18:54","新北市三重區富華街23號","121.490411666667","25.083005","6500200","三重區"
"251014","742-BX","2018/12/06 20:18:49","新北市淡水區石頭厝1號","121.458728333333","25.2355166666667","6501000","淡水區"
"241005","262-UM","2018/12/06 20:18:58","新北市三重區碧華街215號","121.488758333333","25.0827233333333","6500200","三重區"
"241016","265-UM","2018/12/06 20:19:02","新北市三重區大同北路91號","121.494768333333","25.063605","6500200","三重區"
"241009","267-UM","2018/12/06 20:19:05","新北市三重區三和路四段382巷38號","121.481511666667","25.0785416666667","6500200","三重區"
"241018","268-UM","2018/12/06 20:18:58","新北市三重區雙園街97號","121.493825","25.0673166666667","6500200","三重區"
"241032","269-UM","2018/12/06 20:18:53","新北市三重區捷運路19巷6弄3號","121.484831666667","25.05698","6500200","三重區"
"241013","270-UM","2018/12/06 20:18:51","新北市三重區三和路三段167巷27號","121.492926666667","25.0743416666667","6500200","三重區"
"241025","271-UM","2018/12/06 20:18:56","新北市三重區三民街220號","121.480155","25.067145","6500200","三重區"
"241007","398-BY","2018/12/06 20:18:51","新北市三重區溪尾街108巷48號","121.487515","25.078205","6500200","三重區"
"241035","KEA-2210","2018/12/06 20:19:07","新北市三重區正義北路33巷19號","121.498238333333","25.0637583333333","6500200","三重區"
"241004","475-VK","2018/12/06 20:18:54","新北市三重區仁政街198號","121.49057","25.0803316666667","6500200","三重區"
"241020","478-VK","2018/12/06 20:19:01","新北市三重區三和路三段155號","121.492026666667","25.07374","6500200","三重區"
"241030","480-VK","2018/12/06 20:18:55","新北市三重區集美街89巷21號","121.488371666667","25.0527766666667","6500200","三重區"
"241014","543-UM","2018/12/06 20:19:08","新北市三重區長壽街120巷23號","121.50251","25.0693983333333","6500200","三重區"
"241023","545-UM","2018/12/06 20:19:05","新北市三重區忠孝路三段63號","121.480585","25.0662683333333","6500200","三重區"
"241001","547-UM","2018/12/06 20:18:53","新北市三重區自強路四段31巷7號","121.489653333333","25.0766383333333","6500200","三重區"
"241033","557-UM","2018/12/06 20:13:44","新北市三重區光復路一段61巷31弄1號","121.474533333333","25.0491666666667","6500200","三重區"
"241019","KEA-2593","2018/12/06 20:18:55","新北市三重區忠孝路一段65號","121.490775","25.0721","6500200","三重區"
"241026","743-BX","2018/12/06 20:18:55","新北市三重區中央南路100號","121.501595","25.060605","6500200","三重區"
"241012","941-UM","2018/12/06 20:19:01","新北市三重區河邊北街266號","121.501588333333","25.0764666666667","6500200","三重區"
"241029","942-UM","2018/12/06 20:19:05","新北市三重區光明路98號","121.492513333333","25.05655","6500200","三重區"
"235066","003-UY","2018/12/06 20:19:00","新北市中和區保平路372號","121.506326666667","25.0035083333333","6500300","中和區"
"235039","097-UM","2018/12/06 20:18:57","新北市中和區大勇街27巷8號","121.51704","24.99384","6500300","中和區"
"247012","KEA-2869","2018/12/06 20:19:03","新北市蘆洲區中興街32號","121.480951666667","25.0870183333333","6501400","蘆洲區"
"247006","KED-0682","2018/12/06 20:19:01","新北市蘆洲區九芎街71巷9弄12號","121.466996666667","25.0781033333333","6501400","蘆洲區"
"235050","4979-A6","2018/12/06 20:19:04","新北市中和區景平路464巷2弄2號","121.505791666667","24.99381","6500300","中和區"
"235069","4980-A6","2018/12/06 20:19:06","新北市中和區圓通路14號","121.501476666667","24.9980116666667","6500300","中和區"
"235041","551-UM","2018/12/06 20:18:55","新北市新店區薏仁坑路自強巷1號","121.496858333333","24.958155","6500300","中和區"
"235054","640-BX","2018/12/06 20:19:01","新北市八里區商港路105巷15號","121.390631666667","25.1486516666667","6500300","中和區"
"235065","911-UM","2018/12/06 20:18:58","新北市中和區永和路128巷30號","121.497533333333","25.0067","6500300","中和區"
"235059","AAC-215","2018/12/06 20:18:49","新北市中和區圓通路435巷1號","121.486293333333","24.987575","6500300","中和區"
"247002","893-R6","2018/12/06 20:18:51","新北市蘆洲區長安街331巷26號","121.456201666667","25.086625","6501400","蘆洲區"
"247016","546-UM","2018/12/06 20:19:04","新北市蘆洲區光華路132巷39號","121.46583","25.0838033333333","6501400","蘆洲區"
"247024","500-BY","2018/12/06 20:18:49","新北市蘆洲區光榮路120巷8弄20號","121.464465","25.0879916666667","6501400","蘆洲區"
"247004","341-TH","2018/12/06 20:18:59","新北市蘆洲區長安街220巷21弄4號","121.45952","25.0857016666667","6501400","蘆洲區"
"247010","337-TH","2018/12/06 20:19:07","新北市蘆洲區信義路188巷15弄6號","121.480163333333","25.08477","6501400","蘆洲區"
"247020","057-VK","2018/12/06 20:19:03","新北市蘆洲區仁愛街34號","121.472016666667","25.0932283333333","6501400","蘆洲區"
"247014","053-VK","2018/12/06 20:19:00","新北市蘆洲區中山二路126號","121.4719","25.0817333333333","6501400","蘆洲區"
"247022","001-UY","2018/12/06 20:18:58","新北市蘆洲區三民路263號","121.468063333333","25.0892483333333","6501400","蘆洲區"
"224010","AGQ-8101","2018/12/06 20:19:03","新北市瑞芳區山尖路209號","121.849148333333","25.111755","6501200","瑞芳區"
"222001","KEA-2212","2018/12/06 20:18:52","新北市深坑區北深路三段225號","121.600051666667","25.0040433333333","6501800","深坑區"
"251009","008-UM","2018/12/06 20:19:05","新北市淡水區中山路127號","121.441301666667","25.1709866666667","6501000","淡水區"
"251004","009-UM","2018/12/06 20:08:20","新北市淡水區民族路21號","121.460616666667","25.1368933333333","6501000","淡水區"
"251001","011-UM","2018/12/06 20:18:48","新北市淡水區淡金路二段15號","121.44628","25.1892316666667","6501000","淡水區"
"251002","012-UM","2018/12/06 20:18:58","新北市淡水區中正路224號","121.439378333333","25.1704383333333","6501000","淡水區"
"251013","KEA-2871","2018/12/06 20:19:04","新北市淡水區奎柔山路752巷31號","121.474028333333","25.2053416666667","6501000","淡水區"
"251016","179-VK","2018/12/06 20:18:55","新北市淡水區淡金路四段507號","121.450715","25.228425","6501000","淡水區"
"251008","181-VK","2018/12/06 20:18:50","新北市淡水區淡海路150巷13號","121.421905","25.1845266666667","6501000","淡水區"
"251015","182-VK","2018/12/06 20:19:03","新北市淡水區牛埔子11-1號","121.450191666667","25.21897","6501000","淡水區"
"251010","413-VK","2018/12/06 20:18:50","新北市淡水區新民街一段134號","121.427615","25.1888433333333","6501000","淡水區"
"251012","441-VK","2018/12/06 20:18:51","新北市淡水區下圭柔山431-1號","121.449841666667","25.2102383333333","6501000","淡水區"
"251006","561-UM","2018/12/06 20:18:58","新北市淡水區北新路169巷35-1號","121.449531666667","25.180335","6501000","淡水區"
"251003","766-UM","2018/12/06 20:18:51","新北市淡水區中山北路一段229號","121.444418333333","25.1795633333333","6501000","淡水區"
"207004","225-TW","2018/12/06 20:18:54","新北市萬里區北基里仁六街2-1號","121.681553333333","25.175055","6502800","萬里區"
"252002","178-VK","2018/12/06 20:19:03","新北市三芝區中正路一段39號","121.50322","25.2583366666667","6502100","三芝區"
"252001","292-VK","2018/12/06 20:19:00","新北市三芝區中山路一段14號","121.500658333333","25.2580183333333","6502100","三芝區"
"237013","252-BX","2018/12/06 20:18:48","新北市樹林區柑園街二段412號","121.365771666667","24.9478033333333","6500900","三峽區"
"237006","5529-G3","2018/12/06 20:18:50","新北市三峽區中正路二段203號","121.365966666667","24.91351","6500900","三峽區"
"237016","649-BX","2018/12/06 20:19:06","新北市三峽區介壽路二段165號","121.394105","24.93599","6500900","三峽區"
"236070","105-UM","2018/12/06 20:19:00","新北市土城區福安街40號","121.41907","24.9647466666667","6501300","土城區"
"236026","269-VK","2018/12/06 20:18:48","新北市土城區中央路一段249巷12號","121.445783333333","24.9854966666667","6501300","土城區"
"236014","270-VK","2018/12/06 20:19:05","新北市土城區廣明街90巷26號","121.455745","24.9945866666667","6501300","土城區"
"247008","KED-0683","2018/12/06 20:19:05","新北市蘆洲區集賢路233號","121.48207","25.0856683333333","6501400","蘆洲區"
"236059","912-UM","2018/12/06 20:18:55","新北市土城區大安路101-5號","121.433448333333","24.96844","6501300","土城區"
"242036","AAC-296","2018/12/06 20:18:49","新北市新莊區建安街76巷3弄10號","121.425993333333","25.0248083333333","6500500","新莊區"
"242058","986-R7","2018/12/06 20:19:02","新北市新莊區龍安路266巷8號","121.421535","25.01896","6500500","新莊區"
"242027","615-BX","2018/12/06 20:18:57","新北市新莊區幸福路552號","121.4549","25.049365","6500500","新莊區"
"242025","613-BX","2018/12/06 20:18:52","新北市新莊區五工二路70巷19號","121.460801666667","25.0664833333333","6500500","新莊區"
"242029","612-BX","2018/12/06 20:18:59","新北市新莊區中華路二段201號","121.452251666667","25.0526816666667","6500500","新莊區"
"242044","566-BX","2018/12/06 20:18:54","新北市新莊區中正路新建巷28弄71號","121.413723333333","25.020995","6500500","新莊區"
"242048","497-BY","2018/12/06 20:19:04","新北市新莊區成功街204號","121.421416666667","25.01785","6500500","新莊區"
"242002","440-UM","2018/12/06 20:18:54","新北市新莊區化成路82號","121.465245","25.0438983333333","6500500","新莊區"
"242039","415-TV","2018/12/06 20:19:08","新北市新莊區龍安路459號","121.424791666667","25.01861","6500500","新莊區"
"242009","413-TV","2018/12/06 20:18:58","新北市新莊區昌隆街58巷1弄1號","121.454901666667","25.0504516666667","6500500","新莊區"
"242046","400-BY","2018/12/06 20:18:54","新北市新莊區中正路新生巷17號","121.41686","25.0238966666667","6500500","新莊區"
"242023","362-BY","2018/12/06 20:18:59","新北市新莊區化成路812號","121.465","25.0596416666667","6500500","新莊區"
"242061","353-BY","2018/12/06 20:19:03","新北市新莊區新樹路172-13號","121.43462","25.0217466666667","6500500","新莊區"
"242011","132-UY","2018/12/06 20:18:53","新北市新莊區中信街21號","121.451063333333","25.0506466666667","6500500","新莊區"
"242034","135-UY","2018/12/06 20:18:56","新北市新莊區建中街90巷16號","121.446816666667","25.0378583333333","6500500","新莊區"
"242051","172-VK","2018/12/06 20:18:50","新北市新莊區民安西路250號","121.425893333333","25.0136766666667","6500500","新莊區"
"242013","173-VK","2018/12/06 20:19:07","新北市新莊區中和街186巷6弄1號","121.448155","25.0497383333333","6500500","新莊區"
"242019","175-VK","2018/12/06 20:18:49","新北市新莊區復興路二段185號","121.459035","25.044475","6500500","新莊區"
"242017","233-RS","2018/12/06 20:18:52","新北市新莊區中港一街119號","121.448536666667","25.0451633333333","6500500","新莊區"
"242031","348-TH","2018/12/06 20:18:58","新北市新莊區三和路54號","121.437738333333","25.0383316666667","6500500","新莊區"
"242004","349-TH","2018/12/06 20:19:03","新北市新莊區頭前路60-3號","121.46681","25.0526483333333","6500500","新莊區"
"242021","350-TH","2018/12/06 20:19:03","新北市新莊區和興街43號","121.446798333333","25.04054","6500500","新莊區"
"242015","351-TH","2018/12/06 20:19:05","新北市新莊區中和街31巷22號","121.447135","25.0439133333333","6500500","新莊區"
"221008","489-VK","2018/12/06 20:18:56","新北市汐止區康寧街227號","121.622968333333","25.066745","6501100","汐止區"
"221036","130-UY","2018/12/06 20:18:54","新北市汐止區福安街49號","121.663231666667","25.0644533333333","6501100","汐止區"
"221015","131-UY","2018/12/06 20:19:10","新北市汐止區建成路142巷19弄11號","121.662005","25.07393","6501100","汐止區"
"221010","269-BY","2018/12/06 20:18:59","新北市汐止區八連路二段610巷4號","121.628166666667","25.10823","6501100","汐止區"
"221012","278-VK","2018/12/06 20:18:57","新北市汐止區汐平路一段131號","121.686565","25.06955","6501100","汐止區"
"221023","279-VK","2018/12/06 20:18:55","新北市汐止區明峰街298巷7弄2號","121.624963333333","25.06885","6501100","汐止區"
"221032","280-BY","2018/12/06 20:18:58","新北市汐止區弘道街53巷2號","121.618605","25.0484116666667","6501100","汐止區"
"221027","281-BY","2018/12/06 20:19:02","新北市汐止區大同路二段423號","121.658623333333","25.0672566666667","6501100","汐止區"
"221029","298-VK","2018/12/06 20:18:59","新北市汐止區樟樹一路99巷7弄2號","121.641106666667","25.0635766666667","6501100","汐止區"
"221021","299-VK","2018/12/06 20:18:55","新北市汐止區水源路一段275號","121.654096666667","25.0589","6501100","汐止區"
"221031","353-TW","2018/12/06 20:18:53","新北市汐止區中興路150巷13號","121.63289","25.0649916666667","6501100","汐止區"
"221035","622-UM","2018/12/06 20:18:49","新北市汐止區長江街101-5號","121.658668333333","25.0732016666667","6501100","汐止區"
"221025","623-UM","2018/12/06 20:18:53","新北市汐止區連興街138號","121.653978333333","25.0615833333333","6501100","汐止區"
"221038","646-BX","2018/12/06 20:19:01","新北市汐止區忠孝東路448號","121.666161666667","25.0726316666667","6501100","汐止區"
"221033","647-BX","2018/12/06 20:18:58","新北市汐止區東勢街201巷31號","121.634701666667","25.0436433333333","6501100","汐止區"
"221002","707-TV","2018/12/06 20:18:57","新北市汐止區福德三路67號","121.63679","25.0693083333333","6501100","汐止區"
"221018","753-BX","2018/12/06 20:18:58","新北市汐止區茄安路168號","121.675586666667","25.0689166666667","6501100","汐止區"
"224002","257-TC","2018/12/06 20:17:34","新北市瑞芳區傑魚坑路200-1號","121.801335","25.106765","6501200","瑞芳區"
"220083","286-VK","2018/12/06 20:18:56","新北市板橋區僑中二街100巷6號","121.445733333333","25.008515","6500100","板橋區"
"220081","287-VK","2018/12/06 20:19:01","新北市板橋區僑中一街102巷5弄10號","121.446345","25.01269","6500100","板橋區"
"220061","293-UM","2018/12/06 20:18:49","新北市板橋區文華街16號","121.457756666667","25.0005633333333","6500100","板橋區"
"242042","281-VK","2018/12/06 20:19:01","新北市新莊區壽山路61-2號","121.410703333333","25.0326966666667","6500500","新莊區"
"220062","305-R5","2018/12/06 20:18:53","新北市三重區後埔街61-1號","121.479466666667","25.047135","6500100","板橋區"
"242007","280-VK","2018/12/06 20:19:00","新北市新莊區福壽街94巷19弄6號","121.459401666667","25.0502433333333","6500500","新莊區"
"220103","561-BX","2018/12/06 20:18:54","新北市板橋區漢生東路53巷19號","121.46653","25.01724","6500100","板橋區"
"220055","827-TW","2018/12/06 20:18:51","新北市板橋區重慶路290巷28號","121.462103333333","24.9988283333333","6500100","板橋區"
"220064","AAC-253","2018/12/06 20:18:52","新北市三重區光復路二段143巷16號","121.473743333333","25.060895","6500100","板橋區"
"235068","KEA-2873","2018/12/06 20:18:49","新北市中和區福祥路85巷2弄6號","121.498683333333","25.0059633333333","6500300","中和區"
