"lineid","car","time","location","longitude","latitude","cityid","cityname"
"234005","207-UY","2018/12/06 21:24:43","新北市永和區福和路1號","121.526643333333","25.0101116666667","6500400","永和區"
"234040","862-TW","2018/12/06 21:31:46","新北市永和區福和路1號","121.526213333333","25.0097783333333","6500400","永和區"
"247012","KEA-2869","2018/12/06 21:48:23","新北市林口區汕頭32號","121.366415","25.1349166666667","6501400","蘆洲區"
"235010","733-UM","2018/12/06 21:42:33","新北市中和區員山路36巷13號","121.484145","24.9907733333333","6500300","中和區"
"235029","911-UM","2018/12/06 21:48:38","新北市中和區和城路一段271巷1號","121.485446666667","24.9918366666667","6500300","中和區"
"251009","008-UM","2018/12/06 21:48:25","新北市淡水區民族路35巷9號","121.46485","25.1374933333333","6501000","淡水區"
"251004","009-UM","2018/12/06 21:48:26","新北市淡水區民權路14號","121.462853333333","25.1246833333333","6501000","淡水區"
"251005","010-UM","2018/12/06 21:48:39","新北市淡水區鄧公路30巷1弄1號","121.452585","25.1697733333333","6501000","淡水區"
"251002","012-UM","2018/12/06 21:48:18","新北市淡水區學府路211-9號","121.446816666667","25.1762666666667","6501000","淡水區"
"251008","181-VK","2018/12/06 21:48:30","新北市淡水區學府路104號","121.449843333333","25.17177","6501000","淡水區"
"251010","413-VK","2018/12/06 21:48:30","新北市淡水區中正路二段208號","121.426281666667","25.1892683333333","6501000","淡水區"
"251012","441-VK","2018/12/06 21:48:31","新北市淡水區淡金路三段256號","121.448995","25.206395","6501000","淡水區"
"251007","442-VK","2018/12/06 21:48:41","新北市淡水區水源街二段177巷62號","121.452535","25.177255","6501000","淡水區"
"251006","561-UM","2018/12/06 21:48:38","新北市淡水區中正路11巷3號","121.437796666667","25.17076","6501000","淡水區"
"251011","650-BX","2018/12/06 21:48:24","新北市淡水區新民街322巷5弄1-1號","121.43633","25.1830133333333","6501000","淡水區"
"251003","766-UM","2018/12/06 21:48:31","新北市淡水區新春街92號","121.438948333333","25.1824033333333","6501000","淡水區"
