"lineid","car","time","location","longitude","latitude","cityid","cityname"
"235029","911-UM","2018/12/06 21:50:34","新北市中和區和城路一段271巷1號","121.485376666667","24.9917566666667","6500300","中和區"
"251004","009-UM","2018/12/06 22:18:46","新北市淡水區民族路33號","121.462235","25.1358116666667","6501000","淡水區"
"251008","181-VK","2018/12/06 22:18:50","新北市淡水區學府路104號","121.449783333333","25.171825","6501000","淡水區"
"251010","413-VK","2018/12/06 22:18:50","新北市淡水區沙崙路200號","121.424671666667","25.1839316666667","6501000","淡水區"
"251007","442-VK","2018/12/06 22:18:41","新北市淡水區北新路133號","121.449303333333","25.1788316666667","6501000","淡水區"
"251011","650-BX","2018/12/06 22:18:44","新北市淡水區水碓街7號","121.443176666667","25.17714","6501000","淡水區"
"247007","KED-0683","2018/12/06 22:18:44","新北市五股區中興路三段2巷10號","121.449056666667","25.0810966666667","6501400","蘆洲區"
