"lineid","car","time","location","longitude","latitude","cityid","cityname"
"232003","290-BY","2018/12/07 06:49:05","新北市坪林區水柳腳35號","121.709975","24.93546","6502000","坪林區"
"232015","291-BY","2018/12/07 06:48:54","新北市坪林區北宜路八段167號","121.707565","24.9345866666667","6502000","坪林區"
"232019","705-BZ","2018/12/07 06:48:45","新北市坪林區北宜路八段438號","121.707218333333","24.9242616666667","6502000","坪林區"
"232008","758-BX","2018/12/07 06:48:52","新北市坪林區鶯子瀨1-2號","121.708231666667","24.9181016666667","6502000","坪林區"
"244004","248-BX","2018/12/07 06:48:57","新北市林口區粉寮路二段160巷28號","121.405171666667","25.0906533333333","6501700","林口區"
"235001","611-BX","2018/12/07 06:49:02","新北市中和區圓通路335巷33弄43號","121.494198333333","24.9886116666667","6500300","中和區"
"223006","022-BY","2018/12/07 06:48:47","新北市石碇區靜安路一段60號","121.645453333333","25.0122516666667","6501900","石碇區"
"223002","KEA-2673","2018/12/07 06:48:54","新北市石碇區烏塗窟34號","121.654308333333","24.9728783333333","6501900","石碇區"
"223003","205-TH","2018/12/07 06:48:23","新北市石碇區湳窟33號","121.664466666667","24.9937133333333","6501900","石碇區"
"223008","406-TH","2018/12/07 06:48:53","新北市石碇區碇坪路一段18號","121.6516","25.0040116666667","6501900","石碇區"
"223004","437-BY","2018/12/07 06:48:47","新北市石碇區碇坪路一段89號","121.662165","24.9902616666667","6501900","石碇區"
"223001","592-UM","2018/12/07 06:48:59","新北市石碇區湳窟37-1號","121.661251666667","24.9957733333333","6501900","石碇區"
"223007","661-BX","2018/12/07 06:49:02","新北市石碇區靜安路一段87號","121.652508333333","25.0080233333333","6501900","石碇區"
"223005","677-TV","2018/12/07 06:48:46","新北市石碇區碇坪路一段95號","121.66264","24.98991","6501900","石碇區"
"227005","282-VK","2018/12/07 06:48:46","新北市雙溪區新基里自強路5號","121.866341666667","25.0390283333333","6502500","雙溪區"
"252005","073-UM","2018/12/07 06:48:57","新北市三芝區中正路三段3號","121.502998333333","25.2542516666667","6502100","三芝區"
