"lineid","car","time","location","longitude","latitude","cityid","cityname"
"248005","653-BX","2018/01/18 08:26:43","新北市五股區明德路8號","121.433308333333","25.0716316666667","6501500","五股區"
"232001","290-BY","2018/01/18 08:39:25","新北市坪林區粗石斛5-1號","121.747381666667","24.9534766666667","6502000","坪林區"
"244012","069-UM","2018/01/18 08:39:30","新北市林口區中山路132號","121.39205","25.0785366666667","6501700","林口區"
"244006","080-UY","2018/01/18 08:39:36","新北市林口區林口路188號","121.387485","25.082835","6501700","林口區"
"244003","248-BX","2018/01/18 08:39:21","新北市林口區下福里86-1號","121.308446666667","25.11573","6501700","林口區"
"244018","402-UM","2018/01/18 08:39:25","新北市林口區忠孝路403號","121.370146666667","25.07109","6501700","林口區"
"244008","410-SL","2018/01/18 08:39:29","新北市林口區佳林路56巷41號","121.385213333333","25.080755","6501700","林口區"
"244022","483-VK","2018/01/18 08:39:36","新北市林口區東明二街90號","121.38952","25.0701666666667","6501700","林口區"
"244016","485-VK","2018/01/18 08:39:30","新北市林口區忠孝路504巷21號","121.369688333333","25.0696066666667","6501700","林口區"
"244024","837-TS","2018/01/18 08:39:31","新北市林口區南勢六街51號","121.355971666667","25.0715383333333","6501700","林口區"
"244020","838-TS","2018/01/18 08:39:36","新北市林口區自強二街8號","121.39742","25.078335","6501700","林口區"
"222006","289-BY","2018/01/18 08:39:20","新北市深坑區風格街31巷37號","121.627866666667","25.0177766666667","6501800","深坑區"
"231069","189-VK","2018/01/18 08:39:23","新北市新店區新潭路三段21號","121.50855","24.914615","6500600","新店區"
"231008","192-VK","2018/01/18 08:39:22","新北市新店區新烏路三段99巷8號","121.553085","24.902325","6500600","新店區"
"235001","611-BX","2018/01/18 08:39:26","新北市中和區員山路395號","121.481206666667","25.0030183333333","6500300","中和區"
"247001","402-BY","2018/01/18 08:39:20","新北市蘆洲區中山二路279號","121.469601666667","25.0790516666667","6501400","蘆洲區"
"226005","5620-A6","2018/01/18 08:39:24","新北市平溪區南山里六分6號","121.796253333333","25.0491266666667","6502400","平溪區"
"226002","8452-VL","2018/01/18 08:39:38","新北市平溪區東勢里東勢格1號","121.749536666667","25.0052416666667","6502400","平溪區"
"226003","AGD-0702","2018/01/18 08:39:30","新北市平溪區十分里十分街52號","121.77506","25.0412866666667","6502400","平溪區"
"223006","022-BY","2018/01/18 08:39:36","新北市石碇區烏塗窟16-1號","121.65653","24.975025","6501900","石碇區"
"223002","198-BX","2018/01/18 08:39:33","新北市石碇區楓子林61-1號","121.644436666667","25.0097633333333","6501900","石碇區"
"235002","251-BX","2018/01/18 08:39:33","新北市新店區薏仁坑路自強巷1號","121.496828333333","24.95777","6500300","中和區"
"223008","406-TH","2018/01/18 08:39:27","新北市石碇區碇南路二段松柏崎巷37-1號","121.67868","25.0233783333333","6501900","石碇區"
"223001","437-BY","2018/01/18 08:39:31","新北市石碇區北宜路六段十三股巷2-1號","121.650256666667","24.9448566666667","6501900","石碇區"
"223004","660-BX","2018/01/18 08:39:31","新北市石碇區崩山26-1號","121.676785","24.9671583333333","6501900","石碇區"
"223007","661-BX","2018/01/18 08:39:23","新北市石碇區碇南路二段松柏崎巷22號","121.676751666667","25.0181116666667","6501900","石碇區"
"223005","677-TV","2018/01/18 08:39:29","新北市石碇區碇坪路一段282號","121.67657","24.9766683333333","6501900","石碇區"
"252004","249-BX","2018/01/18 08:39:34","新北市三芝區興華里田心子11-2號","121.493563333333","25.2061233333333","6502100","三芝區"
"252007","AAC-283","2018/01/18 08:39:31","新北市三芝區後厝里番子崙6-1號","121.488448333333","25.2398483333333","6502100","三芝區"
"237001","159-UY","2018/01/18 08:39:20","新北市三峽區學勤路38號","121.37441","24.9457866666667","6500900","三峽區"
"236009","165-UM","2018/01/18 08:39:31","新北市土城區青雲路581-1號","121.45937","24.9716366666667","6501300","土城區"
"236003","339-SR","2018/01/18 08:39:32","新北市土城區中州路10號","121.414733333333","24.9571666666667","6501300","土城區"
"236005","498-BY","2018/01/18 08:39:19","新北市土城區永安街21-1號","121.433565","24.96433","6501300","土城區"
"242030","AAC-296","2018/01/18 08:39:31","新北市新莊區新泰路277巷10號","121.445171666667","25.04041","6500500","新莊區"
"242028","986-R7","2018/01/18 08:39:26","新北市新莊區幸福路906號","121.44297","25.0489266666667","6500500","新莊區"
"242049","751-BX","2018/01/18 08:39:19","新北市新莊區民本街25巷1號","121.428273333333","25.01958","6500500","新莊區"
"242024","615-BX","2018/01/18 08:39:30","新北市新莊區五工三路85號","121.458576666667","25.0652316666667","6500500","新莊區"
"242022","613-BX","2018/01/18 08:39:31","新北市新莊區化成路354號","121.465871666667","25.04924","6500500","新莊區"
"242026","612-BX","2018/01/18 08:39:27","新北市新莊區幸福路751號","121.448358333333","25.0489883333333","6500500","新莊區"
"242038","566-BX","2018/01/18 08:39:34","新北市新莊區民安路309號","121.429818333333","25.0226083333333","6500500","新莊區"
"242043","442-UM","2018/01/18 08:39:32","新北市新莊區鳳山街56巷35號","121.413685","25.02671","6500500","新莊區"
"242047","441-UM","2018/01/18 08:39:32","新北市新莊區後港一路3號","121.42414","25.0263066666667","6500500","新莊區"
"242052","440-UM","2018/01/18 08:39:31","新北市新莊區光華街4號","121.428693333333","25.010585","6500500","新莊區"
"242033","415-TV","2018/01/18 08:39:23","新北市新莊區仁愛街7號","121.44418","25.0351016666667","6500500","新莊區"
"242003","413-TV","2018/01/18 08:39:36","新北市新莊區化成路11巷87號","121.462213333333","25.0434933333333","6500500","新莊區"
"242040","400-BY","2018/01/18 08:39:17","新北市新莊區天祥街69號","121.415893333333","25.0290433333333","6500500","新莊區"
"242059","362-BY","2018/01/18 08:39:18","新北市新莊區建國二路1號","121.435123333333","25.0235583333333","6500500","新莊區"
"242057","353-BY","2018/01/18 08:39:34","新北市新莊區中正路895-27號","121.412183333333","25.0219283333333","6500500","新莊區"
"242006","132-UY","2018/01/18 08:39:30","新北市新莊區新北大道三段7號","121.457975","25.0600516666667","6500500","新莊區"
"242035","133-UY","2018/01/18 08:39:34","新北市新莊區建福路48巷13號","121.42568","25.0273583333333","6500500","新莊區"
"242020","135-UY","2018/01/18 08:39:27","新北市新莊區新興街27巷2號","121.450696666667","25.03742","6500500","新莊區"
"242045","172-VK","2018/01/18 08:39:30","新北市新莊區福營路300號","121.422528333333","25.0274766666667","6500500","新莊區"
"242008","173-VK","2018/01/18 08:39:36","新北市新莊區昌盛街35巷1弄19號","121.453316666667","25.050255","6500500","新莊區"
"242014","175-VK","2018/01/18 08:39:19","新北市新莊區中平路184巷10弄10號","121.445645","25.048115","6500500","新莊區"
"242001","176-VK","2018/01/18 08:39:33","新北市新莊區新泰路49號","121.449498333333","25.0337533333333","6500500","新莊區"
"242012","346-TH","2018/01/18 08:39:28","新北市新莊區中港路417巷18號","121.451595","25.04757","6500500","新莊區"
"242018","348-TH","2018/01/18 08:39:16","新北市新莊區中華路一段136巷26號","121.453456666667","25.04118","6500500","新莊區"
"242055","349-TH","2018/01/18 08:39:31","新北市新莊區瓊林路32號","121.44914","25.0313133333333","6500500","新莊區"
"242016","350-TH","2018/01/18 08:39:36","新北市新莊區中港路381號","121.451678333333","25.0467666666667","6500500","新莊區"
"242010","351-TH","2018/01/18 08:39:33","新北市新莊區中港路615巷14號","121.450603333333","25.0534383333333","6500500","新莊區"
"220064","282-UM","2018/01/18 08:38:19","新北市五股區中直路13-7號","121.424158333333","25.1107383333333","6500100","板橋區"
