"lineid","car","time","location","longitude","latitude","cityid","cityname"
"244018","402-UM","2018/01/18 10:39:39","新北市林口區文化二路一段565號","121.375038333333","25.0772416666667","6501700","林口區"
"222006","289-BY","2018/01/18 10:39:34","新北市深坑區公館後2-3號","121.603363333333","24.9932433333333","6501800","深坑區"
"231069","189-VK","2018/01/18 10:39:24","新北市新店區新潭路二段186號","121.509655","24.918765","6500600","新店區"
"231008","192-VK","2018/01/18 10:39:22","新北市新店區小坑一路21-1號","121.531491666667","24.9128766666667","6500600","新店區"
"247001","402-BY","2018/01/18 10:39:23","新北市蘆洲區中興街96號","121.482336666667","25.0883233333333","6501400","蘆洲區"
