"lineid","car","time","location","longitude","latitude","cityid","cityname"
"222006","289-BY","2018/01/18 10:49:34","新北市深坑區文山路二段15-1號","121.622298333333","25.0002233333333","6501800","深坑區"
"231069","189-VK","2018/01/18 10:49:23","新北市新店區新潭路二段61號","121.521796666667","24.9263066666667","6500600","新店區"
"231008","192-VK","2018/01/18 10:49:42","新北市新店區新烏路二段300號","121.548435","24.9130016666667","6500600","新店區"
"241029","942-UM","2018/01/18 10:49:12","新北市三重區重新路四段121號","121.485041666667","25.0519383333333","6500200","三重區"
"247001","402-BY","2018/01/18 10:49:23","新北市蘆洲區三民路11號","121.475775","25.08212","6501400","蘆洲區"
