"lineid","car","time","location","longitude","latitude","cityid","cityname"
"234044","148-BY","2018/01/18 13:19:50","新北市永和區得和路362號","121.524101666667","24.9994233333333","6500400","永和區"
"234040","149-BY","2018/01/18 13:19:48","新北市永和區水源街43巷2號","121.509866666667","25.0041683333333","6500400","永和區"
"234005","207-UY","2018/01/18 13:19:49","新北市永和區保平路268巷51弄14號","121.506286666667","25.00633","6500400","永和區"
"234078","298-R6","2018/01/18 13:19:52","新北市永和區福和路7巷5弄1號","121.525213333333","25.0079733333333","6500400","永和區"
"234036","336-UY","2018/01/18 13:19:34","新北市永和區民樂街55巷2號","121.527506666667","24.99849","6500400","永和區"
"234062","337-UY","2018/01/18 13:19:52","新北市永和區永元路17巷6弄2號","121.521371666667","25.0007166666667","6500400","永和區"
"234084","338-UY","2018/01/18 13:19:51","新北市永和區永利路37號","121.518781666667","25.0056566666667","6500400","永和區"
"234068","552-UM","2018/01/18 13:19:47","新北市永和區豫溪街41巷2號","121.51691","25.009975","6500400","永和區"
"234052","553-UM","2018/01/18 13:19:52","新北市永和區中興街39號","121.516316666667","25.011855","6500400","永和區"
"234015","745-BX","2018/01/18 13:19:43","新北市永和區環河西路一段95巷19弄23號","121.51194","25.0169366666667","6500400","永和區"
"234028","746-BX","2018/01/18 13:19:46","新北市永和區厚德街68號","121.524021666667","24.99888","6500400","永和區"
"234012","KEA-2591","2018/01/18 13:19:42","新北市永和區信義路34號","121.51366","25.0123216666667","6500400","永和區"
"234060","AAD-866","2018/01/18 13:19:48","新北市永和區秀朗路一段175號","121.517091666667","25.0036816666667","6500400","永和區"
"234048","863-TW","2018/01/18 13:19:37","新北市永和區仁愛路140號","121.511095","25.01349","6500400","永和區"
"234025","9371-KE","2018/01/18 13:19:49","新北市永和區豫溪街42巷6號","121.515478333333","25.00949","6500400","永和區"
"234010","9373-KE","2018/01/18 13:19:47","新北市永和區忠孝街34巷25號","121.514463333333","25.0167916666667","6500400","永和區"
"248013","025-BX","2018/01/18 13:19:36","新北市五股區自強路52號","121.433376666667","25.0738216666667","6501500","五股區"
"248015","026-BX","2018/01/18 13:19:46","新北市五股區凌雲路一段109巷34號","121.449408333333","25.10052","6501500","五股區"
"248005","077-UY","2018/01/18 13:19:40","新北市五股區中興路一段169號","121.464746666667","25.0737733333333","6501500","五股區"
"248007","095-VK","2018/01/18 13:19:48","新北市五股區更洲路32巷8弄17號","121.459268333333","25.07966","6501500","五股區"
"248017","225-UY","2018/01/18 13:19:48","新北市五股區御史路134號","121.43508","25.0984416666667","6501500","五股區"
"248011","247-BX","2018/01/18 13:19:49","新北市五股區御史路1巷75號","121.44119","25.0904716666667","6501500","五股區"
"248009","272-BY","2018/01/18 13:19:50","新北市五股區成泰路一段139巷2弄4號","121.435086666667","25.0730333333333","6501500","五股區"
"248003","677-BX","2018/01/18 13:19:45","新北市五股區成泰路二段175號","121.439581666667","25.086295","6501500","五股區"
"248001","678-BX","2018/01/18 13:19:45","新北市五股區西雲路68號","121.443675","25.0916966666667","6501500","五股區"
"234022","9380-KE","2018/01/18 13:19:40","新北市永和區竹林路109巷7號","121.520325","25.0119866666667","6500400","永和區"
"234076","969-R7","2018/01/18 13:19:53","新北市永和區民有街28號","121.517083333333","24.9962933333333","6500400","永和區"
"234072","AAC-211","2018/01/18 13:19:41","新北市永和區竹林路35號","121.517743333333","25.0142966666667","6500400","永和區"
"234066","AAC-212","2018/01/18 13:19:50","新北市永和區保平路30巷4號","121.511888333333","25.0073883333333","6500400","永和區"
"234001","AAC-295","2018/01/18 13:19:44","新北市永和區中山路一段106號","121.510951666667","25.0104083333333","6500400","永和區"
"244003","248-BX","2018/01/18 13:19:10","新北市林口區嘉寶里13鄰51號","121.341375","25.1157516666667","6501700","林口區"
"243005","646-TV","2018/01/18 13:19:37","新北市泰山區錢厝坑13號","121.414886666667","25.0412916666667","6501600","泰山區"
"231002","002-UM","2018/01/18 13:19:34","新北市新店區安華路28-1號","121.519763333333","24.9613716666667","6500600","新店區"
"231037","0293-UT","2018/01/18 13:19:22","新北市新店區安忠路57巷15號","121.513011666667","24.9573116666667","6500600","新店區"
"231028","046-UY","2018/01/18 13:19:35","新北市新店區安華路28-1號","121.519598333333","24.9608216666667","6500600","新店區"
"231030","047-UY","2018/01/18 13:19:51","新北市新店區安華路28-1號","121.519351666667","24.9608483333333","6500600","新店區"
"231029","106-UY","2018/01/18 13:19:39","新北市新店區安華路28-1號","121.519636666667","24.9609266666667","6500600","新店區"
"231018","107-UY","2018/01/18 13:19:39","新北市新店區安康路一段33-1號","121.532283333333","24.9605233333333","6500600","新店區"
"231011","108-UY","2018/01/18 13:19:45","新北市新店區秀山路20號","121.532556666667","24.9603616666667","6500600","新店區"
"231021","187-VK","2018/01/18 13:19:43","新北市新店區北宜路一段7號","121.538143333333","24.9583566666667","6500600","新店區"
"231017","KEA-2219","2018/01/18 13:19:45","新北市新店區安康路一段355號","121.519821666667","24.9627483333333","6500600","新店區"
"231026","256-BX","2018/01/18 13:19:38","新北市新店區安華路28-1號","121.519828333333","24.9611283333333","6500600","新店區"
"231010","278-BY","2018/01/18 13:19:35","新北市新店區安康路一段35-1號","121.53213","24.96058","6500600","新店區"
"231023","AAD-862","2018/01/18 13:19:34","新北市新店區安康路一段355-3號","121.519841666667","24.962525","6500600","新店區"
"231027","3712-VJ","2018/01/18 13:19:47","新北市新店區環河路1-6號","121.53815","24.96137","6500600","新店區"
"231025","3713-VJ","2018/01/18 13:19:35","新北市新店區中央五街20號","121.52931","24.9743283333333","6500600","新店區"
"231024","4716-K9","2018/01/18 13:19:48","新北市新店區安康路一段35號","121.531815","24.96072","6500600","新店區"
"231038","4715-K9","2018/01/18 13:19:40","新北市新店區安華路28-1號","121.519346666667","24.9607133333333","6500600","新店區"
"231036","512-UM","2018/01/18 13:19:36","新北市新店區車子路12號","121.505141666667","24.9545766666667","6500600","新店區"
"231035","515-UM","2018/01/18 13:19:48","新北市新店區安華路28-1號","121.519571666667","24.9612383333333","6500600","新店區"
"231001","619-UM","2018/01/18 13:19:32","新北市新店區安華路28-1號","121.519446666667","24.960955","6500600","新店區"
"231003","641-BX","2018/01/18 13:19:37","新北市新店區安華路28-1號","121.519701666667","24.9605666666667","6500600","新店區"
"231034","645-TV","2018/01/18 13:19:42","新北市新店區安華路28-1號","121.519336666667","24.96072","6500600","新店區"
"231013","719-UM","2018/01/18 13:19:40","新北市新店區安康路一段222-2號","121.523068333333","24.9636566666667","6500600","新店區"
"231031","720-UM","2018/01/18 13:19:48","新北市新店區安忠路205巷8號","121.509245","24.9548866666667","6500600","新店區"
"231005","897-TW","2018/01/18 13:19:42","新北市新店區安康路一段355號","121.51981","24.9629316666667","6500600","新店區"
"231006","898-TW","2018/01/18 13:19:36","新北市新店區安華路28-1號","121.519446666667","24.961025","6500600","新店區"
"231004","899-TW","2018/01/18 13:19:44","新北市新店區安華路28-1號","121.519338333333","24.9609766666667","6500600","新店區"
"235030","003-UY","2018/01/18 13:19:33","新北市中和區中山路二段122號","121.502598333333","25.00376","6500300","中和區"
"235028","005-UY","2018/01/18 13:19:33","新北市中和區中正路154號","121.498715","24.9938166666667","6500300","中和區"
"235027","006-UY","2018/01/18 13:19:44","新北市中和區中正路585號","121.485998333333","24.9945183333333","6500300","中和區"
"235046","031-BX","2018/01/18 13:19:44","新北市中和區景平路989巷1-1號","121.495848333333","25.005365","6500300","中和區"
"235020","096-UM","2018/01/18 13:19:38","新北市中和區連城路457號","121.484401666667","24.996195","6500300","中和區"
"235003","097-UM","2018/01/18 13:19:47","新北市中和區中正路2-1號","121.503088333333","24.9935733333333","6500300","中和區"
"235029","098-UM","2018/01/18 13:19:50","新北市中和區莊敬路49巷20弄22號","121.502751666667","25.0058666666667","6500300","中和區"
"235004","150-BY","2018/01/18 13:19:03","新北市中和區中正路2-1號","121.50317","24.9936966666667","6500300","中和區"
"235022","151-BY","2018/01/18 13:19:31","新北市中和區圓通路367巷17號","121.492551666667","24.9866516666667","6500300","中和區"
"235019","183-VK","2018/01/18 13:19:43","新北市中和區中正路637巷60弄61號","121.485435","24.992785","6500300","中和區"
"235002","185-VK","2018/01/18 13:19:52","新北市中和區秀朗路三段128巷13號","121.524473333333","24.9932966666667","6500300","中和區"
"235013","186-VK","2018/01/18 13:19:44","新北市中和區員山路36巷16-8號","121.485618333333","24.99245","6500300","中和區"
"235031","255-BX","2018/01/18 13:19:33","新北市中和區中正路803號","121.484905","25.0010533333333","6500300","中和區"
"235036","301-VK","2018/01/18 13:19:43","新北市中和區連城路226號","121.489843333333","24.996455","6500300","中和區"
"235007","352-BY","2018/01/18 13:19:39","新北市中和區南山路229巷2號","121.503746666667","24.99338","6500300","中和區"
"235032","377-QA","2018/01/18 13:19:35","新北市中和區員山路36巷16-3號","121.485098333333","24.99148","6500300","中和區"
"235025","378-QA","2018/01/18 13:19:47","新北市板橋區重慶路245巷52弄21-3號","121.466165","25.0002683333333","6500300","中和區"
"235014","4979-A6","2018/01/18 13:19:44","新北市中和區捷運路61巷9號","121.50909","24.98936","6500300","中和區"
"235033","4980-A6","2018/01/18 13:19:52","新北市中和區連城路127巷11號","121.496553333333","24.9985633333333","6500300","中和區"
"235006","551-UM","2018/01/18 13:19:48","新北市中和區大仁街40號","121.517956666667","24.9939466666667","6500300","中和區"
"235034","558-UM","2018/01/18 13:19:43","新北市中和區中正路194號","121.49737","24.9940583333333","6500300","中和區"
"235009","565-BX","2018/01/18 13:19:32","新北市中和區板南路187號","121.4999","24.992755","6500300","中和區"
"235018","640-BX","2018/01/18 13:19:38","新北市中和區國光街125號","121.469315","25.0009833333333","6500300","中和區"
"235024","647-TV","2018/01/18 13:19:37","新北市中和區員山路36巷16-2號","121.485305","24.9916383333333","6500300","中和區"
"235011","732-UM","2018/01/18 13:19:41","新北市中和區建一路148號","121.488073333333","24.9985833333333","6500300","中和區"
"235026","800-TS","2018/01/18 13:19:29","新北市中和區景平路999巷2號","121.495406666667","25.0060133333333","6500300","中和區"
"235021","801-TS","2018/01/18 13:19:35","新北市中和區員山路104號","121.481023333333","24.995465","6500300","中和區"
"235016","805-TS","2018/01/18 13:19:37","新北市中和區南山路226號","121.506465","24.99025","6500300","中和區"
"235012","896-TW","2018/01/18 13:19:37","新北市中和區員山路36巷16-2號","121.485355","24.991705","6500300","中和區"
"235017","900-TW","2018/01/18 13:19:34","新北市中和區員山路36巷16-3號","121.484953333333","24.99186","6500300","中和區"
"235015","157-BY","2018/01/18 13:19:37","新北市中和區忠孝街60巷2弄4號","121.51157","24.9836933333333","6500300","中和區"
"235001","AAC-213","2018/01/18 13:19:34","新北市中和區景平路73號","121.518903333333","24.9915366666667","6500300","中和區"
"235023","AAC-215","2018/01/18 13:19:39","新北市中和區員山路36巷16-3號","121.48503","24.9912766666667","6500300","中和區"
"247001","402-BY","2018/01/18 13:19:36","新北市五股區中興路三段5號","121.449323333333","25.079495","6501400","蘆洲區"
"235005","251-BX","2018/01/18 13:19:37","新北市中和區景安路72號","121.505845","24.9966133333333","6500300","中和區"
"228005","097-TW","2018/01/18 13:19:41","新北市貢寮區美豐里丹裡街54號","121.905783333333","25.0593133333333","6502600","貢寮區"
"228004","212-TW","2018/01/18 13:19:35","新北市貢寮區吉林里內寮街23號","121.90325","24.98511","6502600","貢寮區"
"253004","4710-YM","2018/01/18 13:19:41","新北市石門區阿里荖18-1號","121.607591666667","25.2805416666667","6502200","石門區"
"253003","6232-TK","2018/01/18 13:19:45","新北市石門區內石門81-10號","121.566671666667","25.2654333333333","6502200","石門區"
"253001","6251-TK","2018/01/18 13:19:48","新北市石門區楓林23-10號","121.539088333333","25.2910983333333","6502200","石門區"
"253002","637-UY","2018/01/18 13:19:40","新北市石門區大溪墘10-3號","121.55285","25.2739416666667","6502200","石門區"
"208004","AAC-292","2018/01/18 13:19:51","新北市金山區中正路143-1號","121.63206","25.2214566666667","6502700","金山區"
"207002","749-BX","2018/01/18 13:19:48","新北市萬里區崁腳里崁腳路166號","121.645138333333","25.155935","6502800","萬里區"
"252005","073-UM","2018/01/18 13:19:35","新北市三芝區八賢里八連溪55號","121.515616666667","25.2338716666667","6502100","三芝區"
"207001","662-BX","2018/01/18 13:19:46","新北市萬里區龜吼里玉田路29號","121.680881666667","25.1948816666667","6502800","萬里區"
"236005","498-BY","2018/01/18 13:19:36","新北市土城區亞洲路9號","121.434398333333","24.972275","6501300","土城區"
"242045","172-VK","2018/01/18 13:19:32","新北市新莊區中平路89號","121.444781666667","25.0460883333333","6500500","新莊區"
"221032","280-BY","2018/01/18 13:19:38","新北市汐止區龍安路34號","121.654845","25.0641716666667","6501100","汐止區"
"220014","829-TW","2018/01/18 13:19:32","新北市板橋區民生路二段161巷5號","121.470261666667","25.0197816666667","6500100","板橋區"
