"lineid","car","time","location","longitude","latitude","cityid","cityname"
"234025","9371-KE","2018/01/18 15:09:09","新北市永和區福和路1號","121.52561","25.0093483333333","6500400","永和區"
"248007","095-VK","2018/01/18 15:09:08","新北市五股區中興路一段1巷27號","121.469788333333","25.07045","6501500","五股區"
"248017","225-UY","2018/01/18 15:09:17","新北市五股區登林路101號","121.41135","25.077995","6501500","五股區"
"248003","677-BX","2018/01/18 15:09:26","新北市五股區成泰路一段131號","121.435556666667","25.072625","6501500","五股區"
"244003","248-BX","2018/01/18 15:09:09","新北市林口區竹林路265號","121.389623333333","25.0807366666667","6501700","林口區"
"243007","380-SR","2018/01/18 15:09:07","新北市泰山區仁德路52號","121.434101666667","25.0568566666667","6501600","泰山區"
"243006","421-VK","2018/01/18 15:09:14","新北市泰山區黎明里4鄰22-1號","121.411828333333","25.0696583333333","6501600","泰山區"
"243002","KEA-2215","2018/01/18 15:09:17","新北市泰山區橫窠雅2號","121.402148333333","25.07209","6501600","泰山區"
"243001","KEA-2216","2018/01/18 15:09:20","新北市泰山區橫窠雅20-6號","121.413541666667","25.0690133333333","6501600","泰山區"
"243008","680-BX","2018/01/18 15:09:07","新北市泰山區文程路111號","121.430646666667","25.0480933333333","6501600","泰山區"
"231002","002-UM","2018/01/18 15:09:17","新北市新店區中正路545號","121.533725","24.9876366666667","6500600","新店區"
"231037","0293-UT","2018/01/18 15:09:22","新北市新店區安民街121巷12號","121.515466666667","24.9692866666667","6500600","新店區"
"231028","046-UY","2018/01/18 15:09:15","新北市新店區僑信路99號","121.500171666667","24.9470483333333","6500600","新店區"
"231030","047-UY","2018/01/18 15:09:11","新北市新店區安民街339號","121.516981666667","24.97482","6500600","新店區"
"231029","106-UY","2018/01/18 15:09:19","新北市新店區安康路三段738號","121.473833333333","24.9419866666667","6500600","新店區"
"231018","107-UY","2018/01/18 15:09:18","新北市新店區中央六街62號","121.527641666667","24.9760283333333","6500600","新店區"
"231011","108-UY","2018/01/18 15:09:25","新北市新店區寶元路一段65號","121.542181666667","24.9858083333333","6500600","新店區"
"231021","187-VK","2018/01/18 15:09:23","新北市新店區湖興路128-15號","121.566271666667","24.9313","6500600","新店區"
"231017","KEA-2219","2018/01/18 15:05:45","新北市新店區明山路5號","121.563345","24.9555483333333","6500600","新店區"
"231026","256-BX","2018/01/18 15:09:27","新北市新店區建國路47號","121.540618333333","24.9754383333333","6500600","新店區"
"231023","AAD-862","2018/01/18 15:09:13","新北市新店區中興路一段140號","121.542368333333","24.9636","6500600","新店區"
"231025","3713-VJ","2018/01/18 15:09:15","新北市新店區民權路101號","121.536806666667","24.9829066666667","6500600","新店區"
"231024","4716-K9","2018/01/18 15:09:28","新北市新店區中華路42巷22號","121.540745","24.9688516666667","6500600","新店區"
"231036","512-UM","2018/01/18 15:09:16","新北市新店區安祥路104巷11弄15號","121.480853333333","24.9632866666667","6500600","新店區"
"231035","515-UM","2018/01/18 15:09:08","新北市新店區安和路三段112號","121.517181666667","24.9853883333333","6500600","新店區"
"231001","619-UM","2018/01/18 15:09:28","新北市新店區中正路186號","121.540971666667","24.9722666666667","6500600","新店區"
"231003","641-BX","2018/01/18 15:09:16","新北市新店區寶橋路218號","121.551088333333","24.9787316666667","6500600","新店區"
"231034","645-TV","2018/01/18 15:09:22","新北市新店區玫瑰路4-1號","121.493606666667","24.9514","6500600","新店區"
"231039","718-UY","2018/01/18 15:09:15","新北市新店區民權路13號","121.542395","24.9828383333333","6500600","新店區"
"231031","720-UM","2018/01/18 15:09:07","新北市新店區安泰路100號","121.486835","24.9427416666667","6500600","新店區"
"231005","897-TW","2018/01/18 15:09:22","新北市新店區順安街74號","121.54108","24.9866933333333","6500600","新店區"
"231006","898-TW","2018/01/18 15:09:16","新北市新店區新坡一街18巷5弄8-1號","121.550756666667","24.9618516666667","6500600","新店區"
"231004","899-TW","2018/01/18 15:09:24","新北市新店區建國路30號","121.540463333333","24.9744816666667","6500600","新店區"
"241029","942-UM","2018/01/18 15:09:08","新北市三重區重新路四段121號","121.484995","25.051955","6500200","三重區"
"235030","003-UY","2018/01/18 15:09:13","新北市中和區中山路二段3巷30號","121.507133333333","25.0051466666667","6500300","中和區"
"235003","097-UM","2018/01/18 15:09:27","新北市中和區安樂路217巷5號","121.513926666667","24.9985683333333","6500300","中和區"
"235029","098-UM","2018/01/18 15:09:09","新北市中和區福美路312巷3號","121.496643333333","25.0051183333333","6500300","中和區"
"235004","150-BY","2018/01/18 15:09:23","新北市中和區保健路10巷3弄1號","121.507758333333","24.9976466666667","6500300","中和區"
"235007","352-BY","2018/01/18 15:09:19","新北市中和區興南路二段159巷4號","121.505126666667","24.983335","6500300","中和區"
"235032","377-QA","2018/01/18 15:09:14","新北市中和區勝利路35巷1弄30號","121.500141666667","25.0076966666667","6500300","中和區"
"235014","4979-A6","2018/01/18 15:09:24","新北市中和區景新街296號","121.511193333333","24.99202","6500300","中和區"
"235033","4980-A6","2018/01/18 15:09:12","新北市中和區圓通路198巷2弄2號","121.496316666667","24.9947066666667","6500300","中和區"
"235006","551-UM","2018/01/18 15:09:08","新北市新店區安康路二段318-1號","121.504726666667","24.9582133333333","6500300","中和區"
"235034","558-UM","2018/01/18 15:09:24","新北市中和區圓通路160-1號","121.497576666667","24.9955533333333","6500300","中和區"
"235012","896-TW","2018/01/18 15:09:17","新北市中和區興南路一段152號","121.508365","24.9869","6500300","中和區"
"235001","AAC-213","2018/01/18 15:09:14","新北市中和區自立路159號","121.522863333333","24.992745","6500300","中和區"
"235023","AAC-215","2018/01/18 15:09:19","新北市中和區圓通路335巷33弄35號","121.493755","24.9887633333333","6500300","中和區"
"220105","075-UY","2018/01/18 15:09:13","新北市板橋區仁化街147號","121.47761","25.0331683333333","6500100","板橋區"
"220017","AAD-861","2018/01/18 15:09:11","新北市板橋區大明街20巷19弄22號","121.457851666667","25.0032316666667","6500100","板橋區"
"247001","402-BY","2018/01/18 15:09:16","新北市蘆洲區成功路72巷1號","121.473318333333","25.081165","6501400","蘆洲區"
"228004","212-TW","2018/01/18 15:09:15","新北市貢寮區雙玉里田寮洋街16-2號","121.92183","25.0251516666667","6502600","貢寮區"
"253004","4710-YM","2018/01/18 15:09:10","新北市石門區茂林社區251號","121.593426666667","25.2698433333333","6502200","石門區"
"253003","6232-TK","2018/01/18 15:09:25","新北市石門區小坑9號","121.594401666667","25.2884216666667","6502200","石門區"
"253001","6251-TK","2018/01/18 15:09:08","新北市石門區崁子腳35-3號","121.533965","25.2758883333333","6502200","石門區"
"253002","637-UY","2018/01/18 15:09:20","新北市石門區尖子鹿79號","121.572196666667","25.295975","6502200","石門區"
"208004","AAC-292","2018/01/18 15:09:11","新北市金山區法鼓路555號","121.61495","25.242685","6502700","金山區"
"207002","749-BX","2018/01/18 15:09:25","新北市萬里區崁腳里內中福路57號","121.655901666667","25.1676016666667","6502800","萬里區"
"207001","662-BX","2018/01/18 15:09:25","新北市萬里區雙興里麗水路3-1號","121.653283333333","25.18002","6502800","萬里區"
"236066","105-UM","2018/01/18 15:09:13","新北市土城區裕民路10號","121.447458333333","24.9888166666667","6501300","土城區"
"236040","107-UM","2018/01/18 15:09:14","新北市土城區裕民路263號","121.455073333333","24.9825416666667","6501300","土城區"
"236028","253-BX","2018/01/18 15:09:18","新北市土城區中央路二段50巷8-3號","121.44209","24.9797566666667","6501300","土城區"
"236024","269-VK","2018/01/18 15:09:24","新北市土城區中正路65號","121.444533333333","24.9756983333333","6501300","土城區"
"236012","270-VK","2018/01/18 15:09:18","新北市土城區學府路一段75巷10號","121.45705","24.9879433333333","6501300","土城區"
"236033","271-VK","2018/01/18 15:09:12","新北市土城區仁愛路48-6號","121.462131666667","24.97904","6501300","土城區"
"236018","401-BY","2018/01/18 15:09:20","新北市土城區延峰街34巷2號","121.469485","24.9849683333333","6501300","土城區"
"236076","752-BX","2018/01/18 15:09:22","新北市土城區中州路3巷43號","121.413401666667","24.956335","6501300","土城區"
"236056","912-UM","2018/01/18 15:09:21","新北市土城區金城路二段218-1號","121.455971666667","24.9827183333333","6501300","土城區"
"236047","913-UM","2018/01/18 15:09:19","新北市土城區清水路76號","121.456765","24.9817933333333","6501300","土城區"
"236052","AAC-216","2018/01/18 15:09:27","新北市土城區學府路一段167號","121.452901666667","24.9856916666667","6501300","土城區"
"238002","755-BX","2018/01/18 15:09:18","新北市樹林區八德街600號","121.397366666667","24.9702283333333","6500700","樹林區"
"238010","601-UM","2018/01/18 15:09:13","新北市樹林區福德街3號","121.40161","24.9755666666667","6500700","樹林區"
"238006","599-UM","2018/01/18 15:09:16","新北市樹林區八德街438號","121.40151","24.9703516666667","6500700","樹林區"
"238005","571-TV","2018/01/18 15:09:18","新北市樹林區仁愛街101號","121.42498","24.9834666666667","6500700","樹林區"
"238024","5061-A6","2018/01/18 15:09:21","新北市樹林區中華路1號","121.424916666667","24.9835783333333","6500700","樹林區"
"238008","KEA-2217","2018/01/18 15:09:25","新北市樹林區西圳街一段165巷20弄11號","121.395656666667","24.9601683333333","6500700","樹林區"
"238009","KEA-2213","2018/01/18 15:09:15","新北市樹林區國凱街136巷48號","121.42416","24.97802","6500700","樹林區"
"238012","303-VK","2018/01/18 15:09:23","新北市樹林區中山路二段154-1號","121.412916666667","24.9826916666667","6500700","樹林區"
"238004","283-BY","2018/01/18 15:09:16","新北市樹林區新興街63號","121.39991","24.9710316666667","6500700","樹林區"
"238001","282-BY","2018/01/18 15:09:15","新北市樹林區中山路三段39號","121.401181666667","24.9753116666667","6500700","樹林區"
"238007","268-VK","2018/01/18 15:09:08","新北市樹林區環河路2-2號","121.425803333333","24.97709","6500700","樹林區"
"238013","172-UY","2018/01/18 15:09:23","新北市樹林區東豐街45-2號","121.412841666667","24.9742266666667","6500700","樹林區"
"221018","753-BX","2018/01/18 15:06:51","新北市汐止區汐萬路一段256巷1號","121.651936666667","25.074835","6501100","汐止區"
"220030","610-BX","2018/01/18 15:09:09","新北市板橋區大觀路三段106號","121.432503333333","24.9943216666667","6500100","板橋區"
"220050","245-BX","2018/01/18 15:09:09","新北市板橋區萬板路165號","121.474141666667","25.0234983333333","6500100","板橋區"
"220003","256-TC","2018/01/18 15:09:06","新北市板橋區國慶路149巷39號","121.460851666667","24.9980466666667","6500100","板橋區"
"220034","259-TC","2018/01/18 15:09:07","新北市板橋區南雅西路二段69號","121.452786666667","25.0100216666667","6500100","板橋區"
"220020","277-BY","2018/01/18 15:09:15","新北市板橋區篤行路二段1巷5-3號","121.432258333333","24.9929266666667","6500100","板橋區"
"220019","283-VK","2018/01/18 15:09:15","新北市板橋區四川路二段140巷16弄13號","121.448853333333","24.993605","6500100","板橋區"
"220001","285-VK","2018/01/18 15:09:14","新北市板橋區懷仁街37-4號","121.47658","25.019365","6500100","板橋區"
"220031","286-VK","2018/01/18 15:09:22","新北市板橋區僑中二街92巷24-4號","121.445035","25.0091133333333","6500100","板橋區"
"220029","287-VK","2018/01/18 15:09:18","新北市板橋區僑中一街124巷20弄19號","121.447001666667","25.0139633333333","6500100","板橋區"
"220009","293-UM","2018/01/18 15:09:09","新北市板橋區中山路一段26號","121.460368333333","25.0084533333333","6500100","板橋區"
"220023","303-R5","2018/01/18 15:09:27","新北市板橋區金華街10巷125號","121.45972","25.020635","6500100","板橋區"
"220041","307-R5","2018/01/18 15:09:27","新北市板橋區幸福路70巷3號","121.460643333333","25.0202183333333","6500100","板橋區"
"220012","486-VK","2018/01/18 15:09:24","新北市板橋區區運路82號","121.466668333333","25.010405","6500100","板橋區"
"220038","487-VK","2018/01/18 15:09:20","新北市板橋區龍泉街56-1號","121.457076666667","25.0260616666667","6500100","板橋區"
"220037","491-VK","2018/01/18 15:09:17","新北市板橋區懷德街59號","121.47742","25.0325166666667","6500100","板橋區"
"220052","561-BX","2018/01/18 15:09:24","新北市板橋區自由路28號","121.465606666667","25.022855","6500100","板橋區"
"220011","609-BX","2018/01/18 15:09:27","新北市板橋區中山路二段477號","121.482205","25.0205883333333","6500100","板橋區"
"220005","686-BX","2018/01/18 15:09:12","新北市板橋區四川路二段130巷1號","121.449885","24.9936283333333","6500100","板橋區"
"220025","687-BX","2018/01/18 15:09:22","新北市板橋區僑中一街124巷22號","121.446191666667","25.0141966666667","6500100","板橋區"
"220042","689-BX","2018/01/18 15:09:26","新北市板橋區長江路三段135號","121.475623333333","25.0347133333333","6500100","板橋區"
"220014","829-TW","2018/01/18 15:09:12","新北市板橋區中山路一段206巷123號","121.472555","25.0135216666667","6500100","板橋區"
"220051","830-TW","2018/01/18 15:09:19","新北市板橋區懷德街78巷21號","121.477801666667","25.0312083333333","6500100","板橋區"
"220022","895-R6","2018/01/18 15:09:20","新北市板橋區館前西路110號","121.456965","25.0074866666667","6500100","板橋區"
"220046","AAC-210","2018/01/18 15:09:19","新北市板橋區光正街57號","121.461746666667","25.0176516666667","6500100","板橋區"
"220018","AAC-253","2018/01/18 15:09:08","新北市板橋區成都街51號","121.461451666667","25.004855","6500100","板橋區"
