"lineid","car","time","location","longitude","latitude","cityid","cityname"
"234072","695-BX","2018/01/18 16:09:38","新北市永和區福和路1號","121.525375","25.009265","6500400","永和區"
"248010","272-BY","2018/01/18 15:41:12","新北市五股區中興路二段83巷26-6號","121.459983333333","25.0750983333333","6501500","五股區"
"243011","297-R6","2018/01/18 15:55:03","新北市泰山區黎明路25號","121.42194","25.0609833333333","6501600","泰山區"
"243009","KEA-2216","2018/01/18 15:44:30","新北市泰山區黎明路31號","121.421745","25.060645","6501600","泰山區"
"243016","680-BX","2018/01/18 15:53:13","新北市泰山區犁頭窠3-1號","121.422031666667","25.06053","6501600","泰山區"
"231030","047-UY","2018/01/18 16:09:31","新北市新店區柴埕路47號","121.514221666667","24.9652666666667","6500600","新店區"
"231018","107-UY","2018/01/18 16:09:39","新北市新店區中正路694巷15號","121.535373333333","24.9908966666667","6500600","新店區"
"231021","187-VK","2018/01/18 16:09:43","新北市新店區薏仁坑路22號","121.498778333333","24.9591516666667","6500600","新店區"
"231017","KEA-2219","2018/01/18 16:09:25","新北市新店區中正路340號","121.536566666667","24.97505","6500600","新店區"
"231046","278-BY","2018/01/18 16:09:23","新北市新店區永業路81巷12號","121.532295","24.947905","6500600","新店區"
"231034","645-TV","2018/01/18 16:09:42","新北市新店區如意街37號","121.493755","24.9482866666667","6500600","新店區"
"241011","013-R5","2018/01/18 16:09:41","新北市三重區三和路三段116號","121.493988333333","25.0723233333333","6500200","三重區"
"241028","022-UY","2018/01/18 16:09:30","新北市三重區正義南路107號","121.498261666667","25.05857","6500200","三重區"
"241008","059-VK","2018/01/18 16:09:36","新北市三重區力行路二段35號","121.482025","25.0736766666667","6500200","三重區"
"241015","062-VK","2018/01/18 16:09:38","新北市三重區福德南路59-4號","121.50305","25.06085","6500200","三重區"
"241024","065-VK","2018/01/18 16:09:36","新北市三重區中正北路145巷19號","121.485676666667","25.0681616666667","6500200","三重區"
"241029","066-VK","2018/01/18 16:09:29","新北市三重區大同南路242號","121.4969","25.0559516666667","6500200","三重區"
"241002","090-VK","2018/01/18 16:09:38","新北市三重區仁義街91號","121.499665","25.07976","6500200","三重區"
"241020","156-TC","2018/01/18 16:09:41","新北市三重區車路頭街29號","121.48386","25.07081","6500200","三重區"
"241005","262-UM","2018/01/18 16:09:47","新北市三重區溪尾街305號","121.487515","25.0837316666667","6500200","三重區"
"241026","265-UM","2018/01/18 16:09:26","新北市三重區正義南路13-1號","121.497773333333","25.0616433333333","6500200","三重區"
"241016","266-UM","2018/01/18 16:09:30","新北市三重區大同北路175號","121.492721666667","25.0652866666667","6500200","三重區"
"241022","267-UM","2018/01/18 16:09:42","新北市三重區重陽路二段72號","121.487156666667","25.0642283333333","6500200","三重區"
"241018","268-UM","2018/01/18 16:09:29","新北市三重區明志街66號","121.490776666667","25.0636566666667","6500200","三重區"
"241013","270-UM","2018/01/18 16:09:34","新北市三重區三和路三段8號","121.497311666667","25.0701966666667","6500200","三重區"
"241025","271-UM","2018/01/18 16:09:28","新北市三重區中正北路210號","121.48249","25.0673483333333","6500200","三重區"
"241007","398-BY","2018/01/18 16:09:41","新北市三重區慈愛街10號","121.48456","25.0784666666667","6500200","三重區"
"241004","475-VK","2018/01/18 16:09:27","新北市三重區五華街74號","121.493416666667","25.0820383333333","6500200","三重區"
"241019","478-VK","2018/01/18 16:09:31","新北市三重區重陽路三段180號","121.490071666667","25.0680566666667","6500200","三重區"
"241014","543-UM","2018/01/18 16:09:39","新北市三重區環河南路35號","121.503091666667","25.0611133333333","6500200","三重區"
"241023","545-UM","2018/01/18 16:09:42","新北市三重區力行路一段155-1號","121.484836666667","25.06901","6500200","三重區"
"241001","547-UM","2018/01/18 16:09:33","新北市三重區自強路四段77號","121.490706666667","25.07888","6500200","三重區"
"241033","557-UM","2018/01/18 16:09:39","新北市三重區五谷王南街50-1號","121.473988333333","25.0446566666667","6500200","三重區"
"241006","AAD-863","2018/01/18 16:09:37","新北市三重區永福街58巷3弄20號","121.480676666667","25.0773683333333","6500200","三重區"
"241017","887-TS","2018/01/18 16:09:35","新北市三重區大同北路148巷36號","121.49093","25.0647433333333","6500200","三重區"
"241012","941-UM","2018/01/18 16:09:29","新北市三重區文化北路132巷49號","121.497391666667","25.06655","6500200","三重區"
"235026","800-TS","2018/01/18 16:09:29","新北市中和區中山路二段332巷1號","121.494355","25.0025033333333","6500300","中和區"
"247001","402-BY","2018/01/18 16:09:36","新北市林口區太平里180號","121.368291666667","25.1347483333333","6501400","蘆洲區"
"247004","336-TH","2018/01/18 15:49:49","新北市五股區中興路三段163號","121.449155","25.08056","6501400","蘆洲區"
"224006","676-BX","2018/01/18 16:09:41","新北市瑞芳區大寮路356號","121.784615","25.10284","6501200","瑞芳區"
"224007","273-VK","2018/01/18 16:09:35","新北市瑞芳區粗坑口路50-1號","121.762141666667","25.0991066666667","6501200","瑞芳區"
"224005","271-BY","2018/01/18 16:09:42","新北市瑞芳區明燈路二段66號","121.8094","25.107615","6501200","瑞芳區"
"227010","642-TC","2018/01/18 16:09:31","新北市雙溪區三港里雙澳路69號","121.880858333333","25.0535833333333","6502500","雙溪區"
"227004","400-TW","2018/01/18 16:09:33","新北市雙溪區上林里內平林47號","121.833323333333","25.0304366666667","6502500","雙溪區"
"251013","179-VK","2018/01/18 16:09:34","新北市淡水區淡金路一段571號","121.452631666667","25.1804883333333","6501000","淡水區"
"251008","181-VK","2018/01/18 16:09:35","新北市淡水區文化路63號","121.43812","25.17289","6501000","淡水區"
"236018","401-BY","2018/01/18 16:09:40","新北市土城區延吉街7巷1號","121.472075","24.9891983333333","6501300","土城區"
"236056","912-UM","2018/01/18 16:09:36","新北市土城區中央路三段62號","121.436736666667","24.9673316666667","6501300","土城區"
"238002","755-BX","2018/01/18 16:09:38","新北市樹林區啟智街86巷19號","121.418035","24.990975","6500700","樹林區"
"238010","601-UM","2018/01/18 16:09:33","新北市樹林區三福街154號","121.405123333333","25.0159983333333","6500700","樹林區"
"238006","599-UM","2018/01/18 16:09:36","新北市樹林區鎮前街471-3號","121.411566666667","24.981795","6500700","樹林區"
"238005","571-TV","2018/01/18 16:09:38","新北市樹林區博愛街121巷14-6號","121.426273333333","24.99102","6500700","樹林區"
"238024","5061-A6","2018/01/18 16:09:41","新北市樹林區育德街76巷6號","121.389106666667","24.9686983333333","6500700","樹林區"
"238009","KEA-2213","2018/01/18 16:09:35","新北市樹林區太平路235-1號","121.418763333333","24.9741766666667","6500700","樹林區"
"238004","283-BY","2018/01/18 16:09:35","新北市樹林區中正路433-1號","121.414951666667","25.008135","6500700","樹林區"
"238001","282-BY","2018/01/18 16:09:35","新北市樹林區中正路19號","121.427653333333","24.99933","6500700","樹林區"
"238007","268-VK","2018/01/18 16:09:28","新北市樹林區三俊街157號","121.419096666667","25.0156233333333","6500700","樹林區"
"238013","172-UY","2018/01/18 16:09:28","新北市樹林區八德街610號","121.397226666667","24.9700433333333","6500700","樹林區"
"238003","169-UY","2018/01/18 16:09:30","新北市樹林區文化街23號","121.419346666667","24.9876083333333","6500700","樹林區"
