"lineid","car","time","location","longitude","latitude","cityid","cityname"
"234072","695-BX","2018/01/18 16:29:38","新北市永和區福和路1號","121.525395","25.00924","6500400","永和區"
"231046","278-BY","2018/01/18 16:29:43","新北市新店區灣潭路3-3號","121.538241666667","24.950785","6500600","新店區"
"241011","013-R5","2018/01/18 16:29:38","新北市三重區龍濱路170號","121.50139","25.0726883333333","6500200","三重區"
"241028","022-UY","2018/01/18 16:29:30","新北市三重區中正南路186號","121.493895","25.056145","6500200","三重區"
"241008","059-VK","2018/01/18 16:29:36","新北市三重區力行路二段136巷45弄14號","121.479126666667","25.07545","6500200","三重區"
"241009","060-VK","2018/01/18 16:29:29","新北市三重區三和路四段181巷120號","121.485131666667","25.07992","6500200","三重區"
"241031","061-VK","2018/01/18 16:29:28","新北市三重區重陽路一段68號","121.486673333333","25.0586333333333","6500200","三重區"
"241015","062-VK","2018/01/18 16:29:38","新北市三重區福德北路40號","121.501831666667","25.065225","6500200","三重區"
"241024","065-VK","2018/01/18 16:29:36","新北市三重區中正北路315巷18號","121.475015","25.0716","6500200","三重區"
"241029","066-VK","2018/01/18 16:29:29","新北市三重區同安街105號","121.494483333333","25.0564","6500200","三重區"
"241002","090-VK","2018/01/18 16:29:38","新北市三重區五華街6號","121.495086666667","25.0800266666667","6500200","三重區"
"241003","091-VK","2018/01/18 16:29:36","新北市三重區仁義街321號","121.495236666667","25.084395","6500200","三重區"
"241020","156-TC","2018/01/18 16:29:41","新北市三重區後竹圍街197號","121.485053333333","25.0716016666667","6500200","三重區"
"241005","262-UM","2018/01/18 16:29:27","新北市三重區溪尾街300號","121.487528333333","25.0834416666667","6500200","三重區"
"241026","265-UM","2018/01/18 16:29:26","新北市三重區光興街1號","121.500366666667","25.0604233333333","6500200","三重區"
"241016","266-UM","2018/01/18 16:29:30","新北市三重區自強路一段160巷2弄53號","121.494393333333","25.0657466666667","6500200","三重區"
"241022","267-UM","2018/01/18 16:29:42","新北市三重區重陽路二段2號","121.486633333333","25.0615983333333","6500200","三重區"
"241018","268-UM","2018/01/18 16:29:35","新北市三重區重陽路四段77號","121.492405","25.070805","6500200","三重區"
"241032","269-UM","2018/01/18 16:29:35","新北市三重區三陽路100巷3弄13號","121.483023333333","25.0580733333333","6500200","三重區"
"241013","270-UM","2018/01/18 16:29:34","新北市三重區仁愛街73號","121.49605","25.0728533333333","6500200","三重區"
"241025","271-UM","2018/01/18 16:29:28","新北市三重區中正北路560巷100弄2號","121.472448333333","25.06821","6500200","三重區"
"241007","398-BY","2018/01/18 16:29:41","新北市三重區三和路四段167巷147號","121.4881","25.080355","6500200","三重區"
"241004","475-VK","2018/01/18 16:29:27","新北市三重區仁愛街377巷15號","121.492325","25.0807783333333","6500200","三重區"
"241019","478-VK","2018/01/18 16:29:31","新北市三重區重陽路三段61號","121.489831666667","25.0675433333333","6500200","三重區"
"241030","480-VK","2018/01/18 16:29:39","新北市三重區成功路106-1號","121.48756","25.051405","6500200","三重區"
"241014","543-UM","2018/01/18 16:29:39","新北市三重區河邊北街70-3號","121.50429","25.068405","6500200","三重區"
"241023","545-UM","2018/01/18 16:29:42","新北市三重區忠孝路三段50巷43號","121.482916666667","25.0644816666667","6500200","三重區"
"241001","547-UM","2018/01/18 16:29:33","新北市三重區仁愛街274號","121.49275","25.0787633333333","6500200","三重區"
"241033","557-UM","2018/01/18 16:29:39","新北市三重區重新路五段317巷1弄1號","121.477711666667","25.0487416666667","6500200","三重區"
"241006","AAD-863","2018/01/18 16:29:37","新北市三重區力行路二段162巷22號","121.48149","25.0764266666667","6500200","三重區"
"241017","887-TS","2018/01/18 16:29:35","新北市三重區大同北路79號","121.495053333333","25.0637383333333","6500200","三重區"
"241012","941-UM","2018/01/18 16:29:29","新北市三重區河邊北街254號","121.501758333333","25.0762433333333","6500200","三重區"
"247001","402-BY","2018/01/18 16:29:36","新北市八里區中華路三段73號","121.394623333333","25.1409683333333","6501400","蘆洲區"
"224006","676-BX","2018/01/18 16:29:26","新北市瑞芳區明燈路二段66號","121.809481666667","25.1071983333333","6501200","瑞芳區"
"224008","275-VK","2018/01/18 16:29:46","新北市瑞芳區民權街3-1號","121.809341666667","25.108295","6501200","瑞芳區"
"224007","273-VK","2018/01/18 16:29:35","新北市瑞芳區瑞竹路83號","121.76412","25.1032983333333","6501200","瑞芳區"
"224005","271-BY","2018/01/18 16:29:42","新北市瑞芳區阿美家園39號","121.820968333333","25.1167183333333","6501200","瑞芳區"
"227010","642-TC","2018/01/18 16:29:31","新北市雙溪區三港里雙澳路22號","121.86959","25.0498616666667","6502500","雙溪區"
"227004","400-TW","2018/01/18 16:29:33","新北市雙溪區上林里內平林120-2號","121.82447","25.02627","6502500","雙溪區"
"251013","179-VK","2018/01/18 16:29:34","新北市淡水區楓樹湖12-1號","121.498813333333","25.1876566666667","6501000","淡水區"
"251008","181-VK","2018/01/18 16:29:35","新北市淡水區樹梅坑16號","121.471348333333","25.1430766666667","6501000","淡水區"
"251015","182-VK","2018/01/18 16:29:33","新北市淡水區中正路二段31號","121.419495","25.1815833333333","6501000","淡水區"
"238004","283-BY","2018/01/18 16:29:35","新北市樹林區中正路433-1號","121.414841666667","25.0081666666667","6500700","樹林區"
"238001","282-BY","2018/01/18 16:29:35","新北市樹林區中正路22-1號","121.427768333333","24.9994333333333","6500700","樹林區"
"238007","268-VK","2018/01/18 16:29:32","新北市樹林區三龍街78號","121.413978333333","25.0184983333333","6500700","樹林區"
"220062","295-UM","2018/01/18 16:13:57","新北市板橋區民生路二段89-6號","121.470613333333","25.0193366666667","6500100","板橋區"
