"lineid","car","time","location","longitude","latitude","cityid","cityname"
"234072","695-BX","2018/01/18 17:39:38","新北市永和區福和路1號","121.525341666667","25.0092733333333","6500400","永和區"
"234026","9371-KE","2018/01/18 17:39:34","新北市永和區中正路659號","121.51467","25.0102316666667","6500400","永和區"
"249005","172-UM","2018/01/18 17:39:38","新北市八里區荖阡坑路34號","121.402761666667","25.129765","6502300","八里區"
"249001","173-UM","2018/01/18 17:39:27","新北市八里區龍米路二段150號","121.436041666667","25.1565016666667","6502300","八里區"
"249004","303-UY","2018/01/18 17:39:30","新北市八里區賢二街39號","121.418975","25.1577766666667","6502300","八里區"
"249002","305-UY","2018/01/18 17:39:35","新北市八里區龍形五街37巷3-1號","121.448713333333","25.1326216666667","6502300","八里區"
"249003","759-BX","2018/01/18 17:39:39","新北市八里區中山路二段312號","121.404348333333","25.1499233333333","6502300","八里區"
"248006","077-UY","2018/01/18 17:39:30","新北市五股區中興路二段83巷26-6號","121.459993333333","25.0750283333333","6501500","五股區"
"248008","095-VK","2018/01/18 17:39:31","新北市五股區中興路二段83巷26-6號","121.460148333333","25.075115","6501500","五股區"
"232011","375-UM","2018/01/18 17:39:42","新北市坪林區北宜路八段375號","121.708975","24.9322633333333","6502000","坪林區"
"244013","069-UM","2018/01/18 17:39:48","新北市林口區中正路555號","121.381133333333","25.0768833333333","6501700","林口區"
"244007","080-UY","2018/01/18 17:39:43","新北市林口區文化一路二段305號","121.385828333333","25.0859233333333","6501700","林口區"
"244019","402-UM","2018/01/18 17:39:41","新北市林口區文化一路一段89-5號","121.371956666667","25.0703933333333","6501700","林口區"
"244009","410-SL","2018/01/18 17:39:45","新北市林口區中北三街332號","121.383086666667","25.0840033333333","6501700","林口區"
"244023","483-VK","2018/01/18 17:39:35","新北市林口區東明一街115巷7號","121.390586666667","25.0704866666667","6501700","林口區"
"244017","485-VK","2018/01/18 17:39:43","新北市林口區忠孝路407號","121.370406666667","25.07067","6501700","林口區"
"244011","656-BX","2018/01/18 17:39:41","新北市林口區佳林路148號","121.384201666667","25.0771266666667","6501700","林口區"
"244025","837-TS","2018/01/18 17:39:44","新北市林口區忠孝路308巷20號","121.366766666667","25.0724083333333","6501700","林口區"
"244021","838-TS","2018/01/18 17:39:29","新北市林口區東林街20號","121.395866666667","25.0791183333333","6501700","林口區"
"231046","278-BY","2018/01/18 17:39:43","新北市新店區直潭路92號","121.530891666667","24.937635","6500600","新店區"
"241024","065-VK","2018/01/18 17:39:36","新北市三重區國道路一段58巷17號","121.481526666667","25.0719433333333","6500200","三重區"
"241003","091-VK","2018/01/18 17:39:34","新北市三重區集賢路118-6號","121.492135","25.0902483333333","6500200","三重區"
"241005","262-UM","2018/01/18 17:39:47","新北市三重區碧華街1號","121.483478333333","25.0812066666667","6500200","三重區"
"241016","266-UM","2018/01/18 17:39:29","新北市三重區正義北路15號","121.497758333333","25.0628866666667","6500200","三重區"
"241007","398-BY","2018/01/18 17:39:41","新北市三重區車路頭街135-1號","121.48425","25.0761583333333","6500200","三重區"
"241019","478-VK","2018/01/18 17:39:31","新北市三重區六張街251號","121.487483333333","25.06842","6500200","三重區"
"241014","543-UM","2018/01/18 17:39:39","新北市三重區河邊北街86巷52號","121.502653333333","25.0689066666667","6500200","三重區"
"241023","545-UM","2018/01/18 17:39:42","新北市三重區三民街122號","121.48358","25.0644433333333","6500200","三重區"
"241033","557-UM","2018/01/18 17:39:38","新北市三重區光復路一段138-2號","121.47148","25.053065","6500200","三重區"
"241024","743-BX","2018/01/18 17:39:37","新北市三重區大勇街82巷15弄19號","121.480568333333","25.0719066666667","6500200","三重區"
"241017","887-TS","2018/01/18 17:39:36","新北市三重區大同北路32號","121.495171666667","25.0625683333333","6500200","三重區"
"241012","941-UM","2018/01/18 17:39:49","新北市三重區仁興街39巷18號","121.500141666667","25.0762266666667","6500200","三重區"
"235065","098-UM","2018/01/18 17:39:30","新北市中和區員山路36巷16-3號","121.48512","24.9911833333333","6500300","中和區"
"247022","893-R6","2018/01/18 17:39:33","新北市蘆洲區民族路548巷10號","121.467485","25.0895316666667","6501400","蘆洲區"
"247012","546-UM","2018/01/18 17:39:32","新北市蘆洲區民權路21號","121.476218333333","25.0862266666667","6501400","蘆洲區"
"247020","500-BY","2018/01/18 17:39:32","新北市蘆洲區民族路420號","121.474105","25.0916483333333","6501400","蘆洲區"
"247008","341-TH","2018/01/18 17:39:37","新北市蘆洲區民生街105號","121.473423333333","25.0787333333333","6501400","蘆洲區"
"247010","339-TH","2018/01/18 17:39:28","新北市蘆洲區中山一路49號","121.478743333333","25.0809866666667","6501400","蘆洲區"
"247002","337-TH","2018/01/18 17:39:45","新北市蘆洲區環堤大道212號","121.457505","25.091955","6501400","蘆洲區"
"247004","336-TH","2018/01/18 17:39:42","新北市蘆洲區長安街251號","121.458831666667","25.083195","6501400","蘆洲區"
"247016","057-VK","2018/01/18 17:39:47","新北市蘆洲區光華路66號","121.4682","25.0829316666667","6501400","蘆洲區"
"247006","056-VK","2018/01/18 17:39:38","新北市蘆洲區長安街66號","121.46281","25.08019","6501400","蘆洲區"
"247014","007-UY","2018/01/18 17:39:47","新北市蘆洲區中山二路79號","121.473093333333","25.0819483333333","6501400","蘆洲區"
"247024","002-UY","2018/01/18 17:39:45","新北市蘆洲區長樂路125-1號","121.462178333333","25.0880516666667","6501400","蘆洲區"
"247018","001-UY","2018/01/18 17:39:35","新北市蘆洲區民權路61巷4弄2號","121.473553333333","25.087965","6501400","蘆洲區"
"228003","097-TW","2018/01/18 17:39:31","新北市貢寮區仁理村仁和路252號","121.924083333333","25.0540583333333","6502600","貢寮區"
"228001","212-TW","2018/01/18 17:39:41","新北市貢寮區仁理村仁愛路95-1號","121.927683333333","25.05547","6502600","貢寮區"
"228002","663-BX","2018/01/18 17:39:39","新北市貢寮區福隆里外隆林街14-1號","121.959153333333","25.0036666666667","6502600","貢寮區"
"224010","AGQ-8101","2018/01/18 17:39:33","新北市瑞芳區岳王路42號","121.808753333333","25.1110516666667","6501200","瑞芳區"
"224006","676-BX","2018/01/18 17:39:38","新北市瑞芳區中山路265號","121.797206666667","25.1098716666667","6501200","瑞芳區"
"224009","285-BY","2018/01/18 17:39:40","新北市瑞芳區崙頂路3號","121.846578333333","25.106665","6501200","瑞芳區"
"224008","275-VK","2018/01/18 17:39:46","新北市瑞芳區瑞柑新村2號","121.829138333333","25.1062783333333","6501200","瑞芳區"
"224007","273-VK","2018/01/18 17:39:35","新北市平溪區新寮里五分寮10-2號","121.80002","25.07415","6501200","瑞芳區"
"224005","271-BY","2018/01/18 17:39:45","新北市瑞芳區籠山路21號","121.832175","25.123455","6501200","瑞芳區"
"227004","400-TW","2018/01/18 17:39:33","新北市雙溪區三貂里定福路1-1號","121.849575","25.0631366666667","6502500","雙溪區"
"251009","008-UM","2018/01/18 17:39:43","新北市淡水區中正路72-1號","121.442746666667","25.1697066666667","6501000","淡水區"
"251004","009-UM","2018/01/18 17:39:36","新北市淡水區中正東路二段88巷37-21號","121.459335","25.14387","6501000","淡水區"
"251005","010-UM","2018/01/18 17:39:35","新北市淡水區鄧公路33巷1號","121.451363333333","25.1710933333333","6501000","淡水區"
"251013","179-VK","2018/01/18 17:39:43","新北市淡水區演戲埔腳7號","121.47121","25.1940483333333","6501000","淡水區"
"251014","180-VK","2018/01/18 17:39:31","新北市淡水區公埔子16-6號","121.480351666667","25.2241116666667","6501000","淡水區"
"251008","181-VK","2018/01/18 17:39:35","新北市淡水區八勢路30巷19號","121.462763333333","25.153615","6501000","淡水區"
"251015","182-VK","2018/01/18 17:39:33","新北市淡水區樹林口13-1號","121.480925","25.1692933333333","6501000","淡水區"
"251010","413-VK","2018/01/18 17:39:31","新北市淡水區淡海路284號","121.4195","25.1888183333333","6501000","淡水區"
"251012","441-VK","2018/01/18 17:39:28","新北市淡水區北新路200巷10號","121.451808333333","25.17968","6501000","淡水區"
"251016","442-VK","2018/01/18 17:39:49","新北市淡水區埤島75-1號","121.453263333333","25.1948516666667","6501000","淡水區"
"251001","559-UM","2018/01/18 17:39:45","新北市淡水區民權路92巷35-1號","121.462265","25.12669","6501000","淡水區"
"251006","561-UM","2018/01/18 17:39:33","新北市淡水區大信街24巷2號","121.441931666667","25.1767216666667","6501000","淡水區"
"251007","577-R6","2018/01/18 17:39:37","新北市淡水區民生路124巷30號","121.464146666667","25.1376116666667","6501000","淡水區"
"251011","650-BX","2018/01/18 17:39:40","新北市淡水區小坪頂13-3號","121.486613333333","25.15618","6501000","淡水區"
"251002","672-BX","2018/01/18 17:39:34","新北市淡水區清水街246號","121.44056","25.172195","6501000","淡水區"
"251003","673-BX","2018/01/18 17:39:35","新北市淡水區大忠街5巷2號","121.443113333333","25.1763066666667","6501000","淡水區"
"207003","550-UM","2018/01/18 17:39:27","新北市萬里區龜吼里漁澳路46-3號","121.686181666667","25.1957133333333","6502800","萬里區"
"207004","225-TW","2018/01/18 17:39:46","新北市萬里區中幅里中福路20號","121.684595","25.1644416666667","6502800","萬里區"
"252002","178-VK","2018/01/18 17:39:27","新北市三芝區中正路二段2號","121.504903333333","25.2556683333333","6502100","三芝區"
"252001","292-VK","2018/01/18 17:39:38","新北市三芝區育英街1號","121.501723333333","25.2588516666667","6502100","三芝區"
"237013","252-BX","2018/01/18 17:39:43","新北市三峽區中華路8-1號","121.374978333333","24.9329533333333","6500900","三峽區"
"237008","302-VK","2018/01/18 17:39:38","新北市三峽區中山路333-5號","121.359575","24.9375866666667","6500900","三峽區"
"237014","433-BY","2018/01/18 17:39:45","新北市三峽區中山路459巷163-3號","121.348686666667","24.9329616666667","6500900","三峽區"
"237016","649-BX","2018/01/18 17:23:16","新北市三峽區中山路459巷137號","121.350405","24.93361","6500900","三峽區"
"237010","706-TV","2018/01/18 17:39:39","新北市三峽區中山路128號","121.365476666667","24.936035","6500900","三峽區"
"236071","105-UM","2018/01/18 17:39:39","新北市土城區城林路6巷80號","121.438413333333","24.9797433333333","6501300","土城區"
"236042","107-UM","2018/01/18 17:39:40","新北市土城區城林路6巷80號","121.438653333333","24.9796483333333","6501300","土城區"
"236014","270-VK","2018/01/18 17:39:29","新北市土城區城林路6巷80號","121.438556666667","24.97963","6501300","土城區"
"236037","271-VK","2018/01/18 17:39:41","新北市土城區城林路6巷80號","121.438426666667","24.9797966666667","6501300","土城區"
"242031","AAC-296","2018/01/18 17:39:38","新北市新莊區新泰路361巷19號","121.442755","25.042995","6500500","新莊區"
"242029","986-R7","2018/01/18 17:39:37","新北市新莊區復興路二段111號","121.456386666667","25.0443066666667","6500500","新莊區"
"242051","751-BX","2018/01/18 17:39:48","新北市新莊區西盛街191號","121.428101666667","25.01739","6500500","新莊區"
"242025","615-BX","2018/01/18 17:39:48","新北市新莊區思源路118號","121.460085","25.0469133333333","6500500","新莊區"
"242023","613-BX","2018/01/18 17:39:31","新北市新莊區公園路222巷1號","121.456285","25.0405766666667","6500500","新莊區"
"242027","612-BX","2018/01/18 17:39:45","新北市新莊區福壽街140號","121.457728333333","25.0518666666667","6500500","新莊區"
"242039","566-BX","2018/01/18 17:39:42","新北市新莊區民全街2號","121.428998333333","25.0209966666667","6500500","新莊區"
"242044","442-UM","2018/01/18 17:39:25","新北市新莊區富國路65巷12號","121.419978333333","25.02655","6500500","新莊區"
"242048","441-UM","2018/01/18 17:39:48","新北市新莊區萬安街126號","121.420351666667","25.0217083333333","6500500","新莊區"
"242053","440-UM","2018/01/18 17:39:41","新北市新莊區新樹路699巷1-2號","121.432511666667","25.002015","6500500","新莊區"
"242034","415-TV","2018/01/18 17:39:46","新北市新莊區新莊路504號","121.446118333333","25.0333266666667","6500500","新莊區"
"242004","413-TV","2018/01/18 17:39:46","新北市新莊區自立街216號","121.457196666667","25.0454533333333","6500500","新莊區"
"242042","400-BY","2018/01/18 17:39:34","新北市泰山區漢口街36號","121.42625","25.0352266666667","6500500","新莊區"
"242061","362-BY","2018/01/18 17:39:37","新北市新莊區瓊林南路103巷8弄23號","121.435305","25.0112283333333","6500500","新莊區"
"242058","353-BY","2018/01/18 17:39:44","新北市新莊區中正路644號","121.421748333333","25.0287283333333","6500500","新莊區"
"242007","132-UY","2018/01/18 17:39:43","新北市新莊區福樂街71巷1號","121.456995","25.04775","6500500","新莊區"
"242036","133-UY","2018/01/18 17:39:41","新北市新莊區建福路69巷43號","121.428791666667","25.027555","6500500","新莊區"
"242021","135-UY","2018/01/18 17:39:38","新北市新莊區中華路一段118號","121.452536666667","25.040505","6500500","新莊區"
"242046","172-VK","2018/01/18 17:39:38","新北市新莊區福營路103號","121.433883333333","25.0322966666667","6500500","新莊區"
"242009","173-VK","2018/01/18 17:39:37","新北市新莊區昌明街14巷7弄3號","121.457181666667","25.0533616666667","6500500","新莊區"
"242015","175-VK","2018/01/18 17:39:45","新北市新莊區新泰路326號","121.445048333333","25.0418183333333","6500500","新莊區"
"242002","176-VK","2018/01/18 17:39:49","新北市新莊區新莊路200號","121.453773333333","25.0347216666667","6500500","新莊區"
"242013","346-TH","2018/01/18 17:39:43","新北市新莊區中誠街100號","121.449865","25.0477483333333","6500500","新莊區"
"242019","348-TH","2018/01/18 17:39:36","新北市新莊區中港路176號","121.454946666667","25.0419166666667","6500500","新莊區"
"242056","349-TH","2018/01/18 17:39:34","新北市新莊區新泰路3巷33號","121.449028333333","25.03197","6500500","新莊區"
"242017","350-TH","2018/01/18 17:39:31","新北市新莊區復興路一段149巷22弄2號","121.450278333333","25.0440666666667","6500500","新莊區"
"242011","351-TH","2018/01/18 17:39:38","新北市新莊區中港路635號","121.451093333333","25.05443","6500500","新莊區"
"238015","755-BX","2018/01/18 17:39:37","新北市樹林區啟智街16號","121.421066666667","24.9938566666667","6500700","樹林區"
"238023","601-UM","2018/01/18 17:39:36","新北市樹林區三福街14號","121.408688333333","25.0168033333333","6500700","樹林區"
"238019","599-UM","2018/01/18 17:39:36","新北市樹林區太順街3號","121.420078333333","24.980235","6500700","樹林區"
"238018","571-TV","2018/01/18 17:39:38","新北市樹林區鎮前街113號","121.424253333333","24.9896833333333","6500700","樹林區"
"238021","KEA-2217","2018/01/18 17:39:40","新北市樹林區佳園路二段77號","121.39084","24.96012","6500700","樹林區"
"238022","KEA-2213","2018/01/18 17:39:35","新北市樹林區中華路187巷7號","121.420661666667","24.9813","6500700","樹林區"
"238025","303-VK","2018/01/18 17:39:38","新北市樹林區保安街三段55-1號","121.41257","25.01151","6500700","樹林區"
"238017","283-BY","2018/01/18 17:39:35","新北市樹林區中正路460號","121.412975","25.0124516666667","6500700","樹林區"
"238014","282-BY","2018/01/18 17:39:35","新北市樹林區保安街一段364號","121.417828333333","24.998595","6500700","樹林區"
"238020","268-VK","2018/01/18 17:39:28","新北市樹林區俊英街116巷25號","121.428225","25.0059633333333","6500700","樹林區"
"238026","172-UY","2018/01/18 17:39:43","新北市樹林區新興街19巷10號","121.400941666667","24.9729166666667","6500700","樹林區"
"238016","169-UY","2018/01/18 17:39:30","新北市樹林區育英街53號","121.420796666667","24.9892633333333","6500700","樹林區"
"239007","AAC-297","2018/01/18 17:39:42","新北市鶯歌區陽明街14號","121.340543333333","24.9567516666667","6500800","鶯歌區"
"239006","891-R6","2018/01/18 17:39:44","新北市鶯歌區鶯桃路500號","121.332006666667","24.9661766666667","6500800","鶯歌區"
"239008","527-UM","2018/01/18 17:39:40","桃園市龜山區宏德司法新村4號","121.331121666667","24.9793516666667","6500800","鶯歌區"
"239005","526-UM","2018/01/18 17:39:46","新北市鶯歌區福隆二街5號","121.32543","24.9720416666667","6500800","鶯歌區"
"239001","417-VK","2018/01/18 17:39:37","新北市鶯歌區中正三路236號","121.330911666667","24.937245","6500800","鶯歌區"
"239003","360-BY","2018/01/18 17:39:46","新北市鶯歌區鶯桃路206巷42-1號","121.337961666667","24.9599783333333","6500800","鶯歌區"
"239002","359-BY","2018/01/18 17:39:40","新北市鶯歌區育智路90號","121.345088333333","24.9543433333333","6500800","鶯歌區"
"239004","193-VK","2018/01/18 17:39:30","新北市鶯歌區三鶯路12號","121.35654","24.9411866666667","6500800","鶯歌區"
"221010","269-BY","2018/01/18 17:39:45","新北市汐止區汐萬路一段418巷57號","121.650183333333","25.0790633333333","6501100","汐止區"
"221023","279-VK","2018/01/18 17:39:42","新北市汐止區康寧街901號","121.651486666667","25.0750333333333","6501100","汐止區"
"221032","280-BY","2018/01/18 17:39:36","新北市汐止區樟樹二路341號","121.6421","25.0723683333333","6501100","汐止區"
"221021","299-VK","2018/01/18 17:39:32","新北市汐止區康寧街901號","121.651363333333","25.0750966666667","6501100","汐止區"
"221031","353-TW","2018/01/18 17:39:41","新北市汐止區康寧街901號","121.651731666667","25.074925","6501100","汐止區"
"221008","358-BY","2018/01/18 17:39:28","新北市汐止區康寧街901號","121.65142","25.075075","6501100","汐止區"
"221033","647-BX","2018/01/18 17:39:43","新北市汐止區橫科路407巷99號","121.629163333333","25.0515466666667","6501100","汐止區"
"221018","753-BX","2018/01/18 17:39:29","新北市汐止區汐萬路一段312號","121.650608333333","25.075405","6501100","汐止區"
