"lineid","car","time","location","longitude","latitude","cityid","cityname"
"234072","695-BX","2018/01/18 17:59:38","新北市永和區福和路1號","121.525356666667","25.0092566666667","6500400","永和區"
"234026","9371-KE","2018/01/18 17:59:34","新北市永和區永和路一段45號","121.51294","25.006275","6500400","永和區"
"249005","172-UM","2018/01/18 17:59:38","新北市八里區荖阡坑路20號","121.397116666667","25.1364883333333","6502300","八里區"
"249001","173-UM","2018/01/18 17:59:27","新北市八里區龍米路二段39號","121.448316666667","25.1400816666667","6502300","八里區"
"249004","303-UY","2018/01/18 17:59:30","新北市八里區龍米路二段176號","121.434266666667","25.1582533333333","6502300","八里區"
"249002","305-UY","2018/01/18 17:59:35","新北市八里區龍米路一段428巷1號","121.451183333333","25.1338566666667","6502300","八里區"
"249003","759-BX","2018/01/18 17:59:39","新北市八里區中山路二段181號","121.404806666667","25.15016","6502300","八里區"
"248014","025-BX","2018/01/18 17:59:20","新北市五股區更洲路47號","121.456865","25.0790433333333","6501500","五股區"
"248006","077-UY","2018/01/18 17:59:30","新北市五股區中興路二段37巷28號","121.460086666667","25.0750033333333","6501500","五股區"
"248008","095-VK","2018/01/18 17:59:31","新北市五股區更洲路40號","121.457513333333","25.0794516666667","6501500","五股區"
"248020","225-UY","2018/01/18 17:59:22","新北市五股區中興路二段83巷26-6號","121.460143333333","25.0752366666667","6501500","五股區"
"248012","247-BX","2018/01/18 17:59:29","新北市五股區中興路二段83巷26-6號","121.460116666667","25.0751583333333","6501500","五股區"
"248010","272-BY","2018/01/18 17:59:27","新北市五股區中興路二段182巷1號","121.457185","25.078565","6501500","五股區"
"248004","677-BX","2018/01/18 17:59:22","新北市五股區中興路二段103巷16號","121.458873333333","25.075805","6501500","五股區"
"248002","678-BX","2018/01/18 17:59:29","新北市五股區中興路二段37巷28號","121.460125","25.0749866666667","6501500","五股區"
"232011","375-UM","2018/01/18 17:59:21","新北市坪林區水柳腳39號","121.709628333333","24.9351516666667","6502000","坪林區"
"244013","069-UM","2018/01/18 17:59:28","新北市林口區林口路39號","121.390261666667","25.0787816666667","6501700","林口區"
"244007","080-UY","2018/01/18 17:59:23","新北市林口區竹林路265號","121.389383333333","25.0807383333333","6501700","林口區"
"244019","402-UM","2018/01/18 17:59:41","新北市林口區文化一路一段36號","121.370946666667","25.0692733333333","6501700","林口區"
"244009","410-SL","2018/01/18 17:59:38","新北市林口區佳林路41號","121.386455","25.0817483333333","6501700","林口區"
"244023","483-VK","2018/01/18 17:59:35","新北市林口區東湖路41巷21號","121.386433333333","25.0728983333333","6501700","林口區"
"244017","485-VK","2018/01/18 17:59:23","新北市林口區文化二路一段335-9號","121.369688333333","25.0741816666667","6501700","林口區"
"244011","656-BX","2018/01/18 17:59:21","新北市林口區中正路224號","121.39041","25.0777","6501700","林口區"
"244025","837-TS","2018/01/18 17:59:24","新北市林口區文化三路一段39巷128號","121.359536666667","25.0684033333333","6501700","林口區"
"244021","838-TS","2018/01/18 17:59:29","新北市林口區新寮45號","121.404261666667","25.0642916666667","6501700","林口區"
"222003","436-BY","2018/01/18 17:59:25","新北市深坑區炮子崙24號","121.604785","24.9875566666667","6501800","深坑區"
"222002","659-BX","2018/01/18 17:59:39","新北市深坑區文化街98號","121.617083333333","25.0019166666667","6501800","深坑區"
"231046","278-BY","2018/01/18 17:59:23","新北市新店區康雅崙路3號","121.539423333333","24.9255166666667","6500600","新店區"
"241016","266-UM","2018/01/18 17:59:29","新北市三重區忠孝路三段127巷5號","121.478455","25.0616166666667","6500200","三重區"
"241033","557-UM","2018/01/18 17:59:38","新北市三重區重新路五段599號","121.4695","25.0456416666667","6500200","三重區"
"241024","743-BX","2018/01/18 17:55:37","新北市三重區車路頭街62巷31號","121.483456666667","25.0724883333333","6500200","三重區"
"235063","006-UY","2018/01/18 17:59:33","新北市中和區員山路36巷16-3號","121.484976666667","24.9912633333333","6500300","中和區"
"235065","098-UM","2018/01/18 17:59:30","新北市中和區中山路二段369號","121.487533333333","25.0048166666667","6500300","中和區"
"235058","151-BY","2018/01/18 17:59:27","新北市中和區錦和路350-1號","121.49027","24.9934","6500300","中和區"
"235038","185-VK","2018/01/18 17:59:23","新北市中和區景平路420號","121.507856666667","24.99316","6500300","中和區"
"235067","255-BX","2018/01/18 17:43:43","新北市中和區和城路一段271巷1號","121.485395","24.9918916666667","6500300","中和區"
"235042","551-UM","2018/01/18 17:59:31","新北市中和區中正路637巷60弄61號","121.485628333333","24.9931083333333","6500300","中和區"
"235062","800-TS","2018/01/18 17:59:26","新北市中和區連城路469巷20號","121.48354","24.99509","6500300","中和區"
"235037","AAC-213","2018/01/18 17:59:31","新北市中和區中正路395號","121.489933333333","24.9935516666667","6500300","中和區"
"247012","546-UM","2018/01/18 17:59:32","新北市蘆洲區民族路167巷13號","121.478408333333","25.0882633333333","6501400","蘆洲區"
"247020","500-BY","2018/01/18 17:59:30","新北市蘆洲區民族路377號","121.469996666667","25.0905733333333","6501400","蘆洲區"
"247008","341-TH","2018/01/18 17:59:37","新北市蘆洲區中山一路265號","121.472703333333","25.0800983333333","6501400","蘆洲區"
"247010","339-TH","2018/01/18 17:59:28","新北市蘆洲區信義路259巷17號","121.478138333333","25.0844766666667","6501400","蘆洲區"
"247002","337-TH","2018/01/18 17:59:22","新北市蘆洲區永平街32巷57弄20號","121.459063333333","25.0932816666667","6501400","蘆洲區"
"247016","057-VK","2018/01/18 17:59:27","新北市蘆洲區中正路185巷78弄2號","121.466123333333","25.084525","6501400","蘆洲區"
"247006","056-VK","2018/01/18 17:59:18","新北市蘆洲區中華街33號","121.46312","25.0813966666667","6501400","蘆洲區"
"247014","007-UY","2018/01/18 17:59:28","新北市蘆洲區忠孝路74號","121.471571666667","25.0854866666667","6501400","蘆洲區"
"247024","002-UY","2018/01/18 17:59:25","新北市蘆洲區光復路41巷36號","121.462421666667","25.08575","6501400","蘆洲區"
"247018","001-UY","2018/01/18 17:59:35","新北市蘆洲區復興路292號","121.480831666667","25.0899183333333","6501400","蘆洲區"
"226004","312-R5","2018/01/18 17:59:00","新北市平溪區石底里石筍尖21號","121.730375","25.0257666666667","6502400","平溪區"
"228003","097-TW","2018/01/18 17:59:31","新北市貢寮區真理里美艷山街6-2號","121.928821666667","25.0607883333333","6502600","貢寮區"
"228001","212-TW","2018/01/18 17:59:35","新北市貢寮區真理里新港街26巷53號","121.928038333333","25.0535816666667","6502600","貢寮區"
"228002","663-BX","2018/01/18 17:59:18","新北市貢寮區福連里香蘭街2-1號","121.969445","25.0236166666667","6502600","貢寮區"
"224006","676-BX","2018/01/18 17:59:31","新北市瑞芳區傑魚坑路191號","121.788015","25.1075166666667","6501200","瑞芳區"
"224002","639-TC","2018/01/18 17:59:19","新北市瑞芳區三爪子坑路153號","121.810588333333","25.1061766666667","6501200","瑞芳區"
"224009","285-BY","2018/01/18 17:59:27","新北市瑞芳區新山路141號","121.852471666667","25.1086366666667","6501200","瑞芳區"
"224008","275-VK","2018/01/18 17:59:35","新北市瑞芳區明燈路一段45巷61-5號","121.821876666667","25.1051266666667","6501200","瑞芳區"
"224007","273-VK","2018/01/18 17:59:35","新北市瑞芳區傑魚坑路20-6號","121.795985","25.097415","6501200","瑞芳區"
"224005","271-BY","2018/01/18 17:59:22","新北市瑞芳區深澳路18號","121.820485","25.13291","6501200","瑞芳區"
"253005","032-BX","2018/01/18 17:59:28","新北市石門區中山路62-11號","121.567506666667","25.2896783333333","6502200","石門區"
"253006","295-VK","2018/01/18 17:59:19","新北市石門區大丘田45-2號","121.549816666667","25.2748616666667","6502200","石門區"
"222001","KEA-2212","2018/01/18 17:58:57","新北市深坑區北深路二段220號","121.612378333333","25.0012566666667","6501800","深坑區"
"208002","742-BX","2018/01/18 17:59:29","新北市金山區三界壇路93-1號","121.624413333333","25.2288066666667","6502700","金山區"
"208003","665-BX","2018/01/18 17:59:40","新北市金山區磺港里磺港路193號","121.645388333333","25.2275","6502700","金山區"
"208001","761-BX","2018/01/18 17:59:29","新北市金山區磺港里青年路1號","121.639673333333","25.2256616666667","6502700","金山區"
"251009","008-UM","2018/01/18 17:59:23","新北市淡水區大仁街6巷1號","121.442415","25.1746516666667","6501000","淡水區"
"251004","009-UM","2018/01/18 17:59:36","新北市淡水區民權路185-10號","121.4593","25.1335066666667","6501000","淡水區"
"251005","010-UM","2018/01/18 17:59:36","新北市淡水區英專路122巷1號","121.44666","25.1727683333333","6501000","淡水區"
"251013","179-VK","2018/01/18 17:59:34","新北市淡水區泉洲厝31號","121.479605","25.191055","6501000","淡水區"
"251014","180-VK","2018/01/18 17:59:31","新北市淡水區公埔子16-6號","121.481021666667","25.224585","6501000","淡水區"
"251008","181-VK","2018/01/18 17:59:35","新北市淡水區八勢一街43-8號","121.461928333333","25.1557433333333","6501000","淡水區"
"251015","182-VK","2018/01/18 17:59:33","新北市淡水區興福寮32-1號","121.490846666667","25.16362","6501000","淡水區"
"251010","413-VK","2018/01/18 17:59:31","新北市淡水區中正路一段132巷16號","121.422715","25.179785","6501000","淡水區"
"251012","441-VK","2018/01/18 17:59:28","新北市淡水區北新路三段38巷7號","121.484563333333","25.1870216666667","6501000","淡水區"
"251016","442-VK","2018/01/18 17:59:30","新北市淡水區埤島30-14號","121.448226666667","25.1980766666667","6501000","淡水區"
"251001","559-UM","2018/01/18 17:59:25","新北市淡水區民權路94巷1號","121.46319","25.1249066666667","6501000","淡水區"
"251006","561-UM","2018/01/18 17:59:33","新北市淡水區真理街1-1號","121.438121666667","25.1730466666667","6501000","淡水區"
"251007","577-R6","2018/01/18 17:59:37","新北市淡水區淡金路16巷49號","121.458555","25.160695","6501000","淡水區"
"251011","650-BX","2018/01/18 17:59:40","新北市淡水區三空泉8-1號","121.47605","25.1625783333333","6501000","淡水區"
"251002","672-BX","2018/01/18 17:59:28","新北市淡水區鼻頭街18-1號","121.446875","25.1667216666667","6501000","淡水區"
"251003","673-BX","2018/01/18 17:59:35","新北市淡水區大忠街113巷10號","121.44697","25.1775916666667","6501000","淡水區"
"207003","550-UM","2018/01/18 17:59:27","新北市萬里區港東路野柳風景區攤販66號","121.691326666667","25.2058483333333","6502800","萬里區"
"207004","225-TW","2018/01/18 17:59:26","新北市萬里區中幅里中福路48號","121.683253333333","25.17406","6502800","萬里區"
"252002","178-VK","2018/01/18 17:59:27","新北市三芝區中山路二段49號","121.502991666667","25.25464","6502100","三芝區"
"252001","292-VK","2018/01/18 17:59:38","新北市三芝區中興街一段42-1號","121.498216666667","25.2571083333333","6502100","三芝區"
"237004","078-UY","2018/01/18 17:59:34","新北市三峽區中園街227號","121.366913333333","24.9198433333333","6500900","三峽區"
"237007","153-BY","2018/01/18 17:59:32","新北市三峽區中園街205號","121.367045","24.920865","6500900","三峽區"
"237009","210-TH","2018/01/18 17:59:38","新北市三峽區文化路260號","121.366958333333","24.93577","6500900","三峽區"
"237013","252-BX","2018/01/18 17:59:23","新北市三峽區介壽路一段135號","121.376283333333","24.9316966666667","6500900","三峽區"
"237012","275-BY","2018/01/18 17:59:36","新北市三峽區民生街19巷3-1號","121.376275","24.9361566666667","6500900","三峽區"
"237008","302-VK","2018/01/18 17:59:38","新北市三峽區白雞14號","121.368156666667","24.9129483333333","6500900","三峽區"
"237014","433-BY","2018/01/18 17:59:25","新北市三峽區和平街36巷7弄9號","121.370848333333","24.9376333333333","6500900","三峽區"
"237006","5529-G3","2018/01/18 17:59:31","新北市三峽區介壽路二段138巷1弄45-5號","121.398173333333","24.9325916666667","6500900","三峽區"
"237016","649-BX","2018/01/18 17:57:37","新北市三峽區白雞153號","121.400563333333","24.9053516666667","6500900","三峽區"
"237010","706-TV","2018/01/18 17:59:19","新北市三峽區民權街132號","121.368543333333","24.9319833333333","6500900","三峽區"
"237005","AKY-6261","2018/01/18 17:59:25","新北市三峽區復興路237巷38號","121.369108333333","24.9378483333333","6500900","三峽區"
"236071","105-UM","2018/01/18 17:59:19","新北市土城區青雲路665-2號","121.466555","24.9645283333333","6501300","土城區"
"236042","107-UM","2018/01/18 17:59:20","新北市土城區城林路6巷80號","121.438635","24.97969","6501300","土城區"
"236030","253-BX","2018/01/18 17:59:33","新北市土城區城林路6巷80號","121.438408333333","24.9797783333333","6501300","土城區"
"236026","269-VK","2018/01/18 17:59:23","新北市土城區承天路67號","121.439463333333","24.9636783333333","6501300","土城區"
"236014","270-VK","2018/01/18 17:59:29","新北市土城區城林路6巷80號","121.43856","24.979605","6501300","土城區"
"236037","271-VK","2018/01/18 17:59:21","新北市土城區城林路6巷80號","121.438476666667","24.979805","6501300","土城區"
"236021","401-BY","2018/01/18 17:59:30","新北市土城區城林路6巷80號","121.438721666667","24.9797","6501300","土城區"
"236078","752-BX","2018/01/18 17:59:32","新北市土城區永寧路32巷8號","121.429015","24.96079","6501300","土城區"
"236058","912-UM","2018/01/18 17:59:34","新北市土城區中央路三段140號","121.43324","24.96558","6501300","土城區"
"236051","913-UM","2018/01/18 17:59:35","新北市土城區城林路6巷80號","121.438505","24.97958","6501300","土城區"
"236062","915-UM","2018/01/18 17:59:31","新北市土城區中央路二段280號","121.440903333333","24.974075","6501300","土城區"
"236053","AAC-216","2018/01/18 17:59:37","新北市土城區中央路二段280號","121.440805","24.9741483333333","6501300","土城區"
"242031","AAC-296","2018/01/18 17:59:18","新北市新莊區新泰路305巷8號","121.444806666667","25.041","6500500","新莊區"
"242029","986-R7","2018/01/18 17:59:37","新北市新莊區新泰路312號","121.445315","25.0413366666667","6500500","新莊區"
"242051","751-BX","2018/01/18 17:59:28","新北市新莊區龍安路498號","121.426586666667","25.0171433333333","6500500","新莊區"
"242025","615-BX","2018/01/18 17:59:28","新北市新莊區五工路58號","121.458748333333","25.0629083333333","6500500","新莊區"
"242023","613-BX","2018/01/18 17:59:31","新北市新莊區福壽街65號","121.458238333333","25.0492816666667","6500500","新莊區"
"242027","612-BX","2018/01/18 17:59:35","新北市新莊區幸福路19號","121.459105","25.0494016666667","6500500","新莊區"
"242039","566-BX","2018/01/18 17:59:22","新北市新莊區民安西路26號","121.426745","25.021325","6500500","新莊區"
"242044","442-UM","2018/01/18 17:59:25","新北市新莊區雙鳳路135號","121.412945","25.0274216666667","6500500","新莊區"
"242048","441-UM","2018/01/18 17:59:29","新北市新莊區萬安街24號","121.421453333333","25.0245483333333","6500500","新莊區"
"242053","440-UM","2018/01/18 17:59:38","新北市新莊區光華街4號","121.428706666667","25.01061","6500500","新莊區"
"242034","415-TV","2018/01/18 17:59:26","新北市新莊區福海街31巷2號","121.445186666667","25.033955","6500500","新莊區"
"242004","413-TV","2018/01/18 17:59:26","新北市新莊區福樂街76號","121.457805","25.0466383333333","6500500","新莊區"
"242042","400-BY","2018/01/18 17:59:34","新北市新莊區壽山路31號","121.420016666667","25.0286866666667","6500500","新莊區"
"242061","362-BY","2018/01/18 17:59:37","新北市新莊區新樹路359-1號","121.43296","25.0182316666667","6500500","新莊區"
"242058","353-BY","2018/01/18 17:59:35","新北市新莊區雙鳳路134巷5號","121.412698333333","25.028065","6500500","新莊區"
"242007","132-UY","2018/01/18 17:59:24","新北市新莊區自信街65巷14號","121.455486666667","25.04873","6500500","新莊區"
"242036","133-UY","2018/01/18 17:59:41","新北市新莊區中正路681號","121.42611","25.0299916666667","6500500","新莊區"
"242021","135-UY","2018/01/18 17:59:38","新北市新莊區中正路150號","121.451656666667","25.03601","6500500","新莊區"
"242046","172-VK","2018/01/18 17:59:18","新北市新莊區福營路183號","121.431381666667","25.0308183333333","6500500","新莊區"
"242009","173-VK","2018/01/18 17:59:32","新北市新莊區中華路二段260號","121.452605","25.0531616666667","6500500","新莊區"
"242015","175-VK","2018/01/18 17:59:25","新北市新莊區中平路87巷8號","121.444341666667","25.0458366666667","6500500","新莊區"
"242013","346-TH","2018/01/18 17:59:23","新北市新莊區中和街67號","121.447481666667","25.0473233333333","6500500","新莊區"
"242019","348-TH","2018/01/18 17:59:36","新北市新莊區明中街47巷15號","121.456858333333","25.0387333333333","6500500","新莊區"
"242056","349-TH","2018/01/18 17:59:34","新北市新莊區豐年街57-1號","121.446548333333","25.02986","6500500","新莊區"
"242017","350-TH","2018/01/18 17:59:31","新北市新莊區中和街60巷31號","121.449293333333","25.0449316666667","6500500","新莊區"
"242011","351-TH","2018/01/18 17:59:34","新北市新莊區中港路中慶巷33號","121.449603333333","25.05377","6500500","新莊區"
"238015","755-BX","2018/01/18 17:59:37","新北市樹林區啟智街79巷2號","121.419793333333","24.9917966666667","6500700","樹林區"
"238023","601-UM","2018/01/18 17:59:33","新北市樹林區龍興街29號","121.402998333333","25.015925","6500700","樹林區"
"238019","599-UM","2018/01/18 17:59:35","新北市樹林區水源街96號","121.425728333333","24.9802","6500700","樹林區"
"238018","571-TV","2018/01/18 17:59:38","新北市樹林區中正路7-1號","121.430273333333","24.9975516666667","6500700","樹林區"
"238021","KEA-2217","2018/01/18 17:59:20","新北市樹林區田尾街48號","121.409218333333","24.9621233333333","6500700","樹林區"
"238022","KEA-2213","2018/01/18 17:59:35","新北市樹林區太順街47-1號","121.41795","24.97921","6500700","樹林區"
"238025","303-VK","2018/01/18 17:59:18","新北市樹林區三俊街100號","121.41453","25.0155783333333","6500700","樹林區"
"238017","283-BY","2018/01/18 17:59:35","新北市樹林區三俊街2號","121.41083","25.0151733333333","6500700","樹林區"
"238014","282-BY","2018/01/18 17:59:35","新北市樹林區大安路145巷31號","121.423403333333","24.9964283333333","6500700","樹林區"
"238020","268-VK","2018/01/18 17:59:08","新北市樹林區三俊街199巷20弄1-1號","121.420596666667","25.01776","6500700","樹林區"
"238026","172-UY","2018/01/18 17:59:23","新北市樹林區育德街35號","121.391871666667","24.9703133333333","6500700","樹林區"
"238016","169-UY","2018/01/18 17:59:30","新北市樹林區啟智街137巷9弄2號","121.417586666667","24.9880316666667","6500700","樹林區"
"239007","AAC-297","2018/01/18 17:59:35","新北市鶯歌區鶯桃路94巷33-11號","121.342261666667","24.954235","6500800","鶯歌區"
"239006","891-R6","2018/01/18 17:59:24","新北市鶯歌區鶯桃路413巷39號","121.330423333333","24.9632816666667","6500800","鶯歌區"
"239008","527-UM","2018/01/18 17:59:26","新北市鶯歌區國際一路108巷2號","121.335116666667","24.9772783333333","6500800","鶯歌區"
"239005","526-UM","2018/01/18 17:59:26","新北市鶯歌區大湖路361巷81-1號","121.333085","24.9739683333333","6500800","鶯歌區"
"239001","417-VK","2018/01/18 17:59:37","新北市鶯歌區中正三路181號","121.335965","24.93966","6500800","鶯歌區"
"239003","360-BY","2018/01/18 17:59:25","新北市鶯歌區永吉街9巷1號","121.336528333333","24.9583616666667","6500800","鶯歌區"
"239002","359-BY","2018/01/18 17:59:30","新北市鶯歌區光明街15巷5號","121.349031666667","24.9555533333333","6500800","鶯歌區"
"221036","130-UY","2018/01/18 17:59:27","新北市汐止區大同路三段34號","121.667068333333","25.0765833333333","6501100","汐止區"
"221010","269-BY","2018/01/18 17:59:25","新北市汐止區汐萬路二段247號","121.646445","25.0882483333333","6501100","汐止區"
"221012","278-VK","2018/01/18 17:59:38","新北市汐止區長興街二段28號","121.67309","25.0813633333333","6501100","汐止區"
"221023","279-VK","2018/01/18 17:59:27","新北市汐止區明峰街143號","121.629596666667","25.0706116666667","6501100","汐止區"
"221032","280-BY","2018/01/18 17:59:36","新北市汐止區橫科路73巷22-2號","121.619333333333","25.0515566666667","6501100","汐止區"
"221027","281-BY","2018/01/18 17:59:21","新北市汐止區大同路二段387號","121.657675","25.06725","6501100","汐止區"
"221029","298-VK","2018/01/18 17:59:31","新北市汐止區樟樹二路328號","121.641421666667","25.0703233333333","6501100","汐止區"
"221021","299-VK","2018/01/18 17:59:32","新北市汐止區新興路16號","121.656401666667","25.06467","6501100","汐止區"
"221031","353-TW","2018/01/18 17:59:21","新北市汐止區中興路85號","121.632548333333","25.0644416666667","6501100","汐止區"
"221008","358-BY","2018/01/18 17:59:28","新北市汐止區明峰街19號","121.634591666667","25.0714133333333","6501100","汐止區"
"221015","567-BX","2018/01/18 17:59:37","新北市汐止區長江街286-3號","121.665205","25.0810216666667","6501100","汐止區"
"221035","622-UM","2018/01/18 17:59:35","新北市汐止區新江北路30巷22弄5號","121.651666666667","25.069845","6501100","汐止區"
"221025","623-UM","2018/01/18 17:59:24","新北市汐止區仁愛路41號","121.659515","25.0633783333333","6501100","汐止區"
"221038","646-BX","2018/01/18 17:59:27","新北市汐止區連興街128巷7弄2號","121.653345","25.0615266666667","6501100","汐止區"
"221033","647-BX","2018/01/18 17:59:23","新北市汐止區合順街39巷1號","121.62069","25.0433","6501100","汐止區"
"221002","707-TV","2018/01/18 17:59:29","新北市汐止區工建路202號","121.636871666667","25.0626516666667","6501100","汐止區"
"221018","753-BX","2018/01/18 17:59:29","新北市汐止區招商街11巷4號","121.666705","25.06865","6501100","汐止區"
