"lineid","car","time","location","longitude","latitude","cityid","cityname"
"234042","149-BY","2018/01/18 18:29:22","新北市永和區福和路1號","121.525043333333","25.0090316666667","6500400","永和區"
"234007","207-UY","2018/01/18 18:29:17","新北市永和區環河西路二段179號","121.504296666667","25.01284","6500400","永和區"
"234081","298-R6","2018/01/18 18:29:16","新北市永和區林森路20巷2號","121.526218333333","25.0055033333333","6500400","永和區"
"234086","338-UY","2018/01/18 18:29:20","新北市永和區福和路1號","121.526523333333","25.0096566666667","6500400","永和區"
"234013","KEA-2591","2018/01/18 18:29:21","新北市永和區竹林路39巷3號","121.518115","25.0144083333333","6500400","永和區"
"234050","863-TW","2018/01/18 18:29:17","新北市永和區福和路1號","121.526503333333","25.0098183333333","6500400","永和區"
"234026","9371-KE","2018/01/18 18:29:14","新北市永和區永貞路417巷28號","121.505763333333","25.009025","6500400","永和區"
"234011","9373-KE","2018/01/18 18:29:27","新北市永和區保福路二段158巷1號","121.509063333333","25.0150516666667","6500400","永和區"
"249005","172-UM","2018/01/18 18:29:17","新北市八里區中華路三段145巷5號","121.391921666667","25.1340966666667","6502300","八里區"
"249001","173-UM","2018/01/18 18:29:27","新北市八里區龍米路一段92號","121.453976666667","25.123875","6502300","八里區"
"249004","303-UY","2018/01/18 18:29:30","新北市八里區忠孝路56號","121.426401666667","25.1603616666667","6502300","八里區"
"249002","305-UY","2018/01/18 18:29:15","新北市八里區龍形三街15巷2號","121.44962","25.1315683333333","6502300","八里區"
"248014","025-BX","2018/01/18 18:29:20","新北市五股區自強路143號","121.432015","25.0694216666667","6501500","五股區"
"248006","077-UY","2018/01/18 18:29:30","新北市五股區四維路4號","121.467148333333","25.0711316666667","6501500","五股區"
"248008","095-VK","2018/01/18 18:29:11","新北市五股區四維路185巷52號","121.46319","25.0777016666667","6501500","五股區"
"248020","225-UY","2018/01/18 18:29:22","新北市五股區孝義路55巷1號","121.452503333333","25.1120683333333","6501500","五股區"
"248012","247-BX","2018/01/18 18:29:09","新北市五股區御成路142號","121.440946666667","25.0943583333333","6501500","五股區"
"248014","261-SL","2018/01/18 18:29:20","新北市五股區凌雲路一段83巷13弄2號","121.44922","25.101025","6501500","五股區"
"248010","272-BY","2018/01/18 18:29:27","新北市五股區明德路8號","121.433345","25.071695","6501500","五股區"
"248004","677-BX","2018/01/18 18:29:22","新北市五股區工商路130號","121.436076666667","25.0859983333333","6501500","五股區"
"248002","678-BX","2018/01/18 18:29:29","新北市五股區西雲路163號","121.446133333333","25.094495","6501500","五股區"
"234077","969-R7","2018/01/18 18:29:15","新北市永和區福和路1號","121.526633333333","25.0098383333333","6500400","永和區"
"232011","375-UM","2018/01/18 18:20:25","新北市坪林區坪雙路一段43號","121.711696666667","24.9424683333333","6502000","坪林區"
"244013","069-UM","2018/01/18 18:29:28","新北市林口區中山路206號","121.386976666667","25.079315","6501700","林口區"
"244007","080-UY","2018/01/18 18:29:23","新北市林口區後湖18-3號","121.387425","25.0977816666667","6501700","林口區"
"244019","402-UM","2018/01/18 18:29:21","新北市林口區忠孝路616巷25號","121.377348333333","25.0673233333333","6501700","林口區"
"244009","410-SL","2018/01/18 18:29:32","新北市林口區文林一街11巷14號","121.376561666667","25.0862033333333","6501700","林口區"
"244023","483-VK","2018/01/18 18:29:15","新北市林口區仁愛路二段50號","121.384831666667","25.07579","6501700","林口區"
"244017","485-VK","2018/01/18 18:29:23","新北市林口區八德路86-1號","121.364695","25.0656033333333","6501700","林口區"
"244011","656-BX","2018/01/18 18:29:21","新北市林口區中原街10號","121.39279","25.0776733333333","6501700","林口區"
"244025","837-TS","2018/01/18 18:29:24","新北市林口區源泉街68號","121.356871666667","25.0729983333333","6501700","林口區"
"244021","838-TS","2018/01/18 18:29:09","新北市林口區自強二街54號","121.399316666667","25.0769533333333","6501700","林口區"
"243012","AAD-798","2018/01/18 18:29:25","新北市泰山區忠孝街19巷1弄2號","121.4275","25.065715","6501600","泰山區"
"243013","646-TV","2018/01/18 18:29:20","新北市泰山區錢厝坑13號","121.416533333333","25.0364916666667","6501600","泰山區"
"222003","436-BY","2018/01/18 18:29:25","新北市深坑區文山路一段28-1號","121.63082","25.0053766666667","6501800","深坑區"
"222002","659-BX","2018/01/18 18:29:19","新北市深坑區雲鄉路111號","121.623421666667","24.9982966666667","6501800","深坑區"
"231041","002-UM","2018/01/18 18:29:21","新北市新店區安華路28-1號","121.519568333333","24.96092","6500600","新店區"
"231066","0293-UT","2018/01/18 18:29:11","新北市新店區安華路28-1號","121.519605","24.9605066666667","6500600","新店區"
"231059","046-UY","2018/01/18 18:29:26","新北市新店區安華路28-1號","121.519501666667","24.9608116666667","6500600","新店區"
"231061","047-UY","2018/01/18 18:29:19","新北市新店區安華路28-1號","121.519268333333","24.9609466666667","6500600","新店區"
"231060","106-UY","2018/01/18 18:29:28","新北市新店區安華路28-1號","121.519641666667","24.9607466666667","6500600","新店區"
"231051","107-UY","2018/01/18 18:29:27","新北市新店區安華路28-1號","121.519465","24.961385","6500600","新店區"
"231047","108-UY","2018/01/18 18:29:17","新北市新店區安華路28-1號","121.519483333333","24.9612066666667","6500600","新店區"
"231052","187-VK","2018/01/18 18:29:20","新北市新店區新烏路一段21號","121.546085","24.9503516666667","6500600","新店區"
"231050","KEA-2219","2018/01/18 18:29:29","新北市新店區安華路28-1號","121.519748333333","24.9612133333333","6500600","新店區"
"231057","256-BX","2018/01/18 18:29:23","新北市新店區環河路29巷1號","121.53717","24.9613466666667","6500600","新店區"
"231046","278-BY","2018/01/18 18:29:23","新北市新店區直潭七街60號","121.532271666667","24.9398466666667","6500600","新店區"
"231054","AAD-862","2018/01/18 18:29:32","新北市新店區安華路30巷1號","121.519456666667","24.959665","6500600","新店區"
"231058","3712-VJ","2018/01/18 18:29:21","新北市新店區新店後街1號","121.537855","24.9533333333333","6500600","新店區"
"231056","3713-VJ","2018/01/18 18:29:28","新北市新店區二十張路105巷14號","121.536848333333","24.9792433333333","6500600","新店區"
"231055","4716-K9","2018/01/18 18:29:27","新北市新店區中正路128巷15號","121.542546666667","24.9723433333333","6500600","新店區"
"231067","4772-VM","2018/01/18 18:29:22","新北市新店區安華路28-1號","121.519306666667","24.9606833333333","6500600","新店區"
"231065","512-UM","2018/01/18 18:29:23","新北市新店區安華路28-1號","121.519305","24.961155","6500600","新店區"
"231064","515-UM","2018/01/18 18:29:13","新北市新店區安華路28-1號","121.51975","24.961135","6500600","新店區"
"231040","619-UM","2018/01/18 18:29:17","新北市新店區安華路28-1號","121.51956","24.9608566666667","6500600","新店區"
"231042","641-BX","2018/01/18 18:29:24","新北市新店區安華路1-1號","121.519596666667","24.9604483333333","6500600","新店區"
"231063","645-TV","2018/01/18 18:29:20","新北市新店區安華路28-1號","121.519333333333","24.9606433333333","6500600","新店區"
"231049","719-UM","2018/01/18 18:29:17","新北市新店區安華路28-1號","121.519568333333","24.9612483333333","6500600","新店區"
"231062","720-UM","2018/01/18 18:29:31","新北市新店區安康路一段355-3號","121.519395","24.9615383333333","6500600","新店區"
"231044","897-TW","2018/01/18 18:29:25","新北市新店區安華路28-1號","121.519555","24.9608333333333","6500600","新店區"
"231045","898-TW","2018/01/18 18:21:29","新北市新店區安華路28-1號","121.519361666667","24.961025","6500600","新店區"
"231043","899-TW","2018/01/18 18:29:16","新北市新店區安華路28-1號","121.519163333333","24.9609266666667","6500600","新店區"
"241033","557-UM","2018/01/18 18:29:18","新北市五股區成泰路三段544-1號","121.453656666667","25.1015233333333","6500200","三重區"
"235066","003-UY","2018/01/18 18:29:21","新北市中和區中山路二段113號","121.503071666667","25.0037116666667","6500300","中和區"
"235064","005-UY","2018/01/18 18:29:18","新北市中和區連勝街66號","121.497025","24.9969316666667","6500300","中和區"
"235063","006-UY","2018/01/18 18:29:13","新北市中和區連城路347巷16弄8-3號","121.487941666667","24.995075","6500300","中和區"
"235056","096-UM","2018/01/18 18:29:24","新北市中和區員山路611巷1號","121.477891666667","25.01128","6500300","中和區"
"235039","097-UM","2018/01/18 18:29:10","新北市中和區安平路147號","121.51207","24.9980316666667","6500300","中和區"
"235065","098-UM","2018/01/18 18:29:30","新北市中和區莊敬路49巷18號","121.50155","25.00599","6500300","中和區"
"235040","150-BY","2018/01/18 18:29:29","新北市中和區安平路38號","121.509796666667","24.9949783333333","6500300","中和區"
"235058","151-BY","2018/01/18 18:29:27","新北市中和區圓通路369巷30弄100號","121.488235","24.984585","6500300","中和區"
"235055","183-VK","2018/01/18 18:29:14","新北市中和區莒光路163號","121.472805","25.000215","6500300","中和區"
"235038","185-VK","2018/01/18 18:29:23","新北市中和區自強路6-1號","121.519966666667","24.9960583333333","6500300","中和區"
"235049","186-VK","2018/01/18 18:29:29","新北市中和區景安路128號","121.505228333333","24.99464","6500300","中和區"
"235067","255-BX","2018/01/18 18:29:14","新北市中和區連城路469巷23號","121.483586666667","24.995085","6500300","中和區"
"235044","293-VK","2018/01/18 18:29:26","新北市中和區復興路301巷27號","121.502055","24.9897166666667","6500300","中和區"
"235072","301-VK","2018/01/18 18:29:16","新北市中和區連城路169號","121.495541666667","24.9983783333333","6500300","中和區"
"235043","352-BY","2018/01/18 18:29:12","新北市中和區景平路291號","121.507155","24.9929783333333","6500300","中和區"
"235068","377-QA","2018/01/18 18:29:21","新北市中和區圓通路230號","121.495141666667","24.992865","6500300","中和區"
"235050","4979-A6","2018/01/18 18:29:14","新北市中和區景新街410巷18弄20號","121.511858333333","24.9898416666667","6500300","中和區"
"235069","4980-A6","2018/01/18 18:29:29","新北市中和區連城路125號","121.49612","24.9992266666667","6500300","中和區"
"235042","551-UM","2018/01/18 18:29:11","新北市中和區景平路40號","121.522926666667","24.9906366666667","6500300","中和區"
"235070","558-UM","2018/01/18 18:26:15","新北市中和區圓通路122號","121.498781666667","24.995845","6500300","中和區"
"235045","565-BX","2018/01/18 18:29:14","新北市中和區南山路236巷22弄18號","121.505058333333","24.989305","6500300","中和區"
"235054","640-BX","2018/01/18 18:29:16","新北市中和區民享街91號","121.474271666667","25.0014966666667","6500300","中和區"
"235060","647-TV","2018/01/18 18:29:29","新北市中和區員山路429號","121.480848333333","25.003565","6500300","中和區"
"235047","732-UM","2018/01/18 18:29:25","新北市中和區南山路507號","121.508018333333","24.98762","6500300","中和區"
"235046","733-UM","2018/01/18 18:29:12","新北市中和區板南路413號","121.492513333333","25.00021","6500300","中和區"
"235062","800-TS","2018/01/18 18:29:26","新北市中和區景平路728號","121.496608333333","25.00371","6500300","中和區"
"235057","801-TS","2018/01/18 18:29:20","新北市中和區民享街97巷21號","121.475361666667","24.9995333333333","6500300","中和區"
"235041","802-TS","2018/01/18 18:29:28","新北市中和區景安路38號","121.507066666667","24.9982616666667","6500300","中和區"
"235052","805-TS","2018/01/18 18:29:17","新北市中和區興南路二段96號","121.505228333333","24.9842166666667","6500300","中和區"
"235048","896-TW","2018/01/18 18:29:21","新北市中和區中正路79號","121.500793333333","24.9934516666667","6500300","中和區"
"235053","900-TW","2018/01/18 18:29:26","新北市中和區莒光路211-39號","121.470338333333","24.99316","6500300","中和區"
"235051","157-BY","2018/01/18 18:29:25","新北市中和區興南路二段242巷18號","121.502326666667","24.9831866666667","6500300","中和區"
"235037","AAC-213","2018/01/18 18:29:11","新北市中和區景新街383巷50號","121.514483333333","24.990845","6500300","中和區"
"220065","072-UY","2018/01/18 18:29:30","新北市板橋區稚暉街1號","121.45603","25.0047133333333","6500100","板橋區"
"226004","312-R5","2018/01/18 18:29:20","新北市平溪區靜安路二段332號","121.736963333333","25.0242483333333","6502400","平溪區"
"228003","097-TW","2018/01/18 18:29:11","新北市貢寮區和美里和美街44-2號","121.916128333333","25.09494","6502600","貢寮區"
"228001","212-TW","2018/01/18 18:29:21","新北市貢寮區仁理村仁和路90號","121.922831666667","25.0504016666667","6502600","貢寮區"
"228002","663-BX","2018/01/18 18:29:18","新北市貢寮區福連里福連街37號","121.988705","25.01085","6502600","貢寮區"
"224006","676-BX","2018/01/18 18:29:28","新北市瑞芳區逢甲路1號","121.810278333333","25.1082766666667","6501200","瑞芳區"
"224002","639-TC","2018/01/18 18:29:22","新北市瑞芳區三爪子坑路29巷65號","121.813968333333","25.1061183333333","6501200","瑞芳區"
"224009","285-BY","2018/01/18 18:29:20","新北市瑞芳區祈堂路184號","121.857713333333","25.1094983333333","6501200","瑞芳區"
"224008","275-VK","2018/01/18 18:29:25","新北市瑞芳區逢甲路238號","121.805996666667","25.1102","6501200","瑞芳區"
"224007","273-VK","2018/01/18 18:29:25","新北市瑞芳區大埔路吉慶公園城33號","121.76451","25.099655","6501200","瑞芳區"
"224005","271-BY","2018/01/18 18:29:21","新北市瑞芳區台電新村26-1號","121.81371","25.129015","6501200","瑞芳區"
"227010","642-TC","2018/01/18 18:29:31","新北市雙溪區牡丹里牡丹127號","121.850871666667","25.059545","6502500","雙溪區"
"227004","400-TW","2018/01/18 18:29:13","新北市雙溪區魚行里坤溪21號","121.87033","25.0287583333333","6502500","雙溪區"
"253005","032-BX","2018/01/18 18:29:08","新北市石門區老崩山11-1號","121.552375","25.2908433333333","6502200","石門區"
"253006","295-VK","2018/01/18 18:29:19","新北市石門區公地16號","121.545708333333","25.2902666666667","6502200","石門區"
"222001","KEA-2212","2018/01/18 18:29:17","新北市深坑區北深路一段201巷1號","121.630383333333","25.008885","6501800","深坑區"
"208002","742-BX","2018/01/18 18:29:28","新北市金山區民生路45號","121.642053333333","25.2210233333333","6502700","金山區"
"208003","665-BX","2018/01/18 18:29:28","新北市金山區中山路205號","121.637875","25.2213783333333","6502700","金山區"
"208001","761-BX","2018/01/18 18:29:29","新北市金山區文化二路4號","121.63684","25.2246066666667","6502700","金山區"
"251004","009-UM","2018/01/18 18:29:17","新北市淡水區民族路31-28號","121.461995","25.1363183333333","6501000","淡水區"
"251005","010-UM","2018/01/18 18:29:24","新北市淡水區中正東路37號","121.446063333333","25.1682383333333","6501000","淡水區"
"251013","179-VK","2018/01/18 18:29:14","新北市淡水區椿子林19-1號","121.480521666667","25.20397","6501000","淡水區"
"251014","180-VK","2018/01/18 18:29:11","新北市淡水區南平20-1號","121.493766666667","25.2169183333333","6501000","淡水區"
"251008","181-VK","2018/01/18 18:29:15","新北市淡水區水源街二段346巷1弄1號","121.464343333333","25.1755216666667","6501000","淡水區"
"251015","182-VK","2018/01/18 18:29:13","新北市淡水區興福寮88巷216號","121.486015","25.1665866666667","6501000","淡水區"
"251010","413-VK","2018/01/18 18:29:31","新北市淡水區沙崙路181巷1號","121.424143333333","25.1842266666667","6501000","淡水區"
"251012","441-VK","2018/01/18 18:29:28","新北市淡水區北新路一段157號","121.458686666667","25.1822966666667","6501000","淡水區"
"251016","442-VK","2018/01/18 18:29:10","新北市淡水區下圭柔山114-10號","121.445516666667","25.2097833333333","6501000","淡水區"
"251001","559-UM","2018/01/18 18:29:25","新北市淡水區自強路122巷1號","121.46436","25.13311","6501000","淡水區"
"251006","561-UM","2018/01/18 18:29:13","新北市淡水區新生街51巷26號","121.440696666667","25.1756566666667","6501000","淡水區"
"251011","650-BX","2018/01/18 18:29:19","新北市淡水區中正東路8-2號","121.447855","25.1667983333333","6501000","淡水區"
"251002","672-BX","2018/01/18 18:29:28","新北市淡水區竿蓁二街19巷7弄2號","121.453043333333","25.1635783333333","6501000","淡水區"
"251003","673-BX","2018/01/18 18:29:15","新北市淡水區北新路69巷26號","121.44671","25.1800883333333","6501000","淡水區"
"207003","550-UM","2018/01/18 18:29:27","新北市萬里區野柳里港東路343號","121.688985","25.20388","6502800","萬里區"
"207004","225-TW","2018/01/18 18:29:26","新北市萬里區萬里里瑪鋉路272-1號","121.688856666667","25.18083","6502800","萬里區"
"252002","178-VK","2018/01/18 18:29:27","新北市三芝區中山路二段33號","121.502843333333","25.2552183333333","6502100","三芝區"
"252003","249-BX","2018/01/18 18:29:17","新北市三芝區後厝里北勢子41-5號","121.472515","25.253095","6502100","三芝區"
"252001","292-VK","2018/01/18 18:29:18","新北市三芝區中興街二段2號","121.498333333333","25.2566483333333","6502100","三芝區"
"237004","078-UY","2018/01/18 18:29:14","新北市三峽區五寮15號","121.359783333333","24.8591933333333","6500900","三峽區"
"237007","153-BY","2018/01/18 18:29:12","新北市三峽區中正路三段72號","121.356503333333","24.903955","6500900","三峽區"
"237009","210-TH","2018/01/18 18:29:18","新北市三峽區民族街180號","121.368426666667","24.9280016666667","6500900","三峽區"
"237013","252-BX","2018/01/18 18:29:23","新北市三峽區永安街9巷3-4號","121.377141666667","24.92978","6500900","三峽區"
"237012","275-BY","2018/01/18 18:29:16","新北市三峽區三樹路110號","121.378313333333","24.939235","6500900","三峽區"
"237008","302-VK","2018/01/18 18:29:18","新北市三峽區白雞68-293號","121.392078333333","24.9070466666667","6500900","三峽區"
"237014","433-BY","2018/01/18 18:29:25","新北市三峽區文化路39號","121.372691666667","24.9360916666667","6500900","三峽區"
"237006","5529-G3","2018/01/18 18:29:11","新北市三峽區溪東路441號","121.412773333333","24.9283766666667","6500900","三峽區"
"237016","649-BX","2018/01/18 18:29:17","新北市三峽區竹崙路10號","121.426695","24.92283","6500900","三峽區"
"237010","706-TV","2018/01/18 18:29:19","新北市三峽區復興路489號","121.361216666667","24.9384283333333","6500900","三峽區"
"237005","AKY-6261","2018/01/18 18:29:25","新北市三峽區民權街134號","121.368755","24.931925","6500900","三峽區"
"236071","105-UM","2018/01/18 18:29:20","新北市土城區永豐路255巷23弄2號","121.475283333333","24.9732266666667","6501300","土城區"
"236042","107-UM","2018/01/18 18:29:20","新北市土城區學成路99巷11號","121.449956666667","24.98834","6501300","土城區"
"236030","253-BX","2018/01/18 18:29:16","新北市土城區水源街81巷7號","121.439386666667","24.9758366666667","6501300","土城區"
"236026","269-VK","2018/01/18 18:29:23","新北市土城區南天母路137-2號","121.447721666667","24.9541033333333","6501300","土城區"
"236014","270-VK","2018/01/18 18:29:29","新北市土城區青雲路39巷7號","121.460286666667","24.987425","6501300","土城區"
"236037","271-VK","2018/01/18 18:29:20","新北市土城區青雲路453號","121.458856666667","24.9746416666667","6501300","土城區"
"236021","401-BY","2018/01/18 18:29:30","新北市土城區永豐路202巷5-2號","121.466333333333","24.9832966666667","6501300","土城區"
"236078","752-BX","2018/01/18 18:29:03","新北市土城區中央路四段27巷3號","121.424551666667","24.962195","6501300","土城區"
"236058","912-UM","2018/01/18 18:29:14","新北市土城區中央路四段466號","121.409946666667","24.950635","6501300","土城區"
"236051","913-UM","2018/01/18 18:29:15","新北市土城區青雲路424號","121.458863333333","24.972325","6501300","土城區"
"236062","915-UM","2018/01/18 18:29:11","新北市土城區延壽路77巷6弄12號","121.4684","24.9930533333333","6501300","土城區"
"236053","AAC-216","2018/01/18 18:29:15","新北市土城區中華路二段1號","121.439691666667","24.9791783333333","6501300","土城區"
"242031","AAC-296","2018/01/18 18:29:18","新北市新莊區新泰路277巷9號","121.44533","25.0402783333333","6500500","新莊區"
"242029","986-R7","2018/01/18 18:29:16","新北市泰山區泰林路一段2號","121.442053333333","25.0478916666667","6500500","新莊區"
"242053","440-UM","2018/01/18 18:29:18","新北市新莊區樹新路120巷40號","121.430026666667","24.9960066666667","6500500","新莊區"
"242004","413-TV","2018/01/18 18:27:00","新北市新莊區新泰路357巷3弄57號","121.442211666667","25.0395433333333","6500500","新莊區"
"242042","400-BY","2018/01/18 18:29:14","新北市新莊區天祥街53號","121.414928333333","25.03044","6500500","新莊區"
"242061","362-BY","2018/01/18 18:29:17","新北市新莊區四維路97巷26號","121.424281666667","25.02328","6500500","新莊區"
"242058","353-BY","2018/01/18 18:29:15","新北市新莊區中正路895-1號","121.412321666667","25.0220783333333","6500500","新莊區"
"242007","132-UY","2018/01/18 18:29:24","新北市新莊區中華路二段24-1號","121.453496666667","25.044985","6500500","新莊區"
"242046","172-VK","2018/01/18 18:29:18","新北市新莊區中正路803巷55號","121.422138333333","25.0276766666667","6500500","新莊區"
"242056","349-TH","2018/01/18 18:29:14","新北市新莊區環漢路三段1號","121.442255","25.02421","6500500","新莊區"
"242011","351-TH","2018/01/18 18:29:14","新北市新莊區立信一街51號","121.442993333333","25.0496333333333","6500500","新莊區"
"238015","755-BX","2018/01/18 18:29:16","新北市樹林區啟智街173巷2號","121.415721666667","24.9875833333333","6500700","樹林區"
"238023","601-UM","2018/01/18 18:29:13","新北市樹林區三福街67巷23號","121.407246666667","25.0153116666667","6500700","樹林區"
"238019","599-UM","2018/01/18 18:29:15","新北市樹林區中華路190號","121.412226666667","24.98053","6500700","樹林區"
"238018","571-TV","2018/01/18 18:28:58","新北市樹林區四德街1號","121.426653333333","24.9920083333333","6500700","樹林區"
"238024","5061-A6","2018/01/18 18:29:20","新北市樹林區育英街2巷58號","121.423783333333","24.9910133333333","6500700","樹林區"
"238025","303-VK","2018/01/18 18:29:18","新北市樹林區福德街10號","121.400966666667","24.9753033333333","6500700","樹林區"
"238020","268-VK","2018/01/18 18:29:08","新北市樹林區三龍街40號","121.412308333333","25.01847","6500700","樹林區"
"238026","172-UY","2018/01/18 18:29:22","新北市樹林區育德街78-1號","121.387466666667","24.9680283333333","6500700","樹林區"
"238016","169-UY","2018/01/18 18:29:30","新北市樹林區文化街28號","121.419305","24.987695","6500700","樹林區"
"239007","AAC-297","2018/01/18 18:29:15","新北市鶯歌區重慶街86號","121.34847","24.95212","6500800","鶯歌區"
"239008","527-UM","2018/01/18 18:29:20","新北市鶯歌區朝陽街2號","121.33619","24.9765983333333","6500800","鶯歌區"
"239005","526-UM","2018/01/18 18:29:26","新北市鶯歌區鶯桃路668巷5號","121.328886666667","24.9698683333333","6500800","鶯歌區"
"239001","417-VK","2018/01/18 18:29:17","新北市鶯歌區二甲路光照巷2號","121.338393333333","24.9403583333333","6500800","鶯歌區"
"239003","360-BY","2018/01/18 18:29:25","新北市鶯歌區福安街13巷1號","121.335551666667","24.9652983333333","6500800","鶯歌區"
"239004","193-VK","2018/01/18 18:29:10","新北市鶯歌區尖山路212巷23號","121.343246666667","24.9475666666667","6500800","鶯歌區"
"221036","130-UY","2018/01/18 18:29:27","新北市汐止區長興街一段50號","121.670631666667","25.0792783333333","6501100","汐止區"
"221010","269-BY","2018/01/18 18:29:25","新北市汐止區汐萬路三段246號","121.642876666667","25.09658","6501100","汐止區"
"221012","278-VK","2018/01/18 18:29:18","新北市汐止區保長路51巷1號","121.673233333333","25.0789183333333","6501100","汐止區"
"221023","279-VK","2018/01/18 18:29:22","新北市汐止區康寧街518-1號","121.634086666667","25.0687666666667","6501100","汐止區"
"221032","280-BY","2018/01/18 18:29:16","新北市汐止區福山街62巷9號","121.618343333333","25.0465516666667","6501100","汐止區"
"221027","281-BY","2018/01/18 18:29:21","新北市汐止區和平街46巷20號","121.662613333333","25.071725","6501100","汐止區"
"221029","298-VK","2018/01/18 18:29:11","新北市汐止區樟樹一路272-5號","121.642768333333","25.0687583333333","6501100","汐止區"
"221021","299-VK","2018/01/18 18:29:12","新北市汐止區新台五路一段148號","121.653415","25.06205","6501100","汐止區"
"221031","353-TW","2018/01/18 18:29:29","新北市汐止區光復街7巷34號","121.640556666667","25.0598216666667","6501100","汐止區"
"221008","358-BY","2018/01/18 18:29:28","新北市汐止區康寧街901號","121.65135","25.07503","6501100","汐止區"
"221015","567-BX","2018/01/18 18:29:16","新北市汐止區長江街355號","121.66742","25.0824383333333","6501100","汐止區"
"221035","622-UM","2018/01/18 18:29:14","新北市汐止區大同路二段167號","121.651105","25.06492","6501100","汐止區"
"221025","623-UM","2018/01/18 18:29:24","新北市汐止區仁愛路121巷1號","121.662856666667","25.0639133333333","6501100","汐止區"
"221038","646-BX","2018/01/18 18:29:27","新北市汐止區忠孝東路222號","121.662246666667","25.0667316666667","6501100","汐止區"
"221033","647-BX","2018/01/18 18:29:23","新北市汐止區宜興街22號","121.621531666667","25.041685","6501100","汐止區"
"221002","707-TV","2018/01/18 18:29:09","新北市汐止區福德一路174號","121.635951666667","25.0661566666667","6501100","汐止區"
"221018","753-BX","2018/01/18 18:29:09","新北市汐止區茄苳路158號","121.669398333333","25.069655","6501100","汐止區"
"220079","145-BY","2018/01/18 18:29:15","新北市板橋區華東街1-10號","121.448401666667","24.9950666666667","6500100","板橋區"
"220082","610-BX","2018/01/18 18:29:23","新北市樹林區樹新路106巷1號","121.43007","24.99778","6500100","板橋區"
"220071","283-VK","2018/01/18 18:29:28","新北市板橋區華東街1-9號","121.448076666667","24.99491","6500100","板橋區"
"220075","303-R5","2018/01/18 18:29:26","新北市板橋區華東街1-10號","121.448303333333","24.9949166666667","6500100","板橋區"
"220086","461-BY","2018/01/18 18:29:16","新北市板橋區南雅南路二段140號","121.451745","24.9962283333333","6500100","板橋區"
"220064","486-VK","2018/01/18 18:29:23","新北市板橋區南雅南路二段4巷10號","121.453866666667","25.0036466666667","6500100","板橋區"
"220035","560-BX","2018/01/18 18:29:28","新北市板橋區南雅西路一段19巷8號","121.454028333333","25.0039033333333","6500100","板橋區"
"220054","741-BX","2018/01/18 18:29:16","新北市板橋區華東街1-9號","121.448083333333","24.9949116666667","6500100","板橋區"
"220067","829-TW","2018/01/18 18:29:14","新北市板橋區民生路二段161巷1號","121.470213333333","25.0201216666667","6500100","板橋區"
"220074","895-R6","2018/01/18 18:29:10","新北市板橋區華東街1-9號","121.448305","24.9948333333333","6500100","板橋區"
