"lineid","car","time","location","longitude","latitude","cityid","cityname"
"234046","148-BY","2018/01/18 19:09:09","新北市永和區秀朗路二段126巷30號","121.524661666667","25.000835","6500400","永和區"
"234042","149-BY","2018/01/18 19:09:03","新北市永和區永貞路332巷26號","121.511603333333","25.0057283333333","6500400","永和區"
"234007","207-UY","2018/01/18 19:09:17","新北市永和區中山路一段211-1號","121.508726666667","25.0083233333333","6500400","永和區"
"234081","298-R6","2018/01/18 19:09:18","新北市永和區永貞路37號","121.521275","25.0064633333333","6500400","永和區"
"234038","336-UY","2018/01/18 19:09:19","新北市永和區民樂街71巷2號","121.527376666667","24.99735","6500400","永和區"
"234064","337-UY","2018/01/18 19:09:05","新北市永和區秀朗路二段33號","121.521266666667","25.0023783333333","6500400","永和區"
"234086","338-UY","2018/01/18 19:09:20","新北市永和區永貞路112號","121.518858333333","25.0045266666667","6500400","永和區"
"234070","552-UM","2018/01/18 19:09:12","新北市永和區豫溪街137巷1弄19號","121.5187","25.0104216666667","6500400","永和區"
"234054","553-UM","2018/01/18 19:09:15","新北市永和區中興街135號","121.51858","25.0125266666667","6500400","永和區"
"234017","745-BX","2018/01/18 19:08:47","新北市永和區文化路90巷14號","121.513856666667","25.0158466666667","6500400","永和區"
"234030","746-BX","2018/01/18 19:09:22","新北市永和區民生路21號","121.52287","24.9988766666667","6500400","永和區"
"234013","KEA-2591","2018/01/18 19:09:21","新北市永和區保福路二段30號","121.510996666667","25.0117","6500400","永和區"
"234061","AAD-866","2018/01/18 19:09:03","新北市永和區安樂路304巷16號","121.514825","25.00525","6500400","永和區"
"234050","863-TW","2018/01/18 19:09:17","新北市永和區仁愛路104巷7弄23號","121.511025","25.0140216666667","6500400","永和區"
"234026","9371-KE","2018/01/18 19:09:14","新北市永和區安樂路274號","121.514693333333","25.0042183333333","6500400","永和區"
"234011","9373-KE","2018/01/18 19:09:06","新北市永和區仁愛路141巷30弄5號","121.511958333333","25.011505","6500400","永和區"
"249005","172-UM","2018/01/18 19:09:17","新北市八里區中華路三段27號","121.396481666667","25.1429366666667","6502300","八里區"
"249001","173-UM","2018/01/18 19:09:07","新北市八里區龍米路二段228-7號","121.43227","25.1584666666667","6502300","八里區"
"248020","225-UY","2018/01/18 19:09:22","新北市五股區凌雲路三段57號","121.425255","25.1250133333333","6501500","五股區"
"248012","247-BX","2018/01/18 19:09:09","新北市五股區中興路四段48巷16號","121.438606666667","25.0834283333333","6501500","五股區"
"248014","261-SL","2018/01/18 19:09:20","新北市五股區成泰路三段543巷21號","121.450536666667","25.1024483333333","6501500","五股區"
"248010","272-BY","2018/01/18 19:09:06","新北市五股區自強路90巷72號","121.430795","25.071265","6501500","五股區"
"248004","677-BX","2018/01/18 19:09:21","新北市五股區六合街3號","121.431895","25.0885316666667","6501500","五股區"
"248002","678-BX","2018/01/18 19:09:09","新北市五股區凌雲路一段158巷14-1號","121.447811666667","25.1035133333333","6501500","五股區"
"234023","9380-KE","2018/01/18 19:09:14","新北市永和區中興街50號","121.51685","25.0115833333333","6500400","永和區"
"234077","969-R7","2018/01/18 19:09:15","新北市永和區民族街40號","121.518555","24.9991883333333","6500400","永和區"
"234074","AAC-211","2018/01/18 19:09:14","新北市永和區竹林路182號","121.520421666667","25.0098316666667","6500400","永和區"
"234067","AAC-212","2018/01/18 19:09:21","新北市永和區永和路一段47號","121.512808333333","25.0065266666667","6500400","永和區"
"234003","AAC-295","2018/01/18 19:09:08","新北市永和區保福路一段92號","121.512116666667","25.0104166666667","6500400","永和區"
"244013","069-UM","2018/01/18 19:09:08","新北市林口區麗園一街11巷1號","121.37693","25.07041","6501700","林口區"
"244019","402-UM","2018/01/18 19:09:21","新北市林口區麗園一街35號","121.377651666667","25.0688866666667","6501700","林口區"
"244009","410-SL","2018/01/18 19:09:12","新北市林口區林口路61號","121.389903333333","25.0795866666667","6501700","林口區"
"244023","483-VK","2018/01/18 19:09:15","新北市林口區文林六街27巷11號","121.370828333333","25.0810633333333","6501700","林口區"
"244011","656-BX","2018/01/18 19:09:01","新北市林口區中正路296巷1號","121.388371666667","25.0780066666667","6501700","林口區"
"243012","AAD-798","2018/01/18 19:09:05","新北市泰山區辭修路36巷8弄1號","121.427781666667","25.0585383333333","6501600","泰山區"
"243011","297-R6","2018/01/18 19:09:22","新北市泰山區明志路二段368號","121.425463333333","25.04495","6501600","泰山區"
"243015","380-SR","2018/01/18 19:09:09","新北市泰山區明志路一段431號","121.430758333333","25.0566416666667","6501600","泰山區"
"243014","421-VK","2018/01/18 19:09:20","新北市泰山區泰林路二段318號","121.430416666667","25.06295","6501600","泰山區"
"243010","KEA-2215","2018/01/18 19:09:07","新北市泰山區明志路一段483巷1弄4號","121.431118333333","25.0554316666667","6501600","泰山區"
"243009","KEA-2216","2018/01/18 19:09:15","新北市泰山區楓樹街15巷15號","121.434651666667","25.063035","6501600","泰山區"
"243013","646-TV","2018/01/18 19:09:19","新北市泰山區明志路三段231巷4弄2號","121.424156666667","25.0376383333333","6501600","泰山區"
"243016","680-BX","2018/01/18 19:09:07","新北市泰山區明志路三段1號","121.424815","25.0435033333333","6501600","泰山區"
"222003","436-BY","2018/01/18 19:09:16","新北市深坑區深南路162號","121.626095","25.0149633333333","6501800","深坑區"
"222002","659-BX","2018/01/18 19:09:19","新北市深坑區北深路一段199號","121.63105","25.0097933333333","6501800","深坑區"
"231041","002-UM","2018/01/18 19:09:21","新北市新店區溪園路415號","121.524403333333","24.9786083333333","6500600","新店區"
"231066","0293-UT","2018/01/18 19:09:11","新北市新店區安康路三段359巷12弄2號","121.484531666667","24.9500816666667","6500600","新店區"
"231059","046-UY","2018/01/18 19:09:06","新北市新店區安和路二段126號","121.519291666667","24.9714716666667","6500600","新店區"
"231061","047-UY","2018/01/18 19:09:19","新北市新店區安康路一段77號","121.529978333333","24.9611416666667","6500600","新店區"
"231060","106-UY","2018/01/18 19:09:10","新北市新店區車子路1-1號","121.504646666667","24.9579083333333","6500600","新店區"
"231051","107-UY","2018/01/18 19:09:22","新北市新店區中正路409巷1號","121.534146666667","24.9774016666667","6500600","新店區"
"231047","108-UY","2018/01/18 19:09:17","新北市新店區德正街27巷26號","121.545296666667","24.97102","6500600","新店區"
"231052","187-VK","2018/01/18 19:09:20","新北市新店區自強路115號","121.546156666667","24.9231516666667","6500600","新店區"
"231050","KEA-2219","2018/01/18 19:09:09","新北市新店區竹林路2巷33號","121.550485","24.9501616666667","6500600","新店區"
"231046","278-BY","2018/01/18 19:09:03","新北市新店區華城路77巷6號","121.52392","24.9454083333333","6500600","新店區"
"231054","AAD-862","2018/01/18 19:09:11","新北市新店區新店路148號","121.537125","24.955415","6500600","新店區"
"231058","3712-VJ","2018/01/18 19:09:01","新北市新店區光明街138巷13弄2號","121.540151666667","24.9614516666667","6500600","新店區"
"231056","3713-VJ","2018/01/18 19:09:08","新北市新店區二十張路46巷37弄39號","121.535731666667","24.98131","6500600","新店區"
"231067","4772-VM","2018/01/18 19:09:02","新北市新店區安康路一段195巷6號","121.526288333333","24.9624533333333","6500600","新店區"
"231065","512-UM","2018/01/18 19:09:03","新北市新店區安祥路145巷18號","121.475325","24.9562133333333","6500600","新店區"
"231064","515-UM","2018/01/18 19:09:13","新北市新店區安忠路94-2號","121.51115","24.95723","6500600","新店區"
"231040","619-UM","2018/01/18 19:09:17","新北市新店區三民路98-3號","121.533941666667","24.973455","6500600","新店區"
"231042","641-BX","2018/01/18 19:09:04","新北市新店區中興路一段115號","121.5413","24.9628066666667","6500600","新店區"
"231063","645-TV","2018/01/18 19:09:20","新北市新店區車子路121號","121.505218333333","24.950205","6500600","新店區"
"231049","719-UM","2018/01/18 19:09:17","新北市新店區二十張路25巷18弄9號","121.539251666667","24.9816816666667","6500600","新店區"
"231062","720-UM","2018/01/18 19:09:11","新北市新店區安平路7-1號","121.524073333333","24.9645016666667","6500600","新店區"
"231044","897-TW","2018/01/18 19:09:05","新北市新店區中興路三段168號","121.544298333333","24.98083","6500600","新店區"
"231045","898-TW","2018/01/18 19:09:10","新北市新店區北宜路一段154號","121.540365","24.953555","6500600","新店區"
"231043","899-TW","2018/01/18 19:09:16","新北市新店區寶橋路69-1號","121.545525","24.9750016666667","6500600","新店區"
"241029","066-VK","2018/01/18 19:09:10","新北市三重區重安街75巷20號","121.491696666667","25.0556633333333","6500200","三重區"
"241020","156-TC","2018/01/18 19:09:20","新北市三重區後竹圍街133號","121.48742","25.0723183333333","6500200","三重區"
"241026","265-UM","2018/01/18 19:09:10","新北市三重區泉州街72號","121.494713333333","25.0549233333333","6500200","三重區"
"241035","462-BY","2018/01/18 19:09:21","新北市三重區三寧街50號","121.4902","25.0605033333333","6500200","三重區"
"241033","557-UM","2018/01/18 19:09:18","新北市五股區成泰路一段98巷77號","121.450225","25.0778883333333","6500200","三重區"
"235066","003-UY","2018/01/18 19:09:01","新北市中和區光華街43號","121.505416666667","25.003805","6500300","中和區"
"235064","005-UY","2018/01/18 19:09:18","新北市中和區泰和街38巷22號","121.498716666667","25.001025","6500300","中和區"
"235063","006-UY","2018/01/18 19:09:13","新北市中和區中正路590號","121.485916666667","24.9950516666667","6500300","中和區"
"235056","096-UM","2018/01/18 19:09:05","新北市中和區員山路568號","121.47879","25.010935","6500300","中和區"
"235039","097-UM","2018/01/18 19:09:10","新北市永和區民有街21巷2號","121.516681666667","24.9965883333333","6500300","中和區"
"235065","098-UM","2018/01/18 19:09:10","新北市中和區福祥路131號","121.498561666667","25.007205","6500300","中和區"
"235040","150-BY","2018/01/18 19:09:08","新北市中和區宜安路11巷26號","121.512676666667","24.9950466666667","6500300","中和區"
"235058","151-BY","2018/01/18 19:09:07","新北市中和區員山路106號","121.481123333333","24.9955066666667","6500300","中和區"
"235055","183-VK","2018/01/18 19:09:14","新北市中和區德光路16號","121.471196666667","25.0045033333333","6500300","中和區"
"235038","185-VK","2018/01/18 19:09:03","新北市中和區大仁街10巷27弄4號","121.519206666667","24.992755","6500300","中和區"
"235049","186-VK","2018/01/18 19:09:09","新北市中和區明禮街13號","121.504975","24.9958","6500300","中和區"
"235067","255-BX","2018/01/18 19:09:14","新北市中和區員山路226巷13弄12號","121.482528333333","25.00008","6500300","中和區"
"235044","293-VK","2018/01/18 19:09:06","新北市中和區復興路333號","121.500461666667","24.9902616666667","6500300","中和區"
"235072","301-VK","2018/01/18 19:09:16","新北市中和區福美路269號","121.498128333333","25.004945","6500300","中和區"
"235043","352-BY","2018/01/18 19:09:12","新北市中和區景平路142號","121.518538333333","24.9918433333333","6500300","中和區"
"235068","377-QA","2018/01/18 19:09:01","新北市中和區圓通路164號","121.497453333333","24.9949083333333","6500300","中和區"
"235061","378-QA","2018/01/18 19:09:19","新北市中和區中山路三段63巷13弄41號","121.476651666667","25.0035633333333","6500300","中和區"
"235050","4979-A6","2018/01/18 19:09:14","新北市中和區復興路249巷11弄3號","121.503451666667","24.9897566666667","6500300","中和區"
"235069","4980-A6","2018/01/18 19:09:08","新北市中和區中和路165巷16號","121.503275","25.0004483333333","6500300","中和區"
"235042","551-UM","2018/01/18 19:09:11","新北市中和區秀朗路三段10巷37弄4號","121.524116666667","24.9958133333333","6500300","中和區"
"235070","558-UM","2018/01/18 19:09:05","新北市中和區中和路194號","121.505061666667","24.9997083333333","6500300","中和區"
"235045","565-BX","2018/01/18 19:09:13","新北市中和區景新街467巷35弄1號","121.51462","24.9890966666667","6500300","中和區"
"235054","640-BX","2018/01/18 19:09:15","新北市中和區國光街60號","121.470425","25.0002916666667","6500300","中和區"
"235060","647-TV","2018/01/18 19:09:09","新北市中和區民治街27巷10號","121.475566666667","25.0013316666667","6500300","中和區"
"235047","732-UM","2018/01/18 19:09:05","新北市中和區興南路一段56巷9號","121.510311666667","24.99116","6500300","中和區"
"235046","733-UM","2018/01/18 19:09:12","新北市中和區忠孝街1巷81號","121.508173333333","24.9849483333333","6500300","中和區"
"235057","801-TS","2018/01/18 19:09:20","新北市中和區民利街68巷1弄2號","121.478373333333","24.9987883333333","6500300","中和區"
"235041","802-TS","2018/01/18 19:09:08","新北市中和區中和路232號","121.506661666667","24.999575","6500300","中和區"
"235052","805-TS","2018/01/18 19:09:17","新北市中和區興南路二段142巷19弄15號","121.502638333333","24.9834433333333","6500300","中和區"
"235048","896-TW","2018/01/18 19:09:20","新北市中和區忠孝街2-9號","121.509306666667","24.9829583333333","6500300","中和區"
"235053","900-TW","2018/01/18 19:09:06","新北市中和區華福街86號","121.467518333333","24.9964383333333","6500300","中和區"
"235051","157-BY","2018/01/18 19:09:14","新北市中和區興南路一段93巷58弄6-3號","121.510518333333","24.9859233333333","6500300","中和區"
"235037","AAC-213","2018/01/18 19:09:11","新北市中和區秀朗路三段60巷42號","121.524921666667","24.9949333333333","6500300","中和區"
"235059","AAC-215","2018/01/18 19:09:06","新北市中和區圓通路294巷17-5號","121.488768333333","24.9902566666667","6500300","中和區"
"220065","072-UY","2018/01/18 19:09:09","新北市板橋區民族路151巷57號","121.469243333333","25.0083516666667","6500100","板橋區"
"220106","075-UY","2018/01/18 19:09:18","新北市板橋區文化路二段311號","121.472028333333","25.0296666666667","6500100","板橋區"
"220069","AAD-861","2018/01/18 19:09:21","新北市板橋區華興街70號","121.45744","25.005165","6500100","板橋區"
"226004","312-R5","2018/01/18 19:08:20","新北市平溪區十分里十分街96-2號","121.7766","25.0427583333333","6502400","平溪區"
"228003","097-TW","2018/01/18 19:09:11","新北市貢寮區和美里和美街32-2號","121.913496666667","25.0840416666667","6502600","貢寮區"
"228001","212-TW","2018/01/18 19:09:21","新北市貢寮區真理里新港街10號","121.925503333333","25.054385","6502600","貢寮區"
"228002","663-BX","2018/01/18 19:09:18","新北市貢寮區福隆里福隆街32-1號","121.945088333333","25.0174216666667","6502600","貢寮區"
"224010","AGQ-8101","2018/01/18 19:09:13","新北市瑞芳區基山街116-1號","121.843818333333","25.108505","6501200","瑞芳區"
"224006","676-BX","2018/01/18 19:09:09","新北市瑞芳區三爪子坑路106巷1-2號","121.808076666667","25.1048866666667","6501200","瑞芳區"
"224009","285-BY","2018/01/18 19:09:20","新北市瑞芳區長仁路50-1號","121.866231666667","25.1187416666667","6501200","瑞芳區"
"224008","275-VK","2018/01/18 19:09:05","新北市瑞芳區瑞芳街118號","121.80151","25.1108783333333","6501200","瑞芳區"
"224005","271-BY","2018/01/18 19:09:21","新北市瑞芳區三爪子坑路89-17號","121.812171666667","25.1073166666667","6501200","瑞芳區"
"227010","642-TC","2018/01/18 19:09:11","新北市雙溪區牡丹里中正路48號","121.865033333333","25.03916","6502500","雙溪區"
"227004","400-TW","2018/01/18 19:09:13","新北市雙溪區平林里外平林9-5號","121.859148333333","25.0380166666667","6502500","雙溪區"
"253005","032-BX","2018/01/18 19:09:08","新北市石門區阿里荖42號","121.605353333333","25.2803016666667","6502200","石門區"
"253006","295-VK","2018/01/18 19:09:19","新北市石門區海灣新城1號","121.52503","25.2851083333333","6502200","石門區"
"222001","KEA-2212","2018/01/18 19:09:17","新北市深坑區北深路一段300號","121.624183333333","25.0057616666667","6501800","深坑區"
"208002","742-BX","2018/01/18 19:09:08","新北市金山區中華路112巷14號","121.634035","25.22082","6502700","金山區"
"208003","665-BX","2018/01/18 19:09:15","新北市金山區中正路83號","121.633425","25.2217583333333","6502700","金山區"
"208001","761-BX","2018/01/18 19:09:09","新北市金山區溫泉路4號","121.639585","25.2219466666667","6502700","金山區"
"251009","008-UM","2018/01/18 19:09:03","新北市淡水區清水街158號","121.441075","25.1704766666667","6501000","淡水區"
"251005","010-UM","2018/01/18 19:09:17","新北市淡水區中山路108巷3號","121.44203","25.1710383333333","6501000","淡水區"
"251013","179-VK","2018/01/18 19:09:14","新北市淡水區安子內12號","121.481561666667","25.219065","6501000","淡水區"
"251014","180-VK","2018/01/18 19:09:11","新北市淡水區北勢子9號","121.483126666667","25.2283666666667","6501000","淡水區"
"251015","182-VK","2018/01/18 19:09:13","新北市淡水區南勢埔47巷27號","121.484168333333","25.17849","6501000","淡水區"
"251010","413-VK","2018/01/18 19:09:11","新北市淡水區中正路一段156巷3號","121.421205","25.1802533333333","6501000","淡水區"
"251016","442-VK","2018/01/18 19:09:09","新北市淡水區淡金路三段320號","121.449098333333","25.208195","6501000","淡水區"
"251001","559-UM","2018/01/18 19:09:05","新北市淡水區自強路201巷39號","121.46209","25.1268433333333","6501000","淡水區"
"251006","561-UM","2018/01/18 19:09:13","新北市淡水區中山北路二段383號","121.4441","25.1877683333333","6501000","淡水區"
"251007","577-R6","2018/01/18 19:09:17","新北市淡水區民生路145巷35號","121.466815","25.1390333333333","6501000","淡水區"
"251002","672-BX","2018/01/18 19:09:08","新北市淡水區中山路57號","121.443168333333","25.1704033333333","6501000","淡水區"
"251003","673-BX","2018/01/18 19:09:15","新北市淡水區中山北路一段46號","121.441941666667","25.1753983333333","6501000","淡水區"
"207003","550-UM","2018/01/18 19:09:07","新北市萬里區大鵬里萬里加投24-2號","121.649068333333","25.207325","6502800","萬里區"
"207004","225-TW","2018/01/18 19:09:06","新北市萬里區萬里里瑪鋉下街52號","121.691588333333","25.1795466666667","6502800","萬里區"
"252002","178-VK","2018/01/18 19:09:07","新北市三芝區埔坪里埔頭坑84號","121.507928333333","25.2543216666667","6502100","三芝區"
"252003","249-BX","2018/01/18 19:09:17","新北市三芝區錫板里南勢崗11號","121.47904","25.261355","6502100","三芝區"
"252001","292-VK","2018/01/18 19:09:18","新北市三芝區長勤街82號","121.500261666667","25.2551083333333","6502100","三芝區"
"237004","078-UY","2018/01/18 19:09:14","新北市三峽區有木202號","121.441401666667","24.850315","6500900","三峽區"
"237007","153-BY","2018/01/18 19:09:11","新北市三峽區中正路二段42巷84號","121.364361666667","24.920455","6500900","三峽區"
"237009","210-TH","2018/01/18 19:09:18","新北市三峽區文化路209號","121.366261666667","24.9355066666667","6500900","三峽區"
"237013","252-BX","2018/01/18 19:09:03","新北市三峽區光明路69巷27號","121.376781666667","24.9292566666667","6500900","三峽區"
"237012","275-BY","2018/01/18 19:09:16","新北市三峽區三樹路222巷150-1號","121.386025","24.942825","6500900","三峽區"
"237008","302-VK","2018/01/18 19:09:22","新北市三峽區中正路一段189號","121.372696666667","24.9278433333333","6500900","三峽區"
"237014","433-BY","2018/01/18 19:09:05","新北市三峽區中山路257巷39號","121.362128333333","24.93637","6500900","三峽區"
"237006","5529-G3","2018/01/18 19:09:19","新北市三峽區溪東路231號","121.406558333333","24.9328916666667","6500900","三峽區"
"237016","649-BX","2018/01/18 19:09:17","新北市三峽區建安77-1號","121.450723333333","24.9247166666667","6500900","三峽區"
"237010","706-TV","2018/01/18 19:09:19","新北市三峽區民生街58號","121.375285","24.936255","6500900","三峽區"
"237005","AKY-6261","2018/01/18 19:09:05","新北市三峽區中山路459巷163-3號","121.348611666667","24.9329133333333","6500900","三峽區"
"236071","105-UM","2018/01/18 19:09:19","新北市土城區裕生路84巷2號","121.447271666667","24.985395","6501300","土城區"
"236030","253-BX","2018/01/18 19:09:13","新北市土城區城林路6巷80號","121.438608333333","24.9800383333333","6501300","土城區"
"236026","269-VK","2018/01/18 19:09:03","新北市土城區中央路二段185號","121.442435","24.9758316666667","6501300","土城區"
"236014","270-VK","2018/01/18 19:09:08","新北市土城區學府路一段75巷1弄1號","121.45709","24.9880033333333","6501300","土城區"
"236037","271-VK","2018/01/18 19:09:01","新北市土城區清水路141巷5號","121.45833","24.9818533333333","6501300","土城區"
"236021","401-BY","2018/01/18 19:09:13","新北市土城區延峰街36巷1號","121.469691666667","24.9845766666667","6501300","土城區"
"236078","752-BX","2018/01/18 19:09:23","新北市土城區龍泉路10-1號","121.409551666667","24.9492333333333","6501300","土城區"
"236058","912-UM","2018/01/18 19:09:14","新北市土城區金城路二段250號","121.457086666667","24.9833716666667","6501300","土城區"
"236051","913-UM","2018/01/18 19:09:15","新北市土城區明德路一段398-1號","121.453616666667","24.9791483333333","6501300","土城區"
"236053","AAC-216","2018/01/18 19:09:15","新北市土城區學府路一段223號","121.451336666667","24.9842733333333","6501300","土城區"
"242004","413-TV","2018/01/18 19:09:08","新北市新莊區新泰路357巷3弄57號","121.442203333333","25.0395516666667","6500500","新莊區"
"242056","349-TH","2018/01/18 19:09:14","新北市新莊區瓊林南路77-41號","121.43771","25.0125233333333","6500500","新莊區"
"238015","755-BX","2018/01/18 19:09:06","新北市樹林區備內街158巷17號","121.407798333333","24.9900183333333","6500700","樹林區"
"238023","601-UM","2018/01/18 19:09:13","新北市樹林區大慶街51號","121.396341666667","25.0139133333333","6500700","樹林區"
"238019","599-UM","2018/01/18 19:09:15","新北市樹林區鎮前街347巷2弄1號","121.416713333333","24.983655","6500700","樹林區"
"238018","571-TV","2018/01/18 19:09:18","新北市樹林區太平路48號","121.419008333333","24.9825233333333","6500700","樹林區"
"238021","KEA-2217","2018/01/18 19:09:19","新北市樹林區柑園街二段316號","121.373356666667","24.95178","6500700","樹林區"
"238022","KEA-2213","2018/01/18 19:09:14","新北市樹林區中山路二段151巷12號","121.406875","24.9782733333333","6500700","樹林區"
"238025","303-VK","2018/01/18 19:09:18","新北市樹林區中山路三段96號","121.393065","24.9721933333333","6500700","樹林區"
"238014","282-BY","2018/01/18 19:09:15","新北市樹林區千歲街92巷7弄13號","121.42728","24.997895","6500700","樹林區"
"238020","268-VK","2018/01/18 19:09:08","新北市樹林區俊英街155巷39號","121.422996666667","25.012185","6500700","樹林區"
"238026","172-UY","2018/01/18 19:08:42","新北市樹林區佳園路一段50號","121.392978333333","24.9706833333333","6500700","樹林區"
"238016","169-UY","2018/01/18 19:09:09","新北市樹林區中山路一段276號","121.420591666667","24.9869633333333","6500700","樹林區"
"239007","AAC-297","2018/01/18 19:09:15","新北市鶯歌區中正一路298號","121.355611666667","24.9570283333333","6500800","鶯歌區"
"239006","891-R6","2018/01/18 19:09:24","新北市鶯歌區鶯桃路296巷94弄3號","121.337088333333","24.96196","6500800","鶯歌區"
"239008","527-UM","2018/01/18 19:09:15","新北市鶯歌區國際二路16巷11號","121.337826666667","24.9750283333333","6500800","鶯歌區"
"239005","526-UM","2018/01/18 19:09:06","新北市鶯歌區大湖路602號","121.334641666667","24.974145","6500800","鶯歌區"
"239001","417-VK","2018/01/18 19:09:17","新北市鶯歌區永智街114號","121.336918333333","24.95296","6500800","鶯歌區"
"239003","360-BY","2018/01/18 19:09:05","新北市鶯歌區鶯桃路320號","121.3339","24.9618633333333","6500800","鶯歌區"
"239004","193-VK","2018/01/18 19:09:10","新北市鶯歌區中正三路396號","121.325995","24.9345666666667","6500800","鶯歌區"
"221036","130-UY","2018/01/18 19:09:07","新北市汐止區仁愛路331號","121.66401","25.0680066666667","6501100","汐止區"
"221010","269-BY","2018/01/18 19:09:05","新北市汐止區康寧街901號","121.651491666667","25.0749733333333","6501100","汐止區"
"221012","278-VK","2018/01/18 19:09:17","新北市汐止區康寧街901號","121.650821666667","25.07525","6501100","汐止區"
"221023","279-VK","2018/01/18 19:09:02","新北市汐止區康寧街901號","121.650956666667","25.0751816666667","6501100","汐止區"
"221032","280-BY","2018/01/18 19:09:16","新北市汐止區橫科路241-5號","121.622503333333","25.048715","6501100","汐止區"
"221027","281-BY","2018/01/18 19:09:01","新北市汐止區康寧街901號","121.651458333333","25.07496","6501100","汐止區"
"221029","298-VK","2018/01/18 19:09:11","新北市汐止區汐萬路一段256巷3號","121.652611666667","25.0745133333333","6501100","汐止區"
"221031","353-TW","2018/01/18 19:09:21","新北市汐止區福德三路201-1號","121.631496666667","25.0670466666667","6501100","汐止區"
"221008","358-BY","2018/01/18 19:09:08","新北市汐止區康寧街466號","121.631838333333","25.0682283333333","6501100","汐止區"
"221015","567-BX","2018/01/18 19:09:16","新北市汐止區汐萬路一段37號","121.655513333333","25.0683733333333","6501100","汐止區"
"221025","623-UM","2018/01/18 19:09:04","新北市汐止區康寧街901號","121.65154","25.074895","6501100","汐止區"
"221038","646-BX","2018/01/18 19:09:07","新北市汐止區汐萬路一段312號","121.6507","25.0752716666667","6501100","汐止區"
"221033","647-BX","2018/01/18 19:09:03","新北市汐止區南勢街1巷1號","121.627046666667","25.037415","6501100","汐止區"
"221002","707-TV","2018/01/18 19:09:09","新北市汐止區大同路一段89-3號","121.624598333333","25.05457","6501100","汐止區"
"220079","145-BY","2018/01/18 19:09:15","新北市板橋區民權路302巷1弄1號","121.457336666667","25.0163383333333","6500100","板橋區"
"220080","200-UY","2018/01/18 19:09:05","新北市板橋區大觀路二段7巷96號","121.45005","25.0028983333333","6500100","板橋區"
"220082","610-BX","2018/01/18 19:09:03","新北市樹林區博愛街109號","121.426645","24.9908916666667","6500100","板橋區"
"220101","245-BX","2018/01/18 19:09:21","新北市板橋區萬板路15號","121.470623333333","25.0209316666667","6500100","板橋區"
"220055","256-TC","2018/01/18 19:09:22","新北市板橋區新民街11號","121.463771666667","25.009875","6500100","板橋區"
"220096","257-TC","2018/01/18 19:09:22","新北市板橋區雙十路二段33巷18號","121.476008333333","25.0254866666667","6500100","板橋區"
"220056","276-BY","2018/01/18 19:09:14","新北市板橋區信義路74巷1弄2號","121.457225","24.9931333333333","6500100","板橋區"
"220072","277-BY","2018/01/18 19:09:11","新北市板橋區金門街369巷57弄7號","121.429335","24.984025","6500100","板橋區"
"220071","283-VK","2018/01/18 19:09:21","新北市板橋區重慶路353巷5號","121.46469","24.9980866666667","6500100","板橋區"
"220094","285-UM","2018/01/18 19:09:12","新北市板橋區光武街112號","121.465685","25.0292333333333","6500100","板橋區"
"220053","285-VK","2018/01/18 19:09:16","新北市板橋區懷仁街10巷22-3號","121.475246666667","25.0196383333333","6500100","板橋區"
"220083","286-VK","2018/01/18 19:09:12","新北市板橋區龍興街99巷29號","121.443476666667","25.0034883333333","6500100","板橋區"
"220081","287-VK","2018/01/18 19:09:15","新北市板橋區南雅西路二段156巷55號","121.452436666667","25.01266","6500100","板橋區"
"220090","288-VK","2018/01/18 19:09:17","新北市板橋區裕民街54號","121.46143","25.0286483333333","6500100","板橋區"
"220061","293-UM","2018/01/18 19:09:14","新北市板橋區中山路二段268號","121.479091666667","25.018505","6500100","板橋區"
"220062","295-UM","2018/01/18 19:09:19","新北市板橋區三民路二段245巷44號","121.480983333333","25.0125483333333","6500100","板橋區"
"220084","296-UM","2018/01/18 19:09:04","新北市板橋區篤行路一段22號","121.43192","24.994335","6500100","板橋區"
"220075","303-R5","2018/01/18 19:09:07","新北市板橋區南雅南路一段1巷19號","121.457201666667","25.0067933333333","6500100","板橋區"
"220092","307-R5","2018/01/18 19:09:20","新北市板橋區文化路二段225巷60弄43號","121.469088333333","25.029455","6500100","板橋區"
"220098","317-R6","2018/01/18 19:09:13","新北市板橋區四維路103巷27號","121.464413333333","25.0239083333333","6500100","板橋區"
"220086","461-BY","2018/01/18 19:09:16","新北市板橋區中正路216巷142號","121.460413333333","25.019415","6500100","板橋區"
"220064","486-VK","2018/01/18 19:09:19","新北市板橋區板新路35號","121.474341666667","25.0131816666667","6500100","板橋區"
"220089","487-VK","2018/01/18 19:09:20","新北市板橋區文化路二段426號","121.474003333333","25.0319716666667","6500100","板橋區"
"220088","491-VK","2018/01/18 19:09:11","新北市板橋區文化路二段182巷1弄2號","121.471115","25.027405","6500100","板橋區"
"220035","560-BX","2018/01/18 19:09:08","新北市板橋區中正路379巷3號","121.453533333333","25.0218183333333","6500100","板橋區"
"220103","561-BX","2018/01/18 19:09:11","新北市板橋區文化路一段188巷9弄21號","121.468508333333","25.0194666666667","6500100","板橋區"
"220063","609-BX","2018/01/18 19:09:10","新北市板橋區三民路二段212號","121.478703333333","25.011865","6500100","板橋區"
"220091","637-BX","2018/01/18 19:09:12","新北市板橋區萬板路710號","121.481876666667","25.0271583333333","6500100","板橋區"
"220057","686-BX","2018/01/18 19:09:20","新北市板橋區重慶路163號","121.46266","25.0027266666667","6500100","板橋區"
"220077","687-BX","2018/01/18 19:09:18","新北市板橋區大觀路二段22-2號","121.446713333333","25.0031416666667","6500100","板橋區"
"220093","689-BX","2018/01/18 19:09:08","新北市板橋區長江路二段41號","121.463953333333","25.0312116666667","6500100","板橋區"
"220054","741-BX","2018/01/18 19:09:16","新北市板橋區重慶路89巷12號","121.462956666667","25.00649","6500100","板橋區"
"220067","829-TW","2018/01/18 19:09:14","新北市板橋區民享街116巷2弄15號","121.477298333333","25.0154233333333","6500100","板橋區"
"220102","830-TW","2018/01/18 19:09:13","新北市板橋區田單街44號","121.482673333333","25.0276633333333","6500100","板橋區"
"220074","895-R6","2018/01/18 19:09:11","新北市板橋區北門街57號","121.456128333333","25.0117683333333","6500100","板橋區"
"220073","985-R7","2018/01/18 19:09:14","新北市板橋區中正路307號","121.455138333333","25.0197466666667","6500100","板橋區"
"220097","AAC-210","2018/01/18 19:09:09","新北市板橋區新生街89巷2號","121.45824","25.0221816666667","6500100","板橋區"
"220070","AAC-253","2018/01/18 19:09:17","新北市板橋區四川路一段353號","121.45839","24.99988","6500100","板橋區"
