"lineid","car","time","location","longitude","latitude","cityid","cityname"
"234046","148-BY","2018/01/18 19:59:49","新北市永和區成功路一段79號","121.526825","25.0030866666667","6500400","永和區"
"234042","149-BY","2018/01/18 19:59:45","新北市永和區中和路421巷5弄10號","121.508411666667","25.0008516666667","6500400","永和區"
"234007","207-UY","2018/01/18 19:59:57","新北市永和區保生路22巷8號","121.507331666667","25.0078416666667","6500400","永和區"
"234081","298-R6","2018/01/18 19:59:55","新北市永和區永亨路98號","121.523008333333","25.0046733333333","6500400","永和區"
"234038","336-UY","2018/01/18 19:59:35","新北市永和區成功路二段152-1號","121.526431666667","24.9967383333333","6500400","永和區"
"234064","337-UY","2018/01/18 19:59:55","新北市永和區秀朗路一段192巷6弄1號","121.51929","25.00229","6500400","永和區"
"234086","338-UY","2018/01/18 19:59:40","新北市永和區福和路110號","121.522086666667","25.0078616666667","6500400","永和區"
"234070","552-UM","2018/01/18 19:59:50","新北市永和區國光路39-1號","121.519058333333","25.00821","6500400","永和區"
"234054","553-UM","2018/01/18 19:59:53","新北市永和區環河東路一段122號","121.520641666667","25.015455","6500400","永和區"
"234017","745-BX","2018/01/18 19:59:47","新北市永和區文化路87號","121.513486666667","25.01518","6500400","永和區"
"234030","746-BX","2018/01/18 19:59:42","新北市永和區民生路22巷33號","121.52088","24.9969016666667","6500400","永和區"
"234013","KEA-2591","2018/01/18 19:59:47","新北市永和區仁愛路289號","121.505398333333","25.0094016666667","6500400","永和區"
"234061","AAD-866","2018/01/18 19:59:41","新北市永和區中正路269號","121.517396666667","25.00076","6500400","永和區"
"234050","863-TW","2018/01/18 19:59:37","新北市永和區保安路153號","121.50673","25.0126916666667","6500400","永和區"
"234026","9371-KE","2018/01/18 19:59:54","新北市永和區中和路575號","121.511706666667","25.0038216666667","6500400","永和區"
"234011","9373-KE","2018/01/18 19:59:47","新北市永和區仁愛路352巷120號","121.500285","25.0085533333333","6500400","永和區"
"249005","172-UM","2018/01/18 19:59:37","新北市八里區楓林路3-4號","121.381888333333","25.1292833333333","6502300","八里區"
"249001","173-UM","2018/01/18 19:59:40","新北市八里區中華路二段312號","121.403778333333","25.148375","6502300","八里區"
"249004","303-UY","2018/01/18 19:59:42","新北市八里區中華路一段333-1號","121.413315","25.1538166666667","6502300","八里區"
"249002","305-UY","2018/01/18 19:59:36","新北市八里區頂寮一街1號","121.452216666667","25.124175","6502300","八里區"
"249003","759-BX","2018/01/18 19:59:36","新北市八里區中華路二段560巷1號","121.398695","25.1450116666667","6502300","八里區"
"248014","025-BX","2018/01/18 19:59:48","新北市五股區五福路14巷9號","121.434756666667","25.08879","6501500","五股區"
"248008","095-VK","2018/01/18 19:59:50","新北市三重區中正北路598巷5號","121.469655","25.07154","6501500","五股區"
"248020","225-UY","2018/01/18 19:59:42","新北市五股區凌雲路三段19-1號","121.430653333333","25.1090816666667","6501500","五股區"
"248012","247-BX","2018/01/18 19:59:49","新北市五股區民義路一段112-7號","121.435221666667","25.0853016666667","6501500","五股區"
"248014","261-SL","2018/01/18 19:59:41","新北市五股區成泰路三段577巷80弄25號","121.449625","25.1045483333333","6501500","五股區"
"248010","272-BY","2018/01/18 19:59:54","新北市五股區登林路79-6號","121.42747","25.070485","6501500","五股區"
"248004","677-BX","2018/01/18 19:59:41","新北市五股區成泰路一段8巷2-3號","121.434833333333","25.066805","6501500","五股區"
"248002","678-BX","2018/01/18 19:59:49","新北市五股區成泰路三段487號","121.450815","25.0992633333333","6501500","五股區"
"234077","969-R7","2018/01/18 19:59:55","新北市永和區智光街94號","121.51613","24.9969883333333","6500400","永和區"
"234074","AAC-211","2018/01/18 19:59:53","新北市永和區豫溪街215巷5號","121.52401","25.0097733333333","6500400","永和區"
"234067","AAC-212","2018/01/18 19:59:41","新北市永和區中山路一段242號","121.507885","25.0079466666667","6500400","永和區"
"234003","AAC-295","2018/01/18 19:59:45","新北市永和區中正路613號","121.516191666667","25.0098283333333","6500400","永和區"
"243012","AAD-798","2018/01/18 19:59:45","新北市泰山區全興路111號","121.43387","25.0566216666667","6501600","泰山區"
"243011","297-R6","2018/01/18 19:59:45","新北市泰山區明志路三段182巷4號","121.42387","25.0390316666667","6501600","泰山區"
"243015","380-SR","2018/01/18 19:59:49","新北市泰山區明志路二段194號","121.427331666667","25.04971","6501600","泰山區"
"243014","421-VK","2018/01/18 19:59:40","新北市泰山區泰林路二段114號","121.434598333333","25.0591916666667","6501600","泰山區"
"243010","KEA-2215","2018/01/18 19:59:47","新北市泰山區中華街9號","121.427825","25.0524733333333","6501600","泰山區"
"243009","KEA-2216","2018/01/18 19:59:55","新北市泰山區泰林路二段164巷34號","121.434386666667","25.0612166666667","6501600","泰山區"
"243013","646-TV","2018/01/18 19:59:39","新北市泰山區應化街7號","121.423923333333","25.0436816666667","6501600","泰山區"
"243016","680-BX","2018/01/18 19:58:27","新北市泰山區新北大道六段405號","121.42159","25.0318516666667","6501600","泰山區"
"222003","436-BY","2018/01/18 19:59:40","新北市深坑區埔新街14號","121.620738333333","25.0039633333333","6501800","深坑區"
"222002","659-BX","2018/01/18 19:59:44","新北市深坑區北深路二段81巷20號","121.618441666667","25.0025316666667","6501800","深坑區"
"231041","002-UM","2018/01/18 19:59:40","新北市新店區中正路356號","121.53574","24.9756816666667","6500600","新店區"
"231066","0293-UT","2018/01/18 19:59:53","新北市新店區柴埕路52巷3號","121.51179","24.96445","6500600","新店區"
"231059","046-UY","2018/01/18 19:59:46","新北市新店區安康路二段149-3號","121.511176666667","24.959765","6500600","新店區"
"231061","047-UY","2018/01/18 19:59:44","新北市新店區安興路84號","121.515188333333","24.976035","6500600","新店區"
"231060","106-UY","2018/01/18 19:59:50","新北市新店區安康路二段387號","121.494765","24.95432","6500600","新店區"
"231051","107-UY","2018/01/18 19:59:47","新北市新店區中央路216-1號","121.529821666667","24.97317","6500600","新店區"
"231047","108-UY","2018/01/18 19:59:57","新北市新店區寶橋路160號","121.54898","24.9771283333333","6500600","新店區"
"231052","187-VK","2018/01/18 19:59:40","新北市新店區新烏路三段寶島巷2弄2號","121.552001666667","24.8985233333333","6500600","新店區"
"231050","KEA-2219","2018/01/18 19:59:49","新北市新店區光明街119號","121.538935","24.96167","6500600","新店區"
"231057","256-BX","2018/01/18 19:59:48","新北市新店區花園二路一段11號","121.555491666667","24.9325133333333","6500600","新店區"
"231046","278-BY","2018/01/18 19:59:43","新北市新店區安興路137-1號","121.516173333333","24.979405","6500600","新店區"
"231054","AAD-862","2018/01/18 19:59:52","新北市新店區光明街170號","121.539515","24.9619733333333","6500600","新店區"
"231056","3713-VJ","2018/01/18 19:59:48","新北市新店區民權路42巷32號","121.539155","24.9837966666667","6500600","新店區"
"231055","4716-K9","2018/01/18 19:59:47","新北市新店區力行路74號","121.538683333333","24.966235","6500600","新店區"
"231067","4772-VM","2018/01/18 19:59:42","新北市新店區秀山路11巷12弄15號","121.531426666667","24.9595533333333","6500600","新店區"
"231065","512-UM","2018/01/18 19:59:43","新北市新店區安祥路106巷10號","121.478743333333","24.9626233333333","6500600","新店區"
"231064","515-UM","2018/01/18 19:59:53","新北市新店區光華街22號","121.517006666667","24.9692933333333","6500600","新店區"
"231040","619-UM","2018/01/18 19:59:37","新北市新店區中正路66號","121.544171666667","24.970175","6500600","新店區"
"231042","641-BX","2018/01/18 19:59:44","新北市新店區中興路二段89號","121.54709","24.9714283333333","6500600","新店區"
"231063","645-TV","2018/01/18 19:59:50","新北市新店區黎明路9號","121.502501666667","24.950305","6500600","新店區"
"231068","718-UY","2018/01/18 19:59:42","新北市新店區安華路28-1號","121.519295","24.9607233333333","6500600","新店區"
"231049","719-UM","2018/01/18 19:59:56","新北市新店區明德路75巷2號","121.541388333333","24.9779583333333","6500600","新店區"
"231062","720-UM","2018/01/18 19:59:51","新北市新店區華城路10巷1-3號","121.528845","24.9577416666667","6500600","新店區"
"231044","897-TW","2018/01/18 19:59:46","新北市新店區復興路38號","121.538886666667","24.9867716666667","6500600","新店區"
"231045","898-TW","2018/01/18 19:59:50","新北市新店區北宜路二段82-13號","121.554678333333","24.9534966666667","6500600","新店區"
"231043","899-TW","2018/01/18 19:59:56","新北市新店區中正路263-3號","121.538338333333","24.9738133333333","6500600","新店區"
"241011","013-R5","2018/01/18 19:59:58","新北市三重區三和路二段119號","121.498965","25.0691666666667","6500200","三重區"
"241028","022-UY","2018/01/18 19:59:46","新北市三重區重新路三段82號","121.493086666667","25.0610916666667","6500200","三重區"
"241008","059-VK","2018/01/18 19:59:55","新北市三重區永福街179巷28號","121.477991666667","25.0747733333333","6500200","三重區"
"241009","060-VK","2018/01/18 19:59:49","新北市三重區三和路四段390巷12號","121.481476666667","25.078865","6500200","三重區"
"241031","061-VK","2018/01/18 19:59:48","新北市三重區重新路四段144巷23號","121.487018333333","25.0553066666667","6500200","三重區"
"241015","062-VK","2018/01/18 19:59:51","新北市三重區三和路二段37號","121.500746666667","25.0674116666667","6500200","三重區"
"241024","065-VK","2018/01/18 19:59:45","新北市三重區力行路一段176號","121.482096666667","25.0714866666667","6500200","三重區"
"241029","066-VK","2018/01/18 19:59:50","新北市三重區重安街1號","121.490008333333","25.0583416666667","6500200","三重區"
"241003","091-VK","2018/01/18 19:59:54","新北市三重區仁愛街445巷37號","121.490995","25.082915","6500200","三重區"
"241020","156-TC","2018/01/18 19:59:41","新北市三重區大智街165巷12號","121.49033","25.07261","6500200","三重區"
"241005","262-UM","2018/01/18 19:59:48","新北市三重區五華街251號","121.489051666667","25.0862833333333","6500200","三重區"
"241026","265-UM","2018/01/18 19:59:50","新北市三重區仁慈街30號","121.502285","25.06314","6500200","三重區"
"241016","266-UM","2018/01/18 19:59:40","新北市三重區正義北路36巷2號","121.497138333333","25.06332","6500200","三重區"
"241022","267-UM","2018/01/18 19:59:58","新北市三重區過圳街31巷2號","121.48898","25.060485","6500200","三重區"
"241018","268-UM","2018/01/18 19:59:49","新北市三重區雙園街64號","121.495756666667","25.0677066666667","6500200","三重區"
"241032","269-UM","2018/01/18 19:59:52","新北市三重區朝陽街46號","121.483375","25.05701","6500200","三重區"
"241013","270-UM","2018/01/18 19:59:44","新北市三重區三和路三段125巷21號","121.493533333333","25.0735516666667","6500200","三重區"
"241025","271-UM","2018/01/18 19:59:49","新北市三重區頂崁街210巷31號","121.475638333333","25.0681566666667","6500200","三重區"
"241007","398-BY","2018/01/18 19:59:41","新北市三重區慈愛街125號","121.488513333333","25.07985","6500200","三重區"
"241035","462-BY","2018/01/18 19:59:41","新北市三重區大榮街9號","121.498265","25.06311","6500200","三重區"
"241004","475-VK","2018/01/18 19:59:50","新北市三重區五華街86號","121.493033333333","25.0822816666667","6500200","三重區"
"241019","478-VK","2018/01/18 19:59:51","新北市三重區大智街186號","121.490971666667","25.070205","6500200","三重區"
"241030","480-VK","2018/01/18 19:59:39","新北市三重區重新路四段244巷10號","121.486223333333","25.0535116666667","6500200","三重區"
"241014","543-UM","2018/01/18 19:59:59","新北市三重區三和路二段178號","121.498973333333","25.0688466666667","6500200","三重區"
"241023","545-UM","2018/01/18 19:59:42","新北市三重區大有街1-9號","121.477553333333","25.0660516666667","6500200","三重區"
"241001","547-UM","2018/01/18 19:59:45","新北市三重區仁愛街269巷21號","121.493733333333","25.0790333333333","6500200","三重區"
"241033","557-UM","2018/01/18 19:59:58","新北市三重區中興北街117號","121.469765","25.0487716666667","6500200","三重區"
"241006","AAD-863","2018/01/18 19:59:37","新北市三重區力行路二段49-1號","121.481921666667","25.07402","6500200","三重區"
"241017","887-TS","2018/01/18 19:59:35","新北市三重區自強路一段314號","121.491176666667","25.068495","6500200","三重區"
"241012","941-UM","2018/01/18 19:59:49","新北市三重區仁厚街57號","121.500553333333","25.07663","6500200","三重區"
"235066","003-UY","2018/01/18 19:59:41","新北市中和區光華街36號","121.50492","25.0039633333333","6500300","中和區"
"235056","096-UM","2018/01/18 19:59:45","新北市中和區中山路三段170巷8弄24號","121.473113333333","25.0076116666667","6500300","中和區"
"235039","097-UM","2018/01/18 19:59:50","新北市中和區大勇街25巷15弄1號","121.515793333333","24.99367","6500300","中和區"
"235065","098-UM","2018/01/18 19:59:50","新北市中和區莊敬路33巷5弄7號","121.499581666667","25.0063633333333","6500300","中和區"
"235040","150-BY","2018/01/18 19:59:49","新北市中和區保健路8巷9號","121.507815","24.9978283333333","6500300","中和區"
"235058","151-BY","2018/01/18 19:59:30","新北市中和區員山路150巷2弄59號","121.481766666667","24.9972916666667","6500300","中和區"
"235055","183-VK","2018/01/18 19:59:54","新北市中和區民生街35巷1弄2號","121.470421666667","25.005105","6500300","中和區"
"235049","186-VK","2018/01/18 19:59:49","新北市中和區景平路534號","121.502711666667","24.994515","6500300","中和區"
"235067","255-BX","2018/01/18 19:59:54","新北市中和區員山路148巷23弄34號","121.482393333333","24.9979833333333","6500300","中和區"
"235044","293-VK","2018/01/18 19:59:46","新北市中和區板南路164號","121.501555","24.9926283333333","6500300","中和區"
"235043","352-BY","2018/01/18 19:59:52","新北市中和區興南路二段159巷7號","121.505411666667","24.983085","6500300","中和區"
"235068","377-QA","2018/01/18 19:59:44","新北市中和區中山路二段250巷16號","121.497413333333","25.0030983333333","6500300","中和區"
"235050","4979-A6","2018/01/18 19:59:54","新北市中和區景平路239巷3號","121.509975","24.99273","6500300","中和區"
"235069","4980-A6","2018/01/18 19:59:48","新北市中和區景新街50巷8號","121.503545","24.998625","6500300","中和區"
"235042","551-UM","2018/01/18 19:59:51","新北市中和區景平路278巷14弄7號","121.514275","24.9931133333333","6500300","中和區"
"235070","558-UM","2018/01/18 19:58:15","新北市中和區圓通路80號","121.499883333333","24.9971733333333","6500300","中和區"
"235054","640-BX","2018/01/18 19:59:36","新北市中和區莒光路132號","121.4725","25.00152","6500300","中和區"
"235046","733-UM","2018/01/18 19:59:52","新北市中和區興南路一段93巷85號","121.510593333333","24.9862033333333","6500300","中和區"
"235041","802-TS","2018/01/18 19:59:48","新北市中和區安平路142號","121.51239","24.9980316666667","6500300","中和區"
"235052","805-TS","2018/01/18 19:59:37","新北市中和區華新街192巷40號","121.506121666667","24.9836666666667","6500300","中和區"
"235048","896-TW","2018/01/18 19:59:53","新北市中和區景新街447-1號","121.51307","24.9887733333333","6500300","中和區"
"235053","900-TW","2018/01/18 19:59:46","新北市中和區華安街99號","121.468145","24.9962916666667","6500300","中和區"
"235051","157-BY","2018/01/18 19:59:54","新北市中和區復興路301巷16號","121.50139","24.989565","6500300","中和區"
"235037","AAC-213","2018/01/18 19:59:51","新北市中和區自立路147號","121.52256","24.9930333333333","6500300","中和區"
"235059","AAC-215","2018/01/18 19:59:46","新北市中和區圓通路335巷33弄17號","121.492991666667","24.9889133333333","6500300","中和區"
"220065","072-UY","2018/01/18 19:59:53","新北市板橋區區運路2號","121.465221666667","25.0089683333333","6500100","板橋區"
"220106","075-UY","2018/01/18 19:59:38","新北市板橋區民治街82巷25號","121.478726666667","25.0326","6500100","板橋區"
"220069","AAD-861","2018/01/18 19:59:51","新北市板橋區大明街18-9號","121.458718333333","25.00269","6500100","板橋區"
"247020","500-BY","2018/01/18 19:59:37","新北市蘆洲區民義街53號","121.472798333333","25.0898266666667","6501400","蘆洲區"
"247008","341-TH","2018/01/18 19:59:56","新北市蘆洲區中山一路95巷20弄1號","121.47739","25.0805983333333","6501400","蘆洲區"
"247010","339-TH","2018/01/18 19:59:40","新北市三重區集賢路188號","121.484018333333","25.0880266666667","6501400","蘆洲區"
"247002","337-TH","2018/01/18 19:59:48","新北市蘆洲區長安街270號","121.457515","25.0868866666667","6501400","蘆洲區"
"247004","336-TH","2018/01/18 19:59:53","新北市蘆洲區永康街35號","121.457366666667","25.0852333333333","6501400","蘆洲區"
"247016","057-VK","2018/01/18 19:59:49","新北市蘆洲區正和街16巷14號","121.469873333333","25.083075","6501400","蘆洲區"
"247006","056-VK","2018/01/18 19:59:56","新北市蘆洲區九芎街86號","121.465968333333","25.0797566666667","6501400","蘆洲區"
"247014","007-UY","2018/01/18 19:59:50","新北市蘆洲區中山二路100號","121.472665","25.0819","6501400","蘆洲區"
"247024","002-UY","2018/01/18 19:59:45","新北市蘆洲區光榮路120巷23號","121.465721666667","25.0883016666667","6501400","蘆洲區"
"226004","312-R5","2018/01/18 19:58:40","新北市平溪區石底里公園街18-3號","121.733211666667","25.0258","6502400","平溪區"
"228003","097-TW","2018/01/18 19:59:51","新北市貢寮區仁理村仁和路76號","121.922718333333","25.0501666666667","6502600","貢寮區"
"224010","AGQ-8101","2018/01/18 19:54:53","新北市瑞芳區烏勢巷145號","121.847801666667","25.10903","6501200","瑞芳區"
"227010","642-TC","2018/01/18 19:59:51","新北市雙溪區新基里新基南街25號","121.866238333333","25.0381966666667","6502500","雙溪區"
"227004","400-TW","2018/01/18 19:59:53","新北市雙溪區雙溪里長安街16號","121.865098333333","25.03458","6502500","雙溪區"
"222001","KEA-2212","2018/01/18 19:59:37","新北市深坑區北深路三段172號","121.602213333333","25.00349","6501800","深坑區"
"208002","742-BX","2018/01/18 19:59:48","新北市金山區環金路19號","121.640818333333","25.2176083333333","6502700","金山區"
"208003","665-BX","2018/01/18 19:59:48","新北市金山區香園15號","121.634268333333","25.2528833333333","6502700","金山區"
"208001","761-BX","2018/01/18 19:59:49","新北市金山區南勢69號","121.625983333333","25.220165","6502700","金山區"
"251009","008-UM","2018/01/18 19:59:43","新北市淡水區英專路28巷3號","121.445855","25.16995","6501000","淡水區"
"251004","009-UM","2018/01/18 19:59:56","新北市淡水區民族路50巷30號","121.460998333333","25.135725","6501000","淡水區"
"251005","010-UM","2018/01/18 19:59:55","新北市淡水區學府路136巷19號","121.451363333333","25.172825","6501000","淡水區"
"251013","179-VK","2018/01/18 19:59:54","新北市淡水區奎柔山路63號","121.451615","25.2061716666667","6501000","淡水區"
"251014","180-VK","2018/01/18 19:59:51","新北市淡水區石頭厝14-53號","121.464198333333","25.236765","6501000","淡水區"
"251008","181-VK","2018/01/18 19:59:54","新北市淡水區淡海路67號","121.42289","25.1810516666667","6501000","淡水區"
"251015","182-VK","2018/01/18 19:59:53","新北市淡水區埤島77-4號","121.450266666667","25.1915566666667","6501000","淡水區"
"251010","413-VK","2018/01/18 19:59:51","新北市淡水區崁頂三路167號","121.430701666667","25.20124","6501000","淡水區"
"251012","441-VK","2018/01/18 19:59:47","新北市淡水區下圭柔山110-10號","121.438946666667","25.21164","6501000","淡水區"
"251016","442-VK","2018/01/18 19:59:48","新北市淡水區興仁路162號","121.45134","25.22066","6501000","淡水區"
"251001","559-UM","2018/01/18 19:59:45","新北市淡水區淡金路二段38號","121.451231666667","25.1819183333333","6501000","淡水區"
"251006","561-UM","2018/01/18 19:59:53","新北市淡水區北新路6號","121.444368333333","25.177465","6501000","淡水區"
"251011","650-BX","2018/01/18 19:59:41","新北市淡水區崁頂55-2號","121.442463333333","25.1970533333333","6501000","淡水區"
"251002","672-BX","2018/01/18 19:59:48","新北市淡水區中正路一段156巷1號","121.420716666667","25.1801816666667","6501000","淡水區"
"207003","550-UM","2018/01/18 19:59:47","新北市萬里區大鵬里萬里加投45-2號","121.641721666667","25.2108783333333","6502800","萬里區"
"207004","225-TW","2018/01/18 19:59:46","新北市萬里區北基里忠二街35號","121.68563","25.175755","6502800","萬里區"
"252002","178-VK","2018/01/18 19:59:47","新北市三芝區忠孝街116-3號","121.505551666667","25.2574916666667","6502100","三芝區"
"252001","292-VK","2018/01/18 19:59:58","新北市三芝區公正街9號","121.499723333333","25.2575316666667","6502100","三芝區"
"237004","078-UY","2018/01/18 19:59:54","新北市三峽區嘉添109-1號","121.370156666667","24.91001","6500900","三峽區"
"237007","153-BY","2018/01/18 19:59:51","新北市三峽區二鬮路136巷145號","121.357071666667","24.91066","6500900","三峽區"
"237009","210-TH","2018/01/18 19:59:57","新北市三峽區中園街64號","121.367975","24.9255833333333","6500900","三峽區"
"237012","275-BY","2018/01/18 19:59:36","新北市三峽區光明路22號","121.37346","24.9308566666667","6500900","三峽區"
"237008","302-VK","2018/01/18 19:59:37","新北市三峽區中正路一段292巷10號","121.37103","24.9259366666667","6500900","三峽區"
"237014","433-BY","2018/01/18 19:59:44","新北市三峽區光明路39-1號","121.374666666667","24.9298833333333","6500900","三峽區"
"237006","5529-G3","2018/01/18 19:59:51","新北市三峽區中正路一段413號","121.370193333333","24.92049","6500900","三峽區"
"237016","649-BX","2018/01/18 19:59:52","新北市三峽區成福路8號","121.416378333333","24.9278733333333","6500900","三峽區"
"237005","AKY-6261","2018/01/18 19:59:45","新北市三峽區民生街1巷27-1號","121.379646666667","24.934125","6500900","三峽區"
"236071","105-UM","2018/01/18 19:59:39","新北市土城區忠義路92號","121.444296666667","24.9623016666667","6501300","土城區"
"236042","107-UM","2018/01/18 19:59:40","新北市土城區學府路一段141號","121.45363","24.9861983333333","6501300","土城區"
"236030","253-BX","2018/01/18 19:59:53","新北市土城區中央路一段244號","121.444556666667","24.9848316666667","6501300","土城區"
"236026","269-VK","2018/01/18 19:59:43","新北市土城區中央路二段73號","121.442368333333","24.9786233333333","6501300","土城區"
"236014","270-VK","2018/01/18 19:59:49","新北市土城區廣福街123號","121.45624","24.992865","6501300","土城區"
"236037","271-VK","2018/01/18 19:59:55","新北市土城區國際路72號","121.466825","24.976225","6501300","土城區"
"236021","401-BY","2018/01/18 19:59:50","新北市土城區延吉街137巷12弄5號","121.470716666667","24.985415","6501300","土城區"
"236078","752-BX","2018/01/18 19:59:42","新北市土城區福安街106號","121.417243333333","24.9638966666667","6501300","土城區"
"236058","912-UM","2018/01/18 19:59:53","新北市土城區中央路一段140號","121.446146666667","24.9876433333333","6501300","土城區"
"236051","913-UM","2018/01/18 19:59:54","新北市土城區金城路三段190號","121.468356666667","24.987895","6501300","土城區"
"236062","915-UM","2018/01/18 19:59:51","新北市土城區金城路三段73巷4弄34號","121.466233333333","24.9884033333333","6501300","土城區"
"236053","AAC-216","2018/01/18 19:59:55","新北市土城區學府路一段12號","121.459215","24.9884783333333","6501300","土城區"
"242031","AAC-296","2018/01/18 19:59:36","新北市新莊區公園一路40號","121.443366666667","25.0355733333333","6500500","新莊區"
"242029","986-R7","2018/01/18 19:59:46","新北市新莊區中榮街152巷44號","121.445408333333","25.0537616666667","6500500","新莊區"
"242025","615-BX","2018/01/18 19:59:57","新北市新莊區五工二路86巷33號","121.460515","25.0673133333333","6500500","新莊區"
"242023","613-BX","2018/01/18 19:59:52","新北市新莊區化成路374號","121.465883333333","25.0498333333333","6500500","新莊區"
"242027","612-BX","2018/01/18 19:59:50","新北市新莊區立信三街12巷10號","121.444171666667","25.0509683333333","6500500","新莊區"
"242039","566-BX","2018/01/18 19:59:42","新北市新莊區民安路285-1號","121.429131666667","25.0225883333333","6500500","新莊區"
"242044","442-UM","2018/01/18 19:59:45","新北市新莊區中正路742巷3弄12號","121.412748333333","25.0234116666667","6500500","新莊區"
"242048","441-UM","2018/01/18 19:59:48","新北市新莊區民安路106號","121.424046666667","25.0256533333333","6500500","新莊區"
"242053","440-UM","2018/01/18 19:59:56","新北市新莊區西盛街418號","121.427161666667","25.0122083333333","6500500","新莊區"
"242034","415-TV","2018/01/18 19:59:46","新北市新莊區建中街98號","121.446635","25.03655","6500500","新莊區"
"242004","413-TV","2018/01/18 19:59:48","新北市新莊區化成路205-3號","121.465536666667","25.0510466666667","6500500","新莊區"
"242042","400-BY","2018/01/18 19:59:46","新北市新莊區青山路一段52號","121.4098","25.0277516666667","6500500","新莊區"
"242061","362-BY","2018/01/18 19:59:37","新北市新莊區瓊泰路34號","121.444135","25.0286633333333","6500500","新莊區"
"242058","353-BY","2018/01/18 19:59:54","新北市新莊區八德街117號","121.424121666667","25.020745","6500500","新莊區"
"242007","132-UY","2018/01/18 19:59:43","新北市新莊區思源路583號","121.459683333333","25.0590316666667","6500500","新莊區"
"242036","133-UY","2018/01/18 19:59:40","新北市新莊區建安街43號","121.428853333333","25.0255616666667","6500500","新莊區"
"242021","135-UY","2018/01/18 19:59:39","新北市新莊區建中街32巷21號","121.448738333333","25.0381866666667","6500500","新莊區"
"242046","172-VK","2018/01/18 19:59:38","新北市新莊區裕民街19巷4號","121.419678333333","25.0252033333333","6500500","新莊區"
"242009","173-VK","2018/01/18 19:59:52","新北市新莊區幸福路763-1號","121.447855","25.0491133333333","6500500","新莊區"
"242015","175-VK","2018/01/18 19:59:48","新北市新莊區復興路一段33巷6號","121.446346666667","25.0422916666667","6500500","新莊區"
"242013","346-TH","2018/01/18 19:59:52","新北市新莊區幸福路670巷2弄1號","121.451068333333","25.0496266666667","6500500","新莊區"
"242019","348-TH","2018/01/18 19:59:47","新北市新莊區民樂街45號","121.457528333333","25.0415616666667","6500500","新莊區"
"242056","349-TH","2018/01/18 19:59:54","新北市新莊區中正路347巷18號","121.447136666667","25.0343216666667","6500500","新莊區"
"242017","350-TH","2018/01/18 19:59:47","新北市新莊區中安街35號","121.452493333333","25.0459433333333","6500500","新莊區"
"242011","351-TH","2018/01/18 19:59:54","新北市新莊區中義街48號","121.449488333333","25.0513266666667","6500500","新莊區"
"238015","755-BX","2018/01/18 19:59:46","新北市樹林區中山路三段214號","121.380488333333","24.9669766666667","6500700","樹林區"
"238021","KEA-2217","2018/01/18 19:59:39","新北市樹林區佳園路三段111號","121.386843333333","24.9509383333333","6500700","樹林區"
"238020","268-VK","2018/01/18 19:59:48","新北市樹林區大安路109號","121.422516666667","24.998035","6500700","樹林區"
"239006","891-R6","2018/01/18 19:59:44","新北市鶯歌區文化路124號","121.351808333333","24.951935","6500800","鶯歌區"
"221036","130-UY","2018/01/18 19:59:47","新北市汐止區忠孝東路258巷9號","121.663718333333","25.0672483333333","6501100","汐止區"
"221010","269-BY","2018/01/18 19:59:45","新北市汐止區連峰街225巷9號","121.644513333333","25.0809166666667","6501100","汐止區"
"221012","278-VK","2018/01/18 19:59:58","新北市汐止區大同路三段279號","121.674186666667","25.0750633333333","6501100","汐止區"
"221023","279-VK","2018/01/18 19:59:42","新北市汐止區明峰街196號","121.627951666667","25.0695083333333","6501100","汐止區"
"221032","280-BY","2018/01/18 19:59:36","新北市汐止區橫科路18巷33弄1號","121.617433333333","25.0497283333333","6501100","汐止區"
"221027","281-BY","2018/01/18 19:59:41","新北市汐止區中正路47號","121.661918333333","25.07012","6501100","汐止區"
"221029","298-VK","2018/01/18 19:59:51","新北市汐止區樟樹一路137巷26號","121.640973333333","25.066025","6501100","汐止區"
"221021","299-VK","2018/01/18 19:59:52","新北市汐止區水源路一段111號","121.65653","25.0630633333333","6501100","汐止區"
"221031","353-TW","2018/01/18 19:59:41","新北市汐止區福德一路221號","121.634528333333","25.0651633333333","6501100","汐止區"
"221008","358-BY","2018/01/18 19:59:47","新北市汐止區忠一街9巷7號","121.620515","25.0731966666667","6501100","汐止區"
"221015","567-BX","2018/01/18 19:59:36","新北市汐止區鄉長路一段31-1號","121.665318333333","25.0747583333333","6501100","汐止區"
"221035","622-UM","2018/01/18 19:59:54","新北市汐止區長江街43號","121.655786666667","25.07124","6501100","汐止區"
"221025","623-UM","2018/01/18 19:59:43","新北市汐止區秀峰路107號","121.660128333333","25.0633583333333","6501100","汐止區"
"221038","646-BX","2018/01/18 19:59:47","新北市汐止區忠孝東路470號","121.666196666667","25.0732283333333","6501100","汐止區"
"221033","647-BX","2018/01/18 19:59:43","新北市汐止區東勢街201巷34號","121.635023333333","25.043575","6501100","汐止區"
"221018","753-BX","2018/01/18 19:59:49","新北市汐止區茄苳路290號","121.672911666667","25.067125","6501100","汐止區"
"220079","145-BY","2018/01/18 19:59:55","新北市板橋區南雅西路二段143號","121.452096666667","25.0117133333333","6500100","板橋區"
"220080","200-UY","2018/01/18 19:59:45","新北市板橋區大觀路二段163巷21號","121.446515","25.0001533333333","6500100","板橋區"
"220082","610-BX","2018/01/18 19:59:54","新北市板橋區篤行路二段131巷19號","121.43171","24.9903183333333","6500100","板橋區"
"220101","245-BX","2018/01/18 19:59:49","新北市板橋區莒光路196巷28號","121.473028333333","25.0226766666667","6500100","板橋區"
"220055","256-TC","2018/01/18 19:59:42","新北市板橋區仁愛路62巷14弄1-3號","121.459933333333","24.99848","6500100","板橋區"
"220096","257-TC","2018/01/18 19:59:42","新北市板橋區莒光路40巷9號","121.470233333333","25.0236333333333","6500100","板橋區"
"220072","277-BY","2018/01/18 19:59:55","新北市板橋區金門街131號","121.433088333333","24.9912066666667","6500100","板橋區"
"220071","283-VK","2018/01/18 19:59:48","新北市板橋區和平路174巷31號","121.46485","24.9943666666667","6500100","板橋區"
"220094","285-UM","2018/01/18 19:59:52","新北市板橋區陽明街239號","121.463206666667","25.0244933333333","6500100","板橋區"
"220053","285-VK","2018/01/18 19:59:56","新北市板橋區永豐街51號","121.474123333333","25.0178483333333","6500100","板橋區"
"220083","286-VK","2018/01/18 19:59:52","新北市板橋區僑中二街8巷21號","121.446166666667","25.0112966666667","6500100","板橋區"
"220081","287-VK","2018/01/18 19:59:35","新北市板橋區僑中一街80巷10弄1號","121.447955","25.0129133333333","6500100","板橋區"
"220090","288-VK","2018/01/18 19:59:46","新北市板橋區幸福路32巷2弄29號","121.460935","25.0218033333333","6500100","板橋區"
"220061","293-UM","2018/01/18 19:59:54","新北市板橋區觀光街67-1號","121.470263333333","25.0165816666667","6500100","板橋區"
"220062","295-UM","2018/01/18 19:59:39","新北市板橋區光復街31巷1號","121.48155","25.0189516666667","6500100","板橋區"
"220084","296-UM","2018/01/18 19:59:48","新北市板橋區溪崑二街103巷9號","121.427088333333","24.9888183333333","6500100","板橋區"
"220075","303-R5","2018/01/18 19:59:46","新北市板橋區中正路250巷85號","121.459075","25.020055","6500100","板橋區"
"220092","307-R5","2018/01/18 19:59:46","新北市板橋區光正街45巷31號","121.461785","25.0160483333333","6500100","板橋區"
"220098","317-R6","2018/01/18 19:59:53","新北市板橋區漢生西路159號","121.463033333333","25.0233283333333","6500100","板橋區"
"220064","486-VK","2018/01/18 19:59:43","新北市板橋區實踐路106號","121.464036666667","25.0047416666667","6500100","板橋區"
"220089","487-VK","2018/01/18 19:59:40","新北市板橋區新海路385巷34弄2號","121.457405","25.0255366666667","6500100","板橋區"
"242002","280-VK","2018/01/18 19:59:44","新北市新莊區新泰路99號","121.449041666667","25.0349233333333","6500500","新莊區"
"220088","491-VK","2018/01/18 19:59:50","新北市板橋區懷德街189-1號","121.479798333333","25.029565","6500100","板橋區"
"220035","560-BX","2018/01/18 19:59:48","新北市板橋區新生街29巷4弄7號","121.456983333333","25.0218083333333","6500100","板橋區"
"220103","561-BX","2018/01/18 19:59:51","新北市板橋區自由路13號","121.465496666667","25.0226733333333","6500100","板橋區"
"220063","609-BX","2018/01/18 19:59:42","新北市板橋區中山路二段91號","121.474171666667","25.0159583333333","6500100","板橋區"
"220091","637-BX","2018/01/18 19:59:47","新北市板橋區文聖街89巷28號","121.478248333333","25.0302616666667","6500100","板橋區"
"220057","686-BX","2018/01/18 19:59:39","新北市板橋區信義路16-3號","121.456968333333","24.9958666666667","6500100","板橋區"
"220093","689-BX","2018/01/18 19:59:48","新北市板橋區文化路二段620號","121.478091666667","25.0355616666667","6500100","板橋區"
"220054","741-BX","2018/01/18 19:59:56","新北市板橋區忠孝路201巷108號","121.464638333333","25.0050083333333","6500100","板橋區"
"220067","829-TW","2018/01/18 19:59:54","新北市板橋區長安街331巷93弄9號","121.472176666667","25.0123916666667","6500100","板橋區"
"220102","830-TW","2018/01/18 19:59:53","新北市板橋區仁化街64巷14號","121.475756666667","25.031505","6500100","板橋區"
"220074","895-R6","2018/01/18 19:59:51","新北市板橋區民權路65號","121.461761666667","25.0113666666667","6500100","板橋區"
"220073","985-R7","2018/01/18 19:59:45","新北市板橋區南雅西路二段116號","121.452128333333","25.0122866666667","6500100","板橋區"
"220097","AAC-210","2018/01/18 19:59:59","新北市板橋區光正街43號","121.46179","25.0170733333333","6500100","板橋區"
"220070","AAC-253","2018/01/18 19:59:57","新北市板橋區四川路一段106號","121.459785","25.0045483333333","6500100","板橋區"
