"lineid","car","time","location","longitude","latitude","cityid","cityname"
"234046","148-BY","2018/01/18 20:24:49","新北市中和區勝利路2號","121.498523333333","25.0086933333333","6500400","永和區"
"234042","149-BY","2018/01/18 20:11:43","新北市永和區雙和街41號","121.508671666667","25.0025866666667","6500400","永和區"
"234081","298-R6","2018/01/18 20:16:36","新北市永和區國中路104巷12弄1號","121.524776666667","25.0072","6500400","永和區"
"234038","336-UY","2018/01/18 20:17:15","新北市永和區成功路一段93巷21弄2號","121.528348333333","25.0026683333333","6500400","永和區"
"234064","337-UY","2018/01/18 20:25:46","新北市永和區中正路393號","121.51719","25.0040133333333","6500400","永和區"
"234086","338-UY","2018/01/18 20:11:40","新北市永和區中正路581-3號","121.516726666667","25.0089833333333","6500400","永和區"
"234070","552-UM","2018/01/18 20:25:10","新北市永和區永寧街52號","121.519706666667","25.0069716666667","6500400","永和區"
"234054","553-UM","2018/01/18 20:25:13","新北市永和區光復街31-1號","121.516391666667","25.0178866666667","6500400","永和區"
"234030","746-BX","2018/01/18 20:21:42","新北市永和區民族街182巷1號","121.518213333333","24.9965916666667","6500400","永和區"
"234013","KEA-2591","2018/01/18 20:21:01","新北市永和區仁愛路295號","121.504855","25.0092333333333","6500400","永和區"
"234061","AAD-866","2018/01/18 20:20:01","新北市永和區安樂路150號","121.51431","25.000505","6500400","永和區"
"234050","863-TW","2018/01/18 20:17:57","新北市永和區環河西路二段39號","121.507318333333","25.015655","6500400","永和區"
"249005","172-UM","2018/01/18 20:25:37","新北市八里區中山路三段285號","121.379338333333","25.13766","6502300","八里區"
"249001","173-UM","2018/01/18 20:29:00","新北市八里區下罟子5-11號","121.386843333333","25.1422966666667","6502300","八里區"
"249004","303-UY","2018/01/18 20:28:42","新北市八里區中山路一段129巷37號","121.414025","25.1584516666667","6502300","八里區"
"249002","305-UY","2018/01/18 20:28:56","新北市八里區龍米路二段125巷13號","121.445965","25.1453933333333","6502300","八里區"
"249003","759-BX","2018/01/18 20:29:16","新北市八里區華峰一街27號","121.399053333333","25.1465416666667","6502300","八里區"
"248010","272-BY","2018/01/18 20:28:47","新北市五股區新五路二段70號","121.43695","25.0735333333333","6501500","五股區"
"248002","678-BX","2018/01/18 20:26:49","新北市五股區成泰路三段43-4號","121.442448333333","25.08898","6501500","五股區"
"234023","9380-KE","2018/01/18 20:27:14","新北市永和區永和路二段276巷2弄1號","121.51642","25.0153233333333","6500400","永和區"
"234074","AAC-211","2018/01/18 20:28:13","新北市永和區豫溪街217巷29號","121.524305","25.01023","6500400","永和區"
"234067","AAC-212","2018/01/18 20:29:01","新北市永和區保平路268巷51弄22號","121.506818333333","25.00603","6500400","永和區"
"234003","AAC-295","2018/01/18 20:23:45","新北市永和區大新街33號","121.515296666667","25.008505","6500400","永和區"
"243012","AAD-798","2018/01/18 20:25:25","新北市泰山區泰林路二段309號","121.429791666667","25.0631966666667","6501600","泰山區"
"243011","297-R6","2018/01/18 20:15:05","新北市泰山區新北大道七段21號","121.420563333333","25.032085","6501600","泰山區"
"243015","380-SR","2018/01/18 20:26:09","新北市泰山區仁德路105號","121.433161666667","25.0562583333333","6501600","泰山區"
"243014","421-VK","2018/01/18 20:12:40","新北市泰山區明志路一段72號","121.433421666667","25.0645416666667","6501600","泰山區"
"243010","KEA-2215","2018/01/18 20:28:47","新北市泰山區新生路33號","121.427508333333","25.0453533333333","6501600","泰山區"
"243009","KEA-2216","2018/01/18 20:19:35","新北市泰山區泰林路二段302號","121.430791666667","25.0627716666667","6501600","泰山區"
"243013","646-TV","2018/01/18 20:23:59","新北市泰山區民國街32號","121.425751666667","25.0431416666667","6501600","泰山區"
"243016","680-BX","2018/01/18 20:13:47","新北市泰山區明志路三段125號","121.424998333333","25.0406616666667","6501600","泰山區"
"222003","436-BY","2018/01/18 20:26:40","新北市深坑區深坑街27號","121.615928333333","25.00237","6501800","深坑區"
"222002","659-BX","2018/01/18 20:22:18","新北市深坑區萬福路16巷3號","121.603401666667","25.007835","6501800","深坑區"
"231041","002-UM","2018/01/18 20:25:21","新北市新店區民權路137號","121.534856666667","24.982685","6500600","新店區"
"231066","0293-UT","2018/01/18 20:28:11","新北市新店區安興路112號","121.514575","24.9776433333333","6500600","新店區"
"231059","046-UY","2018/01/18 20:28:46","新北市新店區安豐路49號","121.500068333333","24.95485","6500600","新店區"
"231061","047-UY","2018/01/18 20:29:03","新北市新店區新和街33號","121.518898333333","24.9846116666667","6500600","新店區"
"231060","106-UY","2018/01/18 20:28:30","新北市新店區錦秀路73號","121.478905","24.941985","6500600","新店區"
"231051","107-UY","2018/01/18 20:27:47","新北市新店區中央七街111號","121.5257","24.977775","6500600","新店區"
"231047","108-UY","2018/01/18 20:29:17","新北市新店區寶慶街58巷12號","121.542063333333","24.9872683333333","6500600","新店區"
"231052","187-VK","2018/01/18 20:28:42","新北市新店區松林路36號","121.5458","24.9102683333333","6500600","新店區"
"231050","KEA-2219","2018/01/18 20:29:29","新北市新店區明德路41號","121.541291666667","24.9756666666667","6500600","新店區"
"231057","256-BX","2018/01/18 20:22:28","新北市新店區蘭苑一路2號","121.552425","24.93452","6500600","新店區"
"231054","AAD-862","2018/01/18 20:22:32","新北市新店區檳榔路69號","121.544238333333","24.9620783333333","6500600","新店區"
"231058","3712-VJ","2018/01/18 20:29:21","新北市新店區自由街55號","121.534458333333","24.973545","6500600","新店區"
"231056","3713-VJ","2018/01/18 20:28:48","新北市新店區中正路302巷5弄1號","121.538226666667","24.9754616666667","6500600","新店區"
"231055","4716-K9","2018/01/18 20:29:07","新北市新店區新明街16號","121.540956666667","24.9683233333333","6500600","新店區"
"231065","512-UM","2018/01/18 20:23:23","新北市新店區安祥路102巷28號","121.484005","24.9639916666667","6500600","新店區"
"231064","515-UM","2018/01/18 20:29:13","新北市新店區永安街81號","121.519941666667","24.9865983333333","6500600","新店區"
"231040","619-UM","2018/01/18 20:29:07","新北市新店區民族路192號","121.535978333333","24.975455","6500600","新店區"
"231042","641-BX","2018/01/18 20:26:53","新北市新店區寶橋路156-3號","121.5487","24.9770216666667","6500600","新店區"
"231063","645-TV","2018/01/18 20:28:40","新北市新店區安康路三段29號","121.493103333333","24.9530716666667","6500600","新店區"
"231068","718-UY","2018/01/18 20:28:42","新北市新店區民權路21號","121.541886666667","24.9827483333333","6500600","新店區"
"231049","719-UM","2018/01/18 20:25:15","新北市新店區永業路81巷3弄2號","121.53004","24.9490266666667","6500600","新店區"
"231062","720-UM","2018/01/18 20:28:31","新北市新店區安泰路60巷92號","121.483995","24.945405","6500600","新店區"
"231044","897-TW","2018/01/18 20:26:25","新北市新店區民族路19號","121.541271666667","24.978685","6500600","新店區"
"231045","898-TW","2018/01/18 20:27:50","新北市新店區新坡一街19號","121.549585","24.9630216666667","6500600","新店區"
"231043","899-TW","2018/01/18 20:25:16","新北市新店區民族路64號","121.539691666667","24.9784183333333","6500600","新店區"
"241011","013-R5","2018/01/18 20:29:18","新北市三重區龍門路95號","121.497363333333","25.0726783333333","6500200","三重區"
"241028","022-UY","2018/01/18 20:29:06","新北市三重區光興街93號","121.497326666667","25.0599166666667","6500200","三重區"
"241008","059-VK","2018/01/18 20:28:55","新北市三重區下竹圍街42號","121.481016666667","25.0749866666667","6500200","三重區"
"241009","060-VK","2018/01/18 20:29:29","新北市三重區永福街58巷1弄4號","121.481341666667","25.078005","6500200","三重區"
"241031","061-VK","2018/01/18 20:29:08","新北市三重區三寧街18號","121.489378333333","25.0599366666667","6500200","三重區"
"241015","062-VK","2018/01/18 20:28:51","新北市三重區文化北路41-1號","121.498916666667","25.0652283333333","6500200","三重區"
"241024","065-VK","2018/01/18 20:22:05","新北市三重區忠孝路三段15巷14號","121.480973333333","25.0676","6500200","三重區"
"241029","066-VK","2018/01/18 20:28:10","新北市三重區集美街229號","121.492231666667","25.0549366666667","6500200","三重區"
"241002","090-VK","2018/01/18 20:26:18","新北市三重區仁義街209號","121.496876666667","25.0818266666667","6500200","三重區"
"241003","091-VK","2018/01/18 20:27:34","新北市三重區富華街168號","121.492578333333","25.084685","6500200","三重區"
"241020","156-TC","2018/01/18 20:29:01","新北市三重區明德街36號","121.492318333333","25.072085","6500200","三重區"
"241005","262-UM","2018/01/18 20:29:26","新北市三重區碧華街317號","121.490978333333","25.084245","6500200","三重區"
"241026","265-UM","2018/01/18 20:23:30","新北市三重區福德南路7號","121.50264","25.0634716666667","6500200","三重區"
"241016","266-UM","2018/01/18 20:26:20","新北市三重區正義北路68號","121.497056666667","25.0643766666667","6500200","三重區"
"241022","267-UM","2018/01/18 20:26:39","新北市三重區重陽路二段1號","121.48688","25.0615283333333","6500200","三重區"
"241018","268-UM","2018/01/18 20:28:29","新北市三重區正義北路216巷9號","121.495785","25.06753","6500200","三重區"
"241032","269-UM","2018/01/18 20:24:52","新北市三重區重陽路一段26巷10號","121.48602","25.0572633333333","6500200","三重區"
"241013","270-UM","2018/01/18 20:28:44","新北市三重區溪尾街5巷47號","121.493383333333","25.0748966666667","6500200","三重區"
"241025","271-UM","2018/01/18 20:25:29","新北市三重區頂崁街210巷27號","121.475761666667","25.0682","6500200","三重區"
"241007","398-BY","2018/01/18 20:27:20","新北市三重區自強路四段51號","121.489783333333","25.0780233333333","6500200","三重區"
"241035","462-BY","2018/01/18 20:26:01","新北市三重區重新路二段54號","121.498183333333","25.0621016666667","6500200","三重區"
"241004","475-VK","2018/01/18 20:26:45","新北市三重區溪尾街165巷37號","121.49027","25.0802733333333","6500200","三重區"
"241019","478-VK","2018/01/18 20:25:10","新北市三重區忠孝路一段75號","121.490511666667","25.0720233333333","6500200","三重區"
"241030","480-VK","2018/01/18 20:28:39","新北市三重區成功路62號","121.488595","25.0509933333333","6500200","三重區"
"241014","543-UM","2018/01/18 20:28:19","新北市三重區長壽街120巷11號","121.502475","25.069095","6500200","三重區"
"241023","545-UM","2018/01/18 20:29:22","新北市三重區自由街19號","121.479751666667","25.066605","6500200","三重區"
"241001","547-UM","2018/01/18 20:28:45","新北市三重區福隆路37號","121.490238333333","25.07731","6500200","三重區"
"241033","557-UM","2018/01/18 20:27:18","新北市三重區五谷王北街82號","121.476011666667","25.0527683333333","6500200","三重區"
"241017","887-TS","2018/01/18 20:27:55","新北市三重區自強路一段290號","121.49152","25.0683383333333","6500200","三重區"
"241012","941-UM","2018/01/18 20:29:28","新北市三重區龍濱路281-1號","121.501278333333","25.0733616666667","6500200","三重區"
"235066","003-UY","2018/01/18 20:28:41","新北市中和區保平路326巷31號","121.506306666667","25.0047316666667","6500300","中和區"
"235039","097-UM","2018/01/18 20:29:30","新北市中和區大勇街27巷6號","121.517108333333","24.9937916666667","6500300","中和區"
"235065","098-UM","2018/01/18 20:29:10","新北市中和區永和路118號","121.496516666667","25.006275","6500300","中和區"
"235050","4979-A6","2018/01/18 20:29:07","新北市中和區景安路82巷8弄3號","121.504698333333","24.9964716666667","6500300","中和區"
"235069","4980-A6","2018/01/18 20:28:28","新北市中和區中正路536號","121.48757","24.9946633333333","6500300","中和區"
"235026","800-TS","2018/01/18 20:27:46","新北市中和區員山路36巷16-3號","121.48483","24.9915316666667","6500300","中和區"
"235059","AAC-215","2018/01/18 20:26:46","新北市中和區員山路22號","121.483465","24.9841166666667","6500300","中和區"
"220069","AAD-861","2018/01/18 20:11:41","新北市板橋區大明街20巷19弄6號","121.45843","25.0032633333333","6500100","板橋區"
"247022","893-R6","2018/01/18 20:22:35","新北市蘆洲區三民路251號","121.468295","25.08937","6501400","蘆洲區"
"247012","546-UM","2018/01/18 20:24:43","新北市蘆洲區中興街8號","121.480166666667","25.0868233333333","6501400","蘆洲區"
"247020","500-BY","2018/01/18 20:28:58","新北市蘆洲區仁愛街132號","121.469115","25.0944416666667","6501400","蘆洲區"
"247008","341-TH","2018/01/18 20:28:16","新北市蘆洲區永安北路二段76巷9號","121.482953333333","25.08516","6501400","蘆洲區"
"247010","339-TH","2018/01/18 20:29:00","新北市蘆洲區信義路222巷53弄20-1號","121.480868333333","25.0856116666667","6501400","蘆洲區"
"247002","337-TH","2018/01/18 20:24:48","新北市蘆洲區長安街353號","121.456993333333","25.0872016666667","6501400","蘆洲區"
"247004","336-TH","2018/01/18 20:26:53","新北市蘆洲區永康街63巷2號","121.456275","25.08496","6501400","蘆洲區"
"247016","057-VK","2018/01/18 20:19:28","新北市蘆洲區中正路185巷45弄7號","121.466076666667","25.08358","6501400","蘆洲區"
"247006","056-VK","2018/01/18 20:24:16","新北市蘆洲區九芎街167巷54號","121.466063333333","25.0779433333333","6501400","蘆洲區"
"247014","007-UY","2018/01/18 20:27:30","新北市蘆洲區中山二路170號","121.47073","25.080885","6501400","蘆洲區"
"247024","002-UY","2018/01/18 20:29:25","新北市蘆洲區光復路70巷19號","121.46464","25.085305","6501400","蘆洲區"
"247018","001-UY","2018/01/18 20:23:17","新北市蘆洲區民族路253-1號","121.476568333333","25.09022","6501400","蘆洲區"
"222001","KEA-2212","2018/01/18 20:27:17","新北市深坑區北深路三段327號","121.597423333333","25.00486","6501800","深坑區"
"251013","179-VK","2018/01/18 20:27:14","新北市淡水區奎柔山路417號","121.463958333333","25.204745","6501000","淡水區"
"251014","180-VK","2018/01/18 20:29:31","新北市淡水區石頭厝8-4號","121.460403333333","25.2375916666667","6501000","淡水區"
"251008","181-VK","2018/01/18 20:24:15","新北市淡水區淡海路206巷20號","121.421433333333","25.185445","6501000","淡水區"
"251015","182-VK","2018/01/18 20:29:13","新北市淡水區淡金路四段542巷17號","121.45277","25.2270866666667","6501000","淡水區"
"251010","413-VK","2018/01/18 20:24:31","新北市淡水區沙崙路218號","121.425133333333","25.1843133333333","6501000","淡水區"
"251012","441-VK","2018/01/18 20:27:47","新北市淡水區頂田寮路3號","121.453275","25.21677","6501000","淡水區"
"251016","442-VK","2018/01/18 20:29:08","新北市淡水區新埔子11-10號","121.447218333333","25.22863","6501000","淡水區"
"251001","559-UM","2018/01/18 20:27:25","新北市淡水區中山北路二段180號","121.444385","25.1848783333333","6501000","淡水區"
"251006","561-UM","2018/01/18 20:27:13","新北市淡水區商工路356號","121.468411666667","25.1854133333333","6501000","淡水區"
"251011","650-BX","2018/01/18 20:28:21","新北市淡水區崁頂里77號","121.430853333333","25.2034883333333","6501000","淡水區"
"251002","672-BX","2018/01/18 20:29:08","新北市淡水區中正路25號","121.442536666667","25.1695133333333","6501000","淡水區"
"251003","673-BX","2018/01/18 20:28:28","新北市淡水區新生街29號","121.439433333333","25.1750516666667","6501000","淡水區"
"207004","225-TW","2018/01/18 20:24:06","新北市萬里區北基里孝三街10號","121.684063333333","25.17677","6502800","萬里區"
"252002","178-VK","2018/01/18 20:28:27","新北市三芝區淡金路二段18-1號","121.502623333333","25.25954","6502100","三芝區"
"252001","292-VK","2018/01/18 20:27:58","新北市三芝區中山路一段14號","121.50073","25.2580416666667","6502100","三芝區"
"237006","5529-G3","2018/01/18 20:29:11","新北市三峽區中正路二段41號","121.366738333333","24.9188366666667","6500900","三峽區"
"237016","649-BX","2018/01/18 20:28:37","新北市三峽區介壽路二段138巷16號","121.395873333333","24.9347283333333","6500900","三峽區"
"236026","269-VK","2018/01/18 20:14:43","新北市土城區裕生路67巷6弄2號","121.447655","24.98456","6501300","土城區"
"236014","270-VK","2018/01/18 20:15:29","新北市土城區廣明街63巷19號","121.454246666667","24.99323","6501300","土城區"
"236037","271-VK","2018/01/18 20:15:01","新北市土城區延吉街345號","121.464791666667","24.9840933333333","6501300","土城區"
"236021","401-BY","2018/01/18 20:13:50","新北市土城區延吉街111巷1弄1號","121.471493333333","24.9864083333333","6501300","土城區"
"236078","752-BX","2018/01/18 20:10:02","新北市土城區民族街26號","121.418753333333","24.9632866666667","6501300","土城區"
"242031","AAC-296","2018/01/18 20:21:56","新北市新莊區中正路483號","121.441155","25.0335816666667","6500500","新莊區"
"242029","986-R7","2018/01/18 20:19:26","新北市新莊區中原路233號","121.449756666667","25.05426","6500500","新莊區"
"242025","615-BX","2018/01/18 20:14:37","新北市新莊區五工路68巷2號","121.45899","25.064245","6500500","新莊區"
"242023","613-BX","2018/01/18 20:18:51","新北市新莊區化成路750-1號","121.465498333333","25.0577916666667","6500500","新莊區"
"242027","612-BX","2018/01/18 20:23:30","新北市新莊區幸福路66號","121.457101666667","25.04944","6500500","新莊區"
"242039","566-BX","2018/01/18 20:22:22","新北市新莊區成功街85號","121.424313333333","25.01902","6500500","新莊區"
"242044","442-UM","2018/01/18 20:18:25","新北市新莊區中正路895-4號","121.412626666667","25.0218033333333","6500500","新莊區"
"242048","441-UM","2018/01/18 20:19:28","新北市新莊區四維路212巷4弄8號","121.421296666667","25.02055","6500500","新莊區"
"242053","440-UM","2018/01/18 20:14:37","新北市新莊區民安西路273號","121.426238333333","25.012545","6500500","新莊區"
"242034","415-TV","2018/01/18 20:17:26","新北市新莊區建中街139號","121.445076666667","25.0364466666667","6500500","新莊區"
"242004","413-TV","2018/01/18 20:12:28","新北市新莊區化成路554巷50號","121.468063333333","25.0541016666667","6500500","新莊區"
"242042","400-BY","2018/01/18 20:23:26","新北市新莊區天祥街54巷6弄1號","121.416873333333","25.0293616666667","6500500","新莊區"
"242061","362-BY","2018/01/18 20:17:37","新北市新莊區新樹路200號","121.434243333333","25.02086","6500500","新莊區"
"242058","353-BY","2018/01/18 20:22:34","新北市新莊區四維路201-1號","121.421931666667","25.0205283333333","6500500","新莊區"
"242007","132-UY","2018/01/18 20:16:23","新北市新莊區福壽街124巷34弄4號","121.45923","25.0511933333333","6500500","新莊區"
"242036","133-UY","2018/01/18 20:20:40","新北市新莊區後港一路56巷24弄9號","121.426291666667","25.0251516666667","6500500","新莊區"
"242021","135-UY","2018/01/18 20:17:19","新北市新莊區復興路一段8號","121.445656666667","25.041455","6500500","新莊區"
"242046","172-VK","2018/01/18 20:20:18","新北市新莊區中正路新生巷31號","121.41707","25.0234916666667","6500500","新莊區"
"242009","173-VK","2018/01/18 20:18:52","新北市新莊區昌隆街31號","121.454811666667","25.0510616666667","6500500","新莊區"
"242015","175-VK","2018/01/18 20:20:05","新北市新莊區中和街38號","121.448158333333","25.04402","6500500","新莊區"
"242013","346-TH","2018/01/18 20:16:22","新北市新莊區中和街204巷12號","121.448365","25.0500716666667","6500500","新莊區"
"242019","348-TH","2018/01/18 20:12:47","新北市新莊區復興路二段164號","121.457865","25.0442716666667","6500500","新莊區"
"242056","349-TH","2018/01/18 20:20:54","新北市新莊區豐年街22號","121.44617","25.0325283333333","6500500","新莊區"
"242017","350-TH","2018/01/18 20:13:47","新北市新莊區中港一街30號","121.451055","25.0455866666667","6500500","新莊區"
"242011","351-TH","2018/01/18 20:18:54","新北市新莊區中信街37巷1弄11號","121.450943333333","25.0506033333333","6500500","新莊區"
"221036","130-UY","2018/01/18 20:23:47","新北市汐止區福安街37巷3號","121.663018333333","25.0649916666667","6501100","汐止區"
"221010","269-BY","2018/01/18 20:18:25","新北市汐止區八連路二段280號","121.63099","25.0977466666667","6501100","汐止區"
"221012","278-VK","2018/01/18 20:29:17","新北市汐止區大同路三段211號","121.672586666667","25.0767533333333","6501100","汐止區"
"221023","279-VK","2018/01/18 20:25:22","新北市汐止區湖東街5巷9號","121.634026666667","25.0730133333333","6501100","汐止區"
"221032","280-BY","2018/01/18 20:26:15","新北市汐止區民權街二段58號","121.619351666667","25.0487316666667","6501100","汐止區"
"221027","281-BY","2018/01/18 20:19:41","新北市汐止區大同路二段509號","121.661346666667","25.0687833333333","6501100","汐止區"
"221029","298-VK","2018/01/18 20:29:11","新北市汐止區樟樹一路129巷34弄19號","121.640411666667","25.0652566666667","6501100","汐止區"
"221021","299-VK","2018/01/18 20:29:12","新北市汐止區水源路一段284號","121.654133333333","25.058305","6501100","汐止區"
"221031","353-TW","2018/01/18 20:28:41","新北市汐止區中興路110巷9弄2號","121.633711666667","25.0642433333333","6501100","汐止區"
"221008","358-BY","2018/01/18 20:24:28","新北市汐止區康寧街460號","121.631681666667","25.0682433333333","6501100","汐止區"
"221015","567-BX","2018/01/18 20:28:16","新北市汐止區建成路142巷19弄17號","121.661795","25.0739083333333","6501100","汐止區"
"221035","622-UM","2018/01/18 20:28:54","新北市汐止區長江街101-5號","121.658623333333","25.07324","6501100","汐止區"
"221025","623-UM","2018/01/18 20:24:43","新北市汐止區水源路二段80號","121.656261666667","25.0563283333333","6501100","汐止區"
"221038","646-BX","2018/01/18 20:28:27","新北市汐止區秀峰路57號","121.659665","25.065185","6501100","汐止區"
"221033","647-BX","2018/01/18 20:29:03","新北市汐止區林森街73巷5號","121.623583333333","25.0409483333333","6501100","汐止區"
"221002","707-TV","2018/01/18 20:29:09","新北市汐止區福德一路10號","121.638841666667","25.0695966666667","6501100","汐止區"
"221018","753-BX","2018/01/18 20:29:09","新北市汐止區茄苳路225巷11弄4號","121.67141","25.069465","6501100","汐止區"
"220080","200-UY","2018/01/18 20:19:45","新北市板橋區大觀路一段31號","121.44993","25.0084783333333","6500100","板橋區"
"220053","285-VK","2018/01/18 20:16:35","新北市板橋區萬安街16-1號","121.484881666667","25.0240283333333","6500100","板橋區"
"220083","286-VK","2018/01/18 20:25:52","新北市板橋區僑中二街100巷32號","121.44469","25.0087583333333","6500100","板橋區"
"220081","287-VK","2018/01/18 20:22:55","新北市板橋區僑中二街152號","121.444998333333","25.0043883333333","6500100","板橋區"
"220061","293-UM","2018/01/18 20:19:33","新北市板橋區四川路一段286巷19號","121.457811666667","25.0011833333333","6500100","板橋區"
"220062","295-UM","2018/01/18 20:14:19","新北市五股區五工二路136號","121.455051666667","25.07237","6500100","板橋區"
"220084","296-UM","2018/01/18 20:20:24","新北市土城區城林路6巷73號","121.437655","24.9787266666667","6500100","板橋區"
"220064","486-VK","2018/01/18 20:16:43","新北市板橋區長安街210-1號","121.474648333333","25.011995","6500100","板橋區"
"220089","487-VK","2018/01/18 20:16:01","新北市板橋區互助街29-1號","121.461433333333","25.02679","6500100","板橋區"
"242002","280-VK","2018/01/18 20:18:44","新北市三重區重新路五段637-1號","121.467071666667","25.04324","6500500","新莊區"
"220088","491-VK","2018/01/18 20:29:11","新北市八里區荖阡坑路20-9號","121.398528333333","25.1368316666667","6500100","板橋區"
"220103","561-BX","2018/01/18 20:18:51","新北市板橋區文德路5號","121.462758333333","25.0243233333333","6500100","板橋區"
"220093","689-BX","2018/01/18 20:12:48","新北市板橋區長江路一段158號","121.461216666667","25.0303566666667","6500100","板橋區"
"220102","830-TW","2018/01/18 20:24:53","新北市板橋區文化路一段160號","121.465451666667","25.01929","6500100","板橋區"
"220074","895-R6","2018/01/18 20:15:11","新北市板橋區南雅南路一段3巷25-8號","121.456858333333","25.0056916666667","6500100","板橋區"
"220097","AAC-210","2018/01/18 20:15:29","新北市板橋區光正街56號","121.461655","25.0178616666667","6500100","板橋區"
"220070","AAC-253","2018/01/18 20:28:57","新北市泰山區新五路一段104號","121.440423333333","25.0617716666667","6500100","板橋區"
