"lineid","car","time","location","longitude","latitude","cityid","cityname"
"248010","272-BY","2018/01/18 21:19:27","新北市八里區中山路三段382號","121.368675","25.1358566666667","6501500","五股區"
"231059","046-UY","2018/01/18 21:19:26","新北市新店區薏仁坑路自強巷1號","121.496903333333","24.957785","6500600","新店區"
"231051","107-UY","2018/01/18 21:19:27","新北市新店區中正路680巷51弄11號","121.535351666667","24.9894766666667","6500600","新店區"
"231047","108-UY","2018/01/18 21:19:37","新北市新店區溪園路401號","121.523806666667","24.9779983333333","6500600","新店區"
"231050","KEA-2219","2018/01/18 21:19:29","新北市新店區中華路141號","121.538208333333","24.9700433333333","6500600","新店區"
"231067","4772-VM","2018/01/18 21:19:42","新北市新店區薏仁坑路自強巷1號","121.497833333333","24.9576166666667","6500600","新店區"
"231040","619-UM","2018/01/18 21:19:37","新北市新店區光明街191號","121.540043333333","24.963405","6500600","新店區"
"231063","645-TV","2018/01/18 21:19:40","新北市新店區玫瑰路57巷23號","121.496523333333","24.9463566666667","6500600","新店區"
"241011","013-R5","2018/01/18 21:19:38","新北市三重區龍濱路120-6號","121.501806666667","25.0713833333333","6500200","三重區"
"241028","022-UY","2018/01/18 21:19:25","新北市三重區同安東街82號","121.499018333333","25.057495","6500200","三重區"
"241008","059-VK","2018/01/18 21:19:35","新北市三重區自強路一段62號","121.497251666667","25.066705","6500200","三重區"
"241009","060-VK","2018/01/18 21:19:29","新北市三重區忠孝路三段31號","121.481386666667","25.067045","6500200","三重區"
"241031","061-VK","2018/01/18 21:19:28","新北市三重區重新路五段408巷19號","121.47571","25.0455633333333","6500200","三重區"
"241024","065-VK","2018/01/18 21:19:25","新北市三重區中正北路145巷8弄2號","121.484078333333","25.0678066666667","6500200","三重區"
"241002","090-VK","2018/01/18 21:19:38","新北市三重區自強路五段59號","121.494616666667","25.0818966666667","6500200","三重區"
"241005","262-UM","2018/01/18 21:19:27","新北市三重區集英路3號","121.487526666667","25.0856633333333","6500200","三重區"
"241026","265-UM","2018/01/18 21:19:30","新北市三重區大同南路220號","121.496731666667","25.0561883333333","6500200","三重區"
"241016","266-UM","2018/01/18 21:19:40","新北市三重區自強路一段95號","121.495855","25.0662716666667","6500200","三重區"
"241018","268-UM","2018/01/18 21:19:29","新北市三重區忠孝路二段95號","121.484316666667","25.0699683333333","6500200","三重區"
"241032","269-UM","2018/01/18 21:19:32","新北市三重區光復路二段175號","121.472155","25.0617166666667","6500200","三重區"
"241013","270-UM","2018/01/18 21:19:44","新北市三重區仁愛街83號","121.49585","25.0733233333333","6500200","三重區"
"241025","271-UM","2018/01/18 21:19:29","新北市三重區忠孝路三段40巷16弄10號","121.482355","25.0668666666667","6500200","三重區"
"241007","398-BY","2018/01/18 21:19:41","新北市三重區忠孝路一段61號","121.490866666667","25.0719283333333","6500200","三重區"
"241004","475-VK","2018/01/18 21:19:25","新北市三重區分子尾街85號","121.48884","25.0826583333333","6500200","三重區"
"241019","478-VK","2018/01/18 21:19:30","新北市三重區重陽路三段7-2號","121.48896","25.066485","6500200","三重區"
"241030","480-VK","2018/01/18 21:19:39","新北市三重區五谷王北街86號","121.476501666667","25.05403","6500200","三重區"
"241014","543-UM","2018/01/18 21:19:38","新北市三重區萬全街16號","121.499276666667","25.06982","6500200","三重區"
"241023","545-UM","2018/01/18 21:19:42","新北市三重區中正北路176巷27號","121.482633333333","25.0659416666667","6500200","三重區"
"241001","547-UM","2018/01/18 21:19:25","新北市三重區仁愛街477號","121.489138333333","25.0821583333333","6500200","三重區"
"241033","557-UM","2018/01/18 21:19:38","新北市三重區光復路二段102巷59號","121.469011666667","25.0581533333333","6500200","三重區"
"241006","AAD-863","2018/01/18 21:19:37","新北市三重區重陽路二段67號","121.487703333333","25.0638516666667","6500200","三重區"
"241017","887-TS","2018/01/18 21:19:40","新北市三重區中正北路25巷8號","121.493406666667","25.0628966666667","6500200","三重區"
"241012","941-UM","2018/01/18 21:19:28","新北市三重區龍門路282號","121.501975","25.0740816666667","6500200","三重區"
"247022","893-R6","2018/01/18 21:19:35","新北市蘆洲區三民路251號","121.468388333333","25.089405","6501400","蘆洲區"
"247012","546-UM","2018/01/18 21:19:43","新北市蘆洲區民族路236巷6號","121.480271666667","25.08843","6501400","蘆洲區"
"247020","500-BY","2018/01/18 21:19:37","新北市蘆洲區仁愛街62巷22號","121.47219","25.094275","6501400","蘆洲區"
"247008","341-TH","2018/01/18 21:19:36","新北市蘆洲區中山一路103巷20號","121.475855","25.0811316666667","6501400","蘆洲區"
"247010","339-TH","2018/01/18 21:19:40","新北市蘆洲區鷺江街16-2號","121.478821666667","25.0824766666667","6501400","蘆洲區"
"247002","337-TH","2018/01/18 21:19:28","新北市蘆洲區永樂街57號","121.456693333333","25.0885083333333","6501400","蘆洲區"
"247004","336-TH","2018/01/18 21:19:33","新北市蘆洲區永安南路二段324號","121.456886666667","25.08278","6501400","蘆洲區"
"247006","056-VK","2018/01/18 21:19:36","新北市蘆洲區長安街60號","121.462996666667","25.07991","6501400","蘆洲區"
"247014","007-UY","2018/01/18 21:19:30","新北市蘆洲區保和街50-6號","121.469838333333","25.0863083333333","6501400","蘆洲區"
"247024","002-UY","2018/01/18 21:19:45","新北市蘆洲區光明路96號","121.463125","25.0879566666667","6501400","蘆洲區"
"247018","001-UY","2018/01/18 21:19:37","新北市蘆洲區復興路111-6號","121.47649","25.0884633333333","6501400","蘆洲區"
"251009","008-UM","2018/01/18 21:19:43","新北市淡水區民族路112巷1號","121.462708333333","25.1352083333333","6501000","淡水區"
"251004","009-UM","2018/01/18 21:19:38","新北市淡水區民族路33巷16-20號","121.462531666667","25.13579","6501000","淡水區"
"251005","010-UM","2018/01/18 21:19:35","新北市淡水區水源街一段122巷40號","121.447041666667","25.1705783333333","6501000","淡水區"
"251013","179-VK","2018/01/18 21:19:34","新北市淡水區行忠路328號","121.460418333333","25.199605","6501000","淡水區"
"251014","180-VK","2018/01/18 21:19:31","新北市淡水區六塊厝2-1號","121.450135","25.2404833333333","6501000","淡水區"
"251008","181-VK","2018/01/18 21:19:34","新北市淡水區水源街二段227號","121.460426666667","25.1764233333333","6501000","淡水區"
"251015","182-VK","2018/01/18 21:19:33","新北市淡水區淡金路四段542巷83弄20號","121.456471666667","25.2266466666667","6501000","淡水區"
"251010","413-VK","2018/01/18 21:19:31","新北市淡水區中正路一段156巷12號","121.421873333333","25.1808433333333","6501000","淡水區"
"251012","441-VK","2018/01/18 21:19:27","新北市淡水區石頭埔8號","121.45265","25.23458","6501000","淡水區"
"251016","442-VK","2018/01/18 21:19:28","新北市淡水區前洲子20號","121.440915","25.2193033333333","6501000","淡水區"
"251001","559-UM","2018/01/18 21:19:45","新北市淡水區濱海路一段308號","121.440993333333","25.189375","6501000","淡水區"
"251006","561-UM","2018/01/18 21:19:33","新北市淡水區中正路288號","121.437671666667","25.17196","6501000","淡水區"
"251011","650-BX","2018/01/18 21:19:41","新北市淡水區新民街120巷29號","121.43887","25.1788566666667","6501000","淡水區"
"251002","672-BX","2018/01/18 21:19:27","新北市淡水區學府路172巷21號","121.448296666667","25.17489","6501000","淡水區"
"251003","673-BX","2018/01/18 21:19:34","新北市淡水區崁頂16號","121.439185","25.1850516666667","6501000","淡水區"
"242048","441-UM","2018/01/18 21:18:48","新北市樹林區中山路三段204號","121.386681666667","24.96831","6500500","新莊區"
"242034","415-TV","2018/01/18 21:19:45","新北市樹林區八德街495-3號","121.40187","24.9692783333333","6500500","新莊區"
"242036","133-UY","2018/01/18 21:19:40","新北市樹林區中山路三段214號","121.380498333333","24.96753","6500500","新莊區"
"220070","AAC-253","2018/01/18 21:19:37","新北市八里區商港路10號","121.396816666667","25.1443133333333","6500100","板橋區"
