"lineid","car","time","location","longitude","latitude","cityid","cityname"
"248005","653-BX","2018/01/19 07:11:04","新北市五股區明德路12巷3號","121.433331666667","25.0717916666667","6501500","五股區"
"232003","290-BY","2018/01/19 07:29:22","新北市坪林區桶盤嶼4號","121.711686666667","24.95903","6502000","坪林區"
"232015","291-BY","2018/01/19 07:29:37","新北市坪林區黃舉皮寮3-1號","121.687705","24.9399166666667","6502000","坪林區"
"232019","705-BZ","2018/01/19 07:29:28","新北市坪林區大舌湖9號","121.733763333333","24.9750216666667","6502000","坪林區"
"232008","758-BX","2018/01/19 07:29:31","新北市坪林區魚堀14號","121.704773333333","24.908235","6502000","坪林區"
"244004","248-BX","2018/01/19 07:29:23","新北市林口區頂福53-23號","121.346013333333","25.0862716666667","6501700","林口區"
"222005","289-BY","2018/01/19 07:24:28","新北市深坑區文化街39巷1號","121.618905","25.0011283333333","6501800","深坑區"
"235001","611-BX","2018/01/19 07:29:33","新北市中和區圓通路367巷6號","121.491495","24.9893033333333","6500300","中和區"
"226005","5620-A6","2018/01/19 07:29:17","新北市平溪區嶺腳里中華街36號","121.739228333333","25.0252933333333","6502400","平溪區"
"226001","8452-VL","2018/01/19 07:24:41","新北市平溪區南山里南山坪2號","121.762546666667","25.0315766666667","6502400","平溪區"
"226003","AGD-0702","2018/01/19 07:29:31","新北市平溪區嶺腳里中華街61號","121.739396666667","25.02504","6502400","平溪區"
"223006","022-BY","2018/01/19 07:29:29","新北市坪林區坪碇路171號","121.698611666667","24.9499266666667","6501900","石碇區"
"223002","198-BX","2018/01/19 07:29:33","新北市石碇區北宜路六段獅子頭坑巷18號","121.638183333333","24.9304716666667","6501900","石碇區"
"223008","406-TH","2018/01/19 07:28:33","新北市石碇區靜安路一段337號","121.699208333333","25.01485","6501900","石碇區"
"223001","592-UM","2018/01/19 07:29:03","新北市石碇區蛇舌子11-3號","121.659895","24.96947","6501900","石碇區"
"223004","660-BX","2018/01/19 07:29:30","新北市石碇區八分寮47-1號","121.642155","25.013615","6501900","石碇區"
"223007","661-BX","2018/01/19 07:29:20","新北市石碇區大溪墘7-1號","121.697","25.0075683333333","6501900","石碇區"
"223005","677-TV","2018/01/19 07:29:20","新北市石碇區八分寮55-5號","121.645158333333","25.01705","6501900","石碇區"
"227005","282-VK","2018/01/19 07:29:24","新北市雙溪區新基里中華路117號","121.866096666667","25.0391033333333","6502500","雙溪區"
"236010","165-UM","2018/01/19 07:29:18","新北市土城區學府路一段65號","121.45721","24.9882766666667","6501300","土城區"
"236004","339-SR","2018/01/19 07:29:26","新北市土城區承天路114號","121.452338333333","24.9498183333333","6501300","土城區"
"220086","461-BY","2018/01/19 07:25:50","新北市板橋區國光路31巷16號","121.457938333333","25.0181533333333","6500100","板橋區"
