"lineid","car","time","location","longitude","latitude","cityid","cityname"
"248005","653-BX","2018/05/03 08:09:03","新北市五股區明德路12巷3號","121.433255","25.0717733333333","6501500","五股區"
"232001","290-BY","2018/05/03 08:08:57","新北市坪林區坪雙路一段115號","121.728066666667","24.9482366666667","6502000","坪林區"
"232014","291-BY","2018/05/03 08:08:58","新北市坪林區金瓜寮3號","121.681003333333","24.91836","6502000","坪林區"
"232010","375-UM","2018/05/03 08:06:42","新北市坪林區厚德岡坑8-5號","121.733158333333","24.9409383333333","6502000","坪林區"
"244006","080-UY","2018/05/03 08:08:53","新北市林口區中湖43-5號","121.381818333333","25.0923566666667","6501700","林口區"
"244003","248-BX","2018/05/03 08:08:59","新北市林口區嘉寶里11鄰26號","121.33779","25.1086266666667","6501700","林口區"
"244018","742-UY","2018/05/03 08:08:51","新北市林口區四維路156-1號","121.38072","25.0752483333333","6501700","林口區"
"244022","483-VK","2018/05/03 08:08:43","新北市林口區粉寮路一段51號","121.396705","25.0777416666667","6501700","林口區"
"244016","485-VK","2018/05/03 08:08:53","新北市林口區中山路23號","121.3959","25.0783083333333","6501700","林口區"
"244008","656-BX","2018/05/03 08:08:51","新北市林口區竹林路548號","121.387413333333","25.0847266666667","6501700","林口區"
"244010","657-BX","2018/05/03 08:08:53","新北市林口區仁愛路一段641號","121.38883","25.076665","6501700","林口區"
"244024","837-TS","2018/05/03 08:08:44","新北市林口區中山路250號","121.386061666667","25.0794016666667","6501700","林口區"
"244020","838-TS","2018/05/03 08:08:43","新北市林口區粉寮路60-17號","121.404305","25.0901466666667","6501700","林口區"
"222006","289-BY","2018/05/03 08:08:33","新北市深坑區北深路三段105號","121.605371666667","25.0016333333333","6501800","深坑區"
"231069","188-VK","2018/05/03 08:08:53","新北市新店區華潭街1巷49號","121.527008333333","24.9469466666667","6500600","新店區"
"231008","192-VK","2018/05/03 08:08:53","新北市新店區北新路一段89號","121.53868","24.96167","6500600","新店區"
"235001","611-BX","2018/05/03 08:08:48","新北市中和區圓通路367巷33弄96號","121.49476","24.9837266666667","6500300","中和區"
"226005","5620-A6","2018/05/03 08:08:54","新北市平溪區靜安路二段532號","121.746786666667","25.0272416666667","6502400","平溪區"
"226002","7418-A5","2018/05/03 08:08:49","新北市平溪區十分里姜仔坑2號","121.766443333333","25.035205","6502400","平溪區"
"226003","AGD-0702","2018/05/03 08:08:58","新北市平溪區新寮里頂寮子62號","121.775515","25.0456016666667","6502400","平溪區"
"223006","022-BY","2018/05/03 08:08:49","新北市石碇區楓子林30號","121.642311666667","25.009535","6501900","石碇區"
"223002","KEA-2673","2018/05/03 08:08:42","新北市石碇區北宜路五段80號","121.646563333333","24.9517633333333","6501900","石碇區"
"223001","205-TH","2018/05/03 08:08:59","新北市石碇區北宜路五段80號","121.646295","24.9517216666667","6501900","石碇區"
"223008","406-TH","2018/05/03 08:08:44","新北市石碇區靜安路一段231號","121.678113333333","25.0104233333333","6501900","石碇區"
"223001","592-UM","2018/05/03 08:08:51","新北市石碇區北宜路五段80號","121.646365","24.9516566666667","6501900","石碇區"
"223004","660-BX","2018/05/03 08:09:01","新北市石碇區外按16-1號","121.650791666667","24.997445","6501900","石碇區"
"223005","677-TV","2018/05/03 08:08:59","新北市石碇區石崁1號","121.651596666667","25.000225","6501900","石碇區"
"252006","073-UM","2018/05/03 08:08:54","新北市三芝區中山路二段50號","121.50314","25.2543466666667","6502100","三芝區"
"252004","249-BX","2018/05/03 08:08:45","新北市三芝區興華里車埕36-13號","121.50489","25.1924783333333","6502100","三芝區"
"252007","AAC-283","2018/05/03 08:08:56","新北市三芝區後厝里大片頭90號","121.456151666667","25.246845","6502100","三芝區"
"237001","159-UY","2018/05/03 08:08:44","新北市三峽區學成路286號","121.376785","24.94371","6500900","三峽區"
"236009","165-UM","2018/05/03 08:08:50","新北市土城區青雲路322巷14號","121.457383333333","24.9765116666667","6501300","土城區"
"236003","339-SR","2018/05/03 08:08:41","新北市土城區龍泉路96號","121.442013333333","24.942925","6501300","土城區"
"236005","498-BY","2018/05/03 08:08:52","新北市土城區永平街51號","121.427511666667","24.9591583333333","6501300","土城區"
"242033","AAC-296","2018/05/03 08:08:56","新北市新莊區新莊路637號","121.445338333333","25.0328266666667","6500500","新莊區"
"242057","986-R7","2018/05/03 08:08:57","新北市新莊區中正路726-1號","121.415946666667","25.0242283333333","6500500","新莊區"
"242052","751-BX","2018/05/03 08:08:52","新北市樹林區樹新路247號","121.431273333333","25.0007533333333","6500500","新莊區"
"242059","705-TV","2018/05/03 08:08:50","新北市新莊區瓊林南路118-27號","121.433918333333","25.0107633333333","6500500","新莊區"
"242026","615-BX","2018/05/03 08:08:48","新北市新莊區福壽街77號","121.45813","25.0498416666667","6500500","新莊區"
"242024","613-BX","2018/05/03 08:09:01","新北市新莊區思源路70號","121.460268333333","25.0449266666667","6500500","新莊區"
"242028","612-BX","2018/05/03 08:08:46","新北市新莊區復興路二段118號","121.456465","25.0442483333333","6500500","新莊區"
"242040","566-BX","2018/05/03 08:08:57","新北市新莊區中正路514巷43號","121.432408333333","25.03343","6500500","新莊區"
"242045","497-BY","2018/05/03 08:08:47","新北市新莊區建國一路94號","121.434531666667","25.0299583333333","6500500","新莊區"
"242038","442-UM","2018/05/03 08:08:47","新北市新莊區民安西路37號","121.427575","25.02094","6500500","新莊區"
"242049","441-UM","2018/05/03 08:08:46","新北市新莊區西盛街313號","121.428165","25.015215","6500500","新莊區"
"242006","413-TV","2018/05/03 08:08:55","新北市新莊區福樂街122號","121.45702","25.0478266666667","6500500","新莊區"
"242043","400-BY","2018/05/03 08:08:53","新北市新莊區中正路871巷9弄2號","121.418728333333","25.0268","6500500","新莊區"
"242022","362-BY","2018/05/03 08:08:55","新北市新莊區公園路129-12號","121.45767","25.0410783333333","6500500","新莊區"
"242008","132-UY","2018/05/03 08:08:45","新北市新莊區昌明街14巷6弄1號","121.457405","25.0530016666667","6500500","新莊區"
"242030","135-UY","2018/05/03 08:08:56","新北市新莊區新泰路351號","121.444511666667","25.0424966666667","6500500","新莊區"
"242047","172-VK","2018/05/03 08:08:46","新北市新莊區萬安街151號","121.420345","25.0215866666667","6500500","新莊區"
"242010","173-VK","2018/05/03 08:08:57","新北市新莊區中港路570號","121.451431666667","25.0532766666667","6500500","新莊區"
"242016","175-VK","2018/05/03 08:08:44","新北市新莊區復興路一段149巷21弄13號","121.449555","25.0439966666667","6500500","新莊區"
"242003","176-VK","2018/05/03 08:08:56","新北市新莊區自立街212號","121.457138333333","25.04544","6500500","新莊區"
"242014","346-TH","2018/05/03 08:08:59","新北市新莊區新泰路380號","121.444121666667","25.043205","6500500","新莊區"
"242020","347-TH","2018/05/03 08:08:55","新北市新莊區中華路一段29號","121.451901666667","25.0374916666667","6500500","新莊區"
"242035","349-TH","2018/05/03 08:08:48","新北市新莊區建福路59巷28號","121.428048333333","25.0275616666667","6500500","新莊區"
"242018","350-TH","2018/05/03 08:08:45","新北市新莊區中港路215號","121.454761666667","25.0422216666667","6500500","新莊區"
"242012","351-TH","2018/05/03 08:08:53","新北市新莊區中誠街144號","121.448751666667","25.0475683333333","6500500","新莊區"
"242001","KEA-2550","2018/05/03 08:08:59","新北市新莊區新莊路435號","121.450111666667","25.033515","6500500","新莊區"
"242055","280-VK","2018/05/03 08:09:00","新北市新莊區新莊路543巷9弄23號","121.448576666667","25.0319566666667","6500500","新莊區"
