"lineid","car","time","location","longitude","latitude","cityid","cityname"
"248005","653-BX","2018/05/03 08:59:03","新北市五股區明德路12巷6號","121.433436666667","25.071895","6501500","五股區"
"244012","069-UM","2018/05/03 08:58:51","新北市林口區中山路299號","121.383986666667","25.0800333333333","6501700","林口區"
"244006","080-UY","2018/05/03 08:58:53","新北市林口區林口路124巷10弄11號","121.389305","25.08146","6501700","林口區"
"244003","248-BX","2018/05/03 08:57:59","新北市林口區寶斗厝坑83號","121.332535","25.119655","6501700","林口區"
"244018","742-UY","2018/05/03 08:58:50","新北市林口區忠孝路542巷10弄3號","121.372361666667","25.0669366666667","6501700","林口區"
"244022","483-VK","2018/05/03 08:58:43","新北市林口區東湖路105巷75號","121.38475","25.07162","6501700","林口區"
"244016","485-VK","2018/05/03 08:58:53","新北市林口區文化二路一段2-1號","121.364248333333","25.06565","6501700","林口區"
"244008","656-BX","2018/05/03 08:58:51","新北市林口區文林二街16號","121.376746666667","25.08879","6501700","林口區"
"244010","657-BX","2018/05/03 08:58:53","新北市林口區仁愛路一段272巷19號","121.392141666667","25.076625","6501700","林口區"
"244024","837-TS","2018/05/03 08:59:04","新北市林口區忠孝一路174號","121.35913","25.074005","6501700","林口區"
"244020","838-TS","2018/05/03 08:58:43","新北市林口區粉寮路一段64號","121.396931666667","25.0786783333333","6501700","林口區"
"222006","289-BY","2018/05/03 08:48:51","新北市深坑區土庫尖路75-1號","121.631166666667","25.0182583333333","6501800","深坑區"
"231069","188-VK","2018/05/03 08:49:33","新北市新店區新潭路三段236號","121.501583333333","24.9025316666667","6500600","新店區"
"231008","192-VK","2018/05/03 08:58:53","新北市新店區廣興路10號","121.546115","24.9122516666667","6500600","新店區"
"235001","611-BX","2018/05/03 08:58:48","新北市中和區華安街16巷12-1號","121.466348333333","24.9979333333333","6500300","中和區"
"226002","7418-A5","2018/05/03 08:58:49","新北市平溪區東勢里芊蓁坑32號","121.727681666667","24.9784233333333","6502400","平溪區"
"226003","AGD-0702","2018/05/03 08:58:58","新北市平溪區十分里十分街236號","121.778145","25.0440866666667","6502400","平溪區"
"223001","205-TH","2018/05/03 08:58:59","新北市石碇區北宜路六段水底寮巷12號","121.665235","24.9422383333333","6501900","石碇區"
"223008","406-TH","2018/05/03 08:58:52","新北市石碇區光明路13號","121.68008","25.0336","6501900","石碇區"
"223001","592-UM","2018/05/03 08:58:51","新北市石碇區北宜路六段水底寮巷11-1號","121.664695","24.9452066666667","6501900","石碇區"
"223004","660-BX","2018/05/03 08:59:01","新北市石碇區崩山53號","121.682361666667","24.96891","6501900","石碇區"
"223005","677-TV","2018/05/03 08:58:51","新北市石碇區崩山53-1號","121.682421666667","24.96718","6501900","石碇區"
"252004","249-BX","2018/05/03 08:58:45","新北市三芝區興華里田心子31號","121.48887","25.200425","6502100","三芝區"
"252007","AAC-283","2018/05/03 08:58:36","新北市三芝區後厝里北勢子3-5號","121.479745","25.2529216666667","6502100","三芝區"
"237001","159-UY","2018/05/03 08:59:04","新北市鶯歌區中正一路113-1號","121.370383333333","24.95872","6500900","三峽區"
"236009","165-UM","2018/05/03 08:58:50","新北市土城區金城路二段46巷1-21號","121.453441666667","24.9762333333333","6501300","土城區"
"236003","339-SR","2018/05/03 08:58:48","新北市土城區中央路三段281巷11弄3號","121.426586666667","24.9628216666667","6501300","土城區"
"236005","498-BY","2018/05/03 08:58:51","新北市土城區承天路4巷2-1號","121.436361666667","24.9635783333333","6501300","土城區"
"242033","AAC-296","2018/05/03 08:59:02","新北市新莊區建中街91號","121.4467","25.0365083333333","6500500","新莊區"
"242057","986-R7","2018/05/03 08:58:41","新北市新莊區八德街107號","121.424173333333","25.021075","6500500","新莊區"
"242052","751-BX","2018/05/03 08:58:52","新北市新莊區西盛街422號","121.427141666667","25.0120683333333","6500500","新莊區"
"242059","705-TV","2018/05/03 08:58:43","新北市新莊區民安路346號","121.42944","25.022405","6500500","新莊區"
"242026","615-BX","2018/05/03 08:58:48","新北市新莊區幸福路898號","121.443333333333","25.0493433333333","6500500","新莊區"
"242024","613-BX","2018/05/03 08:58:45","新北市新莊區五工一路87巷11號","121.460833333333","25.066935","6500500","新莊區"
"242028","612-BX","2018/05/03 08:58:52","新北市新莊區中原路325-1號","121.446251666667","25.05429","6500500","新莊區"
"242040","566-BX","2018/05/03 08:58:55","新北市新莊區青山路一段48巷2號","121.410061666667","25.0277233333333","6500500","新莊區"
"242045","497-BY","2018/05/03 08:58:46","新北市新莊區裕民街55巷3號","121.419306666667","25.02397","6500500","新莊區"
"242038","442-UM","2018/05/03 08:58:47","新北市新莊區龍安路441號","121.424456666667","25.01861","6500500","新莊區"
"242049","441-UM","2018/05/03 08:58:46","新北市新莊區民安西路212巷5弄26號","121.424913333333","25.01394","6500500","新莊區"
"242006","413-TV","2018/05/03 08:58:55","新北市新莊區思源路287巷1弄33號","121.459526666667","25.0468966666667","6500500","新莊區"
"242043","400-BY","2018/05/03 08:58:53","新北市新莊區中正路新旺巷5號","121.415765","25.023505","6500500","新莊區"
"242022","362-BY","2018/05/03 08:58:59","新北市新莊區化成路776號","121.465266666667","25.05895","6500500","新莊區"
"242008","132-UY","2018/05/03 08:58:45","新北市新莊區昌隆街94號","121.456186666667","25.050725","6500500","新莊區"
"242030","135-UY","2018/05/03 08:59:00","新北市新莊區新泰路213巷31號","121.44484","25.0383416666667","6500500","新莊區"
"242047","172-VK","2018/05/03 08:58:46","新北市新莊區富國路109巷2號","121.423801666667","25.02514","6500500","新莊區"
"242010","173-VK","2018/05/03 08:58:57","新北市新莊區中信街66-16號","121.449213333333","25.05156","6500500","新莊區"
"242016","175-VK","2018/05/03 08:59:04","新北市新莊區中港二街67號","121.450013333333","25.04581","6500500","新莊區"
"242003","176-VK","2018/05/03 08:58:55","新北市新莊區化成路63巷105號","121.461568333333","25.0458966666667","6500500","新莊區"
"242014","346-TH","2018/05/03 08:58:51","新北市新莊區中和街31巷24號","121.447045","25.0443116666667","6500500","新莊區"
"242020","347-TH","2018/05/03 08:58:55","新北市新莊區建中街28號","121.44906","25.037495","6500500","新莊區"
"242035","349-TH","2018/05/03 08:58:48","新北市新莊區建安街39號","121.42898","25.025495","6500500","新莊區"
"242018","350-TH","2018/05/03 08:59:05","新北市新莊區復興路二段182號","121.458906666667","25.044415","6500500","新莊區"
"242012","351-TH","2018/05/03 08:58:53","新北市新莊區中平路270巷7弄33號","121.446176666667","25.0509316666667","6500500","新莊區"
"242001","KEA-2550","2018/05/03 08:58:59","新北市新莊區中正路33號","121.463931666667","25.0410033333333","6500500","新莊區"
"242055","280-VK","2018/05/03 08:58:52","新北市新莊區瓊泰路77巷16號","121.442566666667","25.02908","6500500","新莊區"
