"lineid","car","time","location","longitude","latitude","cityid","cityname"
"248005","653-BX","2018/05/03 09:08:43","新北市五股區水碓路19號","121.433271666667","25.0725733333333","6501500","五股區"
"244012","069-UM","2018/05/03 09:08:51","新北市林口區中正路512號","121.381728333333","25.077355","6501700","林口區"
"244006","080-UY","2018/05/03 09:08:53","新北市林口區林口路296號","121.385901666667","25.085515","6501700","林口區"
"244003","248-BX","2018/05/03 09:08:59","新北市林口區寶林路98號","121.374653333333","25.0904316666667","6501700","林口區"
"244018","742-UY","2018/05/03 09:08:51","新北市林口區文化一路一段126號","121.375503333333","25.0726033333333","6501700","林口區"
"244022","483-VK","2018/05/03 09:08:43","新北市林口區東湖路153巷135號","121.382211666667","25.0736066666667","6501700","林口區"
"244016","485-VK","2018/05/03 09:08:55","新北市林口區文化二路一段20巷25弄33號","121.365943333333","25.0675683333333","6501700","林口區"
"244008","656-BX","2018/05/03 09:08:51","新北市林口區文林一街42號","121.377413333333","25.086655","6501700","林口區"
"244010","657-BX","2018/05/03 09:08:53","新北市林口區粉寮路一段1號","121.396176666667","25.0758916666667","6501700","林口區"
"222006","289-BY","2018/05/03 09:08:42","新北市深坑區土庫尖路60-1號","121.637901666667","25.0171966666667","6501800","深坑區"
"231069","188-VK","2018/05/03 09:08:53","新北市新店區新潭路三段215巷25號","121.508178333333","24.904055","6500600","新店區"
"231008","192-VK","2018/05/03 09:08:59","新北市新店區廣興路60巷15號","121.540675","24.915125","6500600","新店區"
"235001","611-BX","2018/05/03 09:08:48","新北市中和區莒光路207號","121.46997","24.9956116666667","6500300","中和區"
"226002","7418-A5","2018/05/03 09:08:49","新北市平溪區東勢里芊蓁坑2號","121.74666","25.004965","6502400","平溪區"
"226003","AGD-0702","2018/05/03 09:08:58","新北市平溪區望古里望古坑26號","121.763345","25.0343683333333","6502400","平溪區"
"223001","205-TH","2018/05/03 09:08:59","新北市石碇區北宜路五段70-1號","121.639115","24.9524166666667","6501900","石碇區"
"223008","406-TH","2018/05/03 09:08:52","新北市石碇區光明路耳空龜巷12-2號","121.691871666667","25.0343216666667","6501900","石碇區"
"223001","592-UM","2018/05/03 09:08:51","新北市石碇區北宜路五段76號","121.645651666667","24.9529166666667","6501900","石碇區"
"223004","660-BX","2018/05/03 09:08:41","新北市石碇區碇坪路二段65號","121.685396666667","24.96608","6501900","石碇區"
"223005","677-TV","2018/05/03 09:07:10","新北市石碇區碇坪路二段71號","121.68546","24.9653533333333","6501900","石碇區"
"252004","249-BX","2018/05/03 09:08:45","新北市三芝區興華里田心子26-1號","121.492796666667","25.19554","6502100","三芝區"
"252007","AAC-283","2018/05/03 09:08:56","新北市三芝區樂全街150號","121.487131666667","25.2577716666667","6502100","三芝區"
"237001","159-UY","2018/05/03 09:09:04","新北市樹林區中山路三段210-2號","121.381418333333","24.9655916666667","6500900","三峽區"
"236009","165-UM","2018/05/03 09:08:50","新北市土城區金城路二段46巷1-24號","121.453683333333","24.9755","6501300","土城區"
"236003","339-SR","2018/05/03 09:08:48","新北市土城區中央路三段110號","121.435518333333","24.9662133333333","6501300","土城區"
"236005","498-BY","2018/05/03 09:08:54","新北市土城區中央路三段76巷50弄1號","121.435571666667","24.96947","6501300","土城區"
"242033","AAC-296","2018/05/03 09:08:56","新北市新莊區中正路302-5號","121.44659","25.0351016666667","6500500","新莊區"
"242057","986-R7","2018/05/03 09:09:01","新北市新莊區龍安路331號","121.422378333333","25.0192116666667","6500500","新莊區"
"242052","751-BX","2018/05/03 09:08:52","新北市新莊區西盛街390號","121.427745","25.01287","6500500","新莊區"
"242059","705-TV","2018/05/03 09:08:43","新北市新莊區瓊林路66號","121.445281666667","25.0286633333333","6500500","新莊區"
"242026","615-BX","2018/05/03 09:09:05","新北市新莊區幸福路557號","121.454453333333","25.049295","6500500","新莊區"
"242024","613-BX","2018/05/03 09:08:51","新北市新莊區五工二路70號","121.460183333333","25.0657833333333","6500500","新莊區"
"242028","612-BX","2018/05/03 09:08:54","新北市新莊區中華路二段185號","121.452581666667","25.0524283333333","6500500","新莊區"
"242040","566-BX","2018/05/03 09:08:55","新北市新莊區壽山路55號","121.412615","25.0313433333333","6500500","新莊區"
"242045","497-BY","2018/05/03 09:08:46","新北市新莊區中正路新生巷41號","121.417391666667","25.0233433333333","6500500","新莊區"
"242038","442-UM","2018/05/03 09:09:04","新北市新莊區成功街8號","121.42554","25.021455","6500500","新莊區"
"242049","441-UM","2018/05/03 09:08:47","新北市新莊區民安西路173巷6號","121.426718333333","25.0159133333333","6500500","新莊區"
"242006","413-TV","2018/05/03 09:08:55","新北市新莊區思源路233號","121.459791666667","25.0464583333333","6500500","新莊區"
"242043","400-BY","2018/05/03 09:08:57","新北市新莊區中正路929巷21號","121.411116666667","25.0202733333333","6500500","新莊區"
"242022","362-BY","2018/05/03 09:08:54","新北市新莊區化成路519號","121.465051666667","25.0636883333333","6500500","新莊區"
"242008","132-UY","2018/05/03 09:08:45","新北市新莊區幸福路64巷4弄6號","121.45739","25.04996","6500500","新莊區"
"242030","135-UY","2018/05/03 09:08:56","新北市新莊區忠孝街48號","121.443945","25.035905","6500500","新莊區"
"242047","172-VK","2018/05/03 09:08:46","新北市新莊區四維路180號","121.422125","25.0217766666667","6500500","新莊區"
"242010","173-VK","2018/05/03 09:08:57","新北市新莊區中信街37巷4弄9號","121.449748333333","25.0502","6500500","新莊區"
"242016","175-VK","2018/05/03 09:08:44","新北市新莊區中港一街151號","121.447655","25.0450416666667","6500500","新莊區"
"242003","176-VK","2018/05/03 09:08:55","新北市新莊區福美街12號","121.460753333333","25.05273","6500500","新莊區"
"242014","346-TH","2018/05/03 09:08:51","新北市新莊區中平路36巷29號","121.445993333333","25.0435316666667","6500500","新莊區"
"242020","347-TH","2018/05/03 09:08:55","新北市新莊區中正路206號","121.449306666667","25.03572","6500500","新莊區"
"242035","349-TH","2018/05/03 09:08:48","新北市新莊區建安街9巷7號","121.429158333333","25.0266466666667","6500500","新莊區"
"242018","350-TH","2018/05/03 09:08:45","新北市新莊區銘德街49巷2弄2號","121.457268333333","25.043465","6500500","新莊區"
"242012","351-TH","2018/05/03 09:08:53","新北市新莊區中和街185號","121.4478","25.0506783333333","6500500","新莊區"
"242001","KEA-2550","2018/05/03 09:08:59","新北市新莊區化成路5-7號","121.464456666667","25.0420483333333","6500500","新莊區"
"242055","280-VK","2018/05/03 09:08:51","新北市新莊區新豐街19號","121.448251666667","25.0341416666667","6500500","新莊區"
