"lineid","car","time","location","longitude","latitude","cityid","cityname"
"234044","148-BY","2018/05/03 13:39:10","新北市永和區秀朗路二段97號","121.523296666667","25.001755","6500400","永和區"
"234005","207-UY","2018/05/03 13:39:07","新北市永和區中山路一段130號","121.510408333333","25.0099916666667","6500400","永和區"
"234078","298-R6","2018/05/03 13:38:54","新北市永和區林森路20巷7號","121.525861666667","25.0057616666667","6500400","永和區"
"234036","336-UY","2018/05/03 13:39:12","新北市永和區民樂街31巷8弄2號","121.528105","25.0010466666667","6500400","永和區"
"234062","337-UY","2018/05/03 13:39:08","新北市永和區秀朗路一段192巷6弄12號","121.51906","25.0023883333333","6500400","永和區"
"234084","338-UY","2018/05/03 13:39:03","新北市永和區永亨路165巷1-6號","121.526085","25.0039666666667","6500400","永和區"
"234068","552-UM","2018/05/03 13:39:01","新北市永和區永和路二段233號","121.515615","25.0141633333333","6500400","永和區"
"234015","745-BX","2018/05/03 13:39:13","新北市永和區永和路二段425巷57弄1號","121.513763333333","25.0172283333333","6500400","永和區"
"234028","746-BX","2018/05/03 13:39:03","新北市永和區民權路23號","121.520021666667","24.9978333333333","6500400","永和區"
"234052","KEA-2590","2018/05/03 13:38:52","新北市永和區竹林路39巷22號","121.518908333333","25.01475","6500400","永和區"
"234012","KEA-2591","2018/05/03 13:38:54","新北市永和區永平路238巷12號","121.509505","25.0117066666667","6500400","永和區"
"234060","AAD-866","2018/05/03 13:39:02","新北市永和區永貞路168號","121.516915","25.0043583333333","6500400","永和區"
"234040","862-TW","2018/05/03 13:39:12","新北市永和區中和路305巷2弄1號","121.506601666667","25.0000766666667","6500400","永和區"
"234048","863-TW","2018/05/03 13:39:03","新北市永和區保安路69號","121.509021666667","25.0153116666667","6500400","永和區"
"234025","9371-KE","2018/05/03 13:38:57","新北市永和區永平路142號","121.511593333333","25.0084466666667","6500400","永和區"
"234010","9373-KE","2018/05/03 13:39:04","新北市永和區保福路二段15巷29號","121.510156666667","25.0110433333333","6500400","永和區"
"248015","026-BX","2018/05/03 13:39:05","新北市五股區凌雲路一段149巷13-1號","121.448603333333","25.10089","6501500","五股區"
"248005","077-UY","2018/05/03 13:39:06","新北市五股區中興路一段38號","121.468461666667","25.0724833333333","6501500","五股區"
"248007","095-VK","2018/05/03 13:39:08","新北市五股區中興路一段150巷13-1號","121.46462","25.0746","6501500","五股區"
"248017","225-UY","2018/05/03 13:39:07","新北市五股區民義路二段66-3號","121.406041666667","25.1088366666667","6501500","五股區"
"248011","247-BX","2018/05/03 13:39:03","新北市五股區成泰路三段2巷1-20號","121.441231666667","25.08666","6501500","五股區"
"248013","261-SL","2018/05/03 13:39:10","新北市五股區中興路四段70號","121.43698","25.08344","6501500","五股區"
"248003","677-BX","2018/05/03 13:39:02","新北市五股區民義路一段230號","121.428601666667","25.0907166666667","6501500","五股區"
"248001","678-BX","2018/05/03 13:39:13","新北市五股區西雲路248號","121.448825","25.0968633333333","6501500","五股區"
"248009","682-TV","2018/05/03 13:39:06","新北市五股區自強路76號","121.432921666667","25.072925","6501500","五股區"
"234022","9380-KE","2018/05/03 13:38:56","新北市永和區豫溪街45號","121.516953333333","25.0099233333333","6500400","永和區"
"234076","969-R7","2018/05/03 13:38:57","新北市永和區得和路217號","121.519475","25.00025","6500400","永和區"
"234072","AAC-211","2018/05/03 13:39:04","新北市永和區豫溪街160巷17號","121.523411666667","25.0090533333333","6500400","永和區"
"234066","AAC-212","2018/05/03 13:39:11","新北市永和區中山路一段191巷7弄5號","121.509526666667","25.0085083333333","6500400","永和區"
"234001","AAC-295","2018/05/03 13:39:11","新北市永和區秀朗路一段36號","121.514175","25.0067083333333","6500400","永和區"
"244003","248-BX","2018/05/03 13:39:10","新北市林口區瑞樹坑52-5號","121.342305","25.12593","6501700","林口區"
"243005","AAD-798","2018/05/03 13:31:51","新北市泰山區明志路三段206巷3號","121.423298333333","25.03794","6501600","泰山區"
"243007","380-SR","2018/05/03 13:39:10","新北市泰山區黎明路25號","121.422366666667","25.0607416666667","6501600","泰山區"
"243004","646-TV","2018/05/03 13:39:10","新北市泰山區福興三街13號","121.434443333333","25.057825","6501600","泰山區"
"231027","0293-UT","2018/05/03 13:38:58","新北市新店區北宜路一段105巷4弄1號","121.53986","24.95552","6500600","新店區"
"231028","046-UY","2018/05/03 13:39:11","新北市新店區安和路一段55號","121.517578333333","24.9662633333333","6500600","新店區"
"231001","047-UY","2018/05/03 13:39:09","新北市新店區中正路428號","121.53431","24.978125","6500600","新店區"
"231005","106-UY","2018/05/03 13:38:56","新北市新店區寶中路72號","121.547873333333","24.980595","6500600","新店區"
"231010","107-UY","2018/05/03 13:38:57","新北市新店區中正路307巷20號","121.536258333333","24.9743066666667","6500600","新店區"
"231021","108-UY","2018/05/03 13:39:10","新北市新店區永興路125-3號","121.544378333333","24.931","6500600","新店區"
"231011","187-VK","2018/05/03 13:39:11","新北市新店區德正街23巷12-1號","121.544541666667","24.97221","6500600","新店區"
"231023","KEA-2219","2018/05/03 13:39:02","新北市新店區新店路132號","121.537136666667","24.95513","6500600","新店區"
"231026","256-BX","2018/05/03 13:39:07","新北市新店區中正路111號","121.542495","24.9706616666667","6500600","新店區"
"231018","278-BY","2018/05/03 13:39:05","新北市新店區百忍街33號","121.53369","24.975795","6500600","新店區"
"231017","AAD-862","2018/05/03 13:39:02","新北市新店區竹林路2巷27弄11號","121.550931666667","24.9509433333333","6500600","新店區"
"231038","3712-VJ","2018/05/03 13:39:01","新北市新店區安華路30巷1號","121.51964","24.9592566666667","6500600","新店區"
"231037","4716-K9","2018/05/03 13:39:02","新北市新店區薏仁坑路25號","121.496683333333","24.9598916666667","6500600","新店區"
"231025","4715-K9","2018/05/03 13:39:01","新北市新店區中央五街55號","121.527863333333","24.9755766666667","6500600","新店區"
"231036","512-UM","2018/05/03 13:39:09","新北市新店區安祥路142號","121.474288333333","24.95552","6500600","新店區"
"231013","513-UM","2018/05/03 13:38:57","新北市新店區中正路454-5號","121.534423333333","24.9790616666667","6500600","新店區"
"231003","515-UM","2018/05/03 13:39:15","新北市新店區中興路一段285-1號","121.545486666667","24.968595","6500600","新店區"
"231034","616-UM","2018/05/03 13:38:59","新北市新店區車子路121號","121.50525","24.9500816666667","6500600","新店區"
"231002","618-UM","2018/05/03 13:39:02","新北市新店區中央三街127號","121.524106666667","24.9768266666667","6500600","新店區"
"231030","619-UM","2018/05/03 13:39:11","新北市新店區安康路一段323-3號","121.521058333333","24.96384","6500600","新店區"
"231035","719-UM","2018/05/03 13:39:16","新北市新店區安忠路36號","121.514296666667","24.96132","6500600","新店區"
"231031","720-UM","2018/05/03 13:39:03","新北市新店區安華路28-1號","121.519596666667","24.9609733333333","6500600","新店區"
"231029","897-TW","2018/05/03 13:39:00","新北市新店區安康路二段241號","121.508118333333","24.958535","6500600","新店區"
"231006","898-TW","2018/05/03 13:39:02","新北市新店區北宜路一段76號","121.538655","24.955905","6500600","新店區"
"231004","899-TW","2018/05/03 13:38:58","新北市新店區北新路二段1號","121.542716666667","24.9712716666667","6500600","新店區"
"231024","AKT-0513","2018/05/03 13:38:58","新北市新店區中華路47巷2弄1號","121.539638333333","24.9676266666667","6500600","新店區"
"235028","005-UY","2018/05/03 13:38:57","新北市中和區連城路89巷18號","121.497183333333","24.999095","6500300","中和區"
"235027","006-UY","2018/05/03 13:39:14","新北市中和區連城路389巷9號","121.486595","24.9951883333333","6500300","中和區"
"235020","096-UM","2018/05/03 13:39:05","新北市中和區員山路466巷19號","121.48085","25.0065666666667","6500300","中和區"
"235003","097-UM","2018/05/03 13:39:02","新北市中和區大勇街25巷1號","121.51718","24.9930566666667","6500300","中和區"
"235029","098-UM","2018/05/03 13:39:10","新北市中和區莊敬路33巷42號","121.500305","25.006835","6500300","中和區"
"235004","150-BY","2018/05/03 13:38:59","新北市中和區安平路38號","121.50996","24.9952366666667","6500300","中和區"
"235022","151-BY","2018/05/03 13:39:09","新北市中和區圓通路369巷39號","121.489758333333","24.9859666666667","6500300","中和區"
"235019","183-VK","2018/05/03 13:38:54","新北市中和區莒光路120巷17弄2號","121.471765","25.0009533333333","6500300","中和區"
"235002","185-VK","2018/05/03 13:39:02","新北市中和區立人街42號","121.51797","24.994145","6500300","中和區"
"235013","186-VK","2018/05/03 13:39:00","新北市中和區景安路132巷38號","121.503853333333","24.9945966666667","6500300","中和區"
"235031","255-BX","2018/05/03 13:39:10","新北市中和區新生街220巷4號","121.482903333333","24.9986416666667","6500300","中和區"
"235008","293-VK","2018/05/03 13:39:00","新北市中和區復興路261號","121.502825","24.9903816666667","6500300","中和區"
"235036","301-VK","2018/05/03 13:39:12","新北市中和區連城路207號","121.494563333333","24.9979233333333","6500300","中和區"
"235007","352-BY","2018/05/03 13:38:53","新北市中和區景平路201號","121.511096666667","24.9925633333333","6500300","中和區"
"235032","377-QA","2018/05/03 13:39:04","新北市中和區中正路167巷16號","121.498163333333","24.9928483333333","6500300","中和區"
"235025","378-QA","2018/05/03 13:39:09","新北市中和區民享街114巷6號","121.474166666667","24.99934","6500300","中和區"
"235014","4979-A6","2018/05/03 13:39:02","新北市中和區景新街496巷28弄12號","121.512958333333","24.9859933333333","6500300","中和區"
"235033","4980-A6","2018/05/03 13:39:10","新北市中和區連城路97號","121.496558333333","24.9999333333333","6500300","中和區"
"235006","551-UM","2018/05/03 13:39:12","新北市中和區成功路105號","121.526076666667","24.9913683333333","6500300","中和區"
"235034","558-UM","2018/05/03 13:39:07","新北市中和區南華路61號","121.504396666667","24.997145","6500300","中和區"
"235009","565-BX","2018/05/03 13:39:04","新北市中和區南山路236巷34-3號","121.504873333333","24.98837","6500300","中和區"
"235018","640-BX","2018/05/03 13:39:04","新北市中和區民享街32巷24號","121.472673333333","25.0031633333333","6500300","中和區"
"235024","647-TV","2018/05/03 13:39:05","新北市中和區中山路二段570號","121.482953333333","25.0050566666667","6500300","中和區"
"235011","732-UM","2018/05/03 13:39:11","新北市中和區南山路320巷10弄21號","121.50679","24.9867066666667","6500300","中和區"
"235035","783-BX","2018/05/03 13:39:12","新北市板橋區光環路二段8-3號","121.48222","25.0149766666667","6500300","中和區"
"235026","800-TS","2018/05/03 13:33:00","新北市中和區景平路999巷2號","121.495406666667","25.0063183333333","6500300","中和區"
"235021","801-TS","2018/05/03 13:39:11","新北市中和區員山路327巷43號","121.479486666667","25.0022366666667","6500300","中和區"
"235005","802-TS","2018/05/03 13:39:08","新北市中和區中安街80巷1號","121.51204","25.0019416666667","6500300","中和區"
"235016","805-TS","2018/05/03 13:39:02","新北市中和區興南路三段52巷1號","121.493531666667","24.976175","6500300","中和區"
"235012","896-TW","2018/05/03 13:39:05","新北市中和區中正路76號","121.500618333333","24.99359","6500300","中和區"
"235017","900-TW","2018/05/03 13:39:11","新北市中和區民享街490號","121.469608333333","24.99228","6500300","中和區"
"235030","911-UM","2018/05/03 13:39:03","新北市中和區水源路33號","121.504291666667","25.0036216666667","6500300","中和區"
"235015","157-BY","2018/05/03 13:39:00","新北市中和區華新街143巷106弄30號","121.506178333333","24.9787933333333","6500300","中和區"
"235001","AAC-213","2018/05/03 13:39:09","新北市中和區景德街72號","121.51684","24.9915283333333","6500300","中和區"
"235023","AAC-215","2018/05/03 13:39:02","新北市中和區中正路637巷52弄1號","121.485581666667","24.993485","6500300","中和區"
"220016","013-TV","2018/05/03 13:39:04","新北市板橋區民生路二段120號","121.470475","25.01954","6500100","板橋區"
"220013","072-UY","2018/05/03 13:39:11","新北市板橋區縣民大道二段102號","121.466825","25.0150166666667","6500100","板橋區"
"220086","073-UY","2018/05/03 13:38:57","新北市板橋區南雅西路一段39巷29號","121.452818333333","25.00434","6500100","板橋區"
"220017","AAD-861","2018/05/03 13:38:58","新北市板橋區華東街1-10號","121.448315","24.9951033333333","6500100","板橋區"
"247007","056-VK","2018/05/03 13:39:03","新北市五股區四維路171巷8號","121.467543333333","25.07544","6501400","蘆洲區"
"247019","001-UY","2018/05/03 13:39:06","新北市五股區成洲五路38號","121.453553333333","25.101315","6501400","蘆洲區"
"228005","097-TW","2018/05/03 13:38:57","新北市貢寮區美豐里文秀坑8號","121.902613333333","25.050465","6502600","貢寮區"
"228004","212-TW","2018/05/03 13:38:48","新北市貢寮區龍崗里嵩陽街17號","121.907295","25.0085466666667","6502600","貢寮區"
"253003","6232-TK","2018/05/03 13:38:58","新北市石門區內石門7號","121.570041666667","25.2836483333333","6502200","石門區"
"253001","6251-TK","2018/05/03 13:38:55","新北市石門區下員坑20-8號","121.510526666667","25.27842","6502200","石門區"
"253002","637-UY","2018/05/03 13:39:02","新北市石門區內石門78-1號","121.568636666667","25.25648","6502200","石門區"
"253004","8270-PC","2018/05/03 13:38:54","新北市石門區竹子湖14-1號","121.615918333333","25.2562666666667","6502200","石門區"
"207002","749-BX","2018/05/03 13:39:15","新北市萬里區崁腳里崁腳路166號","121.645058333333","25.1560783333333","6502800","萬里區"
"207001","662-BX","2018/05/03 13:39:10","新北市萬里區磺潭里公館崙28號","121.632816666667","25.2117833333333","6502800","萬里區"
"252005","702-TV","2018/05/03 13:38:56","新北市三芝區店子里店子36-3號","121.505625","25.2054183333333","6502100","三芝區"
"252005","AAC-283","2018/05/03 13:39:07","新北市三芝區圓山里內柑宅22-2號","121.536988333333","25.2184016666667","6502100","三芝區"
"236040","107-UM","2018/05/03 13:39:02","新北市土城區城林路6巷80號","121.438478333333","24.97978","6501300","土城區"
"236074","166-UM","2018/05/03 13:39:07","新北市土城區城林路6巷80號","121.438465","24.9796883333333","6501300","土城區"
"236012","270-VK","2018/05/03 13:39:00","新北市土城區城林路6巷80號","121.438636666667","24.979745","6501300","土城區"
"236005","498-BY","2018/05/03 13:38:55","新北市土城區慶祥街19號","121.4368","24.9741566666667","6501300","土城區"
"236060","915-UM","2018/05/03 13:38:55","新北市土城區城林路6巷80號","121.438488333333","24.979675","6501300","土城區"
"242047","172-VK","2018/05/03 13:39:06","新北市新莊區民安西路411號","121.430571666667","25.008845","6500500","新莊區"
"238008","KEA-2539","2018/05/03 13:31:44","新北市樹林區育德街78-1號","121.387925","24.9681283333333","6500700","樹林區"
"221032","280-BY","2018/05/03 13:39:11","新北市汐止區秀峰路57號","121.659606666667","25.06525","6501100","汐止區"
"220027","145-BY","2018/05/03 13:38:55","新北市板橋區南雅西路二段192巷1弄7號","121.452068333333","25.0146166666667","6500100","板橋區"
"220028","200-UY","2018/05/03 13:39:00","新北市板橋區大觀路二段265巷7-7號","121.443673333333","24.9948183333333","6500100","板橋區"
"220030","610-BX","2018/05/03 13:39:14","新北市板橋區篤行路一段10號","121.432083333333","24.9954583333333","6500100","板橋區"
"220004","276-BY","2018/05/03 13:39:14","新北市土城區廣興街38號","121.453458333333","24.9914283333333","6500100","板橋區"
"220020","277-BY","2018/05/03 13:38:53","新北市板橋區大觀路三段121號","121.432713333333","24.994445","6500100","板橋區"
"220043","283-UM","2018/05/03 13:39:02","新北市板橋區民生路二段161巷1號","121.470135","25.0198383333333","6500100","板橋區"
"220019","283-VK","2018/05/03 13:39:03","新北市板橋區四川路二段橋頭6號","121.448288333333","24.9939883333333","6500100","板橋區"
"220031","286-VK","2018/05/03 13:39:05","新北市板橋區大觀路二段111號","121.446148333333","25.0016733333333","6500100","板橋區"
"220029","287-VK","2018/05/03 13:39:03","新北市板橋區大觀路二段111號","121.446085","25.0017116666667","6500100","板橋區"
"220032","296-UM","2018/05/03 13:38:57","新北市板橋區大觀路二段205號","121.444433333333","24.99953","6500100","板橋區"
"220023","303-R5","2018/05/03 13:38:57","新北市板橋區華東街268號","121.452513333333","25.0008466666667","6500100","板橋區"
"220010","305-R5","2018/05/03 13:39:00","新北市板橋區民生路二段120號","121.470396666667","25.0197033333333","6500100","板橋區"
"220012","486-VK","2018/05/03 13:38:58","新北市板橋區縣民大道一段296號","121.4609","25.01013","6500100","板橋區"
"220104","560-BX","2018/05/03 13:38:53","新北市板橋區南雅西路二段145巷10號","121.451571666667","25.0119183333333","6500100","板橋區"
"220052","561-BX","2018/05/03 13:39:03","新北市板橋區民生路二段120號","121.470396666667","25.0195616666667","6500100","板橋區"
"220011","609-BX","2018/05/03 13:38:54","新北市板橋區民生路二段171號","121.469896666667","25.0202","6500100","板橋區"
"220003","630-UY","2018/05/03 13:38:59","新北市板橋區華東街1-9號","121.448148333333","24.9949416666667","6500100","板橋區"
"220005","686-BX","2018/05/03 13:38:57","新北市板橋區華東街1-9號","121.448195","24.99492","6500100","板橋區"
"220025","687-BX","2018/05/03 13:39:15","新北市板橋區大觀路三段212巷70號","121.429796666667","24.9935033333333","6500100","板橋區"
"220042","689-BX","2018/05/03 13:39:13","新北市板橋區民生路二段161巷1號","121.470123333333","25.020175","6500100","板橋區"
"220002","741-BX","2018/05/03 13:38:57","新北市板橋區華東街1-9號","121.44812","24.9949066666667","6500100","板橋區"
"220045","830-TW","2018/05/03 13:38:58","新北市板橋區民生路二段180號","121.470813333333","25.020145","6500100","板橋區"
"220038","833-TW","2018/05/03 13:39:10","新北市板橋區民生路二段188號","121.47006","25.0203","6500100","板橋區"
"220022","895-R6","2018/05/03 13:39:05","新北市板橋區南雅南路一段85號","121.455581666667","25.0054266666667","6500100","板橋區"
"220021","985-R7","2018/05/03 13:39:00","新北市板橋區南雅南路一段7巷23號","121.456368333333","25.005065","6500100","板橋區"
"220018","AAC-253","2018/05/03 13:39:10","新北市板橋區華東街1-8號","121.4476","24.9949766666667","6500100","板橋區"
