"lineid","car","time","location","longitude","latitude","cityid","cityname"
"234044","148-BY","2018/05/03 13:49:10","新北市永和區秀朗路二段173巷8弄1號","121.525636666667","25.0023766666667","6500400","永和區"
"234005","207-UY","2018/05/03 13:48:57","新北市永和區永和路一段100號","121.513213333333","25.00699","6500400","永和區"
"234078","298-R6","2018/05/03 13:49:14","新北市永和區永亨路119號","121.523768333333","25.004515","6500400","永和區"
"234036","336-UY","2018/05/03 13:49:12","新北市永和區民樂街55巷14號","121.528016666667","24.9985566666667","6500400","永和區"
"234062","337-UY","2018/05/03 13:49:08","新北市永和區中正路368巷3號","121.517956666667","25.0009066666667","6500400","永和區"
"234084","338-UY","2018/05/03 13:49:03","新北市永和區中正路562號","121.517406666667","25.006005","6500400","永和區"
"234068","552-UM","2018/05/03 13:49:01","新北市永和區竹林路77號","121.519393333333","25.0127366666667","6500400","永和區"
"234015","745-BX","2018/05/03 13:49:08","新北市永和區文化路11號","121.515161666667","25.0149816666667","6500400","永和區"
"234028","746-BX","2018/05/03 13:49:03","新北市永和區民生路45號","121.522846666667","24.9978616666667","6500400","永和區"
"234052","KEA-2590","2018/05/03 13:49:12","新北市永和區竹林路75巷25弄9號","121.520128333333","25.014485","6500400","永和區"
"234012","KEA-2591","2018/05/03 13:49:14","新北市永和區仁愛路204號","121.509331666667","25.0122933333333","6500400","永和區"
"234060","AAD-866","2018/05/03 13:49:10","新北市永和區中正路98號","121.514308333333","24.9956566666667","6500400","永和區"
"234040","862-TW","2018/05/03 13:49:12","新北市永和區中和路421巷5弄29號","121.508301666667","25.000505","6500400","永和區"
"234048","863-TW","2018/05/03 13:49:03","新北市永和區保安路67號","121.5091","25.01549","6500400","永和區"
"234025","9371-KE","2018/05/03 13:48:57","新北市永和區保生路55-1號","121.504543333333","25.0109233333333","6500400","永和區"
"234010","9373-KE","2018/05/03 13:49:04","新北市永和區保安路292號","121.504991666667","25.0117716666667","6500400","永和區"
"248015","026-BX","2018/05/03 13:49:05","新北市五股區凌雲路一段149巷42號","121.44859","25.1009383333333","6501500","五股區"
"248007","095-VK","2018/05/03 13:49:08","新北市五股區中興路一段151巷3號","121.46511","25.0728383333333","6501500","五股區"
"248017","225-UY","2018/05/03 13:47:27","新北市五股區民義路二段46-6號","121.413755","25.101625","6501500","五股區"
"248011","247-BX","2018/05/03 13:49:03","新北市五股區成泰路二段195巷1號","121.440408333333","25.087385","6501500","五股區"
"248013","261-SL","2018/05/03 13:49:10","新北市五股區民義路一段107巷32號","121.432253333333","25.0847183333333","6501500","五股區"
"248003","677-BX","2018/05/03 13:49:02","新北市五股區民義路二段32-1號","121.418593333333","25.097895","6501500","五股區"
"248001","678-BX","2018/05/03 13:49:13","新北市五股區成泰路三段454號","121.451413333333","25.100375","6501500","五股區"
"248009","682-TV","2018/05/03 13:49:06","新北市五股區水碓七路81號","121.429686666667","25.0722466666667","6501500","五股區"
"234022","9380-KE","2018/05/03 13:48:56","新北市永和區中正路662巷12號","121.517611666667","25.008815","6500400","永和區"
"234076","969-R7","2018/05/03 13:48:57","新北市永和區民權路34號","121.519911666667","24.9989566666667","6500400","永和區"
"234072","AAC-211","2018/05/03 13:49:04","新北市永和區豫溪街189巷1號","121.522566666667","25.0102733333333","6500400","永和區"
"234066","AAC-212","2018/05/03 13:49:11","新北市永和區保平路236巷24弄1號","121.50807","25.0069483333333","6500400","永和區"
"234001","AAC-295","2018/05/03 13:49:11","新北市永和區永和路一段13號","121.512946666667","25.005485","6500400","永和區"
"244003","248-BX","2018/05/03 13:49:10","新北市林口區太平里3鄰16號","121.363265","25.1346116666667","6501700","林口區"
"243005","AAD-798","2018/05/03 13:31:51","新北市泰山區明志路三段206巷3號","121.423298333333","25.03794","6501600","泰山區"
"243007","380-SR","2018/05/03 13:49:10","新北市泰山區明志路一段469號","121.430823333333","25.0558866666667","6501600","泰山區"
"243007","421-VK","2018/05/03 13:49:04","新北市泰山區泰林路二段422號","121.426911666667","25.0643166666667","6501600","泰山區"
"243003","KEA-2215","2018/05/03 13:48:58","新北市泰山區公園路16號","121.42963","25.0542016666667","6501600","泰山區"
"243002","KEA-2216","2018/05/03 13:49:05","新北市泰山區明志路一段385號","121.430815","25.057735","6501600","泰山區"
"243004","646-TV","2018/05/03 13:49:10","新北市泰山區福興三街13號","121.434413333333","25.0578","6501600","泰山區"
"231027","0293-UT","2018/05/03 13:48:58","新北市新店區中興路一段24-2號","121.538536666667","24.958265","6500600","新店區"
"231028","046-UY","2018/05/03 13:49:11","新北市新店區安和路二段166-10號","121.519081666667","24.9741883333333","6500600","新店區"
"231001","047-UY","2018/05/03 13:49:07","新北市新店區三民路86號","121.534388333333","24.9727233333333","6500600","新店區"
"231005","106-UY","2018/05/03 13:48:56","新北市新店區寶中路121號","121.549646666667","24.979545","6500600","新店區"
"231010","107-UY","2018/05/03 13:49:09","新北市新店區三民路60巷6號","121.535521666667","24.9726233333333","6500600","新店區"
"231021","108-UY","2018/05/03 13:49:10","新北市新店區湖子內路22號","121.542271666667","24.9308216666667","6500600","新店區"
"231011","187-VK","2018/05/03 13:49:11","新北市新店區德正街27巷29弄46-1號","121.545755","24.9725816666667","6500600","新店區"
"231023","KEA-2219","2018/05/03 13:49:02","新北市新店區國校路6-2號","121.537916666667","24.9561616666667","6500600","新店區"
"231026","256-BX","2018/05/03 13:49:07","新北市新店區福園街17巷2號","121.532853333333","24.9728283333333","6500600","新店區"
"231018","278-BY","2018/05/03 13:49:05","新北市新店區中正路400巷11號","121.534981666667","24.9781016666667","6500600","新店區"
"231017","AAD-862","2018/05/03 13:49:02","新北市新店區竹林路94號","121.553788333333","24.950125","6500600","新店區"
"231038","3712-VJ","2018/05/03 13:49:01","新北市新店區安康路一段323-1號","121.521785","24.963585","6500600","新店區"
"231037","4716-K9","2018/05/03 13:49:02","新北市新店區安康路三段359巷12弄27號","121.483986666667","24.94932","6500600","新店區"
"231025","4715-K9","2018/05/03 13:49:01","新北市新店區中正路366號","121.535226666667","24.9761933333333","6500600","新店區"
"231036","512-UM","2018/05/03 13:49:09","新北市新店區安祥路145巷2號","121.47477","24.9555616666667","6500600","新店區"
"231013","513-UM","2018/05/03 13:48:56","新北市新店區二十張路25巷3號","121.538925","24.9821933333333","6500600","新店區"
"231003","515-UM","2018/05/03 13:48:55","新北市新店區中興路一段167號","121.542611666667","24.96439","6500600","新店區"
"231034","616-UM","2018/05/03 13:48:59","新北市新店區達觀路16號","121.503003333333","24.9409233333333","6500600","新店區"
"231002","618-UM","2018/05/03 13:49:02","新北市新店區溪園路393號","121.524235","24.9790466666667","6500600","新店區"
"231030","619-UM","2018/05/03 13:49:11","新北市新店區安康路一段70號","121.528451666667","24.9618833333333","6500600","新店區"
"231035","719-UM","2018/05/03 13:49:06","新北市新店區安忠路63巷1號","121.511611666667","24.95805","6500600","新店區"
"231031","720-UM","2018/05/03 13:49:03","新北市新店區莒光路44巷21弄11-6號","121.518498333333","24.9522","6500600","新店區"
"231029","897-TW","2018/05/03 13:49:00","新北市新店區安康路二段125-1號","121.512455","24.9608583333333","6500600","新店區"
"231006","898-TW","2018/05/03 13:49:02","新北市新店區北宜路一段246號","121.545121666667","24.9529533333333","6500600","新店區"
"231004","899-TW","2018/05/03 13:48:58","新北市新店區寶橋路132號","121.547331666667","24.9760633333333","6500600","新店區"
"231024","AKT-0513","2018/05/03 13:48:58","新北市新店區北新路一段271巷23號","121.54026","24.9670116666667","6500600","新店區"
"235028","005-UY","2018/05/03 13:49:10","新北市中和區連城路75巷3弄2號","121.497986666667","24.9992833333333","6500300","中和區"
"235027","006-UY","2018/05/03 13:49:14","新北市中和區錦和路194號","121.48996","24.9949766666667","6500300","中和區"
"235020","096-UM","2018/05/03 13:49:05","新北市中和區中正路1184號","121.481233333333","25.0103183333333","6500300","中和區"
"235003","097-UM","2018/05/03 13:49:07","新北市中和區景平路278巷16弄8號","121.514206666667","24.99347","6500300","中和區"
"235029","098-UM","2018/05/03 13:48:59","新北市中和區莊敬路33巷46號","121.500393333333","25.0069566666667","6500300","中和區"
"235004","150-BY","2018/05/03 13:48:59","新北市中和區保健路50巷53號","121.509715","24.99572","6500300","中和區"
"235022","151-BY","2018/05/03 13:49:09","新北市中和區連城路508號","121.476955","24.9920766666667","6500300","中和區"
"235019","183-VK","2018/05/03 13:49:01","新北市中和區德光路77巷6弄2號","121.469841666667","25.00335","6500300","中和區"
"235002","185-VK","2018/05/03 13:49:02","新北市中和區立人街24-4號","121.518861666667","24.9942316666667","6500300","中和區"
"235013","186-VK","2018/05/03 13:49:00","新北市中和區景安路177巷31號","121.506808333333","24.994575","6500300","中和區"
"235031","255-BX","2018/05/03 13:49:10","新北市中和區新生街220巷1弄15號","121.483438333333","24.9979133333333","6500300","中和區"
"235008","293-VK","2018/05/03 13:49:00","新北市中和區中興街123號","121.50003","24.991835","6500300","中和區"
"235036","301-VK","2018/05/03 13:49:12","新北市中和區中山路二段193號","121.499995","25.0026016666667","6500300","中和區"
"235007","352-BY","2018/05/03 13:49:13","新北市中和區景平路35號","121.522076666667","24.9906533333333","6500300","中和區"
"235032","377-QA","2018/05/03 13:48:24","新北市中和區圓通路265巷16號","121.495833333333","24.9927466666667","6500300","中和區"
"235025","378-QA","2018/05/03 13:48:49","新北市中和區自治街2號","121.474245","25.00301","6500300","中和區"
"235014","4979-A6","2018/05/03 13:49:02","新北市中和區忠孝街62巷7弄2號","121.513011666667","24.9837516666667","6500300","中和區"
"235033","4980-A6","2018/05/03 13:49:10","新北市中和區泰和街1號","121.499926666667","25.0008216666667","6500300","中和區"
"235006","551-UM","2018/05/03 13:49:12","新北市中和區成功路72號","121.525796666667","24.991955","6500300","中和區"
"235034","558-UM","2018/05/03 13:49:07","新北市中和區南山路6號","121.502005","24.9985966666667","6500300","中和區"
"235009","565-BX","2018/05/03 13:49:04","新北市中和區南山路323號","121.505155","24.9913116666667","6500300","中和區"
"235018","640-BX","2018/05/03 13:49:04","新北市中和區民享街64號","121.474088333333","25.0019883333333","6500300","中和區"
"235024","647-TV","2018/05/03 13:49:05","新北市中和區中山路三段162號","121.473083333333","25.0063466666667","6500300","中和區"
"235011","732-UM","2018/05/03 13:48:11","新北市中和區興南路二段74巷8號","121.505256666667","24.9847016666667","6500300","中和區"
"235010","733-UM","2018/05/03 13:49:04","新北市中和區仁愛街36巷40號","121.511328333333","24.98647","6500300","中和區"
"235035","783-BX","2018/05/03 13:49:12","新北市中和區環河西路三段123號","121.488803333333","25.011095","6500300","中和區"
"235026","800-TS","2018/05/03 13:33:00","新北市中和區景平路999巷2號","121.495406666667","25.0063183333333","6500300","中和區"
"235021","801-TS","2018/05/03 13:49:11","新北市中和區民安街25巷11號","121.480483333333","25.0003516666667","6500300","中和區"
"235005","802-TS","2018/05/03 13:49:08","新北市中和區中和路458巷8號","121.5124","25.00365","6500300","中和區"
"235016","805-TS","2018/05/03 13:49:02","新北市中和區興南路二段399巷35-2號","121.500228333333","24.9782966666667","6500300","中和區"
"235012","896-TW","2018/05/03 13:49:05","新北市中和區南山路186號","121.505728333333","24.9907233333333","6500300","中和區"
"235017","900-TW","2018/05/03 13:49:02","新北市中和區華福街5號","121.465395","24.9968316666667","6500300","中和區"
"235030","911-UM","2018/05/03 13:49:03","新北市中和區光華街44號","121.505006666667","25.0037383333333","6500300","中和區"
"235015","157-BY","2018/05/03 13:49:00","新北市中和區華新街109巷22號","121.508433333333","24.9807933333333","6500300","中和區"
"235001","AAC-213","2018/05/03 13:49:09","新北市中和區秀朗路三段128巷3號","121.524558333333","24.9926333333333","6500300","中和區"
"235023","AAC-215","2018/05/03 13:49:02","新北市中和區圓通路292巷2-1號","121.490028333333","24.9895283333333","6500300","中和區"
"220016","013-TV","2018/05/03 13:49:04","新北市板橋區民生路二段121號","121.470813333333","25.0185333333333","6500100","板橋區"
"220013","072-UY","2018/05/03 13:49:11","新北市板橋區漢生東路282號","121.4712","25.00901","6500100","板橋區"
"220086","073-UY","2018/05/03 13:49:16","新北市板橋區大智街78-3號","121.45376","25.01564","6500100","板橋區"
"220105","075-UY","2018/05/03 13:49:02","新北市板橋區民生路二段161巷9號","121.470323333333","25.01954","6500100","板橋區"
"220017","AAD-861","2018/05/03 13:48:58","新北市板橋區南雅南路一段1巷35號","121.457678333333","25.006445","6500100","板橋區"
"247005","336-TH","2018/05/03 13:49:02","新北市蘆洲區和平路77號","121.469308333333","25.0790133333333","6501400","蘆洲區"
"247007","056-VK","2018/05/03 13:49:03","新北市三重區三和路四段420-1號","121.480491666667","25.08011","6501400","蘆洲區"
"247019","001-UY","2018/05/03 13:49:05","新北市蘆洲區民族路422巷48弄24號","121.474748333333","25.0931783333333","6501400","蘆洲區"
"228005","097-TW","2018/05/03 13:48:57","新北市貢寮區美豐里土地公嶺10號","121.890856666667","25.0568333333333","6502600","貢寮區"
"228004","212-TW","2018/05/03 13:39:28","新北市貢寮區龍崗里嵩陽街17號","121.907086666667","25.0106966666667","6502600","貢寮區"
"253003","6232-TK","2018/05/03 13:48:58","新北市石門區尖子鹿8-1號","121.575228333333","25.2799716666667","6502200","石門區"
"253001","6251-TK","2018/05/03 13:48:55","新北市石門區下員坑16-20號","121.509018333333","25.2795783333333","6502200","石門區"
"253002","637-UY","2018/05/03 13:49:02","新北市石門區尖山湖3-1號","121.564481666667","25.2413416666667","6502200","石門區"
"253004","8270-PC","2018/05/03 13:48:47","新北市石門區阿里荖63-1號","121.608358333333","25.2660683333333","6502200","石門區"
"207002","749-BX","2018/05/03 13:48:55","新北市萬里區崁腳里崁腳路166號","121.645083333333","25.1560133333333","6502800","萬里區"
"207001","662-BX","2018/05/03 13:48:30","新北市萬里區磺潭里清水2號","121.634993333333","25.2020066666667","6502800","萬里區"
"252005","702-TV","2018/05/03 13:48:56","新北市三芝區店子里店子36-3號","121.505631666667","25.2054233333333","6502100","三芝區"
"252005","AAC-283","2018/05/03 13:48:47","新北市三芝區圓山里二坪頂46號","121.539751666667","25.2303266666667","6502100","三芝區"
"236068","105-UM","2018/05/03 13:48:56","新北市土城區城林路6巷80號","121.438585","24.97965","6501300","土城區"
"236040","107-UM","2018/05/03 13:49:02","新北市土城區中華路二段2號","121.439073333333","24.9797466666667","6501300","土城區"
"236074","166-UM","2018/05/03 13:49:07","新北市土城區中華路二段98號","121.438178333333","24.9744483333333","6501300","土城區"
"236029","253-BX","2018/05/03 13:48:41","新北市土城區城林路6巷80號","121.438478333333","24.9797933333333","6501300","土城區"
"236024","269-VK","2018/05/03 13:49:01","新北市土城區城林路6巷80號","121.438185","24.9798316666667","6501300","土城區"
"236012","270-VK","2018/05/03 13:49:00","新北市土城區城林路6巷80號","121.438615","24.9797866666667","6501300","土城區"
"236017","401-BY","2018/05/03 13:48:58","新北市土城區城林路6巷80號","121.438636666667","24.9798083333333","6501300","土城區"
"236005","498-BY","2018/05/03 13:48:55","新北市土城區員福街62號","121.440043333333","24.97917","6501300","土城區"
"236057","912-UM","2018/05/03 13:49:10","新北市土城區中華路二段201號","121.437891666667","24.9738116666667","6501300","土城區"
"236045","913-UM","2018/05/03 13:49:10","新北市土城區城林路6巷80號","121.438675","24.9796716666667","6501300","土城區"
"236060","915-UM","2018/05/03 13:48:55","新北市土城區城林路6巷80號","121.438488333333","24.9796916666667","6501300","土城區"
"236054","AAC-216","2018/05/03 13:48:58","新北市土城區城林路6巷80號","121.438663333333","24.9797683333333","6501300","土城區"
"242047","172-VK","2018/05/03 13:49:06","新北市新莊區新樹路613號","121.435158333333","25.00454","6500500","新莊區"
"238008","KEA-2539","2018/05/03 13:31:44","新北市樹林區育德街78-1號","121.387925","24.9681283333333","6500700","樹林區"
"220027","145-BY","2018/05/03 13:49:15","新北市板橋區大智街71巷5弄1號","121.45334","25.0149533333333","6500100","板橋區"
"220028","200-UY","2018/05/03 13:49:00","新北市板橋區大觀路二段397號","121.441266666667","24.9970333333333","6500100","板橋區"
"220030","610-BX","2018/05/03 13:49:02","新北市板橋區篤行路三段玉平巷68弄2號","121.427986666667","24.9862066666667","6500100","板橋區"
"220050","245-BX","2018/05/03 13:48:54","新北市板橋區民生路二段161巷1號","121.470216666667","25.020075","6500100","板橋區"
"220004","276-BY","2018/05/03 13:49:01","新北市板橋區四川路二段23號","121.454716666667","24.99544","6500100","板橋區"
"220020","277-BY","2018/05/03 13:49:12","新北市板橋區金門街47巷16號","121.434045","24.9933416666667","6500100","板橋區"
"220043","283-UM","2018/05/03 13:49:02","新北市板橋區民生路二段161巷1號","121.47014","25.0198266666667","6500100","板橋區"
"220019","283-VK","2018/05/03 13:49:03","新北市板橋區忠孝路176巷23號","121.465306666667","25.0017383333333","6500100","板橋區"
"220001","285-VK","2018/05/03 13:48:58","新北市板橋區民生路二段80號","121.471953333333","25.0184366666667","6500100","板橋區"
"220031","286-VK","2018/05/03 13:49:05","新北市板橋區大觀路一段38巷156弄124-1號","121.443285","25.0078033333333","6500100","板橋區"
"220029","287-VK","2018/05/03 13:49:03","新北市板橋區光華街13巷2-3號","121.454126666667","25.0115883333333","6500100","板橋區"
"220039","288-VK","2018/05/03 13:49:10","新北市板橋區民生路二段120號","121.470443333333","25.0196433333333","6500100","板橋區"
"220009","293-UM","2018/05/03 13:48:56","新北市板橋區民生路二段123號","121.470785","25.018635","6500100","板橋區"
"220032","296-UM","2018/05/03 13:49:00","新北市板橋區大觀路二段148巷1-3號","121.441771666667","24.9992883333333","6500100","板橋區"
"220023","303-R5","2018/05/03 13:48:57","新北市板橋區南雅西路一段174巷1弄16-1號","121.452928333333","25.00737","6500100","板橋區"
"220010","305-R5","2018/05/03 13:49:00","新北市板橋區觀光街2號","121.47243","25.01535","6500100","板橋區"
"220041","307-R5","2018/05/03 13:49:10","新北市板橋區民生路二段120號","121.47047","25.0198833333333","6500100","板橋區"
"220047","317-R6","2018/05/03 13:49:06","新北市板橋區民生路二段120號","121.470301666667","25.0199683333333","6500100","板橋區"
"220012","486-VK","2018/05/03 13:48:58","新北市板橋區民生路二段36-1號","121.472138333333","25.0167733333333","6500100","板橋區"
"220037","491-VK","2018/05/03 13:49:10","新北市板橋區民生路二段175號","121.469813333333","25.0202033333333","6500100","板橋區"
"220104","560-BX","2018/05/03 13:49:13","新北市板橋區中正路325巷30-2號","121.453008333333","25.0186983333333","6500100","板橋區"
"220052","561-BX","2018/05/03 13:49:03","新北市板橋區民生路二段120號","121.470416666667","25.0195583333333","6500100","板橋區"
"220011","609-BX","2018/05/03 13:49:14","新北市板橋區中山路二段37號","121.473155","25.0156833333333","6500100","板橋區"
"220003","630-UY","2018/05/03 13:48:59","新北市板橋區中山路一段161號","121.46532","25.011915","6500100","板橋區"
"220040","637-BX","2018/05/03 13:49:10","新北市板橋區民生路二段161巷1號","121.470003333333","25.020005","6500100","板橋區"
"220005","686-BX","2018/05/03 13:48:57","新北市板橋區南雅南路二段92巷40號","121.452691666667","25.002255","6500100","板橋區"
"220025","687-BX","2018/05/03 13:48:55","新北市板橋區金門街81號","121.433258333333","24.9926483333333","6500100","板橋區"
"220042","689-BX","2018/05/03 13:48:53","新北市板橋區民生路二段188號","121.470183333333","25.0201966666667","6500100","板橋區"
"220002","741-BX","2018/05/03 13:48:57","新北市板橋區館前西路49號","121.457911666667","25.0067583333333","6500100","板橋區"
"220051","KEA-2699","2018/05/03 13:49:06","新北市板橋區民生路二段161巷1號","121.470185","25.01997","6500100","板橋區"
"220014","829-TW","2018/05/03 13:49:08","新北市板橋區三民路二段正隆巷62號","121.476601666667","25.0144166666667","6500100","板橋區"
"220045","830-TW","2018/05/03 13:48:59","新北市板橋區民生路二段120號","121.470588333333","25.0201083333333","6500100","板橋區"
"220038","833-TW","2018/05/03 13:49:10","新北市板橋區民生路二段177號","121.469933333333","25.0203133333333","6500100","板橋區"
"220022","895-R6","2018/05/03 13:49:05","新北市板橋區南門街39號","121.457358333333","25.0086683333333","6500100","板橋區"
"220021","985-R7","2018/05/03 13:49:00","新北市板橋區府中路67號","121.458166666667","25.0095233333333","6500100","板橋區"
"220018","AAC-253","2018/05/03 13:49:10","新北市板橋區四川路一段73號","121.459746666667","25.0059416666667","6500100","板橋區"
