"lineid","car","time","location","longitude","latitude","cityid","cityname"
"234044","148-BY","2018/05/03 14:19:10","新北市永和區得和路291號","121.522521666667","24.9995733333333","6500400","永和區"
"234005","207-UY","2018/05/03 14:19:17","新北市中和區中和路232號","121.506661666667","24.9995916666667","6500400","永和區"
"234078","298-R6","2018/05/03 14:19:14","新北市永和區國中路130號","121.523461666667","25.0068083333333","6500400","永和區"
"234036","336-UY","2018/05/03 14:19:12","新北市永和區成功路一段93巷21弄2號","121.528325","25.0026916666667","6500400","永和區"
"234062","337-UY","2018/05/03 14:19:08","新北市永和區得和路108號","121.518238333333","25.0001416666667","6500400","永和區"
"234084","338-UY","2018/05/03 14:19:22","新北市永和區永和路二段50號","121.514728333333","25.01087","6500400","永和區"
"234068","552-UM","2018/05/03 14:19:08","新北市永和區永亨路29號","121.519535","25.0062066666667","6500400","永和區"
"234028","746-BX","2018/05/03 14:19:03","新北市永和區民權路49巷17號","121.520931666667","24.99735","6500400","永和區"
"234052","KEA-2590","2018/05/03 14:19:12","新北市永和區光復街2巷16弄1號","121.517038333333","25.0163366666667","6500400","永和區"
"234012","KEA-2591","2018/05/03 14:19:14","新北市永和區保生路5巷3號","121.506025","25.0071766666667","6500400","永和區"
"234060","AAD-866","2018/05/03 14:19:22","新北市永和區安樂路196號","121.515035","25.00141","6500400","永和區"
"234040","862-TW","2018/05/03 14:19:12","新北市中和區中安街220號","121.512116666667","24.9988233333333","6500400","永和區"
"234048","863-TW","2018/05/03 14:19:03","新北市永和區文化路230號","121.509811666667","25.016905","6500400","永和區"
"234025","9371-KE","2018/05/03 14:19:17","新北市永和區安樂路144巷6號","121.514545","25.0001616666667","6500400","永和區"
"248015","026-BX","2018/05/03 14:19:05","新北市五股區成洲五路12號","121.452418333333","25.10155","6501500","五股區"
"248017","225-UY","2018/05/03 14:19:07","新北市五股區壟路7-2號","121.416296666667","25.0896616666667","6501500","五股區"
"248011","247-BX","2018/05/03 14:19:03","新北市五股區中興路四段56號","121.437866666667","25.0830066666667","6501500","五股區"
"248003","677-BX","2018/05/03 14:19:09","新北市五股區五福路73號","121.432506666667","25.09012","6501500","五股區"
"248001","678-BX","2018/05/03 14:19:13","新北市五股區成泰路三段590-3號","121.452713333333","25.1059016666667","6501500","五股區"
"248009","682-TV","2018/05/03 14:19:06","新北市五股區水碓一路23號","121.430608333333","25.0712816666667","6501500","五股區"
"234022","9380-KE","2018/05/03 14:19:17","新北市永和區竹林路25巷21號","121.518173333333","25.014985","6500400","永和區"
"234076","969-R7","2018/05/03 14:19:17","新北市永和區民權路104號","121.5194","24.99663","6500400","永和區"
"234072","AAC-211","2018/05/03 14:19:03","新北市永和區福和路1號","121.525168333333","25.009045","6500400","永和區"
"234066","AAC-212","2018/05/03 14:19:17","新北市永和區中山路一段281巷2弄1號","121.507296666667","25.0065233333333","6500400","永和區"
"234001","AAC-295","2018/05/03 14:19:11","新北市永和區中正路624巷2號","121.517098333333","25.007905","6500400","永和區"
"243005","AAD-798","2018/05/03 14:19:11","新北市泰山區明志路三段145巷56號","121.427283333333","25.0390316666667","6501600","泰山區"
"243001","297-R6","2018/05/03 14:19:19","新北市泰山區和平街13巷37號","121.434471666667","25.0661933333333","6501600","泰山區"
"243007","380-SR","2018/05/03 14:19:10","新北市泰山區明志路三段155號","121.424726666667","25.03973","6501600","泰山區"
"243007","421-VK","2018/05/03 14:19:04","新北市泰山區明志路二段51號","121.429326666667","25.0528016666667","6501600","泰山區"
"243003","KEA-2215","2018/05/03 14:19:18","新北市泰山區貴子路15巷2弄2號","121.426391666667","25.0419033333333","6501600","泰山區"
"243002","KEA-2216","2018/05/03 14:19:12","新北市泰山區明志路二段34號","121.429576666667","25.0533766666667","6501600","泰山區"
"243004","646-TV","2018/05/03 14:19:10","新北市泰山區仁義路222號","121.432846666667","25.05349","6501600","泰山區"
"243006","680-BX","2018/05/03 14:19:05","新北市泰山區泰林路二段158號","121.433931666667","25.0603833333333","6501600","泰山區"
"231027","0293-UT","2018/05/03 14:19:18","新北市新店區北新路二段2號","121.542576666667","24.9706","6500600","新店區"
"231028","046-UY","2018/05/03 14:19:20","新北市新店區安和路二段218-1號","121.518051666667","24.97517","6500600","新店區"
"231001","047-UY","2018/05/03 14:19:07","新北市新店區北新路一段96巷23號","121.54298","24.9688266666667","6500600","新店區"
"231005","106-UY","2018/05/03 14:19:16","新北市新店區中興路三段221-2號","121.543458333333","24.98254","6500600","新店區"
"231021","108-UY","2018/05/03 14:19:10","新北市新店區桂山路35號","121.558556666667","24.902915","6500600","新店區"
"231011","187-VK","2018/05/03 14:19:11","新北市新店區五峰路63巷8弄3號","121.54696","24.9691316666667","6500600","新店區"
"231023","KEA-2219","2018/05/03 14:19:22","新北市新店區光明街100號","121.538965","24.9605516666667","6500600","新店區"
"231018","278-BY","2018/05/03 14:19:05","新北市新店區中央四街31號","121.528675","24.9745916666667","6500600","新店區"
"231017","AAD-862","2018/05/03 14:19:02","新北市新店區北宜路二段382號","121.564345","24.9532633333333","6500600","新店區"
"231038","3712-VJ","2018/05/03 14:19:01","新北市新店區溪洲路8巷142號","121.533105","24.9640883333333","6500600","新店區"
"231037","4716-K9","2018/05/03 14:19:02","新北市新店區車子路10號","121.504595","24.9549366666667","6500600","新店區"
"231025","4715-K9","2018/05/03 14:19:21","新北市新店區民族路161號","121.537748333333","24.9767116666667","6500600","新店區"
"231036","512-UM","2018/05/03 14:19:09","新北市新店區安祥路109巷85弄1號","121.47788","24.960385","6500600","新店區"
"231013","513-UM","2018/05/03 14:19:16","新北市新店區大豐路80號","121.538773333333","24.9793216666667","6500600","新店區"
"231003","515-UM","2018/05/03 14:19:15","新北市新店區中興路一段180號","121.543143333333","24.964755","6500600","新店區"
"231034","616-UM","2018/05/03 14:19:19","新北市新店區車子路11號","121.503055","24.9520616666667","6500600","新店區"
"231002","618-UM","2018/05/03 14:19:02","新北市新店區中正路487號","121.533946666667","24.98209","6500600","新店區"
"231030","619-UM","2018/05/03 14:19:11","新北市新店區安民街65巷15-1號","121.515301666667","24.966645","6500600","新店區"
"231035","719-UM","2018/05/03 14:19:16","新北市新店區安和路二段111號","121.518748333333","24.9701433333333","6500600","新店區"
"231031","720-UM","2018/05/03 14:19:03","新北市新店區碧潭路18號","121.534516666667","24.9562216666667","6500600","新店區"
"231029","897-TW","2018/05/03 14:19:20","新北市新店區安康路二段209號","121.508965","24.95891","6500600","新店區"
"231006","898-TW","2018/05/03 14:19:02","新北市新店區北宜路二段599號","121.56819","24.9556383333333","6500600","新店區"
"231004","899-TW","2018/05/03 14:19:18","新北市新店區中正路114號","121.542471666667","24.971095","6500600","新店區"
"231024","AKT-0513","2018/05/03 14:19:18","新北市新店區薏仁坑路11號","121.498586666667","24.9590733333333","6500600","新店區"
"235028","005-UY","2018/05/03 14:19:17","新北市中和區泰和街35號","121.499171666667","24.9997133333333","6500300","中和區"
"235027","006-UY","2018/05/03 14:19:14","新北市中和區圓通路198巷6號","121.495523333333","24.9944716666667","6500300","中和區"
"235020","096-UM","2018/05/03 14:19:18","新北市中和區員山路565號","121.479471666667","25.0077383333333","6500300","中和區"
"235003","097-UM","2018/05/03 14:19:02","新北市中和區秀峰街119巷6弄8號","121.519405","24.99018","6500300","中和區"
"235029","098-UM","2018/05/03 14:19:20","新北市中和區中山路二段2巷13弄14號","121.503025","25.0065283333333","6500300","中和區"
"235004","150-BY","2018/05/03 14:19:19","新北市中和區保健路125號","121.512396666667","24.9959466666667","6500300","中和區"
"235022","151-BY","2018/05/03 14:19:09","新北市中和區連城路469巷70弄4號","121.48334","24.9934933333333","6500300","中和區"
"235019","183-VK","2018/05/03 14:19:16","新北市中和區中山路三段179巷23號","121.473543333333","25.005885","6500300","中和區"
"235002","185-VK","2018/05/03 14:19:02","新北市中和區大仁街10巷27弄4號","121.519215","24.9926866666667","6500300","中和區"
"235013","186-VK","2018/05/03 14:19:20","新北市中和區景新街230巷2號","121.508125","24.9941516666667","6500300","中和區"
"235031","255-BX","2018/05/03 14:19:10","新北市中和區中正路711號","121.484655","24.998555","6500300","中和區"
"235008","293-VK","2018/05/03 14:19:00","新北市中和區中興街239號","121.500461666667","24.989255","6500300","中和區"
"235036","301-VK","2018/05/03 14:19:12","新北市中和區福美路310號","121.496881666667","25.0048466666667","6500300","中和區"
"235007","352-BY","2018/05/03 14:19:13","新北市中和區景平路290號","121.513128333333","24.9928533333333","6500300","中和區"
"235032","377-QA","2018/05/03 14:19:04","新北市中和區圓通路158巷28號","121.498581666667","24.9971183333333","6500300","中和區"
"235025","378-QA","2018/05/03 14:18:49","新北市中和區員山路143巷21號","121.479861666667","24.995615","6500300","中和區"
"235014","4979-A6","2018/05/03 14:19:22","新北市中和區景安路208巷16號","121.503228333333","24.9914283333333","6500300","中和區"
"235033","4980-A6","2018/05/03 14:19:09","新北市中和區中山路二段181號","121.500856666667","25.0028566666667","6500300","中和區"
"235006","551-UM","2018/05/03 14:19:12","新北市中和區立人街69巷7弄2號","121.520076666667","24.9935016666667","6500300","中和區"
"235034","558-UM","2018/05/03 14:19:11","新北市中和區連城路68-1號","121.497558333333","25.001425","6500300","中和區"
"235009","565-BX","2018/05/03 14:19:04","新北市中和區景新街423巷35弄23號","121.513865","24.9905333333333","6500300","中和區"
"235018","640-BX","2018/05/03 14:19:04","新北市中和區民德路142號","121.468646666667","25.0004816666667","6500300","中和區"
"235024","647-TV","2018/05/03 14:19:05","新北市中和區員山路396號","121.48058","25.004605","6500300","中和區"
"235011","732-UM","2018/05/03 14:19:11","新北市中和區景平路239巷59弄17號","121.508888333333","24.9917716666667","6500300","中和區"
"235010","733-UM","2018/05/03 14:19:05","新北市中和區忠孝街2巷1號","121.51013","24.98245","6500300","中和區"
"235035","783-BX","2018/05/03 14:19:12","新北市中和區立德街98巷70號","121.488498333333","25.0085833333333","6500300","中和區"
"235026","800-TS","2018/05/03 14:19:00","新北市中和區中山路二段380-1號","121.491245","25.00333","6500300","中和區"
"235021","801-TS","2018/05/03 14:19:11","新北市中和區員山路423巷12弄1號","121.480456666667","25.00316","6500300","中和區"
"235005","802-TS","2018/05/03 14:19:08","新北市中和區宜安路118巷26號","121.511096666667","24.99883","6500300","中和區"
"235016","805-TS","2018/05/03 14:19:02","新北市中和區興南路二段120號","121.504565","24.9837566666667","6500300","中和區"
"235012","896-TW","2018/05/03 14:18:45","新北市中和區華新街109巷24號","121.50852","24.9804566666667","6500300","中和區"
"235017","900-TW","2018/05/03 14:19:21","新北市中和區華安街19巷10號","121.46753","24.9978566666667","6500300","中和區"
"235030","911-UM","2018/05/03 14:19:23","新北市中和區廣福路112號","121.502153333333","25.0011633333333","6500300","中和區"
"235015","157-BY","2018/05/03 14:19:20","新北市中和區景平路239巷33弄31號","121.509558333333","24.9916266666667","6500300","中和區"
"235001","AAC-213","2018/05/03 14:19:09","新北市中和區秀朗路三段50巷12弄6號","121.524023333333","24.99532","6500300","中和區"
"235023","AAC-215","2018/05/03 14:19:02","新北市中和區圓通路286巷2號","121.491451666667","24.990995","6500300","中和區"
"220016","013-TV","2018/05/03 14:19:08","新北市板橋區林森街1巷6號","121.482245","25.0241316666667","6500100","板橋區"
"220013","072-UY","2018/05/03 14:19:11","新北市板橋區民族路131號","121.467516666667","25.0080983333333","6500100","板橋區"
"220086","073-UY","2018/05/03 14:19:16","新北市板橋區中正路216巷104號","121.45893","25.0191633333333","6500100","板橋區"
"220105","075-UY","2018/05/03 14:19:02","新北市板橋區雙十路三段66巷1號","121.470555","25.031975","6500100","板橋區"
"220017","AAD-861","2018/05/03 14:19:18","新北市板橋區大華街71號","121.459461666667","25.0034966666667","6500100","板橋區"
"247023","893-R6","2018/05/03 14:19:18","新北市蘆洲區長榮路703號","121.461013333333","25.0928133333333","6501400","蘆洲區"
"247013","546-UM","2018/05/03 14:19:01","新北市蘆洲區中山一路196號","121.473763333333","25.0809083333333","6501400","蘆洲區"
"247021","500-BY","2018/05/03 14:19:22","新北市蘆洲區三民路128巷98號","121.46959","25.0907783333333","6501400","蘆洲區"
"247009","341-TH","2018/05/03 14:19:03","新北市蘆洲區三民路26巷30號","121.47786","25.0830383333333","6501400","蘆洲區"
"247011","339-TH","2018/05/03 14:19:06","新北市蘆洲區復興路112號","121.476091666667","25.0872116666667","6501400","蘆洲區"
"247003","337-TH","2018/05/03 14:19:20","新北市蘆洲區長安街221號","121.459838333333","25.0822583333333","6501400","蘆洲區"
"247005","336-TH","2018/05/03 14:19:02","新北市蘆洲區九芎街139巷22弄8號","121.465858333333","25.07864","6501400","蘆洲區"
"247017","057-VK","2018/05/03 14:19:08","新北市蘆洲區復興路21號","121.475575","25.0870483333333","6501400","蘆洲區"
"247015","007-UY","2018/05/03 14:19:17","新北市蘆洲區光華路70巷8號","121.4677","25.0833783333333","6501400","蘆洲區"
"247001","002-UY","2018/05/03 14:19:21","新北市蘆洲區永樂街23號","121.458778333333","25.0882416666667","6501400","蘆洲區"
"247019","001-UY","2018/05/03 14:19:05","新北市蘆洲區民族路331-18號","121.473313333333","25.091945","6501400","蘆洲區"
"228005","097-TW","2018/05/03 14:19:17","新北市貢寮區美豐里土地公嶺54號","121.894508333333","25.0649616666667","6502600","貢寮區"
"228004","212-TW","2018/05/03 14:19:15","新北市貢寮區雙玉里田寮洋街39-3號","121.925503333333","25.01399","6502600","貢寮區"
"253003","6232-TK","2018/05/03 14:19:19","新北市石門區內石門62號","121.577876666667","25.265915","6502200","石門區"
"253001","6251-TK","2018/05/03 14:19:15","新北市石門區八甲71-2號","121.529963333333","25.2695633333333","6502200","石門區"
"253002","637-UY","2018/05/03 14:19:02","新北市石門區七股1號","121.546233333333","25.275655","6502200","石門區"
"253004","8270-PC","2018/05/03 14:19:07","新北市石門區坪林50號","121.588596666667","25.2691233333333","6502200","石門區"
"207002","749-BX","2018/05/03 14:19:15","新北市萬里區溪底里瑞泉路3號","121.609746666667","25.1433766666667","6502800","萬里區"
"207001","662-BX","2018/05/03 14:19:10","新北市萬里區磺潭里清水18號","121.638075","25.19773","6502800","萬里區"
"252005","702-TV","2018/05/03 14:19:16","新北市三芝區店子里店子36-4號","121.50559","25.2052566666667","6502100","三芝區"
"252005","AAC-283","2018/05/03 14:19:07","新北市三芝區橫山里橫山2號","121.532571666667","25.262095","6502100","三芝區"
"236068","105-UM","2018/05/03 14:19:16","新北市土城區明德路一段128巷2號","121.463221666667","24.9790433333333","6501300","土城區"
"236040","107-UM","2018/05/03 14:19:02","新北市土城區裕民路3巷32號","121.448565","24.9865333333333","6501300","土城區"
"236074","166-UM","2018/05/03 14:19:07","新北市土城區永平街3-1號","121.427668333333","24.96326","6501300","土城區"
"236029","253-BX","2018/05/03 14:19:21","新北市土城區順風路46號","121.440213333333","24.9770816666667","6501300","土城區"
"236024","269-VK","2018/05/03 14:19:21","新北市土城區承天路43巷4號","121.439211666667","24.9639216666667","6501300","土城區"
"236012","270-VK","2018/05/03 14:19:00","新北市土城區青雲路39巷7號","121.46033","24.9875133333333","6501300","土城區"
"236032","271-VK","2018/05/03 14:19:05","新北市土城區青雲路451巷15號","121.459613333333","24.9747516666667","6501300","土城區"
"236017","401-BY","2018/05/03 14:19:18","新北市土城區學士路123號","121.446538333333","24.9758966666667","6501300","土城區"
"236005","498-BY","2018/05/03 14:19:16","新北市土城區中華路一段56巷31號","121.444116666667","24.9898","6501300","土城區"
"236057","912-UM","2018/05/03 14:19:10","新北市土城區中央路四段332號","121.413561666667","24.955455","6501300","土城區"
"236045","913-UM","2018/05/03 14:19:10","新北市土城區明德路一段361-3號","121.45625","24.9777516666667","6501300","土城區"
"236060","915-UM","2018/05/03 14:19:15","新北市土城區延壽路44巷11號","121.471455","24.9929616666667","6501300","土城區"
"236054","AAC-216","2018/05/03 14:19:18","新北市土城區中華路二段102號","121.438058333333","24.974365","6501300","土城區"
"221032","280-BY","2018/05/03 14:19:11","新北市汐止區建成路26號","121.664478333333","25.0727","6501100","汐止區"
"220027","145-BY","2018/05/03 14:18:54","新北市板橋區民權路260巷63號","121.460233333333","25.01504","6500100","板橋區"
"220028","200-UY","2018/05/03 14:19:20","新北市板橋區大觀路二段19巷101號","121.449903333333","25.0027816666667","6500100","板橋區"
"220030","610-BX","2018/05/03 14:19:02","新北市板橋區篤行路三段玉平巷68弄15號","121.42719","24.9862366666667","6500100","板橋區"
"220050","245-BX","2018/05/03 14:19:14","新北市板橋區雙十路二段53號","121.476533333333","25.0264383333333","6500100","板橋區"
"220004","276-BY","2018/05/03 14:19:14","新北市板橋區信義路97號","121.457483333333","24.9937416666667","6500100","板橋區"
"220020","277-BY","2018/05/03 14:19:06","新北市板橋區大觀路三段50巷47號","121.432993333333","24.9956183333333","6500100","板橋區"
"220043","283-UM","2018/05/03 14:19:22","新北市板橋區吳鳳路82號","121.46695","25.0312916666667","6500100","板橋區"
"220019","283-VK","2018/05/03 14:19:23","新北市板橋區忠孝路48巷7弄1-3號","121.461055","25.0004633333333","6500100","板橋區"
"220001","285-VK","2018/05/03 14:19:17","新北市板橋區永豐街265號","121.47815","25.0212716666667","6500100","板橋區"
"220031","286-VK","2018/05/03 14:19:05","新北市板橋區大觀路一段38巷170弄1號","121.441993333333","25.00458","6500100","板橋區"
"220029","287-VK","2018/05/03 14:19:03","新北市板橋區南雅西路一段10巷7弄16號","121.453936666667","25.0045583333333","6500100","板橋區"
"220039","288-VK","2018/05/03 14:19:10","新北市板橋區四維路349巷16號","121.461586666667","25.029625","6500100","板橋區"
"220009","293-UM","2018/05/03 14:19:16","新北市板橋區光復街192巷20號","121.481448333333","25.0189466666667","6500100","板橋區"
"220032","296-UM","2018/05/03 14:19:17","新北市板橋區滿平街136巷7弄1號","121.428071666667","24.9873283333333","6500100","板橋區"
"220023","303-R5","2018/05/03 14:19:17","新北市板橋區南雅南路一段37號","121.456323333333","25.00631","6500100","板橋區"
"220010","305-R5","2018/05/03 14:19:00","新北市板橋區三民路二段153巷36弄2號","121.481195","25.0141716666667","6500100","板橋區"
"220041","307-R5","2018/05/03 14:19:17","新北市板橋區光武街48巷18號","121.467823333333","25.0268366666667","6500100","板橋區"
"220047","317-R6","2018/05/03 14:19:06","新北市板橋區民有街88號","121.464931666667","25.0274383333333","6500100","板橋區"
"220012","486-VK","2018/05/03 14:19:18","新北市板橋區板新路210號","121.46855","25.0161283333333","6500100","板橋區"
"220037","491-VK","2018/05/03 14:19:10","新北市板橋區雙十路二段239號","121.472785","25.0289916666667","6500100","板橋區"
"220104","560-BX","2018/05/03 14:19:13","新北市板橋區中正路360巷26號","121.455426666667","25.0233533333333","6500100","板橋區"
"220052","561-BX","2018/05/03 14:19:03","新北市板橋區文化路一段188巷7弄13號","121.467588333333","25.0197516666667","6500100","板橋區"
"220011","609-BX","2018/05/03 14:19:14","新北市板橋區三民路二段203-4號","121.479038333333","25.013545","6500100","板橋區"
"220003","630-UY","2018/05/03 14:19:19","新北市板橋區新民街6巷1號","121.464621666667","25.0103666666667","6500100","板橋區"
"220040","637-BX","2018/05/03 14:19:10","新北市板橋區萬板路476號","121.47991","25.0260066666667","6500100","板橋區"
"220005","686-BX","2018/05/03 14:19:18","新北市板橋區和平路153號","121.463388333333","24.995675","6500100","板橋區"
"220025","687-BX","2018/05/03 14:19:18","新北市板橋區大觀路二段315號","121.441798333333","24.9986716666667","6500100","板橋區"
"220042","689-BX","2018/05/03 14:19:12","新北市板橋區漢生西路83-2號","121.462668333333","25.019425","6500100","板橋區"
"220002","741-BX","2018/05/03 14:19:17","新北市板橋區四川路一段205號","121.460101666667","25.00367","6500100","板橋區"
"220051","KEA-2699","2018/05/03 14:19:06","新北市板橋區文聖街137號","121.47828","25.028395","6500100","板橋區"
"220014","829-TW","2018/05/03 14:19:08","新北市板橋區長安街138巷1弄39號","121.473976666667","25.0102316666667","6500100","板橋區"
"220045","830-TW","2018/05/03 14:19:18","新北市板橋區大同街53號","121.478581666667","25.0275233333333","6500100","板橋區"
"220038","833-TW","2018/05/03 14:19:17","新北市板橋區文化路一段371號","121.46704","25.0214883333333","6500100","板橋區"
"220022","895-R6","2018/05/03 14:19:05","新北市板橋區西門街9號","121.455783333333","25.0108983333333","6500100","板橋區"
"220021","985-R7","2018/05/03 14:19:20","新北市板橋區中正路307號","121.45518","25.0197566666667","6500100","板橋區"
"220046","AAC-210","2018/05/03 14:19:17","新北市板橋區漢生西路89巷3弄6號","121.461541666667","25.0193683333333","6500100","板橋區"
"220018","AAC-253","2018/05/03 14:19:17","新北市板橋區忠孝路170號","121.46441","25.0024966666667","6500100","板橋區"
