"lineid","car","time","location","longitude","latitude","cityid","cityname"
"234044","148-BY","2018/05/03 14:28:49","新北市永和區竹林路91巷60弄70號","121.522986666667","25.0123066666667","6500400","永和區"
"234005","207-UY","2018/05/03 14:28:57","新北市永和區中山路一段72號","121.512468333333","25.0107783333333","6500400","永和區"
"234078","298-R6","2018/05/03 14:28:54","新北市永和區永貞路80號","121.520145","25.0051116666667","6500400","永和區"
"234036","336-UY","2018/05/03 14:29:00","新北市永和區民樂街31巷10弄11號","121.528886666667","25.0009966666667","6500400","永和區"
"234062","337-UY","2018/05/03 14:28:48","新北市永和區中正路419號","121.517158333333","25.004995","6500400","永和區"
"234084","338-UY","2018/05/03 14:29:04","新北市永和區永和路二段340號","121.516321666667","25.01694","6500400","永和區"
"234068","552-UM","2018/05/03 14:29:01","新北市永和區永寧街10號","121.520318333333","25.006705","6500400","永和區"
"234028","746-BX","2018/05/03 14:29:03","新北市永和區民權路84號","121.519878333333","24.9970333333333","6500400","永和區"
"234052","KEA-2590","2018/05/03 14:28:52","新北市永和區光復街60巷25號","121.517781666667","25.0175233333333","6500400","永和區"
"234060","AAD-866","2018/05/03 14:29:02","新北市永和區秀朗路一段175號","121.517073333333","25.0037083333333","6500400","永和區"
"234040","862-TW","2018/05/03 14:28:52","新北市永和區安樂路298號","121.514398333333","25.0048166666667","6500400","永和區"
"234048","863-TW","2018/05/03 14:29:02","新北市永和區新生路138巷1弄4號","121.506513333333","25.0143883333333","6500400","永和區"
"234025","9371-KE","2018/05/03 14:28:57","新北市永和區安樂路50巷1弄1號","121.514745","24.9973266666667","6500400","永和區"
"248015","026-BX","2018/05/03 14:29:05","新北市五股區成泰路四段88號","121.457215","25.1112633333333","6501500","五股區"
"248007","095-VK","2018/05/03 14:29:03","新北市五股區中興路一段105號","121.466381666667","25.0731433333333","6501500","五股區"
"248017","225-UY","2018/05/03 14:24:07","新北市五股區壟路16號","121.415458333333","25.08558","6501500","五股區"
"248011","247-BX","2018/05/03 14:29:03","新北市五股區蓬萊路6巷41-2號","121.435655","25.08016","6501500","五股區"
"248013","261-SL","2018/05/03 14:28:52","新北市五股區民義路一段157-22號","121.431361666667","25.086825","6501500","五股區"
"248003","677-BX","2018/05/03 14:29:02","新北市五股區五福路60號","121.433333333333","25.0897216666667","6501500","五股區"
"248001","678-BX","2018/05/03 14:28:53","新北市五股區成泰路三段487號","121.450685","25.0993533333333","6501500","五股區"
"248009","682-TV","2018/05/03 14:28:46","新北市五股區水碓一路23號","121.430566666667","25.0712683333333","6501500","五股區"
"234076","969-R7","2018/05/03 14:28:57","新北市永和區民族街81巷58號","121.520016666667","24.996485","6500400","永和區"
"234072","AAC-211","2018/05/03 14:29:03","新北市永和區竹林路121號","121.520205","25.011435","6500400","永和區"
"234066","AAC-212","2018/05/03 14:28:51","新北市永和區保平路215號","121.508446666667","25.0046933333333","6500400","永和區"
"234001","AAC-295","2018/05/03 14:29:03","新北市永和區永和路一段174號","121.514276666667","25.0087333333333","6500400","永和區"
"243005","AAD-798","2018/05/03 14:28:51","新北市泰山區民國街30號","121.425643333333","25.0428233333333","6501600","泰山區"
"243001","297-R6","2018/05/03 14:28:59","新北市泰山區半山雅40號","121.430758333333","25.0675183333333","6501600","泰山區"
"243007","380-SR","2018/05/03 14:28:50","新北市泰山區明志路三段166號","121.424276666667","25.03948","6501600","泰山區"
"243007","421-VK","2018/05/03 14:29:04","新北市泰山區民權街101號","121.428431666667","25.0494033333333","6501600","泰山區"
"243003","KEA-2215","2018/05/03 14:28:58","新北市泰山區貴子路67巷22號","121.431105","25.0409733333333","6501600","泰山區"
"243002","KEA-2216","2018/05/03 14:29:05","新北市泰山區民生路17巷2號","121.430011666667","25.0524983333333","6501600","泰山區"
"243004","646-TV","2018/05/03 14:28:50","新北市泰山區明志路一段501巷19號","121.431356666667","25.0545666666667","6501600","泰山區"
"243006","680-BX","2018/05/03 14:29:04","新北市泰山區中港西路422號","121.433738333333","25.05394","6501600","泰山區"
"231027","0293-UT","2018/05/03 14:28:58","新北市新店區寶橋路85巷5弄3號","121.54595","24.9756816666667","6500600","新店區"
"231028","046-UY","2018/05/03 14:29:02","新北市新店區安和路一段15號","121.516853333333","24.9643066666667","6500600","新店區"
"231001","047-UY","2018/05/03 14:28:47","新北市新店區中正路75巷71號","121.543115","24.9689016666667","6500600","新店區"
"231005","106-UY","2018/05/03 14:28:56","新北市新店區中興路三段134號","121.544676666667","24.9797916666667","6500600","新店區"
"231021","108-UY","2018/05/03 14:28:50","新北市新店區桂山路51巷6-1號","121.561951666667","24.9015783333333","6500600","新店區"
"231011","187-VK","2018/05/03 14:28:51","新北市新店區寶興路65巷1號","121.550898333333","24.9717383333333","6500600","新店區"
"231023","KEA-2219","2018/05/03 14:29:02","新北市新店區光明街137號","121.539523333333","24.9620083333333","6500600","新店區"
"231018","278-BY","2018/05/03 14:28:45","新北市新店區中央三街62號","121.526908333333","24.9749433333333","6500600","新店區"
"231017","AAD-862","2018/05/03 14:29:02","新北市新店區北宜路三段54號","121.573475","24.9514483333333","6500600","新店區"
"231038","3712-VJ","2018/05/03 14:29:01","新北市新店區溪洲路123號","121.530398333333","24.9638083333333","6500600","新店區"
"231037","4716-K9","2018/05/03 14:29:02","新北市新店區安康路二段320巷6號","121.504573333333","24.9595616666667","6500600","新店區"
"231036","512-UM","2018/05/03 14:28:49","新北市新店區安祥路109巷151弄16號","121.477706666667","24.9588183333333","6500600","新店區"
"231013","513-UM","2018/05/03 14:28:56","新北市新店區民權路90巷21號","121.536203333333","24.9836983333333","6500600","新店區"
"231003","515-UM","2018/05/03 14:28:55","新北市新店區中興路一段252號","121.544465","24.966595","6500600","新店區"
"231034","616-UM","2018/05/03 14:28:59","新北市新店區車子路11號","121.503046666667","24.9520583333333","6500600","新店區"
"231002","618-UM","2018/05/03 14:29:02","新北市新店區中央路129號","121.530603333333","24.97405","6500600","新店區"
"231030","619-UM","2018/05/03 14:29:01","新北市新店區安民街67-1號","121.516513333333","24.96684","6500600","新店區"
"231035","719-UM","2018/05/03 14:28:56","新北市新店區碧安街36號","121.517445","24.9691083333333","6500600","新店區"
"231031","720-UM","2018/05/03 14:29:03","新北市新店區安康路一段46巷16號","121.53128","24.9616283333333","6500600","新店區"
"231029","897-TW","2018/05/03 14:29:00","新北市新店區安康路二段442號","121.495596666667","24.9548633333333","6500600","新店區"
"231006","898-TW","2018/05/03 14:29:02","新北市新店區北宜路二段447號","121.561368333333","24.9541316666667","6500600","新店區"
"231004","899-TW","2018/05/03 14:28:58","新北市新店區中正路268號","121.53896","24.973515","6500600","新店區"
"231024","AKT-0513","2018/05/03 14:28:58","新北市新店區中央二街68號","121.526203333333","24.97445","6500600","新店區"
"235028","005-UY","2018/05/03 14:28:57","新北市中和區南山路73號","121.502266666667","24.998025","6500300","中和區"
"235027","006-UY","2018/05/03 14:28:54","新北市中和區連城路237-1號","121.493901666667","24.997385","6500300","中和區"
"235020","096-UM","2018/05/03 14:29:05","新北市中和區民富街78號","121.476481666667","25.0078633333333","6500300","中和區"
"235003","097-UM","2018/05/03 14:29:02","新北市中和區景新街467巷50弄22號","121.517705","24.9891533333333","6500300","中和區"
"235029","098-UM","2018/05/03 14:29:00","新北市中和區永和路8巷8號","121.500233333333","25.003145","6500300","中和區"
"235004","150-BY","2018/05/03 14:28:59","新北市中和區宜安路28號","121.512976666667","24.9959416666667","6500300","中和區"
"235022","151-BY","2018/05/03 14:28:50","新北市中和區中正路637巷52弄11號","121.48463","24.9937233333333","6500300","中和區"
"235019","183-VK","2018/05/03 14:28:53","新北市中和區中山路三段181巷18弄11號","121.472638333333","25.0048416666667","6500300","中和區"
"235002","185-VK","2018/05/03 14:29:02","新北市中和區自立路31號","121.522268333333","24.9957216666667","6500300","中和區"
"235013","186-VK","2018/05/03 14:29:04","新北市中和區景新街256號","121.509431666667","24.99346","6500300","中和區"
"235031","255-BX","2018/05/03 14:28:50","新北市中和區新生街186巷1弄28號","121.483306666667","24.9985183333333","6500300","中和區"
"235008","293-VK","2018/05/03 14:29:04","新北市中和區南山路325號","121.505153333333","24.9912633333333","6500300","中和區"
"235036","301-VK","2018/05/03 14:28:52","新北市中和區莊敬路33巷10號","121.50045","25.0052516666667","6500300","中和區"
"235007","352-BY","2018/05/03 14:28:53","新北市中和區景平路334號","121.51198","24.9928183333333","6500300","中和區"
"235032","377-QA","2018/05/03 14:29:04","新北市中和區中和路95號","121.501491666667","25.0009833333333","6500300","中和區"
"235025","378-QA","2018/05/03 14:28:58","新北市中和區民安街9號","121.48075","25.0008033333333","6500300","中和區"
"235014","4979-A6","2018/05/03 14:29:02","新北市中和區中正路395號","121.489285","24.9938533333333","6500300","中和區"
"235033","4980-A6","2018/05/03 14:28:49","新北市中和區中山路二段220號","121.499511666667","25.0028633333333","6500300","中和區"
"235006","551-UM","2018/05/03 14:28:52","新北市中和區安樂路143巷2弄5號","121.514045","24.9977683333333","6500300","中和區"
"235034","558-UM","2018/05/03 14:28:47","新北市中和區中和路98號","121.501378333333","25.000375","6500300","中和區"
"235009","565-BX","2018/05/03 14:28:44","新北市中和區景新街467巷20弄110號","121.514911666667","24.98657","6500300","中和區"
"235018","640-BX","2018/05/03 14:29:04","新北市中和區國光街112巷2弄1號","121.469985","25.0007716666667","6500300","中和區"
"235024","647-TV","2018/05/03 14:28:45","新北市中和區員山路266巷23號","121.482055","25.001785","6500300","中和區"
"235011","732-UM","2018/05/03 14:28:11","新北市中和區景平路241巷75號","121.507488333333","24.9921416666667","6500300","中和區"
"235010","733-UM","2018/05/03 14:29:04","新北市中和區忠孝街37巷52號","121.511093333333","24.9849316666667","6500300","中和區"
"235035","783-BX","2018/05/03 14:28:52","新北市中和區中山路二段478號","121.488015","25.004925","6500300","中和區"
"235026","800-TS","2018/05/03 14:29:00","新北市中和區橋安街8號","121.49286","25.0042016666667","6500300","中和區"
"235021","801-TS","2018/05/03 14:28:51","新北市中和區中山路三段37巷33號","121.479615","25.0049166666667","6500300","中和區"
"235005","802-TS","2018/05/03 14:28:48","新北市中和區宜安路120號","121.510241666667","24.9979883333333","6500300","中和區"
"235016","805-TS","2018/05/03 14:29:02","新北市中和區華新街143巷67弄35號","121.507526666667","24.9793133333333","6500300","中和區"
"235012","896-TW","2018/05/03 14:29:05","新北市中和區忠孝街21號","121.510246666667","24.982865","6500300","中和區"
"235017","900-TW","2018/05/03 14:29:02","新北市中和區華順街10號","121.467298333333","24.9986716666667","6500300","中和區"
"235030","911-UM","2018/05/03 14:29:03","新北市中和區中和路163號","121.502795","24.9998566666667","6500300","中和區"
"235015","157-BY","2018/05/03 14:29:00","新北市中和區板南路190-1號","121.500006666667","24.9929133333333","6500300","中和區"
"235001","AAC-213","2018/05/03 14:28:49","新北市中和區秀朗路三段10巷14弄44號","121.524443333333","24.9965183333333","6500300","中和區"
"235023","AAC-215","2018/05/03 14:29:02","新北市中和區圓通路252巷2-5號","121.493675","24.9915866666667","6500300","中和區"
"220016","013-TV","2018/05/03 14:29:04","新北市板橋區中山路二段547號","121.48379","25.021685","6500100","板橋區"
"220013","072-UY","2018/05/03 14:28:51","新北市板橋區國泰街75巷28弄13號","121.467766666667","25.005045","6500100","板橋區"
"220086","073-UY","2018/05/03 14:28:56","新北市板橋區中正路216巷2弄16號","121.456476666667","25.0180416666667","6500100","板橋區"
"220105","075-UY","2018/05/03 14:29:03","新北市板橋區文化路二段417巷8號","121.474273333333","25.0330583333333","6500100","板橋區"
"220017","AAD-861","2018/05/03 14:29:00","新北市板橋區貴興路51號","121.457543333333","25.00316","6500100","板橋區"
"247023","893-R6","2018/05/03 14:28:58","新北市蘆洲區中正路263巷2號","121.467358333333","25.0874333333333","6501400","蘆洲區"
"247013","546-UM","2018/05/03 14:29:01","新北市蘆洲區中山二路203號","121.470663333333","25.0805683333333","6501400","蘆洲區"
"247021","500-BY","2018/05/03 14:29:03","新北市蘆洲區水湳街36號","121.470718333333","25.0897033333333","6501400","蘆洲區"
"247009","341-TH","2018/05/03 14:29:03","新北市蘆洲區鷺江街36號","121.477826666667","25.0825866666667","6501400","蘆洲區"
"247011","339-TH","2018/05/03 14:28:45","新北市蘆洲區三民路88號","121.473793333333","25.08529","6501400","蘆洲區"
"247003","337-TH","2018/05/03 14:29:03","新北市蘆洲區長安街196號","121.458636666667","25.0839366666667","6501400","蘆洲區"
"247005","336-TH","2018/05/03 14:29:02","新北市蘆洲區永安南路二段152號","121.461788333333","25.0788533333333","6501400","蘆洲區"
"247017","057-VK","2018/05/03 14:28:48","新北市蘆洲區民族路336巷27弄1號","121.477703333333","25.0912583333333","6501400","蘆洲區"
"247007","056-VK","2018/05/03 14:29:03","新北市蘆洲區信義路83號","121.476878333333","25.079665","6501400","蘆洲區"
"247015","007-UY","2018/05/03 14:28:57","新北市蘆洲區中正路185巷23弄22號","121.467503333333","25.0840583333333","6501400","蘆洲區"
"247001","002-UY","2018/05/03 14:28:49","新北市蘆洲區永樂街38巷19弄6號","121.457801666667","25.0892","6501400","蘆洲區"
"247019","001-UY","2018/05/03 14:28:45","新北市蘆洲區仁愛街116號","121.469711666667","25.094925","6501400","蘆洲區"
"228005","097-TW","2018/05/03 14:28:57","新北市貢寮區美豐里巫里岸9-1號","121.90197","25.0700416666667","6502600","貢寮區"
"228004","212-TW","2018/05/03 14:28:48","新北市貢寮區雙玉里田寮洋街34-1號","121.931001666667","25.015025","6502600","貢寮區"
"253003","6232-TK","2018/05/03 14:28:58","新北市石門區尖子鹿29號","121.58063","25.2624616666667","6502200","石門區"
"253001","6251-TK","2018/05/03 14:28:55","新北市石門區八甲27號","121.527146666667","25.2780016666667","6502200","石門區"
"253002","637-UY","2018/05/03 14:28:02","新北市石門區七股53-1號","121.546493333333","25.2515733333333","6502200","石門區"
"253004","8270-PC","2018/05/03 14:28:47","新北市石門區內阿里磅1號","121.592098333333","25.2535716666667","6502200","石門區"
"207002","749-BX","2018/05/03 14:28:55","新北市萬里區溪底里富士坪路24-2號","121.62027","25.1520683333333","6502800","萬里區"
"207001","662-BX","2018/05/03 14:28:50","新北市萬里區磺潭里清水5-1號","121.64106","25.2003683333333","6502800","萬里區"
"252005","702-TV","2018/05/03 14:28:56","新北市三芝區店子里店子36-4號","121.505583333333","25.2052483333333","6502100","三芝區"
"252005","AAC-283","2018/05/03 14:28:47","新北市三芝區茂長里陳厝坑16號","121.518201666667","25.2555283333333","6502100","三芝區"
"236068","105-UM","2018/05/03 14:29:03","新北市土城區永豐路338號","121.473731666667","24.97733","6501300","土城區"
"236040","107-UM","2018/05/03 14:29:02","新北市土城區學成路99巷11號","121.449938333333","24.9884033333333","6501300","土城區"
"236074","166-UM","2018/05/03 14:28:47","新北市土城區中央路四段27巷1號","121.424461666667","24.9623433333333","6501300","土城區"
"236029","253-BX","2018/05/03 14:29:01","新北市土城區水源街83號","121.439573333333","24.97651","6501300","土城區"
"236024","269-VK","2018/05/03 14:29:01","新北市土城區承天路18號","121.439418333333","24.9635433333333","6501300","土城區"
"236012","270-VK","2018/05/03 14:29:00","新北市土城區青雲路39巷7號","121.460338333333","24.9875116666667","6501300","土城區"
"236032","271-VK","2018/05/03 14:29:06","新北市土城區青雲路451巷5號","121.459208333333","24.97468","6501300","土城區"
"236017","401-BY","2018/05/03 14:28:58","新北市土城區永豐路202巷5-1號","121.46639","24.983305","6501300","土城區"
"236005","498-BY","2018/05/03 14:28:54","新北市土城區中華路一段94號","121.444636666667","24.9875983333333","6501300","土城區"
"236057","912-UM","2018/05/03 14:28:50","新北市土城區中央路四段281-11號","121.412128333333","24.9532216666667","6501300","土城區"
"236045","913-UM","2018/05/03 14:28:50","新北市土城區青雲路553號","121.458895","24.9723116666667","6501300","土城區"
"236060","915-UM","2018/05/03 14:28:55","新北市土城區延壽路118-6號","121.46907","24.9946516666667","6501300","土城區"
"236054","AAC-216","2018/05/03 14:28:38","新北市土城區中華路二段103號","121.439198333333","24.9772766666667","6501300","土城區"
"221032","280-BY","2018/05/03 14:28:51","新北市汐止區中正路176號","121.65891","25.0698183333333","6501100","汐止區"
"220027","145-BY","2018/05/03 14:28:55","新北市板橋區民權路202巷17弄40號","121.459156666667","25.0165816666667","6500100","板橋區"
"220028","200-UY","2018/05/03 14:28:40","新北市板橋區大觀路二段37巷126號","121.449485","25.0021283333333","6500100","板橋區"
"220030","610-BX","2018/05/03 14:29:02","新北市板橋區金門街355-1號","121.428666666667","24.9850383333333","6500100","板橋區"
"220050","245-BX","2018/05/03 14:28:55","新北市板橋區縣民大道三段121巷13號","121.47667","25.0231733333333","6500100","板橋區"
"220004","276-BY","2018/05/03 14:28:53","新北市板橋區干城路137號","121.459718333333","24.9933216666667","6500100","板橋區"
"220020","277-BY","2018/05/03 14:26:57","新北市板橋區溪城路90-2號","121.429055","24.9801816666667","6500100","板橋區"
"220043","283-UM","2018/05/03 14:29:02","新北市板橋區吳鳳路50巷39號","121.46878","25.0302866666667","6500100","板橋區"
"220019","283-VK","2018/05/03 14:29:03","新北市板橋區忠孝路24巷17號","121.460225","25.0012916666667","6500100","板橋區"
"220001","285-VK","2018/05/03 14:28:58","新北市板橋區富山街81號","121.476838333333","25.0218583333333","6500100","板橋區"
"220031","286-VK","2018/05/03 14:28:57","新北市板橋區龍興街65巷82號","121.441851666667","25.0021916666667","6500100","板橋區"
"220029","287-VK","2018/05/03 14:29:03","新北市板橋區大觀路一段75巷23號","121.448298333333","25.004325","6500100","板橋區"
"220039","288-VK","2018/05/03 14:28:50","新北市板橋區長江路一段106巷20弄12號","121.46015","25.0284166666667","6500100","板橋區"
"220009","293-UM","2018/05/03 14:28:56","新北市板橋區中山路一段266號","121.471816666667","25.0148316666667","6500100","板橋區"
"220032","296-UM","2018/05/03 14:28:57","新北市板橋區滿平街84巷100弄5號","121.426286666667","24.9864333333333","6500100","板橋區"
"220023","303-R5","2018/05/03 14:28:57","新北市板橋區南雅西路二段245號","121.4508","25.01444","6500100","板橋區"
"220010","305-R5","2018/05/03 14:29:00","新北市板橋區三民路二段153巷2弄12-5號","121.47956","25.014395","6500100","板橋區"
"220041","307-R5","2018/05/03 14:28:50","新北市板橋區光武街2巷47-3號","121.4684","25.0259816666667","6500100","板橋區"
"220047","317-R6","2018/05/03 14:28:52","新北市板橋區民生路三段263巷10號","121.463706666667","25.029255","6500100","板橋區"
"220012","486-VK","2018/05/03 14:28:58","新北市板橋區館前西路50號","121.458468333333","25.006915","6500100","板橋區"
"220037","491-VK","2018/05/03 14:28:50","新北市板橋區雙十路二段37-1號","121.476771666667","25.02586","6500100","板橋區"
"220104","560-BX","2018/05/03 14:28:53","新北市板橋區中正路399巷26號","121.453313333333","25.0225916666667","6500100","板橋區"
"220052","561-BX","2018/05/03 14:29:03","新北市板橋區文化路一段280-1號","121.467158333333","25.0210683333333","6500100","板橋區"
"220011","609-BX","2018/05/03 14:28:54","新北市板橋區三民路二段202-28號","121.478945","25.01256","6500100","板橋區"
"220003","630-UY","2018/05/03 14:28:59","新北市板橋區館前東路156巷44號","121.464521666667","25.0065483333333","6500100","板橋區"
"220040","637-BX","2018/05/03 14:28:50","新北市板橋區文聖街70號","121.477186666667","25.0303783333333","6500100","板橋區"
"220005","686-BX","2018/05/03 14:28:57","新北市板橋區重慶路368號","121.464483333333","24.99693","6500100","板橋區"
"220025","687-BX","2018/05/03 14:28:55","新北市板橋區大觀路二段11號","121.446855","25.003495","6500100","板橋區"
"220042","689-BX","2018/05/03 14:28:53","新北市板橋區雨農路27巷2號","121.461161666667","25.0241783333333","6500100","板橋區"
"220002","741-BX","2018/05/03 14:28:57","新北市板橋區光明街86號","121.46185","25.0027783333333","6500100","板橋區"
"220051","KEA-2699","2018/05/03 14:29:06","新北市板橋區雙十路二段130巷2弄19號","121.474636666667","25.028865","6500100","板橋區"
"220014","829-TW","2018/05/03 14:29:04","新北市板橋區漢生東路313巷6號","121.472435","25.0083016666667","6500100","板橋區"
"220045","830-TW","2018/05/03 14:28:58","新北市板橋區民生路二段226巷36號","121.471281666667","25.022135","6500100","板橋區"
"220038","833-TW","2018/05/03 14:28:50","新北市板橋區文化路一段123號","121.461868333333","25.0150133333333","6500100","板橋區"
"220022","895-R6","2018/05/03 14:29:05","新北市板橋區文化路一段9號","121.457815","25.0099333333333","6500100","板橋區"
"220021","985-R7","2018/05/03 14:29:03","新北市板橋區新生街84號","121.458033333333","25.0214566666667","6500100","板橋區"
"220046","AAC-210","2018/05/03 14:28:57","新北市板橋區文德路46號","121.461836666667","25.023965","6500100","板橋區"
"220018","AAC-253","2018/05/03 14:28:50","新北市板橋區四川路一段107號","121.459738333333","25.005265","6500100","板橋區"
