"lineid","car","time","location","longitude","latitude","cityid","cityname"
"243009","297-R6","2018/05/03 16:09:03","新北市泰山區黎明路25號","121.421901666667","25.060965","6501600","泰山區"
"231046","107-UY","2018/05/03 16:19:10","新北市新店區灣潭路3-3號","121.53824","24.9508383333333","6500600","新店區"
"231018","278-BY","2018/05/03 16:19:25","新北市新店區中正路700巷82號","121.535905","24.9932633333333","6500600","新店區"
"241011","013-R5","2018/05/03 16:19:24","新北市三重區龍濱路285號","121.501108333333","25.0733816666667","6500200","三重區"
"241028","022-UY","2018/05/03 16:19:13","新北市三重區大同南路174號","121.496678333333","25.05722","6500200","三重區"
"241008","059-VK","2018/05/03 16:19:14","新北市三重區永福街122-2號","121.478976666667","25.0753533333333","6500200","三重區"
"241009","060-VK","2018/05/03 16:19:14","新北市三重區溪尾街198號","121.488136666667","25.0809183333333","6500200","三重區"
"241015","062-VK","2018/05/03 16:19:04","新北市三重區福德北路79號","121.501895","25.0658366666667","6500200","三重區"
"241017","063-VK","2018/05/03 16:19:18","新北市三重區大同北路85號","121.494851666667","25.0636216666667","6500200","三重區"
"241024","065-VK","2018/05/03 16:19:18","新北市三重區中正北路179號","121.47772","25.06946","6500200","三重區"
"241026","066-VK","2018/05/03 16:19:20","新北市三重區重新路二段100號","121.496811666667","25.0614733333333","6500200","三重區"
"241002","090-VK","2018/05/03 16:19:06","新北市三重區仁義街91號","121.499791666667","25.0795816666667","6500200","三重區"
"241003","091-VK","2018/05/03 16:19:16","新北市三重區五華街63巷14號","121.493593333333","25.0831866666667","6500200","三重區"
"241005","262-UM","2018/05/03 16:19:07","新北市三重區溪尾街305號","121.487493333333","25.083765","6500200","三重區"
"241016","266-UM","2018/05/03 16:19:15","新北市三重區大仁街94號","121.492926666667","25.06551","6500200","三重區"
"241022","267-UM","2018/05/03 16:19:15","新北市三重區新北大道一段11號","121.488016666667","25.060755","6500200","三重區"
"241018","268-UM","2018/05/03 16:19:22","新北市三重區重陽路三段43號","121.48949","25.0670183333333","6500200","三重區"
"241013","270-UM","2018/05/03 16:19:24","新北市三重區三和路三段83巷36號","121.495878333333","25.07261","6500200","三重區"
"241007","398-BY","2018/05/03 16:19:23","新北市三重區仁美街83號","121.48624","25.0795366666667","6500200","三重區"
"241004","475-VK","2018/05/03 16:19:21","新北市三重區五華街74號","121.493476666667","25.081965","6500200","三重區"
"241020","478-VK","2018/05/03 16:19:21","新北市三重區車路頭街17巷8號","121.484203333333","25.0705533333333","6500200","三重區"
"241014","543-UM","2018/05/03 16:19:05","新北市三重區龍濱路64號","121.502543333333","25.0693233333333","6500200","三重區"
"241023","545-UM","2018/05/03 16:19:13","新北市三重區中正北路145巷4弄13號","121.483098333333","25.0678983333333","6500200","三重區"
"241001","547-UM","2018/05/03 16:19:17","新北市三重區自強路四段87號","121.49107","25.0793216666667","6500200","三重區"
"241019","KEA-2593","2018/05/03 16:19:05","新北市三重區重陽路三段95號","121.49034","25.0678683333333","6500200","三重區"
"241006","AAD-863","2018/05/03 16:19:13","新北市三重區永福街46巷41弄13號","121.48181","25.0771683333333","6500200","三重區"
"241025","887-TS","2018/05/03 16:19:15","新北市三重區中正北路560巷100弄2號","121.47244","25.0682283333333","6500200","三重區"
"241012","941-UM","2018/05/03 16:19:16","新北市三重區仁愛街19號","121.496995","25.070765","6500200","三重區"
"241029","942-UM","2018/05/03 16:19:27","新北市三重區同安街116號","121.494205","25.0562416666667","6500200","三重區"
"235026","800-TS","2018/05/03 16:19:20","新北市中和區永和路171巷3弄1號","121.492308333333","25.0067066666667","6500300","中和區"
"224007","275-VK","2018/05/03 16:19:13","新北市瑞芳區大埔路126號","121.761975","25.1010433333333","6501200","瑞芳區"
"224005","271-BY","2018/05/03 16:19:11","新北市瑞芳區阿美家園53號","121.820318333333","25.1170783333333","6501200","瑞芳區"
"227010","642-TC","2018/05/03 16:19:22","新北市雙溪區三港里雙澳路78號","121.883763333333","25.0538583333333","6502500","雙溪區"
"227004","400-TW","2018/05/03 16:19:07","新北市雙溪區上林里內平林80號","121.828313333333","25.0279833333333","6502500","雙溪區"
"251013","KEA-2871","2018/05/03 16:19:21","新北市淡水區商工路335號","121.466623333333","25.1855983333333","6501000","淡水區"
"251008","181-VK","2018/05/03 16:19:16","新北市淡水區中正東路二段48巷20號","121.457208333333","25.1585516666667","6501000","淡水區"
"236057","912-UM","2018/05/03 16:19:10","新北市土城區大安路2號","121.432803333333","24.9655783333333","6501300","土城區"
"238002","755-BX","2018/05/03 16:19:24","新北市樹林區東興街3號","121.409931666667","24.98053","6500700","樹林區"
"238010","601-UM","2018/05/03 16:19:11","新北市樹林區龍興街31巷13號","121.403496666667","25.0161533333333","6500700","樹林區"
"238006","599-UM","2018/05/03 16:19:14","新北市樹林區東榮街145號","121.414405","24.9816933333333","6500700","樹林區"
"238011","5061-A6","2018/05/03 16:16:39","新北市樹林區中山路三段214號","121.380245","24.96799","6500700","樹林區"
"238021","KEA-2539","2018/05/03 16:11:50","新北市樹林區中山路三段204號","121.386831666667","24.968215","6500700","樹林區"
"238001","283-BY","2018/05/03 16:19:05","新北市樹林區中正路433-2號","121.414898333333","25.0081583333333","6500700","樹林區"
"238001","282-BY","2018/05/03 16:19:21","新北市樹林區中正路22-1號","121.427786666667","24.9994833333333","6500700","樹林區"
"238007","268-VK","2018/05/03 16:19:16","新北市樹林區三俊街65巷40弄22號","121.414403333333","25.01771","6500700","樹林區"
"238013","172-UY","2018/05/03 16:19:21","新北市樹林區佳園路一段41巷28弄6號","121.394603333333","24.970745","6500700","樹林區"
"220020","277-BY","2018/05/03 16:14:15","新北市板橋區華東街1-10號","121.448291666667","24.9950983333333","6500100","板橋區"
"220001","461-BY","2018/05/03 16:04:52","新北市板橋區華東街1-9號","121.448168333333","24.99486","6500100","板橋區"
