"lineid","car","time","location","longitude","latitude","cityid","cityname"
"249005","172-UM","2018/05/03 17:09:24","新北市八里區大堀湖28號","121.418433333333","25.14604","6502300","八里區"
"249001","173-UM","2018/05/03 17:09:06","新北市八里區中華路二段586號","121.397945","25.14418","6502300","八里區"
"249004","303-UY","2018/05/03 17:09:18","新北市八里區忠孝路343號","121.41744","25.1613033333333","6502300","八里區"
"249002","305-UY","2018/05/03 17:09:12","新北市八里區龍米路二段147巷7號","121.441405","25.150805","6502300","八里區"
"249003","593-UM","2018/05/03 17:09:12","新北市八里區中山路二段476號","121.39872","25.147145","6502300","八里區"
"244013","069-UM","2018/05/03 17:09:14","新北市林口區粉寮69號","121.40505","25.0908416666667","6501700","林口區"
"244007","080-UY","2018/05/03 17:09:19","新北市林口區中湖里17鄰24號","121.37792","25.0967866666667","6501700","林口區"
"244019","742-UY","2018/05/03 17:09:20","新北市林口區四維路337號","121.381933333333","25.0725166666667","6501700","林口區"
"244023","483-VK","2018/05/03 17:09:12","新北市林口區粉寮路一段47號","121.396661666667","25.07766","6501700","林口區"
"244017","485-VK","2018/05/03 17:09:02","新北市林口區粉寮69號","121.405026666667","25.0908466666667","6501700","林口區"
"244009","656-BX","2018/05/03 17:09:24","新北市林口區林口路296號","121.38599","25.0854733333333","6501700","林口區"
"244011","657-BX","2018/05/03 17:09:18","新北市林口區粉寮路二段160巷28號","121.40517","25.0907733333333","6501700","林口區"
"244025","837-TS","2018/05/03 17:09:11","新北市林口區粉寮路一段139號","121.399055","25.0811966666667","6501700","林口區"
"244021","838-TS","2018/05/03 17:09:08","新北市林口區粉寮一街130號","121.404825","25.0860466666667","6501700","林口區"
"231046","107-UY","2018/05/03 17:09:10","新北市新店區直潭十街20-1號","121.533143333333","24.938995","6500600","新店區"
"241011","013-R5","2018/05/03 17:09:06","新北市三重區仁愛街53巷4號","121.496563333333","25.0720833333333","6500200","三重區"
"241028","022-UY","2018/05/03 17:09:13","新北市三重區重新路三段110號","121.492266666667","25.06033","6500200","三重區"
"241008","059-VK","2018/05/03 17:09:14","新北市三重區力行路二段136巷17弄2號","121.481641666667","25.0756133333333","6500200","三重區"
"241009","060-VK","2018/05/03 17:09:18","新北市三重區三和路四段215巷33-24號","121.483646666667","25.0802283333333","6500200","三重區"
"241031","061-VK","2018/05/03 17:09:07","新北市三重區重新路三段145號","121.490205","25.0595183333333","6500200","三重區"
"241015","062-VK","2018/05/03 17:09:04","新北市三重區長生街11號","121.499238333333","25.0663433333333","6500200","三重區"
"241017","063-VK","2018/05/03 17:09:18","新北市三重區中正北路25巷2號","121.493288333333","25.0627016666667","6500200","三重區"
"241024","065-VK","2018/05/03 17:09:18","新北市三重區中正北路171號","121.47809","25.06936","6500200","三重區"
"241026","066-VK","2018/05/03 17:09:20","新北市三重區正義南路3號","121.497923333333","25.0618416666667","6500200","三重區"
"241002","090-VK","2018/05/03 17:09:26","新北市三重區仁義街223號","121.496701666667","25.0822","6500200","三重區"
"241003","091-VK","2018/05/03 17:09:16","新北市三重區進安街198號","121.49398","25.0859633333333","6500200","三重區"
"241005","262-UM","2018/05/03 17:09:07","新北市三重區碧華街1號","121.483435","25.0812066666667","6500200","三重區"
"241016","266-UM","2018/05/03 17:08:55","新北市三重區大同北路135巷2號","121.49291","25.0647266666667","6500200","三重區"
"241022","267-UM","2018/05/03 17:09:15","新北市三重區重陽路二段17號","121.486943333333","25.062465","6500200","三重區"
"241018","268-UM","2018/05/03 17:09:22","新北市三重區大智街166號","121.491751666667","25.069255","6500200","三重區"
"241032","269-UM","2018/05/03 17:09:09","新北市三重區三陽路13巷10號","121.486008333333","25.0594733333333","6500200","三重區"
"241013","270-UM","2018/05/03 17:09:14","新北市三重區仁孝街62號","121.49731","25.0745283333333","6500200","三重區"
"241007","398-BY","2018/05/03 17:09:04","新北市三重區三和路四段135巷31號","121.486828333333","25.0786816666667","6500200","三重區"
"241004","475-VK","2018/05/03 17:09:20","新北市三重區五華街92巷14號","121.49221","25.0819383333333","6500200","三重區"
"241020","478-VK","2018/05/03 17:09:20","新北市三重區自強路三段59號","121.48699","25.0732783333333","6500200","三重區"
"241030","480-VK","2018/05/03 17:09:09","新北市三重區集成路12號","121.488583333333","25.0520933333333","6500200","三重區"
"241014","543-UM","2018/05/03 17:09:25","新北市三重區龍濱路211號","121.501921666667","25.0717783333333","6500200","三重區"
"241023","545-UM","2018/05/03 17:09:13","新北市三重區忠孝路三段84巷1號","121.480283333333","25.064595","6500200","三重區"
"241001","547-UM","2018/05/03 17:09:17","新北市三重區仁愛街245巷10號","121.493778333333","25.078195","6500200","三重區"
"241033","557-UM","2018/05/03 17:09:06","新北市三重區中興北街234號","121.468818333333","25.060685","6500200","三重區"
"241019","KEA-2593","2018/05/03 17:09:25","新北市三重區力行路一段153巷24號","121.485906666667","25.06905","6500200","三重區"
"241006","AAD-863","2018/05/03 17:09:13","新北市三重區三和路四段264巷2弄13號","121.48512","25.0767883333333","6500200","三重區"
"241025","887-TS","2018/05/03 17:09:15","新北市三重區中正北路560巷39號","121.470871666667","25.0707483333333","6500200","三重區"
"241012","941-UM","2018/05/03 17:09:16","新北市三重區仁興街19號","121.499821666667","25.074405","6500200","三重區"
"241029","942-UM","2018/05/03 17:09:07","新北市三重區中正南路248號","121.493371666667","25.05388","6500200","三重區"
"235062","800-TS","2018/05/03 16:55:30","新北市中和區員山路36巷16-3號","121.484746666667","24.9916666666667","6500300","中和區"
"247024","893-R6","2018/05/03 17:09:24","新北市蘆洲區長興路37號","121.463351666667","25.08371","6501400","蘆洲區"
"247014","546-UM","2018/05/03 17:09:07","新北市蘆洲區中央路61-6號","121.4734","25.083185","6501400","蘆洲區"
"247022","500-BY","2018/05/03 17:09:18","新北市蘆洲區民族路528-1號","121.468851666667","25.08991","6501400","蘆洲區"
"247010","341-TH","2018/05/03 17:09:22","新北市蘆洲區民族路5號","121.475583333333","25.083935","6501400","蘆洲區"
"247012","339-TH","2018/05/03 17:09:12","新北市蘆洲區信義路292巷7號","121.47799","25.0877333333333","6501400","蘆洲區"
"247004","337-TH","2018/05/03 17:09:23","新北市蘆洲區長安街193巷12號","121.459825","25.0816983333333","6501400","蘆洲區"
"247006","336-TH","2018/05/03 17:09:24","新北市蘆洲區長安街108巷37號","121.462251666667","25.0826966666667","6501400","蘆洲區"
"247018","057-VK","2018/05/03 17:09:16","新北市蘆洲區復興路101號","121.476656666667","25.0875866666667","6501400","蘆洲區"
"247008","056-VK","2018/05/03 17:09:21","新北市蘆洲區信義路30巷29號","121.474526666667","25.0784633333333","6501400","蘆洲區"
"247016","007-UY","2018/05/03 17:09:12","新北市蘆洲區光華路73巷3號","121.468235","25.0825116666667","6501400","蘆洲區"
"247002","002-UY","2018/05/03 17:08:56","新北市蘆洲區永樂街48號","121.457706666667","25.0884566666667","6501400","蘆洲區"
"247020","001-UY","2018/05/03 17:09:24","新北市蘆洲區仁愛街62巷10號","121.472016666667","25.094235","6501400","蘆洲區"
"228003","097-TW","2018/05/03 17:09:22","新北市貢寮區福隆里東興街11號","121.950465","25.01831","6502600","貢寮區"
"228001","212-TW","2018/05/03 17:09:14","新北市貢寮區仁理村尖山腳街2號","121.925256666667","25.04625","6502600","貢寮區"
"228002","585-TW","2018/05/03 17:09:07","新北市貢寮區龍崗里嵩陽街55號","121.907655","25.0165716666667","6502600","貢寮區"
"224006","676-BX","2018/05/03 17:09:12","新北市瑞芳區大寮路116-1號","121.77952","25.09849","6501200","瑞芳區"
"224008","285-BY","2018/05/03 17:09:19","新北市瑞芳區柴寮路58號","121.827606666667","25.0871866666667","6501200","瑞芳區"
"224007","275-VK","2018/05/03 17:09:18","新北市瑞芳區粗坑口路100-6號","121.759945","25.099325","6501200","瑞芳區"
"224009","273-VK","2018/05/03 17:09:14","新北市瑞芳區八號巷58號","121.842518333333","25.1105216666667","6501200","瑞芳區"
"224005","271-BY","2018/05/03 17:09:11","新北市瑞芳區鼻頭路97號","121.916045","25.1241983333333","6501200","瑞芳區"
"227010","642-TC","2018/05/03 17:09:22","新北市雙溪區三貂里子崙坑1-6號","121.849916666667","25.0574733333333","6502500","雙溪區"
"227004","400-TW","2018/05/03 17:09:07","新北市雙溪區外柑里外柑腳66號","121.807701666667","25.0177566666667","6502500","雙溪區"
"251009","008-UM","2018/05/03 17:09:16","新北市淡水區三民街20號","121.439013333333","25.171775","6501000","淡水區"
"251004","010-UM","2018/05/03 17:09:07","新北市淡水區中山路8號","121.444781666667","25.168855","6501000","淡水區"
"251013","KEA-2871","2018/05/03 17:09:21","新北市淡水區大埤頭3號","121.486128333333","25.1959816666667","6501000","淡水區"
"251014","180-VK","2018/05/03 17:09:15","新北市淡水區八里堆9-6號","121.465358333333","25.2245516666667","6501000","淡水區"
"251008","181-VK","2018/05/03 17:09:16","新北市淡水區民生路169號","121.469625","25.1420916666667","6501000","淡水區"
"251015","182-VK","2018/05/03 17:09:19","新北市淡水區樹林口42-3號","121.470596666667","25.16864","6501000","淡水區"
"251010","413-VK","2018/05/03 17:09:12","新北市淡水區新市五路二段75號","121.431278333333","25.1982866666667","6501000","淡水區"
"251012","441-VK","2018/05/03 17:09:11","新北市淡水區中山北路一段158號","121.444251666667","25.1778733333333","6501000","淡水區"
"251007","442-VK","2018/05/03 17:09:20","新北市淡水區中正東路二段161巷8弄13號","121.46153","25.1456816666667","6501000","淡水區"
"251005","443-VK","2018/05/03 17:09:12","新北市淡水區水源街一段160號","121.448786666667","25.17124","6501000","淡水區"
"251006","561-UM","2018/05/03 17:09:23","新北市淡水區新生街78號","121.439175","25.1748866666667","6501000","淡水區"
"251016","575-R6","2018/05/03 17:09:16","新北市淡水區口湖子2-8號","121.477765","25.1885666666667","6501000","淡水區"
"251011","650-BX","2018/05/03 17:09:24","新北市淡水區坪頂路50號","121.457965","25.1624666666667","6501000","淡水區"
"252002","178-VK","2018/05/03 17:09:09","新北市三芝區智成街120號","121.506046666667","25.255345","6502100","三芝區"
"252001","292-VK","2018/05/03 17:09:19","新北市三芝區埔坪里埔頭坑33號","121.501673333333","25.26138","6502100","三芝區"
"242053","751-BX","2018/05/03 17:09:21","新北市新莊區中正路471號","121.441898333333","25.033345","6500500","新莊區"
"242061","705-TV","2018/05/03 17:09:19","新北市新莊區三和路12-13號","121.44221","25.03718","6500500","新莊區"
"242025","613-BX","2018/05/03 17:09:18","新北市新莊區新泰路255巷83號","121.442363333333","25.0390966666667","6500500","新莊區"
"242029","612-BX","2018/05/03 17:09:08","新北市新莊區新泰路357巷3弄57號","121.442218333333","25.0391966666667","6500500","新莊區"
"242051","441-UM","2018/05/03 17:09:09","新北市新莊區新泰路357巷3弄45號","121.441738333333","25.0401466666667","6500500","新莊區"
"242007","413-TV","2018/05/03 17:09:19","新北市新莊區新泰路357巷3弄57號","121.441936666667","25.0395","6500500","新莊區"
"242044","400-BY","2018/05/03 17:09:14","新北市泰山區磚雅厝3號","121.442165","25.041685","6500500","新莊區"
"242023","362-BY","2018/05/03 17:09:10","新北市新莊區新泰路357巷3弄57號","121.442213333333","25.039395","6500500","新莊區"
"242009","132-UY","2018/05/03 17:09:14","新北市新莊區新泰路255巷83號","121.442008333333","25.038895","6500500","新莊區"
"242031","135-UY","2018/05/03 17:09:21","新北市新莊區新泰路255巷83號","121.442143333333","25.0387883333333","6500500","新莊區"
"242048","172-VK","2018/05/03 17:09:09","新北市新莊區中正路475號","121.441588333333","25.03378","6500500","新莊區"
"242017","175-VK","2018/05/03 17:09:19","新北市新莊區三和路12-21號","121.442045","25.0387183333333","6500500","新莊區"
"242004","176-VK","2018/05/03 17:09:24","新北市新莊區新泰路357巷3弄57號","121.442386666667","25.0395716666667","6500500","新莊區"
"242036","349-TH","2018/05/03 17:09:14","新北市新莊區三和路12-16號","121.44207","25.03747","6500500","新莊區"
"242019","350-TH","2018/05/03 17:09:25","新北市新莊區新泰路357巷3弄57號","121.442033333333","25.03905","6500500","新莊區"
"242013","351-TH","2018/05/03 17:09:16","新北市新莊區新泰路357巷3弄57號","121.441976666667","25.0394766666667","6500500","新莊區"
"238019","599-UM","2018/05/03 17:09:12","新北市樹林區八德街372號","121.407656666667","24.9695466666667","6500700","樹林區"
"238018","571-TV","2018/05/03 17:09:05","新北市樹林區水源街11號","121.425021666667","24.9834783333333","6500700","樹林區"
"238024","5061-A6","2018/05/03 17:09:19","新北市樹林區鎮前街77-21號","121.424876666667","24.9901366666667","6500700","樹林區"
"238022","KEA-2213","2018/05/03 17:09:25","新北市樹林區太平路247巷30號","121.420855","24.9757383333333","6500700","樹林區"
"238021","KEA-2539","2018/05/03 17:09:06","新北市樹林區西圳街一段165巷20弄28號","121.395666666667","24.9601483333333","6500700","樹林區"
"238025","303-VK","2018/05/03 17:09:19","新北市樹林區中正路22-1號","121.42785","24.9994416666667","6500700","樹林區"
"238017","283-BY","2018/05/03 17:09:04","新北市樹林區光武街7-3號","121.41577","25.0053183333333","6500700","樹林區"
"238001","282-BY","2018/05/03 17:09:21","新北市樹林區大慶街99-1號","121.427745","24.999685","6500700","樹林區"
"238020","268-VK","2018/05/03 17:09:16","新北市樹林區中山路三段107-1號","121.399871666667","24.9746883333333","6500700","樹林區"
"238016","169-UY","2018/05/03 17:09:15","新北市樹林區文化街52號","121.41848","24.9884","6500700","樹林區"
"239007","AAC-297","2018/05/03 17:09:07","新北市鶯歌區中正一路43號","121.35245","24.9534733333333","6500800","鶯歌區"
"239006","891-R6","2018/05/03 17:09:27","新北市鶯歌區八德路2巷37弄3號","121.336976666667","24.9465416666667","6500800","鶯歌區"
"239008","527-UM","2018/05/03 17:09:21","新北市鶯歌區尖山路83號","121.348713333333","24.9493933333333","6500800","鶯歌區"
"239005","526-UM","2018/05/03 17:09:21","新北市鶯歌區德昌二街95號","121.333268333333","24.957515","6500800","鶯歌區"
"239001","417-VK","2018/05/03 17:09:23","新北市鶯歌區尖山路140巷12弄1號","121.346363333333","24.9494216666667","6500800","鶯歌區"
"239003","360-BY","2018/05/03 17:09:25","新北市鶯歌區八德路16號","121.330846666667","24.9553816666667","6500800","鶯歌區"
"239002","359-BY","2018/05/03 17:09:12","新北市鶯歌區建國路177號","121.34988","24.9534266666667","6500800","鶯歌區"
"239004","193-VK","2018/05/03 17:09:14","新北市鶯歌區文化路324巷1-35號","121.35224","24.9455716666667","6500800","鶯歌區"
"242002","KEA-2550","2018/05/03 17:09:06","新北市新莊區三和路12-18號","121.442303333333","25.0375616666667","6500500","新莊區"
