"lineid","car","time","location","longitude","latitude","cityid","cityname"
"234026","9371-KE","2018/05/03 17:38:53","新北市永和區中正路748號","121.514825","25.0102666666667","6500400","永和區"
"249005","172-UM","2018/05/03 17:39:04","新北市八里區荖阡坑路34號","121.40272","25.1298283333333","6502300","八里區"
"249001","173-UM","2018/05/03 17:39:06","新北市八里區龍米路二段189號","121.43404","25.1582616666667","6502300","八里區"
"249004","303-UY","2018/05/03 17:38:58","新北市八里區賢三街102號","121.41673","25.157785","6502300","八里區"
"249002","305-UY","2018/05/03 17:37:52","新北市八里區石壁腳5號","121.439323333333","25.1338233333333","6502300","八里區"
"249003","593-UM","2018/05/03 17:38:52","新北市八里區中山路二段249號","121.403001666667","25.1491233333333","6502300","八里區"
"232011","375-UM","2018/05/03 17:39:04","新北市坪林區北宜路八段349號","121.710571666667","24.93362","6502000","坪林區"
"244013","069-UM","2018/05/03 17:38:54","新北市林口區中正路555號","121.38114","25.0768816666667","6501700","林口區"
"244007","080-UY","2018/05/03 17:38:59","新北市林口區林口路274號","121.386113333333","25.0847783333333","6501700","林口區"
"244019","742-UY","2018/05/03 17:39:09","新北市林口區公園路122號","121.370715","25.0712716666667","6501700","林口區"
"244023","483-VK","2018/05/03 17:38:52","新北市林口區興林路152巷24號","121.387538333333","25.0717066666667","6501700","林口區"
"244017","485-VK","2018/05/03 17:39:02","新北市林口區忠孝路407號","121.37043","25.0706133333333","6501700","林口區"
"244009","656-BX","2018/05/03 17:39:04","新北市林口區中北三街293號","121.382556666667","25.0831483333333","6501700","林口區"
"244011","657-BX","2018/05/03 17:38:58","新北市林口區佳林路154號","121.38418","25.0771166666667","6501700","林口區"
"244025","837-TS","2018/05/03 17:39:04","新北市林口區南勢街23號","121.3648","25.0736733333333","6501700","林口區"
"244021","838-TS","2018/05/03 17:39:08","新北市林口區粉寮路一段77號","121.396558333333","25.07883","6501700","林口區"
"231046","107-UY","2018/05/03 17:38:50","新北市新店區直潭路92號","121.5309","24.937615","6500600","新店區"
"241011","013-R5","2018/05/03 17:39:06","新北市三重區河邊北街124巷11號","121.50329","25.0713883333333","6500200","三重區"
"241005","262-UM","2018/05/03 17:39:07","新北市三重區碧華街37號","121.4844","25.081255","6500200","三重區"
"241016","266-UM","2018/05/03 17:38:54","新北市三重區重新路二段23號","121.497893333333","25.0625616666667","6500200","三重區"
"241007","398-BY","2018/05/03 17:39:04","新北市三重區力行路二段151號","121.483585","25.0775866666667","6500200","三重區"
"241024","462-BY","2018/05/03 17:39:04","新北市三重區力行路一段275號","121.48238","25.071675","6500200","三重區"
"241020","478-VK","2018/05/03 17:39:00","新北市三重區忠孝路二段17號","121.486638333333","25.071405","6500200","三重區"
"241014","543-UM","2018/05/03 17:39:05","新北市三重區河邊北街80號","121.504356666667","25.068915","6500200","三重區"
"241023","545-UM","2018/05/03 17:38:53","新北市三重區三民街128-3號","121.483271666667","25.06484","6500200","三重區"
"241033","557-UM","2018/05/03 17:35:26","新北市三重區興德路131巷32號","121.469753333333","25.0539716666667","6500200","三重區"
"241025","887-TS","2018/05/03 17:39:10","新北市三重區中正北路416號","121.474993333333","25.0708883333333","6500200","三重區"
"241012","941-UM","2018/05/03 17:38:57","新北市三重區仁興街39巷14-6號","121.499863333333","25.07607","6500200","三重區"
"235061","378-QA","2018/05/03 17:19:00","新北市中和區和城路一段271巷1號","121.485415","24.991795","6500300","中和區"
"247024","893-R6","2018/05/03 17:39:04","新北市蘆洲區長樂路125-1號","121.462125","25.0880866666667","6501400","蘆洲區"
"247014","546-UM","2018/05/03 17:39:07","新北市蘆洲區中山二路121號","121.472196666667","25.08167","6501400","蘆洲區"
"247022","500-BY","2018/05/03 17:38:59","新北市蘆洲區民族路548巷37號","121.467396666667","25.0895466666667","6501400","蘆洲區"
"247010","341-TH","2018/05/03 17:39:02","新北市蘆洲區中山一路72號","121.478805","25.0810833333333","6501400","蘆洲區"
"247012","339-TH","2018/05/03 17:39:03","新北市蘆洲區民權路8-1號","121.476598333333","25.0860116666667","6501400","蘆洲區"
"247004","337-TH","2018/05/03 17:39:03","新北市蘆洲區長安街249巷28號","121.458115","25.082775","6501400","蘆洲區"
"247006","336-TH","2018/05/03 17:39:04","新北市蘆洲區長安街68巷6號","121.463066666667","25.08033","6501400","蘆洲區"
"247018","057-VK","2018/05/03 17:38:56","新北市蘆洲區民權路61巷4弄2號","121.47351","25.0878466666667","6501400","蘆洲區"
"247008","056-VK","2018/05/03 17:39:01","新北市蘆洲區民生街64號","121.473393333333","25.0787983333333","6501400","蘆洲區"
"247016","007-UY","2018/05/03 17:38:52","新北市蘆洲區光華路46巷20號","121.468315","25.0837316666667","6501400","蘆洲區"
"247002","002-UY","2018/05/03 17:38:56","新北市蘆洲區永平街49號","121.457923333333","25.0912533333333","6501400","蘆洲區"
"247020","001-UY","2018/05/03 17:39:04","新北市蘆洲區民族路464-1號","121.471806666667","25.0917266666667","6501400","蘆洲區"
"228003","097-TW","2018/05/03 17:39:02","新北市貢寮區仁理村仁和路148號","121.923178333333","25.05175","6502600","貢寮區"
"228001","212-TW","2018/05/03 17:38:54","新北市貢寮區仁理村仁愛路95-1號","121.927675","25.055455","6502600","貢寮區"
"228002","585-TW","2018/05/03 17:39:07","新北市貢寮區福隆里龜壽谷街26號","121.953453333333","25.007405","6502600","貢寮區"
"224006","676-BX","2018/05/03 17:38:52","新北市瑞芳區中山路326號","121.79648","25.1101416666667","6501200","瑞芳區"
"224008","285-BY","2018/05/03 17:38:57","新北市瑞芳區瑞柑新村30號","121.828998333333","25.1067916666667","6501200","瑞芳區"
"224009","273-VK","2018/05/03 17:38:54","新北市瑞芳區烏勢巷145號","121.847973333333","25.10923","6501200","瑞芳區"
"224005","271-BY","2018/05/03 17:38:51","新北市瑞芳區海濱路8-6號","121.831676666667","25.126165","6501200","瑞芳區"
"227010","642-TC","2018/05/03 17:39:01","新北市雙溪區三貂里定福路1-2號","121.850733333333","25.0633466666667","6502500","雙溪區"
"208003","665-BX","2018/05/03 17:38:57","新北市金山區磺清路135號","121.639361666667","25.2276483333333","6502700","金山區"
"251009","008-UM","2018/05/03 17:38:56","新北市淡水區中正路38-1號","121.443733333333","25.1692883333333","6501000","淡水區"
"251004","010-UM","2018/05/03 17:39:00","新北市淡水區中正東路二段88巷37-21號","121.459313333333","25.1441333333333","6501000","淡水區"
"251001","011-UM","2018/05/03 17:38:53","新北市淡水區民權路92巷35-1號","121.462163333333","25.1266233333333","6501000","淡水區"
"251013","KEA-2871","2018/05/03 17:39:07","新北市淡水區演戲埔腳7號","121.471211666667","25.1940533333333","6501000","淡水區"
"251014","180-VK","2018/05/03 17:38:55","新北市淡水區水碓5-2號","121.476266666667","25.2218116666667","6501000","淡水區"
"251008","181-VK","2018/05/03 17:38:55","新北市淡水區八勢路一段123巷7弄2號","121.466473333333","25.1571633333333","6501000","淡水區"
"251015","182-VK","2018/05/03 17:38:59","新北市淡水區興福寮88巷1-12號","121.487335","25.16754","6501000","淡水區"
"251010","413-VK","2018/05/03 17:38:52","新北市淡水區淡海路280巷16號","121.419845","25.1895633333333","6501000","淡水區"
"251012","441-VK","2018/05/03 17:38:51","新北市淡水區北新路200巷8號","121.451783333333","25.1797516666667","6501000","淡水區"
"251007","442-VK","2018/05/03 17:39:00","新北市淡水區民生路124巷23號","121.464195","25.1376316666667","6501000","淡水區"
"251005","443-VK","2018/05/03 17:38:52","新北市淡水區鄧公路33巷1號","121.451463333333","25.17117","6501000","淡水區"
"251006","561-UM","2018/05/03 17:39:03","新北市淡水區大信街24巷2號","121.441955","25.17665","6501000","淡水區"
"251016","575-R6","2018/05/03 17:38:55","新北市淡水區埤島63-3號","121.459435","25.1916316666667","6501000","淡水區"
"251011","650-BX","2018/05/03 17:39:04","新北市淡水區小坪頂13-3號","121.486616666667","25.156185","6501000","淡水區"
"251002","672-BX","2018/05/03 17:38:58","新北市淡水區文化路57號","121.438513333333","25.1727766666667","6501000","淡水區"
"251003","673-BX","2018/05/03 17:39:07","新北市淡水區中山北路一段33號","121.441561666667","25.175265","6501000","淡水區"
"207003","550-UM","2018/05/03 17:39:05","新北市萬里區龜吼里漁澳路16-3號","121.687003333333","25.1949916666667","6502800","萬里區"
"207004","225-TW","2018/05/03 17:38:59","新北市萬里區中幅里中福路22號","121.682186666667","25.1652833333333","6502800","萬里區"
"252002","178-VK","2018/05/03 17:38:59","新北市三芝區智成街88號","121.50518","25.25564","6502100","三芝區"
"252001","292-VK","2018/05/03 17:38:59","新北市三芝區育英街1號","121.501741666667","25.258775","6502100","三芝區"
"237011","572-TV","2018/05/03 17:38:59","新北市三峽區仁愛街35號","121.368461666667","24.933185","6500900","三峽區"
"237013","252-BX","2018/05/03 17:39:09","新北市三峽區中華路8-1號","121.374973333333","24.932945","6500900","三峽區"
"237012","275-BY","2018/05/03 17:39:01","新北市三峽區中山路459巷163-3號","121.348823333333","24.9331883333333","6500900","三峽區"
"237006","5529-G3","2018/05/03 17:39:03","新北市三峽區介壽路一段552巷3號","121.387416666667","24.9330683333333","6500900","三峽區"
"237010","706-TV","2018/05/03 17:39:06","新北市三峽區中山路143號","121.365055","24.93616","6500900","三峽區"
"236070","105-UM","2018/05/03 17:39:01","新北市土城區城林路6巷80號","121.438461666667","24.9797666666667","6501300","土城區"
"236042","107-UM","2018/05/03 17:38:54","新北市土城區城林路6巷80號","121.438541666667","24.97977","6501300","土城區"
"236078","166-UM","2018/05/03 17:39:05","新北市土城區城林路6巷80號","121.438433333333","24.97966","6501300","土城區"
"236030","253-BX","2018/05/03 17:39:02","新北市土城區城林路6巷80號","121.438673333333","24.9796566666667","6501300","土城區"
"236014","270-VK","2018/05/03 17:38:49","新北市土城區城林路6巷80號","121.438556666667","24.9796183333333","6501300","土城區"
"236038","271-VK","2018/05/03 17:39:06","新北市土城區城林路6巷80號","121.43852","24.97959","6501300","土城區"
"236063","915-UM","2018/05/03 17:38:55","新北市土城區城林路6巷80號","121.438496666667","24.9795783333333","6501300","土城區"
"242034","AAC-296","2018/05/03 17:38:57","新北市新莊區新莊路595號","121.446216666667","25.0331916666667","6500500","新莊區"
"242058","986-R7","2018/05/03 17:38:48","新北市新莊區中正路723-9號","121.422961666667","25.029115","6500500","新莊區"
"242053","751-BX","2018/05/03 17:39:01","新北市新莊區新樹路699巷9號","121.432561666667","25.0019133333333","6500500","新莊區"
"242061","705-TV","2018/05/03 17:38:59","新北市新莊區瓊林南路77-9號","121.434706666667","25.0135966666667","6500500","新莊區"
"242027","615-BX","2018/05/03 17:39:03","新北市新莊區福壽街110號","121.458111666667","25.05059","6500500","新莊區"
"242025","613-BX","2018/05/03 17:39:09","新北市新莊區思源路90號","121.460205","25.0455483333333","6500500","新莊區"
"242029","612-BX","2018/05/03 17:39:08","新北市新莊區復興路一段181號","121.451496666667","25.04347","6500500","新莊區"
"242042","566-BX","2018/05/03 17:38:48","新北市新莊區福營路103號","121.433638333333","25.03211","6500500","新莊區"
"242046","497-BY","2018/05/03 17:39:03","新北市新莊區建國一路7號","121.433791666667","25.03185","6500500","新莊區"
"242039","442-UM","2018/05/03 17:38:58","新北市新莊區民安東路19號","121.428101666667","25.0210133333333","6500500","新莊區"
"242051","441-UM","2018/05/03 17:39:09","新北市新莊區西盛街195號","121.428118333333","25.0172516666667","6500500","新莊區"
"242007","413-TV","2018/05/03 17:38:58","新北市新莊區福樂街118巷3號","121.457233333333","25.0480316666667","6500500","新莊區"
"242044","400-BY","2018/05/03 17:39:01","新北市新莊區中正路871巷6號","121.41842","25.0268416666667","6500500","新莊區"
"242023","362-BY","2018/05/03 17:38:49","新北市新莊區公園路129-12號","121.45772","25.0411483333333","6500500","新莊區"
"242009","132-UY","2018/05/03 17:38:53","新北市新莊區昌明街14巷6弄1號","121.45738","25.0529783333333","6500500","新莊區"
"242031","135-UY","2018/05/03 17:39:01","新北市新莊區新泰路374號","121.444236666667","25.043125","6500500","新莊區"
"242048","172-VK","2018/05/03 17:38:49","新北市新莊區萬安街132號","121.420256666667","25.02151","6500500","新莊區"
"242011","173-VK","2018/05/03 17:39:08","新北市新莊區中榮街1號","121.451453333333","25.05277","6500500","新莊區"
"242017","175-VK","2018/05/03 17:38:59","新北市新莊區復興路一段149巷21弄11號","121.449696666667","25.0440116666667","6500500","新莊區"
"242004","176-VK","2018/05/03 17:39:04","新北市新莊區自立街200號","121.456716666667","25.0454566666667","6500500","新莊區"
"242015","346-TH","2018/05/03 17:38:56","新北市新莊區新泰路286號","121.445736666667","25.040575","6500500","新莊區"
"242021","347-TH","2018/05/03 17:38:56","新北市新莊區中華路一段60號","121.45201","25.0386183333333","6500500","新莊區"
"242036","349-TH","2018/05/03 17:39:05","新北市新莊區建福路59巷46號","121.428731666667","25.02783","6500500","新莊區"
"242019","350-TH","2018/05/03 17:39:05","新北市新莊區中港路203號","121.454828333333","25.0419366666667","6500500","新莊區"
"242013","351-TH","2018/05/03 17:38:56","新北市新莊區中誠街120號","121.449373333333","25.0476216666667","6500500","新莊區"
"238015","755-BX","2018/05/03 17:39:01","新北市樹林區長壽街21巷12號","121.421136666667","24.9939983333333","6500700","樹林區"
"238019","599-UM","2018/05/03 17:38:53","新北市樹林區太平路80號","121.419131666667","24.98043","6500700","樹林區"
"238018","571-TV","2018/05/03 17:39:05","新北市樹林區鎮前街25號","121.42579","24.9924133333333","6500700","樹林區"
"238024","5061-A6","2018/05/03 17:38:59","新北市樹林區環河路600號","121.40436","24.969345","6500700","樹林區"
"238022","KEA-2213","2018/05/03 17:39:05","新北市樹林區太元街19號","121.41818","24.9801566666667","6500700","樹林區"
"238021","KEA-2539","2018/05/03 17:39:06","新北市樹林區柑園街一段271號","121.394293333333","24.9563866666667","6500700","樹林區"
"238025","303-VK","2018/05/03 17:38:59","新北市樹林區保安街三段16號","121.412548333333","25.0112183333333","6500700","樹林區"
"238017","283-BY","2018/05/03 17:39:08","新北市樹林區中正路651號","121.412536666667","25.0126","6500700","樹林區"
"238014","282-BY","2018/05/03 17:39:01","新北市樹林區保安街一段336巷25號","121.417676666667","24.999125","6500700","樹林區"
"238020","268-VK","2018/05/03 17:39:07","新北市樹林區俊英街168-3號","121.42641","25.00718","6500700","樹林區"
"238026","172-UY","2018/05/03 17:39:01","新北市樹林區中山路三段27巷3弄12-2號","121.401716666667","24.9737183333333","6500700","樹林區"
"238016","169-UY","2018/05/03 17:38:55","新北市樹林區復興路262號","121.418401666667","24.9887716666667","6500700","樹林區"
"239007","AAC-297","2018/05/03 17:32:47","新北市鶯歌區中山路48號","121.351688333333","24.9572966666667","6500800","鶯歌區"
"239006","891-R6","2018/05/03 17:39:07","新北市鶯歌區鶯桃路466號","121.332371666667","24.965515","6500800","鶯歌區"
"239008","527-UM","2018/05/03 17:39:00","新北市鶯歌區大湖路732巷15弄1號","121.332975","24.9777","6500800","鶯歌區"
"239005","526-UM","2018/05/03 17:39:02","新北市鶯歌區福隆二街36巷5-14號","121.324223333333","24.9717066666667","6500800","鶯歌區"
"239001","417-VK","2018/05/03 17:39:02","新北市鶯歌區中正三路186號","121.333198333333","24.93826","6500800","鶯歌區"
"239003","360-BY","2018/05/03 17:39:05","新北市鶯歌區鶯桃路206巷14號","121.33757","24.9594383333333","6500800","鶯歌區"
"239002","359-BY","2018/05/03 17:38:51","新北市鶯歌區南雅路435號","121.34696","24.9542","6500800","鶯歌區"
"239004","193-VK","2018/05/03 17:38:54","新北市鶯歌區三鶯路120號","121.35952","24.9440533333333","6500800","鶯歌區"
"221008","489-VK","2018/05/03 17:39:06","新北市汐止區康寧街901號","121.651425","25.074975","6501100","汐止區"
"221010","269-BY","2018/05/03 17:38:54","新北市汐止區汐萬路一段418巷46號","121.651093333333","25.0791366666667","6501100","汐止區"
"221023","279-VK","2018/05/03 17:38:49","新北市汐止區康寧街901號","121.6518","25.075005","6501100","汐止區"
"221032","280-BY","2018/05/03 17:39:01","新北市汐止區康寧街901號","121.651351666667","25.07507","6501100","汐止區"
"221031","353-TW","2018/05/03 17:38:49","新北市汐止區康寧街901號","121.651811666667","25.0749783333333","6501100","汐止區"
"221033","647-BX","2018/05/03 17:38:48","新北市汐止區林森街131巷34號","121.624826666667","25.04166","6501100","汐止區"
"221018","753-BX","2018/05/03 17:39:07","新北市汐止區汐萬路一段312號","121.650391666667","25.0750566666667","6501100","汐止區"
"242002","KEA-2550","2018/05/03 17:39:06","新北市新莊區新莊路254號","121.452186666667","25.0340216666667","6500500","新莊區"
"242056","280-VK","2018/05/03 17:39:09","新北市新莊區泰豐街19號","121.448335","25.03166","6500500","新莊區"
