"lineid","car","time","location","longitude","latitude","cityid","cityname"
"234026","9371-KE","2018/05/03 17:48:33","新北市永和區中山路一段19號","121.513876666667","25.010395","6500400","永和區"
"234011","9373-KE","2018/05/03 17:48:26","新北市永和區福和路1號","121.525845","25.00955","6500400","永和區"
"249005","172-UM","2018/05/03 17:48:35","新北市八里區荖阡坑路34號","121.40273","25.1299116666667","6502300","八里區"
"249001","173-UM","2018/05/03 17:48:26","新北市八里區龍米路二段108-1號","121.443928333333","25.1493683333333","6502300","八里區"
"249004","303-UY","2018/05/03 17:48:38","新北市八里區中華路一段81巷15號","121.420363333333","25.156855","6502300","八里區"
"249002","305-UY","2018/05/03 17:48:32","新北市八里區龍形五街37巷6號","121.448898333333","25.1326733333333","6502300","八里區"
"249003","593-UM","2018/05/03 17:48:32","新北市八里區中山路二段212號","121.405406666667","25.15188","6502300","八里區"
"248006","077-UY","2018/05/03 17:48:33","新北市五股區中興路二段37巷28號","121.460196666667","25.0750466666667","6501500","五股區"
"248008","095-VK","2018/05/03 17:48:26","新北市五股區中興路二段37巷28號","121.460226666667","25.0750183333333","6501500","五股區"
"248020","225-UY","2018/05/03 17:48:33","新北市五股區中興路二段83巷26-3號","121.460175","25.0753383333333","6501500","五股區"
"248010","682-TV","2018/05/03 17:48:35","新北市五股區中興路二段63巷17號","121.460285","25.0754116666667","6501500","五股區"
"232011","375-UM","2018/05/03 17:48:44","新北市坪林區北宜路八段80號","121.705506666667","24.93507","6502000","坪林區"
"244013","069-UM","2018/05/03 17:48:34","新北市林口區中正路478-1號","121.38314","25.0777116666667","6501700","林口區"
"244007","080-UY","2018/05/03 17:48:39","新北市林口區佳林路33號","121.38668","25.0819283333333","6501700","林口區"
"244019","742-UY","2018/05/03 17:48:41","新北市林口區公園路170號","121.372443333333","25.0721333333333","6501700","林口區"
"244023","483-VK","2018/05/03 17:48:32","新北市林口區東湖一街7號","121.38709","25.0730383333333","6501700","林口區"
"244017","485-VK","2018/05/03 17:48:22","新北市林口區文化二路一段262號","121.371026666667","25.07356","6501700","林口區"
"244009","656-BX","2018/05/03 17:48:24","新北市林口區文化一路二段163號","121.383288333333","25.08135","6501700","林口區"
"244011","657-BX","2018/05/03 17:48:38","新北市林口區佳林路253號","121.38292","25.0760883333333","6501700","林口區"
"244025","837-TS","2018/05/03 17:48:31","新北市林口區三民路122號","121.36067","25.0708483333333","6501700","林口區"
"244021","838-TS","2018/05/03 17:48:28","新北市林口區仁愛路一段159巷27號","121.398195","25.0722366666667","6501700","林口區"
"222003","436-BY","2018/05/03 17:48:27","新北市深坑區文山路三段110號","121.608433333333","24.9991716666667","6501800","深坑區"
"222002","659-BX","2018/05/03 17:48:36","新北市深坑區平埔街22巷8號","121.614948333333","25.000865","6501800","深坑區"
"231046","107-UY","2018/05/03 17:48:33","新北市新店區下石厝路11-5號","121.531153333333","24.9295483333333","6500600","新店區"
"231055","AKT-0513","2018/05/03 17:48:29","新北市新店區安華路28-1號","121.519421666667","24.9605466666667","6500600","新店區"
"241005","262-UM","2018/05/03 17:48:27","新北市三重區碧華街213號","121.488745","25.082825","6500200","三重區"
"241016","266-UM","2018/05/03 17:48:34","新北市三重區重新路三段45-1號","121.493295","25.0611933333333","6500200","三重區"
"241024","462-BY","2018/05/03 17:48:23","新北市三重區力行路二段9巷2號","121.482335","25.0722216666667","6500200","三重區"
"241033","557-UM","2018/05/03 17:48:26","新北市三重區光復路一段17號","121.472048333333","25.0473666666667","6500200","三重區"
"241012","941-UM","2018/05/03 17:48:37","新北市三重區龍門路276號","121.501815","25.0740283333333","6500200","三重區"
"235065","098-UM","2018/05/03 17:48:26","新北市中和區員山路36巷16-3號","121.484991666667","24.99127","6500300","中和區"
"235061","378-QA","2018/05/03 17:19:00","新北市中和區和城路一段271巷1號","121.485415","24.991795","6500300","中和區"
"247024","893-R6","2018/05/03 17:48:44","新北市蘆洲區長樂路120巷2號","121.462278333333","25.0897333333333","6501400","蘆洲區"
"247014","546-UM","2018/05/03 17:48:07","新北市蘆洲區中正路187號","121.468615","25.085635","6501400","蘆洲區"
"247022","500-BY","2018/05/03 17:48:39","新北市蘆洲區中正路270巷19號","121.465963333333","25.0901883333333","6501400","蘆洲區"
"247010","341-TH","2018/05/03 17:48:42","新北市蘆洲區民族路32號","121.476413333333","25.0842716666667","6501400","蘆洲區"
"247012","339-TH","2018/05/03 17:48:32","新北市蘆洲區復興路83號","121.476336666667","25.0873683333333","6501400","蘆洲區"
"247004","337-TH","2018/05/03 17:48:43","新北市蘆洲區長安街194巷17號","121.459773333333","25.08456","6501400","蘆洲區"
"247006","336-TH","2018/05/03 17:48:24","新北市蘆洲區長安街22巷3弄2號","121.464365","25.0795166666667","6501400","蘆洲區"
"247018","057-VK","2018/05/03 17:48:36","新北市蘆洲區復興路227巷2弄9號","121.480403333333","25.090345","6501400","蘆洲區"
"247008","056-VK","2018/05/03 17:48:41","新北市蘆洲區中山一路287號","121.471908333333","25.0793566666667","6501400","蘆洲區"
"247002","002-UY","2018/05/03 17:48:36","新北市蘆洲區永平街32巷21弄15號","121.458486666667","25.0918866666667","6501400","蘆洲區"
"247020","001-UY","2018/05/03 17:48:24","新北市蘆洲區民義街101巷12號","121.473316666667","25.0911933333333","6501400","蘆洲區"
"228003","097-TW","2018/05/03 17:48:42","新北市貢寮區真理里延平街36號","121.924563333333","25.056225","6502600","貢寮區"
"228001","212-TW","2018/05/03 17:48:34","新北市貢寮區仁理村仁愛路95-1號","121.927666666667","25.0554816666667","6502600","貢寮區"
"228002","585-TW","2018/05/03 17:48:27","新北市貢寮區福隆里外隆林街15號","121.958931666667","25.0036666666667","6502600","貢寮區"
"224010","AGQ-8101","2018/05/03 17:48:29","新北市瑞芳區明燈路一段45巷2號","121.82099","25.106835","6501200","瑞芳區"
"224006","676-BX","2018/05/03 17:48:32","新北市瑞芳區傑魚坑路183號","121.788456666667","25.10829","6501200","瑞芳區"
"224008","285-BY","2018/05/03 17:48:37","新北市瑞芳區明燈路一段21號","121.82302","25.1073683333333","6501200","瑞芳區"
"224009","273-VK","2018/05/03 17:48:34","新北市瑞芳區新山路179-1號","121.85172","25.1090866666667","6501200","瑞芳區"
"224005","271-BY","2018/05/03 17:48:31","新北市瑞芳區豎崎路32-5號","121.823853333333","25.12098","6501200","瑞芳區"
"227010","642-TC","2018/05/03 17:48:42","新北市雙溪區三貂里政光路3-1號","121.85075","25.0633466666667","6502500","雙溪區"
"253006","295-VK","2018/05/03 17:48:35","新北市石門區中山路62-7號","121.567455","25.290255","6502200","石門區"
"222001","KEA-2212","2018/05/03 17:48:30","新北市深坑區文山路三段48-1號","121.609905","24.99847","6501800","深坑區"
"208002","KEA-2872","2018/05/03 17:48:37","新北市金山區磺清路135號","121.639265","25.22763","6502700","金山區"
"208003","665-BX","2018/05/03 17:48:37","新北市金山區磺清路135號","121.639416666667","25.2276816666667","6502700","金山區"
"208001","761-BX","2018/05/03 17:48:41","新北市金山區磺清路108巷2號","121.639946666667","25.2281833333333","6502700","金山區"
"251009","008-UM","2018/05/03 17:48:36","新北市淡水區長興街20號","121.443903333333","25.1709316666667","6501000","淡水區"
"251004","010-UM","2018/05/03 17:48:40","新北市淡水區民權一街21號","121.458811666667","25.1362333333333","6501000","淡水區"
"251001","011-UM","2018/05/03 17:48:34","新北市淡水區民權路92巷35-1號","121.462161666667","25.1267","6501000","淡水區"
"251013","KEA-2871","2018/05/03 17:48:40","新北市淡水區泉洲厝31號","121.479611666667","25.1910533333333","6501000","淡水區"
"251014","180-VK","2018/05/03 17:48:35","新北市淡水區公埔子16-6號","121.48103","25.2245516666667","6501000","淡水區"
"251008","181-VK","2018/05/03 17:48:35","新北市淡水區八勢路一段153號","121.467651666667","25.1567033333333","6501000","淡水區"
"251015","182-VK","2018/05/03 17:48:39","新北市淡水區興福寮18-2號","121.494598333333","25.16447","6501000","淡水區"
"251010","413-VK","2018/05/03 17:48:32","新北市淡水區淡海路280巷33弄34-2號","121.418716666667","25.1886166666667","6501000","淡水區"
"251012","441-VK","2018/05/03 17:48:31","新北市淡水區北投子86-5號","121.469053333333","25.1834933333333","6501000","淡水區"
"251007","442-VK","2018/05/03 17:48:40","新北市淡水區民生路16巷14號","121.46129","25.1374633333333","6501000","淡水區"
"251005","443-VK","2018/05/03 17:48:32","新北市淡水區學府路100巷17號","121.450861666667","25.1716283333333","6501000","淡水區"
"251006","561-UM","2018/05/03 17:48:23","新北市淡水區中山北路一段45巷17號","121.440928333333","25.1758233333333","6501000","淡水區"
"251016","575-R6","2018/05/03 17:48:35","新北市淡水區埤島39-15號","121.452776666667","25.1958866666667","6501000","淡水區"
"251011","650-BX","2018/05/03 17:44:44","新北市淡水區吳(仔)厝9-1號","121.47971","25.1466566666667","6501000","淡水區"
"251002","672-BX","2018/05/03 17:48:38","新北市淡水區中山路94號","121.442631666667","25.1705466666667","6501000","淡水區"
"251003","673-BX","2018/05/03 17:48:26","新北市淡水區大忠街5巷2號","121.443141666667","25.1763733333333","6501000","淡水區"
"207003","550-UM","2018/05/03 17:48:25","新北市萬里區野柳里東澳路66號","121.692676666667","25.2009133333333","6502800","萬里區"
"207004","225-TW","2018/05/03 17:48:39","新北市萬里區萬里里瑪鋉頂街41號","121.689193333333","25.1788083333333","6502800","萬里區"
"252002","178-VK","2018/05/03 17:48:29","新北市三芝區智成街53號","121.504255","25.256235","6502100","三芝區"
"252001","292-VK","2018/05/03 17:48:39","新北市三芝區淡金路一段32號","121.500198333333","25.259185","6502100","三芝區"
"237011","572-TV","2018/05/03 17:48:39","新北市三峽區光明路69巷2號","121.376071666667","24.92879","6500900","三峽區"
"237009","210-TH","2018/05/03 17:48:43","新北市三峽區大勇路17號","121.367263333333","24.9367433333333","6500900","三峽區"
"237013","252-BX","2018/05/03 17:48:29","新北市三峽區愛國路33-8號","121.374598333333","24.9332366666667","6500900","三峽區"
"237012","275-BY","2018/05/03 17:48:41","新北市三峽區信義街2號","121.370771666667","24.9361166666667","6500900","三峽區"
"237014","433-BY","2018/05/03 17:48:20","新北市三峽區文化路120巷3號","121.371005","24.9364016666667","6500900","三峽區"
"237006","5529-G3","2018/05/03 17:48:43","新北市三峽區介壽路二段136巷118-1號","121.39237","24.9326816666667","6500900","三峽區"
"237010","706-TV","2018/05/03 17:48:26","新北市三峽區文化路212號","121.368745","24.9359816666667","6500900","三峽區"
"237005","AKY-6261","2018/05/03 17:48:34","新北市三峽區中山路459巷163-3號","121.349121666667","24.9333216666667","6500900","三峽區"
"236070","105-UM","2018/05/03 17:48:41","新北市土城區明德路一段355-5號","121.456813333333","24.9775833333333","6501300","土城區"
"236042","107-UM","2018/05/03 17:48:34","新北市土城區城林路6巷80號","121.438511666667","24.9797533333333","6501300","土城區"
"236078","166-UM","2018/05/03 17:48:41","新北市土城區永寧路109-4號","121.43033","24.954385","6501300","土城區"
"236030","253-BX","2018/05/03 17:48:22","新北市土城區城林路6巷80號","121.438655","24.979665","6501300","土城區"
"236026","269-VK","2018/05/03 17:48:30","新北市土城區城林路6巷80號","121.43851","24.9795583333333","6501300","土城區"
"236014","270-VK","2018/05/03 17:48:29","新北市土城區城林路6巷80號","121.438551666667","24.9796166666667","6501300","土城區"
"236038","271-VK","2018/05/03 17:48:45","新北市土城區城林路6巷80號","121.438551666667","24.9795883333333","6501300","土城區"
"236021","401-BY","2018/05/03 17:48:35","新北市土城區城林路6巷80號","121.438773333333","24.9796316666667","6501300","土城區"
"236059","912-UM","2018/05/03 17:48:31","新北市土城區中華路二段80號","121.438745","24.97566","6501300","土城區"
"236049","913-UM","2018/05/03 17:48:40","新北市土城區城林路6巷80號","121.438706666667","24.9797383333333","6501300","土城區"
"236063","915-UM","2018/05/03 17:48:35","新北市土城區城林路6巷80號","121.438485","24.9795833333333","6501300","土城區"
"236055","AAC-216","2018/05/03 17:48:39","新北市土城區城林路6巷80號","121.43855","24.9797116666667","6501300","土城區"
"242034","AAC-296","2018/05/03 17:48:37","新北市新莊區中正路457巷27號","121.442576666667","25.0329916666667","6500500","新莊區"
"242058","986-R7","2018/05/03 17:48:28","新北市新莊區中正路726-1號","121.415926666667","25.0242533333333","6500500","新莊區"
"242053","751-BX","2018/05/03 17:48:41","新北市新莊區民安西路468-1號","121.431648333333","25.0078","6500500","新莊區"
"242061","705-TV","2018/05/03 17:48:40","新北市新莊區瓊林南路263號","121.434628333333","25.0076266666667","6500500","新莊區"
"242027","615-BX","2018/05/03 17:48:42","新北市新莊區福壽街165號","121.458061666667","25.0535133333333","6500500","新莊區"
"242025","613-BX","2018/05/03 17:48:37","新北市三重區新北大道二段137號","121.466025","25.0613316666667","6500500","新莊區"
"242029","612-BX","2018/05/03 17:48:28","新北市新莊區復興路一段45號","121.446963333333","25.0420833333333","6500500","新莊區"
"242042","566-BX","2018/05/03 17:48:08","新北市新莊區中正路558-33號","121.427456666667","25.0347383333333","6500500","新莊區"
"242046","497-BY","2018/05/03 17:48:21","新北市新莊區福營路125巷6號","121.433166666667","25.0314733333333","6500500","新莊區"
"242039","442-UM","2018/05/03 17:48:38","新北市新莊區民安路146號","121.42457","25.0250183333333","6500500","新莊區"
"242051","441-UM","2018/05/03 17:48:29","新北市新莊區西盛街311巷8號","121.428523333333","25.015245","6500500","新莊區"
"242007","413-TV","2018/05/03 17:48:39","新北市新莊區福樂街132巷2號","121.456721666667","25.0481583333333","6500500","新莊區"
"242044","400-BY","2018/05/03 17:48:35","新北市新莊區中正路829巷22弄47號","121.42049","25.02656","6500500","新莊區"
"242023","362-BY","2018/05/03 17:48:30","新北市新莊區福樂街76號","121.457656666667","25.0466966666667","6500500","新莊區"
"242009","132-UY","2018/05/03 17:48:39","新北市新莊區昌明街42號","121.4563","25.0522516666667","6500500","新莊區"
"242031","135-UY","2018/05/03 17:48:41","新北市新莊區新泰路357巷3弄7號","121.442416666667","25.0410666666667","6500500","新莊區"
"242048","172-VK","2018/05/03 17:48:09","新北市新莊區萬安街91號","121.421115","25.02348","6500500","新莊區"
"242011","173-VK","2018/05/03 17:48:26","新北市新莊區榮華路二段6號","121.450605","25.0558916666667","6500500","新莊區"
"242017","175-VK","2018/05/03 17:48:39","新北市新莊區永安街68號","121.45105","25.0446633333333","6500500","新莊區"
"242004","176-VK","2018/05/03 17:48:44","新北市新莊區自立街236號","121.458258333333","25.045485","6500500","新莊區"
"242015","346-TH","2018/05/03 17:48:36","新北市新莊區新泰路421-1號","121.443158333333","25.0447733333333","6500500","新莊區"
"242021","347-TH","2018/05/03 17:48:36","新北市新莊區復興路一段213號","121.452606666667","25.0436666666667","6500500","新莊區"
"242036","349-TH","2018/05/03 17:48:34","新北市新莊區建福路72號","121.426813333333","25.0268016666667","6500500","新莊區"
"242019","350-TH","2018/05/03 17:48:25","新北市新莊區民樂街46號","121.45801","25.041395","6500500","新莊區"
"242013","351-TH","2018/05/03 17:48:36","新北市新莊區中誠街164號","121.448211666667","25.0475216666667","6500500","新莊區"
"238015","755-BX","2018/05/03 17:48:41","新北市樹林區樹德街136巷30號","121.420105","24.994445","6500700","樹林區"
"238023","601-UM","2018/05/03 17:48:32","新北市樹林區福興街3號","121.404468333333","25.0170966666667","6500700","樹林區"
"238019","599-UM","2018/05/03 17:48:35","新北市樹林區太平路225巷1號","121.418636666667","24.9771983333333","6500700","樹林區"
"238018","571-TV","2018/05/03 17:48:26","新北市樹林區樹新路17號","121.426793333333","24.99417","6500700","樹林區"
"238022","KEA-2213","2018/05/03 17:48:25","新北市樹林區太順街86巷28號","121.41653","24.9786666666667","6500700","樹林區"
"238021","KEA-2539","2018/05/03 17:48:26","新北市樹林區柑園街一段23-7號","121.40438","24.9603083333333","6500700","樹林區"
"238025","303-VK","2018/05/03 17:48:39","新北市樹林區三俊街164號","121.417175","25.01541","6500700","樹林區"
"238017","283-BY","2018/05/03 17:48:24","新北市樹林區俊德街58號","121.41528","25.0132083333333","6500700","樹林區"
"238014","282-BY","2018/05/03 17:48:41","新北市樹林區保安街一段289巷38號","121.41741","24.9969233333333","6500700","樹林區"
"238020","268-VK","2018/05/03 17:48:36","新北市樹林區三俊街199巷10-7號","121.420108333333","25.0163","6500700","樹林區"
"238026","172-UY","2018/05/03 17:48:41","新北市樹林區新興街19巷34弄24號","121.40221","24.9727116666667","6500700","樹林區"
"238016","169-UY","2018/05/03 17:48:35","新北市樹林區復興路372巷2號","121.415356666667","24.9859666666667","6500700","樹林區"
"239007","AAC-297","2018/05/03 17:32:47","新北市鶯歌區中山路48號","121.351688333333","24.9572966666667","6500800","鶯歌區"
"239006","891-R6","2018/05/03 17:48:27","新北市鶯歌區永和街58號","121.333445","24.9681733333333","6500800","鶯歌區"
"239008","527-UM","2018/05/03 17:48:41","新北市鶯歌區香賓街8巷1號","121.336653333333","24.9790116666667","6500800","鶯歌區"
"239005","526-UM","2018/05/03 17:48:42","新北市鶯歌區鳳吉四街39號","121.327216666667","24.9731433333333","6500800","鶯歌區"
"239001","417-VK","2018/05/03 17:48:42","新北市鶯歌區中正三路387號","121.326698333333","24.93451","6500800","鶯歌區"
"239003","360-BY","2018/05/03 17:48:25","新北市鶯歌區鶯桃路294-1號","121.334885","24.9603333333333","6500800","鶯歌區"
"239002","359-BY","2018/05/03 17:48:31","新北市鶯歌區育賢街34號","121.344201666667","24.9546166666667","6500800","鶯歌區"
"239004","193-VK","2018/05/03 17:48:37","新北市鶯歌區文化路136巷17號","121.351448333333","24.9507816666667","6500800","鶯歌區"
"221008","489-VK","2018/05/03 17:48:26","新北市汐止區康寧街901號","121.65142","25.0750233333333","6501100","汐止區"
"221036","130-UY","2018/05/03 17:48:23","新北市汐止區汐萬路一段265巷2號","121.650675","25.074265","6501100","汐止區"
"221015","131-UY","2018/05/03 17:48:30","新北市汐止區長江街15號","121.654956666667","25.0711566666667","6501100","汐止區"
"221010","269-BY","2018/05/03 17:48:34","新北市汐止區汐萬路二段63號","121.649265","25.082295","6501100","汐止區"
"221012","278-VK","2018/05/03 17:48:34","新北市汐止區長江街213號","121.66098","25.077285","6501100","汐止區"
"221023","279-VK","2018/05/03 17:48:30","新北市汐止區民族一街12號","121.635081666667","25.0709933333333","6501100","汐止區"
"221032","280-BY","2018/05/03 17:48:41","新北市汐止區中興路62號","121.635231666667","25.0612283333333","6501100","汐止區"
"221027","281-BY","2018/05/03 17:48:36","新北市汐止區汐萬路一段256巷1號","121.65177","25.0748666666667","6501100","汐止區"
"221029","298-VK","2018/05/03 17:48:33","新北市汐止區康寧街901號","121.651621666667","25.07491","6501100","汐止區"
"221031","353-TW","2018/05/03 17:48:28","新北市汐止區工建路31號","121.639031666667","25.0635266666667","6501100","汐止區"
"221035","622-UM","2018/05/03 17:48:36","新北市汐止區汐萬路一段266號","121.651135","25.073665","6501100","汐止區"
"221025","623-UM","2018/05/03 17:48:40","新北市汐止區大同路二段173號","121.65167","25.0645683333333","6501100","汐止區"
"221038","646-BX","2018/05/03 17:48:32","新北市汐止區汐萬路一段288號","121.650715","25.0742866666667","6501100","汐止區"
"221033","647-BX","2018/05/03 17:44:48","新北市汐止區林森街78號","121.624103333333","25.0406783333333","6501100","汐止區"
"221002","707-TV","2018/05/03 17:48:27","新北市汐止區康寧街901號","121.651546666667","25.0750016666667","6501100","汐止區"
"221018","753-BX","2018/05/03 17:48:27","新北市汐止區茄苳路2巷3號","121.664298333333","25.0707316666667","6501100","汐止區"
"242002","KEA-2550","2018/05/03 17:48:26","新北市新莊區景德路192號","121.449991666667","25.0341783333333","6500500","新莊區"
"242056","280-VK","2018/05/03 17:48:29","新北市新莊區瓊林路38巷39號","121.446571666667","25.0304466666667","6500500","新莊區"
