"lineid","car","time","location","longitude","latitude","cityid","cityname"
"234007","207-UY","2018/05/03 18:18:47","新北市永和區環河西路一段83號","121.512678333333","25.0180933333333","6500400","永和區"
"234081","298-R6","2018/05/03 18:18:58","新北市永和區福和路1號","121.526623333333","25.009995","6500400","永和區"
"234017","745-BX","2018/05/03 18:19:01","新北市永和區福和路1號","121.52647","25.009425","6500400","永和區"
"234013","KEA-2591","2018/05/03 18:18:58","新北市永和區福和路1號","121.52611","25.0095033333333","6500400","永和區"
"234042","862-TW","2018/05/03 18:18:53","新北市永和區福和路1號","121.526093333333","25.0097466666667","6500400","永和區"
"234026","9371-KE","2018/05/03 18:18:53","新北市永和區豫溪街42巷5號","121.515496666667","25.0095333333333","6500400","永和區"
"234011","9373-KE","2018/05/03 18:18:49","新北市永和區環河西路一段81號","121.512965","25.0181733333333","6500400","永和區"
"249005","172-UM","2018/05/03 18:19:03","新北市八里區荖阡坑路15-3號","121.400946666667","25.1401416666667","6502300","八里區"
"249001","173-UM","2018/05/03 18:18:46","新北市八里區龍米路一段206號","121.45197","25.1280466666667","6502300","八里區"
"249004","303-UY","2018/05/03 18:18:58","新北市八里區龍米路二段200巷3號","121.433716666667","25.1587633333333","6502300","八里區"
"249002","305-UY","2018/05/03 18:18:52","新北市八里區龍形三街9巷2號","121.450641666667","25.131765","6502300","八里區"
"248016","026-BX","2018/05/03 18:18:48","新北市五股區成泰路三段477巷9號","121.449895","25.09888","6501500","五股區"
"248006","077-UY","2018/05/03 18:18:52","新北市五股區中興路一段169號","121.464721666667","25.0737866666667","6501500","五股區"
"248008","095-VK","2018/05/03 18:19:06","新北市五股區更洲路32巷8弄14號","121.459241666667","25.0796516666667","6501500","五股區"
"248020","225-UY","2018/05/03 18:18:53","新北市五股區孝義路21-4號","121.452765","25.1097766666667","6501500","五股區"
"248012","247-BX","2018/05/03 18:19:08","新北市五股區御成路2號","121.44198","25.0907583333333","6501500","五股區"
"248014","261-SL","2018/05/03 18:19:04","新北市五股區自強路19巷5-1號","121.434546666667","25.0738233333333","6501500","五股區"
"248004","677-BX","2018/05/03 18:19:04","新北市五股區成泰路二段222-2號","121.439123333333","25.0854083333333","6501500","五股區"
"248002","678-BX","2018/05/03 18:18:56","新北市五股區西雲路63號","121.44355","25.091715","6501500","五股區"
"248010","682-TV","2018/05/03 18:18:55","新北市五股區成泰路一段139巷2弄2號","121.435121666667","25.072965","6501500","五股區"
"232011","375-UM","2018/05/03 18:19:04","新北市坪林區坪雙路一段43號","121.711681666667","24.9424416666667","6502000","坪林區"
"244013","069-UM","2018/05/03 18:18:54","新北市林口區林口路68巷18弄7號","121.391765","25.079795","6501700","林口區"
"244007","080-UY","2018/05/03 18:18:59","新北市林口區林口路113巷6弄1號","121.388706666667","25.0806533333333","6501700","林口區"
"244019","742-UY","2018/05/03 18:19:01","新北市林口區文化一路一段88號","121.372651666667","25.0706066666667","6501700","林口區"
"244023","483-VK","2018/05/03 18:18:52","新北市林口區吉林街17號","121.384423333333","25.0763583333333","6501700","林口區"
"244017","485-VK","2018/05/03 18:19:02","新北市林口區八德路20巷11號","121.367628333333","25.0675916666667","6501700","林口區"
"244009","656-BX","2018/05/03 18:19:04","新北市林口區福林路52巷30號","121.379466666667","25.0894883333333","6501700","林口區"
"244011","657-BX","2018/05/03 18:18:59","新北市林口區中正路82號","121.394431666667","25.0773533333333","6501700","林口區"
"244025","837-TS","2018/05/03 18:18:51","新北市林口區南勢二街20-2號","121.35504","25.0679116666667","6501700","林口區"
"244021","838-TS","2018/05/03 18:19:00","新北市林口區自強一街38號","121.399061666667","25.07771","6501700","林口區"
"243013","AAD-798","2018/05/03 18:18:46","新北市泰山區南林路99巷1-1號","121.415395","25.0509533333333","6501600","泰山區"
"222003","436-BY","2018/05/03 18:18:47","新北市深坑區旺耽路67號","121.626265","25.0029766666667","6501800","深坑區"
"222002","659-BX","2018/05/03 18:19:04","新北市深坑區雲鄉路32號","121.621736666667","24.9997","6501800","深坑區"
"231059","046-UY","2018/05/03 18:19:02","新北市新店區安華路28-1號","121.519643333333","24.96094","6500600","新店區"
"231040","047-UY","2018/05/03 18:19:05","新北市新店區安華路28-1號","121.519218333333","24.9608766666667","6500600","新店區"
"231044","106-UY","2018/05/03 18:19:08","新北市新店區安華路28-1號","121.519575","24.9609733333333","6500600","新店區"
"231046","107-UY","2018/05/03 18:18:50","新北市新店區直潭七街60號","121.532251666667","24.9398066666667","6500600","新店區"
"231052","108-UY","2018/05/03 18:18:46","新北市新店區環河路29巷1號","121.53686","24.9612833333333","6500600","新店區"
"231052","187-VK","2018/05/03 18:18:59","新北市新店區安華路28-1號","121.519621666667","24.961225","6500600","新店區"
"231057","256-BX","2018/05/03 18:19:06","新北市新店區安華路28-1號","121.519741666667","24.9611416666667","6500600","新店區"
"231051","278-BY","2018/05/03 18:19:02","新北市新店區安華路28-1號","121.519826666667","24.9611816666667","6500600","新店區"
"231050","AAD-862","2018/05/03 18:18:57","新北市新店區安華路28-1號","121.520103333333","24.96119","6500600","新店區"
"231058","3713-VJ","2018/05/03 18:18:52","新北市新店區安康路一段61號","121.530491666667","24.9610266666667","6500600","新店區"
"231056","4715-K9","2018/05/03 18:19:02","新北市新店區環河路119號","121.53269","24.97068","6500600","新店區"
"231067","4772-VM","2018/05/03 18:18:58","新北市新店區安華路28-1號","121.519221666667","24.9606466666667","6500600","新店區"
"231065","512-UM","2018/05/03 18:18:59","新北市新店區安華路28-1號","121.519298333333","24.961165","6500600","新店區"
"231049","513-UM","2018/05/03 18:18:54","新北市新店區安華路28-1號","121.519815","24.9612266666667","6500600","新店區"
"231042","515-UM","2018/05/03 18:18:59","新北市新店區安華路28-1號","121.519486666667","24.96092","6500600","新店區"
"231063","616-UM","2018/05/03 18:18:50","新北市新店區安華路28-1號","121.519506666667","24.9605416666667","6500600","新店區"
"231041","618-UM","2018/05/03 18:18:46","新北市新店區安華路28-1號","121.519826666667","24.9605433333333","6500600","新店區"
"231061","619-UM","2018/05/03 18:18:52","新北市新店區安華路28-1號","121.519563333333","24.9606283333333","6500600","新店區"
"231062","720-UM","2018/05/03 18:18:55","新北市新店區安華路28-1號","121.519326666667","24.9611616666667","6500600","新店區"
"231060","897-TW","2018/05/03 18:19:07","新北市新店區安華路28-1號","121.519521666667","24.9607466666667","6500600","新店區"
"231045","898-TW","2018/05/03 18:19:00","新北市新店區安華路28-1號","121.519313333333","24.960855","6500600","新店區"
"231043","899-TW","2018/05/03 18:18:54","新北市新店區安華路28-1號","121.519216666667","24.9608716666667","6500600","新店區"
"231055","AKT-0513","2018/05/03 18:18:49","新北市新店區安康路一段20號","121.531001666667","24.9610133333333","6500600","新店區"
"241033","557-UM","2018/05/03 18:19:06","新北市三重區中興北街62號","121.469066666667","25.05165","6500200","三重區"
"235064","005-UY","2018/05/03 18:18:51","新北市中和區圓通路189號","121.497255","24.9945016666667","6500300","中和區"
"235063","006-UY","2018/05/03 18:19:07","新北市中和區中正路589巷11號","121.485795","24.993985","6500300","中和區"
"235056","096-UM","2018/05/03 18:19:02","新北市中和區中正路828號","121.48493","25.003565","6500300","中和區"
"235039","097-UM","2018/05/03 18:19:01","新北市中和區中正路11號","121.503185","24.993385","6500300","中和區"
"235065","098-UM","2018/05/03 18:19:06","新北市中和區中山路二段2巷45弄44號","121.501606666667","25.00636","6500300","中和區"
"235058","151-BY","2018/05/03 18:19:07","新北市中和區圓通路367巷58號","121.491651666667","24.98442","6500300","中和區"
"235055","183-VK","2018/05/03 18:18:52","新北市中和區中正路637巷52弄1號","121.485431666667","24.9933516666667","6500300","中和區"
"235038","185-VK","2018/05/03 18:19:05","新北市中和區秀朗路三段128巷12弄1號","121.52457","24.9928316666667","6500300","中和區"
"235049","186-VK","2018/05/03 18:19:04","新北市中和區中正路521號","121.488246666667","24.9935583333333","6500300","中和區"
"235072","301-VK","2018/05/03 18:19:05","新北市中和區連城路224號","121.491143333333","24.996445","6500300","中和區"
"235043","352-BY","2018/05/03 18:18:49","新北市中和區景平路375號","121.504188333333","24.9933733333333","6500300","中和區"
"235068","377-QA","2018/05/03 18:18:59","新北市中和區員山路36巷16-3號","121.485055","24.9913716666667","6500300","中和區"
"235061","378-QA","2018/05/03 18:18:58","新北市中和區員山路146-3號","121.481241666667","24.9969433333333","6500300","中和區"
"235050","4979-A6","2018/05/03 18:18:54","新北市中和區捷運路61巷9號","121.509075","24.9893216666667","6500300","中和區"
"235069","4980-A6","2018/05/03 18:19:00","新北市中和區中正路395號","121.489578333333","24.9935433333333","6500300","中和區"
"235042","551-UM","2018/05/03 18:19:05","新北市中和區景平路233號","121.510135","24.9925833333333","6500300","中和區"
"235070","558-UM","2018/05/03 18:19:02","新北市中和區圓通路117號","121.499396666667","24.9963533333333","6500300","中和區"
"235045","565-BX","2018/05/03 18:18:51","新北市中和區景安路200巷3弄1號","121.50356","24.9915616666667","6500300","中和區"
"235054","640-BX","2018/05/03 18:18:55","新北市土城區延吉街3巷2號","121.471826666667","24.98945","6500300","中和區"
"235060","647-TV","2018/05/03 18:19:04","新北市中和區連城路469巷79弄4號","121.483593333333","24.99369","6500300","中和區"
"235047","732-UM","2018/05/03 18:18:51","新北市中和區南山路417號","121.507256666667","24.9895933333333","6500300","中和區"
"235046","733-UM","2018/05/03 18:18:42","新北市中和區員山路36巷13號","121.484263333333","24.990955","6500300","中和區"
"235062","800-TS","2018/05/03 18:19:05","新北市中和區景平路999巷2號","121.495435","25.00617","6500300","中和區"
"235057","801-TS","2018/05/03 18:18:55","新北市中和區員山路233號","121.481233333333","24.9982433333333","6500300","中和區"
"235041","802-TS","2018/05/03 18:19:07","新北市中和區中正路275號","121.495501666667","24.9938583333333","6500300","中和區"
"235052","805-TS","2018/05/03 18:19:00","新北市中和區南山路311號","121.504925","24.9915083333333","6500300","中和區"
"235048","896-TW","2018/05/03 18:19:01","新北市中和區中正路521號","121.488366666667","24.9935766666667","6500300","中和區"
"235053","900-TW","2018/05/03 18:18:55","新北市中和區員山路36巷16-3號","121.484933333333","24.991845","6500300","中和區"
"235066","911-UM","2018/05/03 18:18:58","新北市中和區中山路二段120號","121.502761666667","25.0036833333333","6500300","中和區"
"235051","157-BY","2018/05/03 18:19:06","新北市中和區興南路一段55-2號","121.510761666667","24.9899366666667","6500300","中和區"
"235037","AAC-213","2018/05/03 18:19:06","新北市中和區景平路149號","121.51396","24.9919816666667","6500300","中和區"
"235059","AAC-215","2018/05/03 18:18:56","新北市中和區員山路36巷16-3號","121.484981666667","24.9912883333333","6500300","中和區"
"226004","312-R5","2018/05/03 17:51:58","新北市平溪區石底里公園街18-3號","121.733675","25.0257783333333","6502400","平溪區"
"228003","097-TW","2018/05/03 18:19:02","新北市貢寮區真理里美艷山街63-1號","121.920376666667","25.0722016666667","6502600","貢寮區"
"228001","212-TW","2018/05/03 18:18:54","新北市貢寮區真理里新港街26巷55弄2-1號","121.927385","25.052865","6502600","貢寮區"
"228002","585-TW","2018/05/03 18:19:07","新北市貢寮區福連里馬崗街2-2號","122.000898333333","25.014385","6502600","貢寮區"
"224010","AGQ-8101","2018/05/03 17:57:49","新北市瑞芳區汽車路7-3號","121.848008333333","25.1097","6501200","瑞芳區"
"224006","676-BX","2018/05/03 18:18:52","新北市瑞芳區明燈路三段31-1號","121.808175","25.1076516666667","6501200","瑞芳區"
"224002","639-TC","2018/05/03 18:19:00","新北市瑞芳區三爪子坑路149巷8號","121.810988333333","25.10648","6501200","瑞芳區"
"224008","285-BY","2018/05/03 18:18:57","新北市瑞芳區三爪子坑路53號","121.812875","25.1074033333333","6501200","瑞芳區"
"224007","275-VK","2018/05/03 18:18:53","新北市瑞芳區大埔路61號","121.764358333333","25.1018733333333","6501200","瑞芳區"
"224009","273-VK","2018/05/03 18:18:54","新北市瑞芳區新山路43號","121.855923333333","25.1082883333333","6501200","瑞芳區"
"224005","271-BY","2018/05/03 18:18:51","新北市瑞芳區建基新村28號","121.812565","25.1294533333333","6501200","瑞芳區"
"227010","642-TC","2018/05/03 18:19:01","新北市雙溪區牡丹里牡丹73號","121.851716666667","25.0593466666667","6502500","雙溪區"
"227004","400-TW","2018/05/03 18:18:47","新北市雙溪區共和里中山路2號","121.8638","25.0337933333333","6502500","雙溪區"
"253005","032-BX","2018/05/03 18:18:59","新北市石門區中央路4-1號","121.565418333333","25.2912616666667","6502200","石門區"
"253006","295-VK","2018/05/03 18:18:46","新北市石門區老梅路63號","121.545808333333","25.2892166666667","6502200","石門區"
"222001","KEA-2212","2018/05/03 18:18:50","新北市深坑區北深路二段66號","121.618996666667","25.0041166666667","6501800","深坑區"
"208002","KEA-2872","2018/05/03 18:18:57","新北市金山區清泉里清水路16巷12號","121.633366666667","25.2305916666667","6502700","金山區"
"208003","665-BX","2018/05/03 18:18:58","新北市金山區民生路196號","121.645448333333","25.2217983333333","6502700","金山區"
"208001","761-BX","2018/05/03 18:19:01","新北市金山區中山路16號","121.641578333333","25.2176866666667","6502700","金山區"
"251004","010-UM","2018/05/03 18:19:00","新北市淡水區民權路215巷104號","121.462766666667","25.1336233333333","6501000","淡水區"
"251001","011-UM","2018/05/03 18:18:53","新北市淡水區自強路110-8號","121.461616666667","25.1313266666667","6501000","淡水區"
"251013","KEA-2871","2018/05/03 18:19:00","新北市淡水區行忠路590號","121.468053333333","25.1991783333333","6501000","淡水區"
"251014","180-VK","2018/05/03 18:19:07","新北市淡水區崙頂16-1號","121.488266666667","25.22173","6501000","淡水區"
"251008","181-VK","2018/05/03 18:18:55","新北市淡水區水源街二段216號","121.45978","25.1765766666667","6501000","淡水區"
"251015","182-VK","2018/05/03 18:18:59","新北市淡水區興福寮88巷1號","121.485461666667","25.16468","6501000","淡水區"
"251010","413-VK","2018/05/03 18:18:52","新北市淡水區中正路二段96號","121.417801666667","25.185685","6501000","淡水區"
"251012","441-VK","2018/05/03 18:18:51","新北市淡水區北新路二段77-5號","121.48052","25.1855483333333","6501000","淡水區"
"251005","443-VK","2018/05/03 18:18:52","新北市淡水區水源街一段122巷39號","121.44717","25.1704066666667","6501000","淡水區"
"251006","561-UM","2018/05/03 18:19:03","新北市淡水區新民街62號","121.43904","25.1759966666667","6501000","淡水區"
"251016","575-R6","2018/05/03 18:18:55","新北市淡水區淡金路三段228巷35號","121.450056666667","25.2048183333333","6501000","淡水區"
"251011","650-BX","2018/05/03 18:19:07","新北市淡水區坪頂路51巷2號","121.458415","25.1625966666667","6501000","淡水區"
"251002","672-BX","2018/05/03 18:18:58","新北市淡水區中正東路一段36號","121.452625","25.162345","6501000","淡水區"
"251003","673-BX","2018/05/03 18:18:47","新北市淡水區北新路180號","121.44947","25.1786883333333","6501000","淡水區"
"207003","550-UM","2018/05/03 18:19:05","新北市萬里區野柳里港東路6號","121.686461666667","25.2031033333333","6502800","萬里區"
"207004","225-TW","2018/05/03 18:18:59","新北市萬里區中幅里中福路125號","121.676088333333","25.1659116666667","6502800","萬里區"
"252002","178-VK","2018/05/03 18:18:49","新北市三芝區中山路二段39號","121.502885","25.255095","6502100","三芝區"
"252003","249-BX","2018/05/03 18:18:51","新北市三芝區錫板里南勢崗5-3號","121.479988333333","25.2625766666667","6502100","三芝區"
"252001","292-VK","2018/05/03 18:18:59","新北市三芝區中興街二段2號","121.498303333333","25.2566316666667","6502100","三芝區"
"237007","153-BY","2018/05/03 18:18:53","新北市三峽區中正路二段382號","121.365525","24.9093616666667","6500900","三峽區"
"237011","572-TV","2018/05/03 18:18:59","新北市三峽區溪東路273號","121.408835","24.9314733333333","6500900","三峽區"
"237009","210-TH","2018/05/03 18:19:03","新北市三峽區大勇路34號","121.366921666667","24.93726","6500900","三峽區"
"237013","252-BX","2018/05/03 18:19:09","新北市三峽區長泰街6號","121.378793333333","24.9307133333333","6500900","三峽區"
"237012","275-BY","2018/05/03 18:19:01","新北市三峽區民生街19巷7弄14號","121.376791666667","24.9356866666667","6500900","三峽區"
"237008","302-VK","2018/05/03 18:19:00","新北市三峽區白雞57-15號","121.389801666667","24.9118416666667","6500900","三峽區"
"237014","433-BY","2018/05/03 18:19:00","新北市三峽區復興路110巷1弄15號","121.372363333333","24.9383066666667","6500900","三峽區"
"237006","5529-G3","2018/05/03 18:19:03","新北市三峽區溪東路238巷11號","121.408095","24.931085","6500900","三峽區"
"237010","706-TV","2018/05/03 18:19:06","新北市三峽區中山路118號","121.365693333333","24.9358733333333","6500900","三峽區"
"237005","AKY-6261","2018/05/03 18:18:54","新北市三峽區秀川街26巷3號","121.371491666667","24.9342783333333","6500900","三峽區"
"236070","105-UM","2018/05/03 18:19:01","新北市土城區永豐路147-2號","121.467123333333","24.98285","6501300","土城區"
"236042","107-UM","2018/05/03 18:18:55","新北市土城區裕生路21巷6弄45號","121.448648333333","24.9866083333333","6501300","土城區"
"236078","166-UM","2018/05/03 18:19:05","新北市土城區永平街6號","121.42804","24.9628216666667","6501300","土城區"
"236030","253-BX","2018/05/03 18:18:42","新北市土城區中央路二段180巷15號","121.441035","24.9765266666667","6501300","土城區"
"236026","269-VK","2018/05/03 18:18:50","新北市土城區承天路43巷3號","121.439028333333","24.9645533333333","6501300","土城區"
"236014","270-VK","2018/05/03 18:18:49","新北市土城區立清街69號","121.460295","24.9873266666667","6501300","土城區"
"236038","271-VK","2018/05/03 18:19:06","新北市土城區青雲路483巷1號","121.459431666667","24.97374","6501300","土城區"
"236021","401-BY","2018/05/03 18:18:55","新北市土城區學士路79號","121.451663333333","24.980845","6501300","土城區"
"236059","912-UM","2018/05/03 18:18:51","新北市土城區中央路四段311號","121.410961666667","24.9513766666667","6501300","土城區"
"236049","913-UM","2018/05/03 18:19:04","新北市土城區明德路一段369號","121.456051666667","24.977805","6501300","土城區"
"236063","915-UM","2018/05/03 18:18:55","新北市土城區金城路三段183-1號","121.469626666667","24.9887483333333","6501300","土城區"
"236055","AAC-216","2018/05/03 18:18:59","新北市土城區中華路二段199號","121.438173333333","24.9742583333333","6501300","土城區"
"242058","986-R7","2018/05/03 18:18:48","新北市新莊區中正路742-1號","121.413565","25.02296","6500500","新莊區"
"242053","751-BX","2018/05/03 18:19:01","新北市新莊區民安西路410巷12弄2號","121.428023333333","25.0090316666667","6500500","新莊區"
"242061","705-TV","2018/05/03 18:18:59","新北市新莊區新樹路69-34號","121.438353333333","25.0290583333333","6500500","新莊區"
"242027","615-BX","2018/05/03 18:19:02","新北市新莊區幸福路823號","121.44522","25.0489533333333","6500500","新莊區"
"242025","613-BX","2018/05/03 18:18:57","新北市新莊區五工三路94巷1號","121.458173333333","25.0656033333333","6500500","新莊區"
"242029","612-BX","2018/05/03 18:18:48","新北市泰山區泰林路一段6號","121.441956666667","25.04839","6500500","新莊區"
"242042","566-BX","2018/05/03 18:19:08","新北市新莊區天祥街135巷17號","121.413698333333","25.029185","6500500","新莊區"
"242046","497-BY","2018/05/03 18:19:00","新北市新莊區中正路829巷22弄37號","121.420813333333","25.02686","6500500","新莊區"
"242051","441-UM","2018/05/03 18:19:09","新北市新莊區民安西路60號","121.427278333333","25.0203833333333","6500500","新莊區"
"242007","413-TV","2018/05/03 18:18:58","新北市新莊區中港路307號","121.452708333333","25.0446483333333","6500500","新莊區"
"242044","400-BY","2018/05/03 18:19:07","新北市新莊區天泉二街24巷1號","121.414616666667","25.0255033333333","6500500","新莊區"
"242009","132-UY","2018/05/03 18:18:53","新北市新莊區幸福路600號","121.453033333333","25.04947","6500500","新莊區"
"242031","135-UY","2018/05/03 18:19:01","新北市新莊區新泰路277巷57弄17號","121.442881666667","25.0397316666667","6500500","新莊區"
"242048","172-VK","2018/05/03 18:18:49","新北市樹林區俊興街279號","121.418558333333","25.0182033333333","6500500","新莊區"
"242011","173-VK","2018/05/03 18:19:06","新北市新莊區中港路591巷16號","121.45033","25.05241","6500500","新莊區"
"242015","346-TH","2018/05/03 18:18:55","新北市新莊區中和街128號","121.447438333333","25.0479616666667","6500500","新莊區"
"242021","347-TH","2018/05/03 18:17:56","新北市新莊區中正路211號","121.452605","25.0356233333333","6500500","新莊區"
"242036","349-TH","2018/05/03 18:18:54","新北市新莊區後港一路49巷1弄1號","121.425798333333","25.026535","6500500","新莊區"
"242019","350-TH","2018/05/03 18:19:05","新北市新莊區新泰路255巷83號","121.442083333333","25.03891","6500500","新莊區"
"242013","351-TH","2018/05/03 18:18:57","新北市板橋區大觀路三段36巷68弄12號","121.435238333333","24.9972333333333","6500500","新莊區"
"238015","755-BX","2018/05/03 18:19:00","新北市樹林區文化街112巷6號","121.417075","24.9902166666667","6500700","樹林區"
"238023","601-UM","2018/05/03 18:18:51","新北市樹林區三福街85巷17號","121.40746","25.0155966666667","6500700","樹林區"
"238019","599-UM","2018/05/03 18:18:52","新北市樹林區八德街94號","121.420945","24.98031","6500700","樹林區"
"238018","571-TV","2018/05/03 18:19:05","新北市樹林區保安街一段16巷36號","121.42866","24.9944616666667","6500700","樹林區"
"238024","5061-A6","2018/05/03 18:18:59","新北市樹林區育英街2巷7號","121.423106666667","24.9891883333333","6500700","樹林區"
"238025","303-VK","2018/05/03 18:18:59","新北市樹林區保安街一段332號","121.418198333333","24.9978083333333","6500700","樹林區"
"238017","283-BY","2018/05/03 18:19:05","新北市樹林區中正路516號","121.411861666667","25.0136916666667","6500700","樹林區"
"238014","282-BY","2018/05/03 18:18:41","新北市樹林區大安路586號","121.411721666667","24.9834383333333","6500700","樹林區"
"238020","268-VK","2018/05/03 18:18:56","新北市樹林區三俊街21號","121.411795","25.0155233333333","6500700","樹林區"
"238026","172-UY","2018/05/03 18:19:01","新北市樹林區育德街57號","121.391346666667","24.9701","6500700","樹林區"
"238016","169-UY","2018/05/03 18:18:55","新北市樹林區文化街17號","121.419525","24.9873633333333","6500700","樹林區"
"239006","891-R6","2018/05/03 18:19:06","新北市鶯歌區鶯桃路365巷108號","121.33043","24.9620166666667","6500800","鶯歌區"
"239008","527-UM","2018/05/03 18:19:00","新北市鶯歌區國際一路14號","121.336195","24.9765716666667","6500800","鶯歌區"
"239005","526-UM","2018/05/03 18:19:01","新北市鶯歌區鶯桃路668巷73號","121.329891666667","24.97178","6500800","鶯歌區"
"239001","417-VK","2018/05/03 18:19:02","新北市鶯歌區國中街136號","121.33937","24.9397416666667","6500800","鶯歌區"
"239003","360-BY","2018/05/03 18:19:05","新北市鶯歌區福安街58號","121.335595","24.965185","6500800","鶯歌區"
"239002","359-BY","2018/05/03 18:18:52","新北市鶯歌區國慶街16號","121.349596666667","24.956325","6500800","鶯歌區"
"239004","193-VK","2018/05/03 18:18:54","新北市鶯歌區尖山路101巷7弄2號","121.34811","24.9486866666667","6500800","鶯歌區"
"221008","489-VK","2018/05/03 18:19:06","新北市汐止區汐萬路一段256巷1號","121.651883333333","25.074845","6501100","汐止區"
"221036","130-UY","2018/05/03 18:19:02","新北市汐止區長安路77巷22弄12號","121.669525","25.0789233333333","6501100","汐止區"
"221015","131-UY","2018/05/03 18:19:10","新北市汐止區鄉長路二段23巷5號","121.667353333333","25.082525","6501100","汐止區"
"221010","269-BY","2018/05/03 18:18:54","新北市汐止區祥雲街18巷13號","121.646873333333","25.08956","6501100","汐止區"
"221012","278-VK","2018/05/03 18:17:34","新北市汐止區保一街24號","121.674003333333","25.0806216666667","6501100","汐止區"
"221023","279-VK","2018/05/03 18:19:00","新北市汐止區中興路244號","121.629468333333","25.0682466666667","6501100","汐止區"
"221032","280-BY","2018/05/03 18:19:01","新北市汐止區力行街39巷1號","121.616683333333","25.0500683333333","6501100","汐止區"
"221027","281-BY","2018/05/03 18:18:56","新北市汐止區和平街6巷5弄2號","121.663661666667","25.07181","6501100","汐止區"
"221029","298-VK","2018/05/03 18:13:33","新北市汐止區樟樹二路293巷17號","121.640856666667","25.0704033333333","6501100","汐止區"
"221031","353-TW","2018/05/03 18:18:49","新北市汐止區中興路29號","121.634911666667","25.0616966666667","6501100","汐止區"
"221035","622-UM","2018/05/03 18:18:55","新北市汐止區大同路二段187巷4弄2號","121.65228","25.065115","6501100","汐止區"
"221025","623-UM","2018/05/03 18:19:00","新北市汐止區勤進路12巷29號","121.659238333333","25.0624383333333","6501100","汐止區"
"221038","646-BX","2018/05/03 18:18:52","新北市汐止區仁愛路324號","121.664403333333","25.06786","6501100","汐止區"
"221033","647-BX","2018/05/03 18:18:48","新北市汐止區宜興街42號","121.62221","25.042095","6501100","汐止區"
"221002","707-TV","2018/05/03 18:18:47","新北市汐止區福德一路201巷29號","121.635745","25.0646766666667","6501100","汐止區"
"221018","753-BX","2018/05/03 18:18:47","新北市汐止區茄苳路72巷5號","121.666708333333","25.0703566666667","6501100","汐止區"
"242002","KEA-2550","2018/05/03 18:19:06","新北市新莊區碧江街18-7號","121.455456666667","25.03463","6500500","新莊區"
"242056","280-VK","2018/05/03 18:18:58","新北市新莊區豐年街豐2巷2號","121.44684","25.030655","6500500","新莊區"
