"lineid","car","time","location","longitude","latitude","cityid","cityname"
"234007","207-UY","2018/05/03 18:29:06","新北市永和區仁愛路352巷92弄18號","121.501425","25.0082683333333","6500400","永和區"
"234081","298-R6","2018/05/03 18:28:58","新北市永和區福和路1號","121.526568333333","25.0100033333333","6500400","永和區"
"234086","338-UY","2018/05/03 18:29:05","新北市永和區豫溪街217巷27號","121.524316666667","25.0101466666667","6500400","永和區"
"234017","745-BX","2018/05/03 18:29:01","新北市永和區福和路1號","121.526358333333","25.0095266666667","6500400","永和區"
"234013","KEA-2591","2018/05/03 18:28:58","新北市永和區環河西路一段81號","121.512955","25.0182766666667","6500400","永和區"
"234042","862-TW","2018/05/03 18:28:53","新北市永和區環河東路二段92號","121.524458333333","25.0106033333333","6500400","永和區"
"234026","9371-KE","2018/05/03 18:28:53","新北市永和區永貞路417巷30號","121.505721666667","25.0090166666667","6500400","永和區"
"234011","9373-KE","2018/05/03 18:28:49","新北市永和區保福路二段165號","121.509075","25.014785","6500400","永和區"
"249005","172-UM","2018/05/03 18:29:03","新北市八里區中華路三段98-1號","121.392578333333","25.1373616666667","6502300","八里區"
"249001","173-UM","2018/05/03 18:29:06","新北市八里區龍米路一段118號","121.45318","25.1252316666667","6502300","八里區"
"249004","303-UY","2018/05/03 18:28:58","新北市八里區文心街110號","121.426715","25.161065","6502300","八里區"
"249002","305-UY","2018/05/03 18:28:52","新北市八里區龍形三街26號","121.447903333333","25.13149","6502300","八里區"
"248016","026-BX","2018/05/03 18:29:08","新北市五股區凌雲路一段83巷22弄1號","121.449868333333","25.1007383333333","6501500","五股區"
"248006","077-UY","2018/05/03 18:28:53","新北市五股區四維路25號","121.467091666667","25.0706116666667","6501500","五股區"
"248008","095-VK","2018/05/03 18:28:46","新北市五股區中興路二段78-5號","121.461346666667","25.0786","6501500","五股區"
"248020","225-UY","2018/05/03 18:29:07","新北市五股區孝義路80號","121.449746666667","25.1146683333333","6501500","五股區"
"248012","247-BX","2018/05/03 18:29:03","新北市五股區御成路26號","121.441705","25.09174","6501500","五股區"
"248014","261-SL","2018/05/03 18:28:57","新北市五股區登林路貿商巷6弄16號","121.431338333333","25.0698066666667","6501500","五股區"
"248004","677-BX","2018/05/03 18:29:04","新北市五股區工商路150號","121.433096666667","25.0873883333333","6501500","五股區"
"248002","678-BX","2018/05/03 18:28:56","新北市五股區西雲路118-2號","121.445018333333","25.0937366666667","6501500","五股區"
"248010","682-TV","2018/05/03 18:28:55","新北市五股區明德路10號","121.433393333333","25.0717033333333","6501500","五股區"
"234067","AAC-212","2018/05/03 18:29:03","新北市永和區福和路1號","121.526186666667","25.0095583333333","6500400","永和區"
"244013","069-UM","2018/05/03 18:28:54","新北市林口區佳林路101巷26號","121.386781666667","25.079725","6501700","林口區"
"244007","080-UY","2018/05/03 18:28:59","新北市林口區後湖11-63號","121.38705","25.0976233333333","6501700","林口區"
"244019","742-UY","2018/05/03 18:29:01","新北市林口區文化一路一段100巷12號","121.373951666667","25.070695","6501700","林口區"
"244023","483-VK","2018/05/03 18:28:52","新北市林口區文化一路二段2號","121.380298333333","25.0762583333333","6501700","林口區"
"244017","485-VK","2018/05/03 18:29:02","新北市林口區八德路78號","121.365648333333","25.0655","6501700","林口區"
"244009","656-BX","2018/05/03 18:29:04","新北市林口區中山路576-11號","121.376996666667","25.08558","6501700","林口區"
"244011","657-BX","2018/05/03 18:28:58","新北市林口區中山路150號","121.391166666667","25.07872","6501700","林口區"
"244025","837-TS","2018/05/03 18:28:51","新北市林口區南勢四街331號","121.356635","25.0749833333333","6501700","林口區"
"244021","838-TS","2018/05/03 18:29:08","新北市林口區自強四街17號","121.399368333333","25.0765216666667","6501700","林口區"
"243013","AAD-798","2018/05/03 18:29:06","新北市泰山區明志路三段206巷3號","121.423285","25.03792","6501600","泰山區"
"243012","646-TV","2018/05/03 18:28:58","新北市泰山區泰林路二段603號","121.421325","25.0634866666667","6501600","泰山區"
"222003","436-BY","2018/05/03 18:28:47","新北市深坑區北深路一段288號","121.628173333333","25.0076016666667","6501800","深坑區"
"222002","659-BX","2018/05/03 18:28:56","新北市深坑區雲鄉路196號","121.622136666667","24.998285","6501800","深坑區"
"231059","046-UY","2018/05/03 18:29:02","新北市新店區安華路28-1號","121.519605","24.96086","6500600","新店區"
"231040","047-UY","2018/05/03 18:29:05","新北市新店區安華路28-1號","121.519226666667","24.9608883333333","6500600","新店區"
"231044","106-UY","2018/05/03 18:28:48","新北市新店區安華路28-1號","121.519885","24.9609333333333","6500600","新店區"
"231046","107-UY","2018/05/03 18:29:10","新北市新店區直潭七街60號","121.532261666667","24.9398133333333","6500600","新店區"
"231052","108-UY","2018/05/03 18:29:06","新北市新店區新烏路一段50-2號","121.545633333333","24.9491466666667","6500600","新店區"
"231052","187-VK","2018/05/03 18:28:59","新北市新店區安華路28-1號","121.51964","24.9611133333333","6500600","新店區"
"231054","KEA-2219","2018/05/03 18:29:07","新北市新店區安華路28-1號","121.519903333333","24.9612116666667","6500600","新店區"
"231057","256-BX","2018/05/03 18:28:46","新北市新店區安康路一段3-1號","121.535525","24.9609466666667","6500600","新店區"
"231051","278-BY","2018/05/03 18:29:02","新北市新店區安華路28-1號","121.519726666667","24.9612833333333","6500600","新店區"
"231050","AAD-862","2018/05/03 18:28:57","新北市新店區安華路15-2號","121.52037","24.9613716666667","6500600","新店區"
"231058","3713-VJ","2018/05/03 18:28:52","新北市新店區國校路10-1號","121.537778333333","24.9558083333333","6500600","新店區"
"231066","4716-K9","2018/05/03 18:28:59","新北市新店區安華路28-1號","121.519351666667","24.961165","6500600","新店區"
"231056","4715-K9","2018/05/03 18:29:02","新北市新店區二十張路105巷16號","121.536911666667","24.9790733333333","6500600","新店區"
"231067","4772-VM","2018/05/03 18:28:58","新北市新店區安華路28-1號","121.51919","24.9606283333333","6500600","新店區"
"231065","512-UM","2018/05/03 18:28:59","新北市新店區安華路28-1號","121.519343333333","24.9612483333333","6500600","新店區"
"231049","513-UM","2018/05/03 18:28:54","新北市新店區安華路28-1號","121.519716666667","24.961165","6500600","新店區"
"231042","515-UM","2018/05/03 18:28:59","新北市新店區安華路28-1號","121.519635","24.9609433333333","6500600","新店區"
"231063","616-UM","2018/05/03 18:28:50","新北市新店區安華路28-1號","121.519498333333","24.9605766666667","6500600","新店區"
"231041","618-UM","2018/05/03 18:27:46","新北市新店區安華路28-1號","121.520766666667","24.96045","6500600","新店區"
"231061","619-UM","2018/05/03 18:28:52","新北市新店區安華路28-1號","121.519581666667","24.9608283333333","6500600","新店區"
"231064","719-UM","2018/05/03 18:28:57","新北市新店區安華路28-1號","121.519825","24.9609366666667","6500600","新店區"
"231062","720-UM","2018/05/03 18:28:55","新北市新店區安華路28-1號","121.519308333333","24.9611716666667","6500600","新店區"
"231060","897-TW","2018/05/03 18:29:07","新北市新店區安華路28-1號","121.519521666667","24.9607266666667","6500600","新店區"
"231045","898-TW","2018/05/03 18:29:00","新北市新店區安華路28-1號","121.519353333333","24.9608716666667","6500600","新店區"
"231043","899-TW","2018/05/03 18:28:54","新北市新店區安華路28-1號","121.519225","24.9608733333333","6500600","新店區"
"231055","AKT-0513","2018/05/03 18:29:09","新北市新店區中正路154巷4號","121.54185","24.9719683333333","6500600","新店區"
"241033","557-UM","2018/05/03 18:29:06","新北市三重區中興北街42巷19號","121.468813333333","25.0493183333333","6500200","三重區"
"235064","005-UY","2018/05/03 18:28:51","新北市中和區安邦街83號","121.496926666667","24.99658","6500300","中和區"
"235063","006-UY","2018/05/03 18:29:07","新北市中和區連城路347巷16弄25號","121.487648333333","24.9949383333333","6500300","中和區"
"235056","096-UM","2018/05/03 18:29:02","新北市中和區員山路611巷1號","121.477888333333","25.0111983333333","6500300","中和區"
"235039","097-UM","2018/05/03 18:29:01","新北市中和區宜安路61號","121.511551666667","24.9969516666667","6500300","中和區"
"235065","098-UM","2018/05/03 18:28:46","新北市中和區莊敬路49巷10弄26號","121.502723333333","25.00546","6500300","中和區"
"235058","151-BY","2018/05/03 18:28:47","新北市中和區圓通路369巷55弄1號","121.490835","24.9841833333333","6500300","中和區"
"235055","183-VK","2018/05/03 18:28:52","新北市中和區莒光路222-7號","121.469181666667","24.9949133333333","6500300","中和區"
"235038","185-VK","2018/05/03 18:29:05","新北市中和區立人街14巷40弄5號","121.51903","24.9956933333333","6500300","中和區"
"235049","186-VK","2018/05/03 18:29:04","新北市中和區景安路179-3號","121.50512","24.9939416666667","6500300","中和區"
"235067","255-BX","2018/05/03 18:29:05","新北市中和區連城路469巷2號","121.483563333333","24.9956616666667","6500300","中和區"
"235072","301-VK","2018/05/03 18:28:57","新北市中和區連城路165號","121.495666666667","24.9984916666667","6500300","中和區"
"235043","352-BY","2018/05/03 18:29:09","新北市中和區景平路295號","121.507005","24.993205","6500300","中和區"
"235068","377-QA","2018/05/03 18:28:59","新北市中和區圓通路282號","121.491561666667","24.9906016666667","6500300","中和區"
"235061","378-QA","2018/05/03 18:28:58","新北市中和區民德路226號","121.468093333333","24.9976883333333","6500300","中和區"
"235050","4979-A6","2018/05/03 18:28:53","新北市中和區景新街362巷10號","121.511925","24.9901366666667","6500300","中和區"
"235069","4980-A6","2018/05/03 18:29:00","新北市中和區連城路127巷6弄2號","121.496441666667","24.9987133333333","6500300","中和區"
"235042","551-UM","2018/05/03 18:29:05","新北市中和區大勇街32號","121.517268333333","24.993195","6500300","中和區"
"235070","558-UM","2018/05/03 18:29:02","新北市中和區南華路15號","121.502433333333","24.995635","6500300","中和區"
"235045","565-BX","2018/05/03 18:28:51","新北市中和區南山路236巷22弄21號","121.50507","24.9892783333333","6500300","中和區"
"235054","640-BX","2018/05/03 18:28:55","新北市中和區民享街119巷1號","121.474551666667","24.9988016666667","6500300","中和區"
"235060","647-TV","2018/05/03 18:29:04","新北市中和區員山路325-5號","121.481098333333","25.0009333333333","6500300","中和區"
"235047","732-UM","2018/05/03 18:28:51","新北市中和區南山路300號","121.507926666667","24.987165","6500300","中和區"
"235046","733-UM","2018/05/03 18:28:53","新北市中和區板南路106號","121.503481666667","24.9924516666667","6500300","中和區"
"235062","800-TS","2018/05/03 18:29:05","新北市中和區景平路989巷4-3號","121.49557","25.0053883333333","6500300","中和區"
"235057","801-TS","2018/05/03 18:28:55","新北市中和區民享街97巷18號","121.475305","24.999905","6500300","中和區"
"235041","802-TS","2018/05/03 18:29:07","新北市中和區景安路34號","121.507155","24.99836","6500300","中和區"
"235052","805-TS","2018/05/03 18:28:59","新北市中和區興南路二段94號","121.5053","24.98427","6500300","中和區"
"235048","896-TW","2018/05/03 18:29:01","新北市中和區中正路83號","121.500616666667","24.99342","6500300","中和區"
"235053","900-TW","2018/05/03 18:28:55","新北市中和區員山路57-1號","121.480418333333","24.9934966666667","6500300","中和區"
"235066","911-UM","2018/05/03 18:28:58","新北市中和區中山路二段118號","121.502633333333","25.0039083333333","6500300","中和區"
"235051","157-BY","2018/05/03 18:28:55","新北市中和區興南路二段242巷11號","121.502686666667","24.9827533333333","6500300","中和區"
"235037","AAC-213","2018/05/03 18:29:00","新北市中和區景德街130號","121.514456666667","24.9910583333333","6500300","中和區"
"235059","AAC-215","2018/05/03 18:28:56","新北市中和區員山路36巷16-3號","121.484973333333","24.99127","6500300","中和區"
"220065","072-UY","2018/05/03 18:29:05","新北市板橋區南雅南路二段11-27號","121.453775","25.0017833333333","6500100","板橋區"
"228003","097-TW","2018/05/03 18:29:02","新北市貢寮區和美里和美街37號","121.912263333333","25.087945","6502600","貢寮區"
"228001","212-TW","2018/05/03 18:28:54","新北市貢寮區仁理村仁和路144號","121.923123333333","25.051615","6502600","貢寮區"
"228002","585-TW","2018/05/03 18:28:47","新北市貢寮區福連里福興街39-3號","121.992708333333","25.01217","6502600","貢寮區"
"224006","676-BX","2018/05/03 18:28:52","新北市瑞芳區逢甲路66號","121.810921666667","25.1082466666667","6501200","瑞芳區"
"224002","639-TC","2018/05/03 18:29:00","新北市瑞芳區正貿新村1號","121.812651666667","25.10632","6501200","瑞芳區"
"224008","285-BY","2018/05/03 18:28:57","新北市瑞芳區逢甲路39號","121.808551666667","25.1090616666667","6501200","瑞芳區"
"224007","275-VK","2018/05/03 18:28:53","新北市瑞芳區大埔路吉慶公園城17號","121.76509","25.0999883333333","6501200","瑞芳區"
"224009","273-VK","2018/05/03 18:28:54","新北市瑞芳區祈堂路239號","121.85632","25.1090783333333","6501200","瑞芳區"
"224005","271-BY","2018/05/03 18:28:51","新北市瑞芳區建基路一段74號","121.816148333333","25.1280533333333","6501200","瑞芳區"
"227010","642-TC","2018/05/03 18:29:01","新北市雙溪區牡丹里牡丹143號","121.851291666667","25.0589266666667","6502500","雙溪區"
"227004","400-TW","2018/05/03 18:28:59","新北市雙溪區魚行里坤溪35號","121.87032","25.0308366666667","6502500","雙溪區"
"253005","032-BX","2018/05/03 18:28:59","新北市石門區老崩山10-3號","121.552805","25.2910733333333","6502200","石門區"
"253006","295-VK","2018/05/03 18:29:06","新北市石門區公地20號","121.545786666667","25.2902066666667","6502200","石門區"
"222001","KEA-2212","2018/05/03 18:28:50","新北市深坑區北深路一段199號","121.630411666667","25.0090616666667","6501800","深坑區"
"208002","KEA-2872","2018/05/03 18:28:57","新北市金山區民生路61號","121.640875","25.2205966666667","6502700","金山區"
"208003","665-BX","2018/05/03 18:28:57","新北市金山區中山路116號","121.63932","25.2198683333333","6502700","金山區"
"208001","761-BX","2018/05/03 18:29:01","新北市金山區溫泉路21巷1號","121.637806666667","25.2228183333333","6502700","金山區"
"251004","010-UM","2018/05/03 18:29:00","新北市淡水區民族路31巷37號","121.462106666667","25.13658","6501000","淡水區"
"251001","011-UM","2018/05/03 18:28:53","新北市淡水區自強路335號","121.463661666667","25.13255","6501000","淡水區"
"251013","KEA-2871","2018/05/03 18:29:00","新北市淡水區椿子林20-2號","121.48118","25.2032083333333","6501000","淡水區"
"251014","180-VK","2018/05/03 18:29:07","新北市淡水區南平20號","121.494096666667","25.2170716666667","6501000","淡水區"
"251008","181-VK","2018/05/03 18:28:55","新北市淡水區北投子95-1號","121.466646666667","25.1770383333333","6501000","淡水區"
"251015","182-VK","2018/05/03 18:28:59","新北市淡水區興福寮88巷218號","121.486011666667","25.1664816666667","6501000","淡水區"
"251010","413-VK","2018/05/03 18:28:52","新北市淡水區沙崙路151巷26弄18號","121.422996666667","25.1843633333333","6501000","淡水區"
"251012","441-VK","2018/05/03 18:28:51","新北市淡水區北新路一段134號","121.458681666667","25.182265","6501000","淡水區"
"251005","443-VK","2018/05/03 18:29:04","新北市淡水區中正東路37號","121.446051666667","25.1682333333333","6501000","淡水區"
"251006","561-UM","2018/05/03 18:29:03","新北市淡水區新生街51巷32號","121.440803333333","25.17584","6501000","淡水區"
"251016","575-R6","2018/05/03 18:29:07","新北市淡水區下圭柔山115-11號","121.446395","25.2122383333333","6501000","淡水區"
"251011","650-BX","2018/05/03 18:29:04","新北市淡水區中正東路8-2號","121.44786","25.1667833333333","6501000","淡水區"
"251002","672-BX","2018/05/03 18:28:58","新北市淡水區中正東路一段21巷12號","121.45244","25.16412","6501000","淡水區"
"251003","673-BX","2018/05/03 18:29:07","新北市淡水區北新路169巷35-1號","121.449563333333","25.1802266666667","6501000","淡水區"
"207003","550-UM","2018/05/03 18:29:05","新北市萬里區野柳里港東路223號","121.688725","25.2037983333333","6502800","萬里區"
"207004","225-TW","2018/05/03 18:28:59","新北市萬里區萬里里瑪鋉路127-8號","121.688921666667","25.1777666666667","6502800","萬里區"
"252002","178-VK","2018/05/03 18:28:49","新北市三芝區中山路二段39號","121.502878333333","25.255135","6502100","三芝區"
"252003","249-BX","2018/05/03 18:28:51","新北市三芝區後厝里北勢子44-3號","121.471178333333","25.2519833333333","6502100","三芝區"
"252001","292-VK","2018/05/03 18:28:59","新北市三芝區中興街二段2號","121.49836","25.25665","6502100","三芝區"
"237007","153-BY","2018/05/03 18:28:13","新北市三峽區中正路三段70巷110號","121.355146666667","24.9056616666667","6500900","三峽區"
"237011","572-TV","2018/05/03 18:28:59","新北市三峽區溪東路413號","121.41243","24.9286483333333","6500900","三峽區"
"237009","210-TH","2018/05/03 18:29:03","新北市三峽區民族街182-2號","121.368095","24.9278683333333","6500900","三峽區"
"237013","252-BX","2018/05/03 18:28:49","新北市三峽區永安街9巷32號","121.376708333333","24.9300133333333","6500900","三峽區"
"237012","275-BY","2018/05/03 18:29:01","新北市三峽區三樹路168巷5號","121.378826666667","24.94073","6500900","三峽區"
"237008","302-VK","2018/05/03 18:29:00","新北市三峽區白雞68-223號","121.390685","24.9090066666667","6500900","三峽區"
"237014","433-BY","2018/05/03 18:29:00","新北市三峽區民生街119號","121.37371","24.9352566666667","6500900","三峽區"
"237006","5529-G3","2018/05/03 18:29:03","新北市三峽區溪東路371巷4弄22號","121.412688333333","24.9295433333333","6500900","三峽區"
"237010","706-TV","2018/05/03 18:29:06","新北市三峽區復興路449號","121.362618333333","24.9384866666667","6500900","三峽區"
"237005","AKY-6261","2018/05/03 18:28:54","新北市三峽區民族街5巷8號","121.369548333333","24.9313266666667","6500900","三峽區"
"236070","105-UM","2018/05/03 18:29:06","新北市土城區永豐路255巷23弄2號","121.475276666667","24.9732266666667","6501300","土城區"
"236042","107-UM","2018/05/03 18:29:04","新北市土城區裕民路61巷16號","121.449836666667","24.9886366666667","6501300","土城區"
"236078","166-UM","2018/05/03 18:29:05","新北市土城區大暖路10號","121.423495","24.9603233333333","6501300","土城區"
"236030","253-BX","2018/05/03 18:29:02","新北市土城區水源街81巷18號","121.439353333333","24.9758766666667","6501300","土城區"
"236026","269-VK","2018/05/03 18:28:50","新北市土城區南天母路18-4號","121.448418333333","24.9531633333333","6501300","土城區"
"236014","270-VK","2018/05/03 18:28:49","新北市土城區青雲路39巷7號","121.460256666667","24.9873333333333","6501300","土城區"
"236038","271-VK","2018/05/03 18:29:06","新北市土城區青雲路451巷2弄4號","121.458971666667","24.9745216666667","6501300","土城區"
"236021","401-BY","2018/05/03 18:28:55","新北市土城區永豐路202巷14號","121.466171666667","24.9834816666667","6501300","土城區"
"236059","912-UM","2018/05/03 18:28:53","新北市土城區中央路四段155-1號","121.415488333333","24.956935","6501300","土城區"
"236049","913-UM","2018/05/03 18:29:04","新北市土城區青雲路370號","121.458668333333","24.9736733333333","6501300","土城區"
"236063","915-UM","2018/05/03 18:29:02","新北市土城區延壽路77巷6弄12號","121.468401666667","24.993075","6501300","土城區"
"236055","AAC-216","2018/05/03 18:28:59","新北市土城區中華路二段67號","121.439448333333","24.97847","6501300","土城區"
"242058","986-R7","2018/05/03 18:28:48","新北市新莊區中正路895-1號","121.412338333333","25.0220483333333","6500500","新莊區"
"242053","751-BX","2018/05/03 18:29:01","新北市新莊區樹新路120巷47號","121.430048333333","24.9959733333333","6500500","新莊區"
"242061","705-TV","2018/05/03 18:28:59","新北市新莊區後港一路122號","121.429058333333","25.027145","6500500","新莊區"
"242025","613-BX","2018/05/03 18:28:57","新北市新莊區五工路69號","121.457988333333","25.0621733333333","6500500","新莊區"
"242042","566-BX","2018/05/03 18:28:48","新北市新莊區天祥街76號","121.41574","25.029325","6500500","新莊區"
"242046","497-BY","2018/05/03 18:29:00","新北市新莊區中正路803巷78號","121.421976666667","25.0274583333333","6500500","新莊區"
"242044","400-BY","2018/05/03 18:28:55","新北市新莊區中正路732號","121.413996666667","25.0233366666667","6500500","新莊區"
"242009","132-UY","2018/05/03 18:28:53","新北市新莊區中平路82巷32號","121.446153333333","25.0448633333333","6500500","新莊區"
"242048","172-VK","2018/05/03 18:28:49","新北市板橋區溪城路90-2號","121.428686666667","24.9795416666667","6500500","新莊區"
"242011","173-VK","2018/05/03 18:27:52","新北市新莊區中港路591巷36號","121.449226666667","25.0523683333333","6500500","新莊區"
"242021","347-TH","2018/05/03 18:28:56","新北市新莊區中正路271號","121.449335","25.0351116666667","6500500","新莊區"
"242013","351-TH","2018/05/03 18:28:56","新北市樹林區八德街395號","121.41539","24.9714083333333","6500500","新莊區"
"238015","755-BX","2018/05/03 18:29:00","新北市樹林區啟智街187巷2號","121.415168333333","24.9872233333333","6500700","樹林區"
"238023","601-UM","2018/05/03 18:28:51","新北市樹林區忠義街25號","121.409593333333","25.01499","6500700","樹林區"
"238019","599-UM","2018/05/03 18:28:52","新北市樹林區中華路190號","121.411911666667","24.980405","6500700","樹林區"
"238018","571-TV","2018/05/03 18:29:05","新北市樹林區樹新路50巷28號","121.429633333333","24.996905","6500700","樹林區"
"238024","5061-A6","2018/05/03 18:28:59","新北市樹林區中山路一段189號","121.42146","24.98785","6500700","樹林區"
"238025","303-VK","2018/05/03 18:28:59","新北市樹林區保安街一段179-10號","121.421205","24.9957683333333","6500700","樹林區"
"238017","283-BY","2018/05/03 18:29:04","新北市樹林區保安街二段335號","121.41241","25.0079383333333","6500700","樹林區"
"238020","268-VK","2018/05/03 18:28:56","新北市樹林區三龍街110號","121.415071666667","25.0185483333333","6500700","樹林區"
"238026","172-UY","2018/05/03 18:29:01","新北市樹林區佳園路一段75巷12-7號","121.39509","24.97035","6500700","樹林區"
"238016","169-UY","2018/05/03 18:28:55","新北市樹林區文化街23號","121.419345","24.98762","6500700","樹林區"
"239008","527-UM","2018/05/03 18:29:00","新北市鶯歌區國際一路14號","121.336186666667","24.97653","6500800","鶯歌區"
"239005","526-UM","2018/05/03 18:29:01","新北市鶯歌區鶯桃路668巷23號","121.328933333333","24.9702366666667","6500800","鶯歌區"
"239001","417-VK","2018/05/03 18:29:02","新北市鶯歌區國中街197號","121.33835","24.9390166666667","6500800","鶯歌區"
"239003","360-BY","2018/05/03 18:29:05","新北市鶯歌區福安街13巷1號","121.335585","24.9653516666667","6500800","鶯歌區"
"239002","359-BY","2018/05/03 18:28:51","新北市鶯歌區中正一路91號","121.352181666667","24.9549516666667","6500800","鶯歌區"
"239004","193-VK","2018/05/03 18:28:54","新北市鶯歌區尖山路174巷35弄38-5號","121.343681666667","24.9480666666667","6500800","鶯歌區"
"221008","489-VK","2018/05/03 18:29:06","新北市汐止區康寧街901號","121.651365","25.0749866666667","6501100","汐止區"
"221036","130-UY","2018/05/03 18:29:02","新北市汐止區大同路三段113號","121.668615","25.0775433333333","6501100","汐止區"
"221015","131-UY","2018/05/03 18:29:01","新北市汐止區鄉長路二段22號","121.668311666667","25.0824616666667","6501100","汐止區"
"221010","269-BY","2018/05/03 18:28:54","新北市汐止區汐萬路三段56號","121.643826666667","25.0928683333333","6501100","汐止區"
"221012","278-VK","2018/05/03 18:28:54","新北市汐止區保長路27巷13號","121.672911666667","25.0803566666667","6501100","汐止區"
"221023","279-VK","2018/05/03 18:29:10","新北市汐止區康寧街474巷4號","121.632043333333","25.0678966666667","6501100","汐止區"
"221032","280-BY","2018/05/03 18:29:01","新北市汐止區民權街二段109巷23號","121.620123333333","25.0460583333333","6501100","汐止區"
"221027","281-BY","2018/05/03 18:28:56","新北市汐止區和平街40-1號","121.66262","25.0710183333333","6501100","汐止區"
"221029","298-VK","2018/05/03 18:13:33","新北市汐止區樟樹二路293巷17號","121.640856666667","25.0704033333333","6501100","汐止區"
"221021","299-VK","2018/05/03 18:28:58","新北市汐止區新台五路一段161號","121.654243333333","25.0625633333333","6501100","汐止區"
"221031","353-TW","2018/05/03 18:28:49","新北市汐止區光復街7巷34號","121.641331666667","25.0602116666667","6501100","汐止區"
"221035","622-UM","2018/05/03 18:28:55","新北市汐止區大同路二段167號","121.651021666667","25.0649083333333","6501100","汐止區"
"221025","623-UM","2018/05/03 18:29:00","新北市汐止區仁愛路119巷1號","121.66252","25.0635966666667","6501100","汐止區"
"221038","646-BX","2018/05/03 18:28:52","新北市汐止區忠孝東路245號","121.662915","25.0674733333333","6501100","汐止區"
"221033","647-BX","2018/05/03 18:29:08","新北市汐止區宜興街53號","121.622471666667","25.0428366666667","6501100","汐止區"
"221002","707-TV","2018/05/03 18:29:07","新北市汐止區福德一路145號","121.636678333333","25.0668116666667","6501100","汐止區"
"221018","753-BX","2018/05/03 18:28:47","新北市汐止區茄苳路210號","121.670663333333","25.068855","6501100","汐止區"
"242002","KEA-2550","2018/05/03 18:29:06","新北市新莊區瓊林路38-12號","121.447745","25.02983","6500500","新莊區"
"220082","610-BX","2018/05/03 18:29:03","新北市樹林區樹新路106巷1號","121.43008","24.997725","6500100","板橋區"
"220094","283-UM","2018/05/03 18:29:06","新北市板橋區民生路二段188號","121.470308333333","25.0202033333333","6500100","板橋區"
"220083","286-VK","2018/05/03 18:29:01","新北市板橋區華東街1-10號","121.448315","24.9950983333333","6500100","板橋區"
"220084","296-UM","2018/05/03 18:28:48","新北市板橋區華東街1-9號","121.448098333333","24.9949383333333","6500100","板橋區"
"220062","305-R5","2018/05/03 18:29:03","新北市板橋區民生路二段120號","121.470435","25.0194983333333","6500100","板橋區"
"220064","486-VK","2018/05/03 18:28:51","新北市板橋區華東街1-10號","121.448413333333","24.9948833333333","6500100","板橋區"
"242056","280-VK","2018/05/03 18:29:09","新北市新莊區瓊林路59-13號","121.4422","25.0251116666667","6500500","新莊區"
"220035","560-BX","2018/05/03 18:28:56","新北市板橋區南雅南路二段1-1號","121.454793333333","25.0039233333333","6500100","板橋區"
"220077","687-BX","2018/05/03 18:28:52","新北市板橋區華東街1-10號","121.44833","24.994925","6500100","板橋區"
