"lineid","car","time","location","longitude","latitude","cityid","cityname"
"234046","148-BY","2018/05/03 19:08:54","新北市永和區永元路18巷38弄1號","121.524053333333","25.00023","6500400","永和區"
"234050","149-BY","2018/05/03 19:08:48","新北市永和區文化路135巷32弄1號","121.510915","25.0140333333333","6500400","永和區"
"234007","207-UY","2018/05/03 19:08:47","新北市永和區中山路一段215-1號","121.508411666667","25.0081133333333","6500400","永和區"
"234081","298-R6","2018/05/03 19:08:56","新北市永和區永亨路66號","121.520785","25.0060283333333","6500400","永和區"
"234038","336-UY","2018/05/03 19:08:59","新北市永和區民樂街73巷1號","121.527383333333","24.997295","6500400","永和區"
"234064","337-UY","2018/05/03 19:08:59","新北市永和區秀朗路二段33號","121.521323333333","25.0023916666667","6500400","永和區"
"234086","338-UY","2018/05/03 19:08:44","新北市永和區永貞路90號","121.519565","25.0046683333333","6500400","永和區"
"234070","552-UM","2018/05/03 19:08:52","新北市永和區豫溪街137巷1弄24號","121.51842","25.0103966666667","6500400","永和區"
"234017","745-BX","2018/05/03 19:08:41","新北市永和區文化路90巷9弄2號","121.513756666667","25.0158116666667","6500400","永和區"
"234030","746-BX","2018/05/03 19:08:58","新北市永和區民生路21號","121.52284","24.9988683333333","6500400","永和區"
"234054","KEA-2590","2018/05/03 19:08:53","新北市永和區中興街133巷8號","121.518703333333","25.0127","6500400","永和區"
"234013","KEA-2591","2018/05/03 19:08:58","新北市永和區中山路一段4號","121.51425","25.0103433333333","6500400","永和區"
"234061","AAD-866","2018/05/03 19:08:58","新北市永和區安樂路336號","121.514443333333","25.0059133333333","6500400","永和區"
"234042","862-TW","2018/05/03 19:08:53","新北市永和區永貞路303號","121.51074","25.00588","6500400","永和區"
"234026","9371-KE","2018/05/03 19:08:53","新北市永和區安樂路272巷9弄7號","121.51502","25.00455","6500400","永和區"
"234011","9373-KE","2018/05/03 19:08:50","新北市永和區仁愛路141巷30弄2號","121.511663333333","25.0116866666667","6500400","永和區"
"249005","172-UM","2018/05/03 19:08:44","新北市八里區中華路三段62號","121.394201666667","25.1403866666667","6502300","八里區"
"249001","173-UM","2018/05/03 19:08:46","新北市八里區龍米路二段228-2號","121.43251","25.158465","6502300","八里區"
"248016","026-BX","2018/05/03 19:08:48","新北市五股區成泰路三段543巷30號","121.450688333333","25.102655","6501500","五股區"
"248008","095-VK","2018/05/03 19:08:46","新北市五股區中興路一段169號","121.464615","25.0737733333333","6501500","五股區"
"248020","225-UY","2018/05/03 19:00:21","新北市五股區凌雲路三段57號","121.425283333333","25.1250066666667","6501500","五股區"
"248012","247-BX","2018/05/03 19:08:43","新北市五股區中興路四段48巷16號","121.438678333333","25.0834766666667","6501500","五股區"
"248004","677-BX","2018/05/03 19:08:44","新北市五股區民義路一段181號","121.432458333333","25.0881216666667","6501500","五股區"
"248002","678-BX","2018/05/03 19:08:56","新北市五股區凌雲路一段158巷14-1號","121.44798","25.1035683333333","6501500","五股區"
"248010","682-TV","2018/05/03 19:08:55","新北市五股區水碓一路23號","121.430618333333","25.0713483333333","6501500","五股區"
"234023","9380-KE","2018/05/03 19:08:41","新北市永和區中興街29巷20號","121.51639","25.0123116666667","6500400","永和區"
"234077","969-R7","2018/05/03 19:08:44","新北市永和區得和路168號","121.519515","25.0001","6500400","永和區"
"234074","AAC-211","2018/05/03 19:08:57","新北市永和區福和路28號","121.523873333333","25.008415","6500400","永和區"
"234067","AAC-212","2018/05/03 19:08:42","新北市永和區保平路23號","121.512611666667","25.0073983333333","6500400","永和區"
"234003","AAC-295","2018/05/03 19:08:57","新北市永和區保福路一段92號","121.512118333333","25.0103833333333","6500400","永和區"
"244013","069-UM","2018/05/03 19:08:54","新北市林口區麗園二街1巷9-3號","121.378968333333","25.0705266666667","6501700","林口區"
"244019","742-UY","2018/05/03 19:08:41","新北市林口區麗園二街23巷88號","121.380635","25.070185","6501700","林口區"
"244023","483-VK","2018/05/03 19:08:52","新北市林口區文化三路一段555巷88-1號","121.368526666667","25.0764483333333","6501700","林口區"
"244017","485-VK","2018/05/03 19:08:42","新北市林口區民族路185號","121.367963333333","25.076935","6501700","林口區"
"244011","657-BX","2018/05/03 19:08:58","新北市林口區竹林路65號","121.387716666667","25.0785866666667","6501700","林口區"
"243013","AAD-798","2018/05/03 19:08:51","新北市泰山區漢口街7號","121.423445","25.036585","6501600","泰山區"
"243009","297-R6","2018/05/03 19:08:58","新北市泰山區明志路一段122巷23號","121.432803333333","25.0636433333333","6501600","泰山區"
"243016","380-SR","2018/05/03 19:08:50","新北市泰山區明志路二段373號","121.425208333333","25.0440666666667","6501600","泰山區"
"243015","421-VK","2018/05/03 19:08:45","新北市泰山區明志路一段418號","121.430701666667","25.0566133333333","6501600","泰山區"
"243011","KEA-2215","2018/05/03 19:08:39","新北市泰山區明志路二段329號","121.425723333333","25.0449116666667","6501600","泰山區"
"243010","KEA-2216","2018/05/03 19:08:56","新北市泰山區明志路一段440號","121.430708333333","25.05622","6501600","泰山區"
"243012","646-TV","2018/05/03 19:08:58","新北市泰山區吳厝窠1號","121.427931666667","25.0585283333333","6501600","泰山區"
"243014","680-BX","2018/05/03 19:08:59","新北市泰山區泰林路二段363號","121.428021666667","25.0639933333333","6501600","泰山區"
"222003","436-BY","2018/05/03 19:08:47","新北市深坑區深南路91號","121.626596666667","25.0159516666667","6501800","深坑區"
"222002","659-BX","2018/05/03 19:08:56","新北市深坑區北深路一段225號","121.628768333333","25.0082416666667","6501800","深坑區"
"231059","046-UY","2018/05/03 19:08:42","新北市新店區安和路一段43號","121.517235","24.9654983333333","6500600","新店區"
"231040","047-UY","2018/05/03 19:08:45","新北市新店區三民路155號","121.533896666667","24.9734983333333","6500600","新店區"
"231044","106-UY","2018/05/03 19:08:48","新北市新店區中興路三段160號","121.544275","24.9807716666667","6500600","新店區"
"231046","107-UY","2018/05/03 19:08:50","新北市新店區華潭街1巷49號","121.526221666667","24.9467666666667","6500600","新店區"
"231052","108-UY","2018/05/03 19:08:46","新北市新店區自強路106巷5號","121.545603333333","24.9229566666667","6500600","新店區"
"231047","187-VK","2018/05/03 19:08:59","新北市新店區德正街27巷29弄76號","121.545846666667","24.9732733333333","6500600","新店區"
"231054","KEA-2219","2018/05/03 19:08:47","新北市新店區新店路140號","121.537173333333","24.9552666666667","6500600","新店區"
"231051","278-BY","2018/05/03 19:08:42","新北市新店區中正路382巷36號","121.535655","24.978255","6500600","新店區"
"231050","AAD-862","2018/05/03 19:08:57","新北市新店區竹林路2巷31號","121.550381666667","24.9502033333333","6500600","新店區"
"231058","3713-VJ","2018/05/03 19:08:52","","121.539001666667","24.9609","6500600","新店區"
"231066","4716-K9","2018/05/03 19:08:40","新北市新店區安康路三段355巷12號","121.484583333333","24.9501316666667","6500600","新店區"
"231056","4715-K9","2018/05/03 19:08:42","新北市新店區二十張路46巷20號","121.536858333333","24.9819533333333","6500600","新店區"
"231067","4772-VM","2018/05/03 19:08:58","新北市新店區安康路一段195巷5號","121.52631","24.96246","6500600","新店區"
"231065","512-UM","2018/05/03 19:08:59","新北市新店區安祥路109巷6弄55號","121.475655","24.9570066666667","6500600","新店區"
"231049","513-UM","2018/05/03 19:08:54","新北市新店區二十張路25巷18弄2號","121.539191666667","24.981765","6500600","新店區"
"231042","515-UM","2018/05/03 19:08:59","新北市新店區中興路一段167號","121.542715","24.964395","6500600","新店區"
"231063","616-UM","2018/05/03 19:08:30","新北市新店區車子路110號","121.505241666667","24.9520483333333","6500600","新店區"
"231041","618-UM","2018/05/03 19:08:46","新北市新店區溪園路403號","121.524013333333","24.978085","6500600","新店區"
"231061","619-UM","2018/05/03 19:08:52","新北市新店區安康路一段351-1號","121.519616666667","24.96388","6500600","新店區"
"231064","719-UM","2018/05/03 19:08:57","新北市新店區安忠路56巷6號","121.512978333333","24.9594616666667","6500600","新店區"
"231062","720-UM","2018/05/03 19:08:55","新北市新店區安平路53號","121.519671666667","24.9683916666667","6500600","新店區"
"231060","897-TW","2018/05/03 19:08:47","新北市新店區安康路二段282號","121.508233333333","24.9586516666667","6500600","新店區"
"231045","898-TW","2018/05/03 19:08:39","新北市新店區北宜路一段140巷15號","121.54003","24.9542816666667","6500600","新店區"
"231043","899-TW","2018/05/03 19:08:54","新北市新店區寶橋路98號","121.546945","24.9758616666667","6500600","新店區"
"231055","AKT-0513","2018/05/03 19:08:49","新北市新店區安德街60巷26號","121.511346666667","24.96414","6500600","新店區"
"241026","066-VK","2018/05/03 19:08:40","新北市三重區泉州街110號","121.494778333333","25.0536683333333","6500200","三重區"
"241035","KEA-2210","2018/05/03 19:08:58","新北市三重區新北大道一段6號","121.488913333333","25.06143","6500200","三重區"
"241029","942-UM","2018/05/03 19:08:41","新北市三重區重安街75巷20號","121.491611666667","25.0556433333333","6500200","三重區"
"235064","005-UY","2018/05/03 19:08:51","新北市中和區泰和街38巷10號","121.498976666667","25.0006033333333","6500300","中和區"
"235063","006-UY","2018/05/03 19:08:47","新北市中和區中正路612號","121.48546","24.9955916666667","6500300","中和區"
"235056","096-UM","2018/05/03 19:08:42","新北市板橋區三民路二段228號","121.478776666667","25.0114033333333","6500300","中和區"
"235039","097-UM","2018/05/03 19:08:41","新北市永和區民有街10巷1號","121.516051666667","24.9970516666667","6500300","中和區"
"235065","098-UM","2018/05/03 19:08:46","新北市中和區中山路二段136巷40號","121.501203333333","25.0044283333333","6500300","中和區"
"235040","150-BY","2018/05/03 19:08:51","新北市中和區宜安路1巷16號","121.512758333333","24.994885","6500300","中和區"
"235058","151-BY","2018/05/03 19:08:47","新北市中和區員山路143巷14-3號","121.48038","24.9961216666667","6500300","中和區"
"235055","183-VK","2018/05/03 19:08:52","新北市中和區德光路17號","121.471055","25.0043483333333","6500300","中和區"
"235038","185-VK","2018/05/03 19:08:45","新北市中和區大仁街10巷27弄3號","121.51918","24.9927266666667","6500300","中和區"
"235049","186-VK","2018/05/03 19:08:44","新北市中和區明禮街13號","121.50493","24.99576","6500300","中和區"
"235067","255-BX","2018/05/03 19:08:45","新北市中和區新生街176巷19號","121.482623333333","24.9998933333333","6500300","中和區"
"235044","293-VK","2018/05/03 19:08:57","新北市中和區復興路346號","121.500148333333","24.9903333333333","6500300","中和區"
"235072","301-VK","2018/05/03 19:08:56","新北市中和區連城路90號","121.496865","25.0005366666667","6500300","中和區"
"235043","352-BY","2018/05/03 19:08:52","新北市中和區景平路51號","121.52174","24.9907116666667","6500300","中和區"
"235068","377-QA","2018/05/03 19:08:59","新北市中和區圓通路170號","121.497451666667","24.9947783333333","6500300","中和區"
"235061","378-QA","2018/05/03 19:08:58","新北市中和區民治街130巷9號","121.474843333333","25.0025716666667","6500300","中和區"
"235050","4979-A6","2018/05/03 19:08:54","新北市中和區復興路263巷9弄11號","121.503278333333","24.98988","6500300","中和區"
"235069","4980-A6","2018/05/03 19:09:00","新北市中和區中和路217巷20號","121.504715","25.000475","6500300","中和區"
"235042","551-UM","2018/05/03 19:08:45","新北市中和區秀朗路三段70巷55號","121.524798333333","24.994295","6500300","中和區"
"235070","558-UM","2018/05/03 19:08:42","新北市中和區中和路50號","121.500528333333","25.0009416666667","6500300","中和區"
"235045","565-BX","2018/05/03 19:08:51","新北市中和區景新街467巷35弄13號","121.514126666667","24.9888983333333","6500300","中和區"
"235054","640-BX","2018/05/03 19:08:55","新北市中和區國光街8巷2號","121.471793333333","25.00021","6500300","中和區"
"235060","647-TV","2018/05/03 19:08:50","新北市中和區民治街154號","121.475403333333","25.001565","6500300","中和區"
"235047","732-UM","2018/05/03 19:08:50","新北市中和區興南路一段115號","121.509115","24.9878683333333","6500300","中和區"
"235046","733-UM","2018/05/03 19:08:53","新北市中和區忠孝街1巷68號","121.508363333333","24.9845616666667","6500300","中和區"
"235071","783-BX","2018/05/03 19:08:56","新北市中和區連城路469巷50號","121.483511666667","24.9944416666667","6500300","中和區"
"235057","801-TS","2018/05/03 19:08:54","新北市中和區民利街68巷5弄38號","121.477355","24.9987433333333","6500300","中和區"
"235041","802-TS","2018/05/03 19:08:47","新北市永和區中和路321號","121.507091666667","24.9996816666667","6500300","中和區"
"235052","805-TS","2018/05/03 19:08:39","新北市中和區興南路二段142巷19弄19-1號","121.502476666667","24.9833","6500300","中和區"
"235048","896-TW","2018/05/03 19:08:41","新北市中和區華新街194號","121.506851666667","24.9820916666667","6500300","中和區"
"235053","900-TW","2018/05/03 19:08:55","新北市中和區和平路226-3號","121.464128333333","24.996325","6500300","中和區"
"235066","911-UM","2018/05/03 19:08:58","新北市中和區廣福路2號","121.505983333333","25.0034416666667","6500300","中和區"
"235051","157-BY","2018/05/03 19:08:46","新北市中和區忠孝街31巷56號","121.509673333333","24.9856033333333","6500300","中和區"
"235037","AAC-213","2018/05/03 19:09:00","新北市中和區秀朗路三段58-3號","121.52571","24.995095","6500300","中和區"
"235059","AAC-215","2018/05/03 19:08:56","新北市中和區圓通路294巷17-5號","121.488578333333","24.9903833333333","6500300","中和區"
"220068","013-TV","2018/05/03 19:08:42","新北市板橋區中山路二段443巷2號","121.48104","25.02052","6500100","板橋區"
"220065","072-UY","2018/05/03 19:08:45","新北市板橋區民族路219巷9號","121.469235","25.0079533333333","6500100","板橋區"
"220086","073-UY","2018/05/03 19:08:54","新北市板橋區大智街69號","121.453696666667","25.015555","6500100","板橋區"
"220106","075-UY","2018/05/03 19:08:40","新北市板橋區文化路二段294號","121.47178","25.0293633333333","6500100","板橋區"
"220069","AAD-861","2018/05/03 19:08:41","新北市板橋區華興街1號","121.459393333333","25.00465","6500100","板橋區"
"226004","312-R5","2018/05/03 19:07:38","新北市平溪區靜安路三段52巷6號","121.764221666667","25.0332466666667","6502400","平溪區"
"228003","097-TW","2018/05/03 19:08:42","新北市貢寮區和美里和美街40-1號","121.912641666667","25.090245","6502600","貢寮區"
"228001","212-TW","2018/05/03 19:08:54","新北市貢寮區真理里新港街10號","121.925513333333","25.0543583333333","6502600","貢寮區"
"228002","585-TW","2018/05/03 19:08:47","新北市貢寮區福隆里福隆街36號","121.945148333333","25.01744","6502600","貢寮區"
"224010","AGQ-8101","2018/05/03 19:04:28","新北市瑞芳區輕便路216-1號","121.844955","25.109545","6501200","瑞芳區"
"224006","676-BX","2018/05/03 19:08:52","新北市瑞芳區三爪子坑路118-1號","121.806438333333","25.1053116666667","6501200","瑞芳區"
"224008","285-BY","2018/05/03 19:08:57","新北市瑞芳區瑞芳街104號","121.801671666667","25.1105866666667","6501200","瑞芳區"
"224007","275-VK","2018/05/03 19:08:52","新北市瑞芳區瑞竹路46號","121.763453333333","25.1033433333333","6501200","瑞芳區"
"224009","273-VK","2018/05/03 19:08:54","新北市瑞芳區洞頂路148號","121.85947","25.1182433333333","6501200","瑞芳區"
"224005","271-BY","2018/05/03 19:08:51","新北市瑞芳區三爪子坑路75號","121.81242","25.1073183333333","6501200","瑞芳區"
"227010","642-TC","2018/05/03 19:09:01","新北市雙溪區牡丹里中正路29號","121.864505","25.0379966666667","6502500","雙溪區"
"227004","400-TW","2018/05/03 19:08:47","新北市雙溪區平林里外平林9-5號","121.85915","25.038015","6502500","雙溪區"
"253005","032-BX","2018/05/03 19:08:59","新北市石門區阿里荖42號","121.605321666667","25.28028","6502200","石門區"
"253006","295-VK","2018/05/03 19:08:46","新北市石門區崁子腳58-19號","121.531395","25.2874266666667","6502200","石門區"
"222001","KEA-2212","2018/05/03 19:08:50","新北市深坑區北深路一段300號","121.624155","25.00563","6501800","深坑區"
"208002","KEA-2872","2018/05/03 19:08:57","新北市金山區中華路112巷13號","121.633963333333","25.220835","6502700","金山區"
"208003","665-BX","2018/05/03 19:08:57","新北市金山區中正路135號","121.632411666667","25.2215333333333","6502700","金山區"
"208001","761-BX","2018/05/03 19:08:41","新北市金山區金包里街64號","121.63921","25.2215766666667","6502700","金山區"
"251009","008-UM","2018/05/03 19:08:56","新北市淡水區清水街113號","121.440506666667","25.170875","6501000","淡水區"
"251001","011-UM","2018/05/03 19:08:53","新北市淡水區自強路25號","121.464185","25.1255783333333","6501000","淡水區"
"251013","KEA-2871","2018/05/03 19:08:40","新北市淡水區安子內12號","121.481573333333","25.2190716666667","6501000","淡水區"
"251014","180-VK","2018/05/03 19:08:55","新北市淡水區北勢子9號","121.482956666667","25.2282783333333","6501000","淡水區"
"251015","182-VK","2018/05/03 19:08:39","新北市淡水區南勢埔21-1號","121.483018333333","25.1788133333333","6501000","淡水區"
"251010","413-VK","2018/05/03 19:08:52","新北市淡水區中正路一段156巷8號","121.42139","25.1803033333333","6501000","淡水區"
"251007","442-VK","2018/05/03 19:09:00","新北市淡水區民生路135巷30號","121.466593333333","25.13905","6501000","淡水區"
"251006","561-UM","2018/05/03 19:08:43","新北市淡水區中山北路三段16巷30號","121.443721666667","25.1896183333333","6501000","淡水區"
"251016","575-R6","2018/05/03 19:08:55","新北市淡水區淡金路三段70巷1號","121.448278333333","25.2003833333333","6501000","淡水區"
"251002","672-BX","2018/05/03 19:08:58","新北市淡水區中山路87巷4號","121.44248","25.17036","6501000","淡水區"
"251003","673-BX","2018/05/03 19:08:55","新北市淡水區中山北路一段129號","121.442768333333","25.1768883333333","6501000","淡水區"
"207003","550-UM","2018/05/03 19:08:45","新北市萬里區大鵬里萬里加投25-1號","121.648373333333","25.20664","6502800","萬里區"
"207004","225-TW","2018/05/03 19:08:39","新北市萬里區萬里里瑪鋉下街50號","121.691598333333","25.1794916666667","6502800","萬里區"
"252002","178-VK","2018/05/03 19:08:48","新北市三芝區中正路一段89號","121.504441666667","25.2565966666667","6502100","三芝區"
"252003","249-BX","2018/05/03 19:08:51","新北市三芝區錫板里海尾14-15號","121.477348333333","25.2585483333333","6502100","三芝區"
"252001","292-VK","2018/05/03 19:08:59","新北市三芝區長勤街82號","121.500278333333","25.2550533333333","6502100","三芝區"
"237007","153-BY","2018/05/03 19:08:53","新北市三峽區中正路二段205號","121.365946666667","24.9133483333333","6500900","三峽區"
"237011","572-TV","2018/05/03 19:08:39","新北市三峽區介壽路一段383-1號","121.387635","24.9338483333333","6500900","三峽區"
"237013","252-BX","2018/05/03 19:08:49","新北市三峽區光明路69巷31號","121.376943333333","24.929215","6500900","三峽區"
"237012","275-BY","2018/05/03 19:08:40","新北市三峽區三樹路222巷254弄68-12號","121.395403333333","24.94434","6500900","三峽區"
"237008","302-VK","2018/05/03 19:09:00","新北市三峽區中正路一段187號","121.372563333333","24.9279283333333","6500900","三峽區"
"237014","433-BY","2018/05/03 19:09:00","新北市三峽區隆恩街232號","121.357858333333","24.9411633333333","6500900","三峽區"
"237006","5529-G3","2018/05/03 19:08:42","新北市三峽區溪北街109號","121.398303333333","24.9354633333333","6500900","三峽區"
"237010","706-TV","2018/05/03 19:08:46","新北市三峽區復興路45號","121.373518333333","24.9369283333333","6500900","三峽區"
"237005","AKY-6261","2018/05/03 19:08:54","新北市三峽區中山路459巷163-3號","121.348811666667","24.9327166666667","6500900","三峽區"
"236070","105-UM","2018/05/03 19:09:01","新北市土城區裕生路84巷13號","121.446485","24.9856166666667","6501300","土城區"
"236078","166-UM","2018/05/03 19:08:45","新北市土城區龍泉路43號","121.416805","24.94332","6501300","土城區"
"236026","269-VK","2018/05/03 19:08:50","新北市土城區中正路58號","121.443995","24.9753933333333","6501300","土城區"
"236014","270-VK","2018/05/03 19:08:49","新北市土城區學府路一段92號","121.45631","24.9880083333333","6501300","土城區"
"236038","271-VK","2018/05/03 19:08:45","新北市土城區清水路98巷3弄1號","121.45748","24.9813216666667","6501300","土城區"
"236021","401-BY","2018/05/03 19:08:55","新北市土城區延吉街146號","121.469115","24.9855733333333","6501300","土城區"
"236059","912-UM","2018/05/03 19:08:51","新北市土城區清水路3號","121.452891666667","24.9803783333333","6501300","土城區"
"236049","913-UM","2018/05/03 19:08:44","新北市土城區明德路一段398-1號","121.453665","24.9790566666667","6501300","土城區"
"236055","AAC-216","2018/05/03 19:08:59","新北市土城區學府路一段205號","121.451798333333","24.9846216666667","6501300","土城區"
"238015","755-BX","2018/05/03 19:08:58","新北市樹林區備內街158巷15號","121.407681666667","24.9900433333333","6500700","樹林區"
"238023","601-UM","2018/05/03 19:08:51","新北市樹林區大慶街88號","121.396036666667","25.0139366666667","6500700","樹林區"
"238019","599-UM","2018/05/03 19:08:52","新北市樹林區東榮街89號","121.416591666667","24.982935","6500700","樹林區"
"238018","571-TV","2018/05/03 19:08:45","新北市樹林區太平路48號","121.418998333333","24.9825383333333","6500700","樹林區"
"238024","5061-A6","2018/05/03 19:08:59","新北市樹林區中山路二段249巷30號","121.403476666667","24.975505","6500700","樹林區"
"238022","KEA-2213","2018/05/03 19:08:45","新北市樹林區中山路二段151巷8弄41號","121.405863333333","24.9774216666667","6500700","樹林區"
"238021","KEA-2539","2018/05/03 19:08:40","新北市樹林區柑園街二段426號","121.364998333333","24.9474766666667","6500700","樹林區"
"238025","303-VK","2018/05/03 19:08:59","新北市樹林區中山路三段337號","121.390658333333","24.9711733333333","6500700","樹林區"
"238017","283-BY","2018/05/03 19:08:44","新北市樹林區中山路三段109號","121.399673333333","24.9745783333333","6500700","樹林區"
"238014","282-BY","2018/05/03 19:09:01","新北市樹林區中正路22-1號","121.427815","24.9993983333333","6500700","樹林區"
"238020","268-VK","2018/05/03 19:08:56","新北市樹林區俊英街133巷1弄4號","121.423906666667","25.01134","6500700","樹林區"
"238026","172-UY","2018/05/03 19:08:41","新北市樹林區德和街7號","121.391506666667","24.975355","6500700","樹林區"
"238016","169-UY","2018/05/03 19:08:55","新北市樹林區中山路一段306巷51弄12號","121.41804","24.9860716666667","6500700","樹林區"
"239007","AAC-297","2018/05/03 18:45:26","新北市鶯歌區中正一路阿四巷3-5號","121.368998333333","24.9575833333333","6500800","鶯歌區"
"239006","891-R6","2018/05/03 19:08:46","新北市鶯歌區鶯桃路296巷61號","121.336336666667","24.9613333333333","6500800","鶯歌區"
"239008","527-UM","2018/05/03 19:08:41","新北市鶯歌區國際二路8巷2號","121.338165","24.9737533333333","6500800","鶯歌區"
"239005","526-UM","2018/05/03 19:08:41","新北市鶯歌區大湖路361巷50號","121.330856666667","24.9774933333333","6500800","鶯歌區"
"239001","417-VK","2018/05/03 19:08:42","新北市鶯歌區永安街59號","121.338496666667","24.9559216666667","6500800","鶯歌區"
"239003","360-BY","2018/05/03 19:08:45","新北市鶯歌區鶯桃路377號","121.333723333333","24.9631566666667","6500800","鶯歌區"
"239004","193-VK","2018/05/03 19:08:54","新北市鶯歌區中正三路302巷15號","121.32796","24.9361083333333","6500800","鶯歌區"
"221008","489-VK","2018/05/03 19:08:46","新北市汐止區康寧街504號","121.632993333333","25.0684716666667","6501100","汐止區"
"221036","130-UY","2018/05/03 19:08:43","新北市汐止區汐萬路一段244-1號","121.651503333333","25.07316","6501100","汐止區"
"221015","131-UY","2018/05/03 19:08:49","新北市汐止區水源路一段2號","121.65699","25.0671983333333","6501100","汐止區"
"221010","269-BY","2018/05/03 19:08:54","新北市汐止區康寧街901號","121.651245","25.0749666666667","6501100","汐止區"
"221012","278-VK","2018/05/03 19:08:54","新北市汐止區康寧街901號","121.6508","25.0752266666667","6501100","汐止區"
"221023","279-VK","2018/05/03 19:08:49","新北市汐止區康寧街901號","121.650888333333","25.0751516666667","6501100","汐止區"
"221032","280-BY","2018/05/03 19:09:01","新北市汐止區橫科路407巷25弄17-1號","121.626306666667","25.0488816666667","6501100","汐止區"
"221027","281-BY","2018/05/03 19:08:56","新北市汐止區康寧街901號","121.651446666667","25.0749483333333","6501100","汐止區"
"221029","298-VK","2018/05/03 19:08:53","新北市汐止區汐萬路一段256巷3號","121.652531666667","25.074665","6501100","汐止區"
"221031","353-TW","2018/05/03 19:08:49","新北市汐止區福德三路67號","121.636821666667","25.0693583333333","6501100","汐止區"
"221025","623-UM","2018/05/03 19:08:40","新北市汐止區康寧街901號","121.651551666667","25.07498","6501100","汐止區"
"221038","646-BX","2018/05/03 19:08:52","新北市汐止區汐萬路一段312號","121.65068","25.0753016666667","6501100","汐止區"
"221002","707-TV","2018/05/03 19:08:47","新北市汐止區大同路一段46號","121.622258333333","25.054925","6501100","汐止區"
"220079","145-BY","2018/05/03 19:09:01","新北市板橋區民權路260巷42號","121.459481666667","25.0151716666667","6500100","板橋區"
"220080","200-UY","2018/05/03 19:03:23","","121.408765","24.77512","6500100","板橋區"
"220082","610-BX","2018/05/03 19:08:56","新北市板橋區溪北路54號","121.427543333333","24.989865","6500100","板橋區"
"220101","245-BX","2018/05/03 19:08:57","新北市板橋區莊敬路217號","121.471893333333","25.0220533333333","6500100","板橋區"
"220056","276-BY","2018/05/03 19:08:42","新北市板橋區信義路74巷3弄1號","121.457068333333","24.9930166666667","6500100","板橋區"
"220072","277-BY","2018/05/03 19:08:49","新北市板橋區金門街224號","121.431021666667","24.9876216666667","6500100","板橋區"
"220094","283-UM","2018/05/03 19:08:46","新北市板橋區光武街127巷2號","121.46588","25.0288016666667","6500100","板橋區"
"220071","283-VK","2018/05/03 19:08:53","新北市板橋區重慶路269巷26號","121.465033333333","24.998735","6500100","板橋區"
"220053","285-VK","2018/05/03 19:08:40","新北市板橋區懷仁街14巷8號","121.475735","25.0198766666667","6500100","板橋區"
"220083","286-VK","2018/05/03 19:08:50","新北市板橋區龍興街99巷47號","121.443075","25.003095","6500100","板橋區"
"220081","287-VK","2018/05/03 19:09:01","新北市板橋區光華街31號","121.453761666667","25.012665","6500100","板橋區"
"220090","288-VK","2018/05/03 19:08:56","新北市板橋區裕民街45巷4號","121.461515","25.0283383333333","6500100","板橋區"
"220061","293-UM","2018/05/03 19:08:47","新北市板橋區中山路二段295巷17號","121.477805","25.01872","6500100","板橋區"
"220084","296-UM","2018/05/03 19:08:48","新北市板橋區溪崑二街22巷30號","121.42813","24.99197","6500100","板橋區"
"220075","303-R5","2018/05/03 19:08:50","新北市板橋區南雅南路一段1巷21號","121.457176666667","25.0066883333333","6500100","板橋區"
"220062","305-R5","2018/05/03 19:08:43","新北市板橋區三民路二段居仁巷1弄22號","121.479863333333","25.013555","6500100","板橋區"
"220092","307-R5","2018/05/03 19:08:54","新北市板橋區文化路一段280-2號","121.467263333333","25.0213383333333","6500100","板橋區"
"220098","317-R6","2018/05/03 19:08:50","新北市板橋區四維路103巷10號","121.464795","25.0241516666667","6500100","板橋區"
"220064","486-VK","2018/05/03 19:08:50","新北市板橋區民生路一段33號","121.476166666667","25.0116866666667","6500100","板橋區"
"220088","491-VK","2018/05/03 19:08:40","新北市板橋區文化路二段182巷5弄13-2號","121.471966666667","25.02751","6500100","板橋區"
"220035","560-BX","2018/05/03 19:08:56","新北市板橋區中正路330號","121.454685","25.0216466666667","6500100","板橋區"
"220103","561-BX","2018/05/03 19:08:38","新北市板橋區文化路一段188巷9弄108號","121.46845","25.019455","6500100","板橋區"
"220063","609-BX","2018/05/03 19:08:53","新北市板橋區三民路二段140號","121.479031666667","25.015915","6500100","板橋區"
"220055","630-UY","2018/05/03 19:08:46","新北市板橋區新民街9號","121.463706666667","25.009865","6500100","板橋區"
"220091","637-BX","2018/05/03 19:08:42","新北市板橋區萬板路558-1號","121.480876666667","25.026505","6500100","板橋區"
"220057","686-BX","2018/05/03 19:08:57","新北市板橋區重慶路284號","121.463176666667","24.9992833333333","6500100","板橋區"
"220077","687-BX","2018/05/03 19:08:52","新北市板橋區大觀路一段39巷2號","121.448551666667","25.0081333333333","6500100","板橋區"
"220093","689-BX","2018/05/03 19:08:56","新北市板橋區民生路三段285號","121.464073333333","25.0302383333333","6500100","板橋區"
"220054","741-BX","2018/05/03 19:08:44","新北市板橋區重慶路89巷10號","121.462931666667","25.0065","6500100","板橋區"
"220102","KEA-2699","2018/05/03 19:08:52","新北市板橋區萬板路818巷9號","121.482911666667","25.0268816666667","6500100","板橋區"
"220067","829-TW","2018/05/03 19:09:01","新北市板橋區中山路二段90巷47弄2號","121.47653","25.0146033333333","6500100","板橋區"
"220096","830-TW","2018/05/03 19:08:45","新北市板橋區雙十路二段37-1號","121.476781666667","25.0258","6500100","板橋區"
"220089","833-TW","2018/05/03 19:08:55","新北市板橋區長江路三段128號","121.475473333333","25.03461","6500100","板橋區"
"220074","895-R6","2018/05/03 19:09:00","新北市板橋區文昌街11號","121.455915","25.0102966666667","6500100","板橋區"
"220097","AAC-210","2018/05/03 19:08:54","新北市板橋區幸福路60巷67號","121.459891666667","25.021565","6500100","板橋區"
"220070","AAC-253","2018/05/03 19:08:41","新北市板橋區四川路一段268號","121.458946666667","25.001155","6500100","板橋區"
