"lineid","car","time","location","longitude","latitude","cityid","cityname"
"234046","148-BY","2018/05/03 19:38:44","新北市永和區永元路116號","121.522775","25.0024216666667","6500400","永和區"
"234050","149-BY","2018/05/03 19:38:48","新北市永和區保安路33號","121.509875","25.0162783333333","6500400","永和區"
"234007","207-UY","2018/05/03 19:38:47","新北市中和區中和路464號","121.512325","25.0040216666667","6500400","永和區"
"234081","298-R6","2018/05/03 19:38:40","新北市永和區林森路44巷15號","121.525766666667","25.0057766666667","6500400","永和區"
"234038","336-UY","2018/05/03 19:38:39","新北市永和區民樂街27號","121.527613333333","25.0016883333333","6500400","永和區"
"234064","337-UY","2018/05/03 19:38:39","新北市永和區秀朗路一段192巷6弄14號","121.519115","25.0022833333333","6500400","永和區"
"234086","338-UY","2018/05/03 19:38:45","新北市永和區永亨路122號","121.52445","25.004055","6500400","永和區"
"234070","552-UM","2018/05/03 19:38:32","新北市永和區永和路二段233號","121.515611666667","25.0141283333333","6500400","永和區"
"234017","745-BX","2018/05/03 19:38:41","新北市永和區永和路二段425巷33-1號","121.514316666667","25.0175383333333","6500400","永和區"
"234030","746-BX","2018/05/03 19:38:46","新北市永和區民生路37巷7號","121.523668333333","24.9980516666667","6500400","永和區"
"234054","KEA-2590","2018/05/03 19:38:33","新北市永和區竹林路39巷14號","121.518501666667","25.0145783333333","6500400","永和區"
"234013","KEA-2591","2018/05/03 19:38:38","新北市永和區永平路210號","121.509456666667","25.0101583333333","6500400","永和區"
"234061","AAD-866","2018/05/03 19:38:37","新北市永和區中正路456號","121.517425","25.0029266666667","6500400","永和區"
"234042","862-TW","2018/05/03 19:38:33","新北市永和區中和路597巷4號","121.512236666667","25.0045316666667","6500400","永和區"
"234026","9371-KE","2018/05/03 19:38:32","新北市永和區中和路501巷10號","121.51059","25.0027433333333","6500400","永和區"
"249004","303-UY","2018/05/03 19:38:33","新北市八里區忠孝路462號","121.414846666667","25.1612433333333","6502300","八里區"
"249002","305-UY","2018/05/03 19:38:34","新北市八里區頂寮二街48巷1-1號","121.45027","25.1253583333333","6502300","八里區"
"249003","593-UM","2018/05/03 19:38:31","新北市八里區中山路二段430號","121.399466666667","25.1479616666667","6502300","八里區"
"248016","026-BX","2018/05/03 19:38:48","新北市五股區成泰路三段514號","121.452183333333","25.10228","6501500","五股區"
"248008","095-VK","2018/05/03 19:38:46","新北市五股區四維路157號","121.467646666667","25.0746333333333","6501500","五股區"
"248012","247-BX","2018/05/03 19:38:43","新北市五股區成泰路二段91巷25號","121.437158333333","25.0846116666667","6501500","五股區"
"248014","261-SL","2018/05/03 19:38:38","新北市五股區五福路33巷5號","121.433298333333","25.0889766666667","6501500","五股區"
"248004","677-BX","2018/05/03 19:38:44","新北市五股區成泰路二段82號","121.437476666667","25.08223","6501500","五股區"
"248002","678-BX","2018/05/03 19:38:52","新北市五股區成泰路三段577巷60號","121.450433333333","25.10326","6501500","五股區"
"248010","682-TV","2018/05/03 19:38:35","新北市五股區自強路90巷42號","121.431643333333","25.0718183333333","6501500","五股區"
"234023","9380-KE","2018/05/03 19:37:20","新北市永和區環河東路二段8-2號","121.521716666667","25.0132183333333","6500400","永和區"
"234077","969-R7","2018/05/03 19:38:44","新北市永和區民族街67巷18號","121.519455","24.9971216666667","6500400","永和區"
"234074","AAC-211","2018/05/03 19:38:37","新北市永和區竹林路225巷42號","121.522123333333","25.0086516666667","6500400","永和區"
"234067","AAC-212","2018/05/03 19:38:42","新北市永和區中山路一段191巷9弄2號","121.509778333333","25.0079633333333","6500400","永和區"
"234003","AAC-295","2018/05/03 19:38:39","新北市永和區自由街58號","121.51373","25.0058316666667","6500400","永和區"
"244019","742-UY","2018/05/03 19:38:41","新北市林口區麗園一街35號","121.377635","25.0687416666667","6501700","林口區"
"244023","483-VK","2018/05/03 19:38:12","新北市林口區林口路166號","121.388025","25.082585","6501700","林口區"
"243013","AAD-798","2018/05/03 19:38:31","新北市泰山區應化街13號","121.423815","25.0437133333333","6501600","泰山區"
"243009","297-R6","2018/05/03 19:38:38","新北市泰山區美寧街60號","121.430966666667","25.06465","6501600","泰山區"
"243016","380-SR","2018/05/03 19:38:50","新北市泰山區明志路三段204巷16號","121.421785","25.037945","6501600","泰山區"
"243015","421-VK","2018/05/03 19:38:45","新北市泰山區明志路二段237巷22號","121.427895","25.04792","6501600","泰山區"
"243011","KEA-2215","2018/05/03 19:38:50","新北市泰山區貴子路65號","121.430478333333","25.0396116666667","6501600","泰山區"
"243010","KEA-2216","2018/05/03 19:38:36","新北市泰山區仁愛路6巷30號","121.431586666667","25.0529083333333","6501600","泰山區"
"243012","646-TV","2018/05/03 19:38:38","新北市泰山區仁愛路100巷55號","121.433798333333","25.0547916666667","6501600","泰山區"
"243014","680-BX","2018/05/03 19:38:39","新北市泰山區泰林路二段33-8號","121.435251666667","25.056585","6501600","泰山區"
"222003","436-BY","2018/05/03 19:30:13","新北市深坑區深南路51-1號","121.621113333333","25.0098816666667","6501800","深坑區"
"222002","659-BX","2018/05/03 19:38:36","新北市深坑區北深路一段177號","121.632541666667","25.010885","6501800","深坑區"
"231059","046-UY","2018/05/03 19:38:42","新北市新店區安和路三段83號","121.517746666667","24.983775","6500600","新店區"
"231040","047-UY","2018/05/03 19:38:46","新北市新店區北新路一段96巷23號","121.543","24.9687633333333","6500600","新店區"
"231044","106-UY","2018/05/03 19:38:48","新北市新店區北新路三段53-1號","121.54179","24.9807083333333","6500600","新店區"
"231046","107-UY","2018/05/03 19:38:50","新北市新店區自由街13號","121.535548333333","24.9748933333333","6500600","新店區"
"231052","108-UY","2018/05/03 19:38:46","新北市新店區新烏路二段478號","121.553043333333","24.908065","6500600","新店區"
"231047","187-VK","2018/05/03 19:38:39","新北市新店區中興路一段288巷7號","121.546431666667","24.9687766666667","6500600","新店區"
"231054","KEA-2219","2018/05/03 19:38:47","新北市新店區文中路45號","121.539575","24.9565966666667","6500600","新店區"
"231057","256-BX","2018/05/03 19:38:45","新北市新店區橘園一路11號","121.547898333333","24.9340916666667","6500600","新店區"
"231051","278-BY","2018/05/03 19:38:42","新北市新店區中央四街29號","121.5287","24.9744033333333","6500600","新店區"
"231050","AAD-862","2018/05/03 19:38:37","新北市新店區北宜路二段148號","121.557683333333","24.953665","6500600","新店區"
"231058","3713-VJ","2018/05/03 19:38:32","新北市新店區中正路143號","121.541581666667","24.9715666666667","6500600","新店區"
"231066","4716-K9","2018/05/03 19:38:40","新北市新店區安康路二段341巷29號","121.49712","24.9545233333333","6500600","新店區"
"231056","4715-K9","2018/05/03 19:38:42","新北市新店區安德街60巷9-3號","121.50934","24.9622016666667","6500600","新店區"
"231067","4772-VM","2018/05/03 19:38:37","新北市新店區安康路二段320巷6號","121.50547","24.9600816666667","6500600","新店區"
"231065","512-UM","2018/05/03 19:38:39","新北市新店區安祥路109巷13號","121.476008333333","24.959145","6500600","新店區"
"231049","513-UM","2018/05/03 19:38:34","新北市新店區大豐路50號","121.540003333333","24.9798183333333","6500600","新店區"
"231042","515-UM","2018/05/03 19:38:40","新北市新店區中興路一段216號","121.543943333333","24.9657016666667","6500600","新店區"
"231063","616-UM","2018/05/03 19:38:50","新北市新店區達觀路40號","121.502988333333","24.938745","6500600","新店區"
"231041","618-UM","2018/05/03 19:38:46","新北市新店區民權路147號","121.534268333333","24.98207","6500600","新店區"
"231061","619-UM","2018/05/03 19:38:52","新北市新店區安康路一段355-4號","121.517395","24.9639783333333","6500600","新店區"
"231064","719-UM","2018/05/03 19:38:37","新北市新店區安和路一段52巷2-1號","121.517646666667","24.96626","6500600","新店區"
"231062","720-UM","2018/05/03 19:38:52","新北市新店區太平路10號","121.534086666667","24.958105","6500600","新店區"
"231060","897-TW","2018/05/03 19:38:47","新北市新店區安康路二段208號","121.51015","24.9595983333333","6500600","新店區"
"231045","898-TW","2018/05/03 19:38:39","新北市新店區北宜路二段210號","121.559408333333","24.9543333333333","6500600","新店區"
"231043","899-TW","2018/05/03 19:38:34","新北市新店區北新路二段64號","121.543048333333","24.9721466666667","6500600","新店區"
"231055","AKT-0513","2018/05/03 19:38:29","新北市新店區中華路83巷67號","121.538316666667","24.9672366666667","6500600","新店區"
"241011","013-R5","2018/05/03 19:38:50","新北市三重區秀江街162號","121.498275","25.0717416666667","6500200","三重區"
"241028","022-UY","2018/05/03 19:38:34","新北市三重區中正南路196號","121.49391","25.055995","6500200","三重區"
"241008","059-VK","2018/05/03 19:38:34","新北市三重區永福街135巷2號","121.478511666667","25.0767783333333","6500200","三重區"
"241009","060-VK","2018/05/03 19:38:34","新北市三重區三和路四段400巷15號","121.48052","25.0793733333333","6500200","三重區"
"241031","061-VK","2018/05/03 19:38:47","新北市三重區重新路四段248號","121.486078333333","25.0534616666667","6500200","三重區"
"241015","062-VK","2018/05/03 19:38:53","新北市三重區福德北路30號","121.502181666667","25.064975","6500200","三重區"
"241017","063-VK","2018/05/03 19:38:38","新北市三重區大同北路182號","121.491451666667","25.0656766666667","6500200","三重區"
"241026","066-VK","2018/05/03 19:38:40","新北市三重區文化南路47巷35號","121.49937","25.0611216666667","6500200","三重區"
"241003","091-VK","2018/05/03 19:38:44","新北市三重區仁義街393號","121.494606666667","25.0854883333333","6500200","三重區"
"241022","267-UM","2018/05/03 19:38:46","新北市三重區三民街167號","121.483425","25.06481","6500200","三重區"
"241032","269-UM","2018/05/03 19:38:43","新北市三重區三陽路118號","121.482993333333","25.0585583333333","6500200","三重區"
"241013","270-UM","2018/05/03 19:38:40","新北市三重區仁福街64巷34號","121.497418333333","25.0757883333333","6500200","三重區"
"241007","398-BY","2018/05/03 19:38:43","新北市三重區溪尾街120巷30號","121.488356666667","25.0788383333333","6500200","三重區"
"241035","KEA-2210","2018/05/03 19:38:50","新北市三重區正義北路99號","121.497198333333","25.065435","6500200","三重區"
"241020","478-VK","2018/05/03 19:38:33","新北市三重區三和路四段20巷93號","121.488443333333","25.073265","6500200","三重區"
"241030","480-VK","2018/05/03 19:38:48","新北市三重區新興路28巷8號","121.491876666667","25.0530216666667","6500200","三重區"
"241014","543-UM","2018/05/03 19:38:45","新北市三重區長榮路129號","121.50383","25.0693933333333","6500200","三重區"
"241023","545-UM","2018/05/03 19:38:33","新北市三重區忠孝路三段99巷21號","121.479391666667","25.064445","6500200","三重區"
"241019","KEA-2593","2018/05/03 19:38:39","新北市三重區六張街194巷1弄2號","121.488533333333","25.0680366666667","6500200","三重區"
"241006","AAD-863","2018/05/03 19:38:33","新北市三重區聯華街102號","121.485388333333","25.0752066666667","6500200","三重區"
"241025","887-TS","2018/05/03 19:38:35","新北市三重區頂崁街188號","121.477361666667","25.0663616666667","6500200","三重區"
"241012","941-UM","2018/05/03 19:38:36","新北市三重區河邊北街256巷27號","121.50072","25.0759883333333","6500200","三重區"
"241029","942-UM","2018/05/03 19:38:41","新北市三重區同安街122-1號","121.493331666667","25.0560433333333","6500200","三重區"
"235064","005-UY","2018/05/03 19:38:51","新北市中和區南山路127巷35號","121.50381","24.99758","6500300","中和區"
"235063","006-UY","2018/05/03 19:38:49","新北市中和區安邦街3號","121.495813333333","24.9983483333333","6500300","中和區"
"235056","096-UM","2018/05/03 19:38:42","新北市中和區員山路581巷31弄22號","121.476596666667","25.0104533333333","6500300","中和區"
"235039","097-UM","2018/05/03 19:38:41","新北市中和區秀峰街119巷8弄14號","121.519095","24.9899333333333","6500300","中和區"
"235065","098-UM","2018/05/03 19:38:46","新北市中和區永和路8號","121.500035","25.0030283333333","6500300","中和區"
"235040","150-BY","2018/05/03 19:38:51","新北市中和區宜安路102號","121.510366666667","24.9977916666667","6500300","中和區"
"235058","151-BY","2018/05/03 19:38:47","新北市中和區連城路374巷11號","121.481365","24.995865","6500300","中和區"
"235055","183-VK","2018/05/03 19:38:32","新北市中和區莒光路3巷11號","121.472281666667","25.0060466666667","6500300","中和區"
"235038","185-VK","2018/05/03 19:38:45","新北市中和區大智街55巷30弄7號","121.521133333333","24.993165","6500300","中和區"
"235049","186-VK","2018/05/03 19:38:44","新北市中和區景安路139號","121.505585","24.995525","6500300","中和區"
"235067","255-BX","2018/05/03 19:38:45","新北市中和區新生街242巷11弄6號","121.482911666667","24.99763","6500300","中和區"
"235044","293-VK","2018/05/03 19:38:38","新北市中和區興南路一段77號","121.51008","24.989115","6500300","中和區"
"235072","301-VK","2018/05/03 19:38:37","新北市中和區連城路265巷6弄5號","121.491208333333","24.9958516666667","6500300","中和區"
"235043","352-BY","2018/05/03 19:38:49","新北市中和區安樂路1號","121.511485","24.9919183333333","6500300","中和區"
"235068","377-QA","2018/05/03 19:38:38","新北市中和區中和路53號","121.500493333333","25.0014316666667","6500300","中和區"
"235061","378-QA","2018/05/03 19:38:37","新北市中和區民利街61巷11弄1號","121.479053333333","24.9983433333333","6500300","中和區"
"235050","4979-A6","2018/05/03 19:38:33","新北市中和區中正路571巷2弄11號","121.486068333333","24.99348","6500300","中和區"
"235042","551-UM","2018/05/03 19:38:45","新北市中和區安樂路217巷37號","121.513451666667","24.99798","6500300","中和區"
"235070","558-UM","2018/05/03 19:38:42","新北市中和區景平路597號","121.497051666667","25.00081","6500300","中和區"
"235045","565-BX","2018/05/03 19:38:31","新北市中和區景新街462號","121.51352","24.9875266666667","6500300","中和區"
"235054","640-BX","2018/05/03 19:38:35","新北市中和區國光街102巷11弄1號","121.470638333333","25.0007066666667","6500300","中和區"
"235060","647-TV","2018/05/03 19:38:44","新北市中和區中山路二段523巷41號","121.482235","25.0032233333333","6500300","中和區"
"235047","732-UM","2018/05/03 19:38:30","新北市中和區南山路283巷11號","121.504546666667","24.992605","6500300","中和區"
"235046","733-UM","2018/05/03 19:38:53","新北市中和區忠孝街104號","121.511951666667","24.9847916666667","6500300","中和區"
"235071","783-BX","2018/05/03 19:38:36","新北市中和區中正路839巷29號","121.48361","25.0023533333333","6500300","中和區"
"235057","801-TS","2018/05/03 19:38:35","新北市中和區員山路296號","121.48134","25.0026116666667","6500300","中和區"
"235041","802-TS","2018/05/03 19:38:47","新北市中和區永貞路249巷12號","121.512488333333","25.0036766666667","6500300","中和區"
"235052","805-TS","2018/05/03 19:38:39","新北市中和區華新街143巷68號","121.506343333333","24.9792566666667","6500300","中和區"
"235048","896-TW","2018/05/03 19:38:41","新北市中和區忠孝街1巷2-1號","121.509101666667","24.9829966666667","6500300","中和區"
"235053","900-TW","2018/05/03 19:38:35","新北市中和區國光街142巷2-1號","121.468308333333","25.001655","6500300","中和區"
"235066","911-UM","2018/05/03 19:38:38","新北市中和區景新街164號","121.505813333333","24.99711","6500300","中和區"
"235051","157-BY","2018/05/03 19:38:46","新北市中和區景平路514號","121.503473333333","24.9938166666667","6500300","中和區"
"235037","AAC-213","2018/05/03 19:38:40","新北市中和區秀朗路三段22巷15號","121.525543333333","24.9959966666667","6500300","中和區"
"235059","AAC-215","2018/05/03 19:38:36","新北市中和區錦和路201號","121.49068","24.9903533333333","6500300","中和區"
"220068","013-TV","2018/05/03 19:38:45","新北市板橋區萬安街55號","121.483921666667","25.02378","6500100","板橋區"
"220065","072-UY","2018/05/03 19:38:25","新北市板橋區國泰街17號","121.469365","25.0068083333333","6500100","板橋區"
"220086","073-UY","2018/05/03 19:38:34","新北市板橋區中正路216巷73號","121.457945","25.01902","6500100","板橋區"
"220106","075-UY","2018/05/03 19:38:40","新北市板橋區雙十路三段15號","121.470858333333","25.0309883333333","6500100","板橋區"
"220069","AAD-861","2018/05/03 19:38:41","新北市板橋區貴興路80-2號","121.456103333333","25.0029116666667","6500100","板橋區"
"247004","337-TH","2018/05/03 19:38:44","新北市蘆洲區長安街98巷20號","121.463023333333","25.0817366666667","6501400","蘆洲區"
"247008","056-VK","2018/05/03 19:38:39","新北市蘆洲區中山一路174號","121.474375","25.08134","6501400","蘆洲區"
"226004","312-R5","2018/05/03 19:33:58","新北市平溪區靜安路三段369號","121.780785","25.0457983333333","6502400","平溪區"
"228003","097-TW","2018/05/03 19:38:41","新北市貢寮區真理里美艷山街15-3號","121.923701666667","25.0679833333333","6502600","貢寮區"
"228001","212-TW","2018/05/03 19:38:36","新北市貢寮區真理里延平街45號","121.924468333333","25.055605","6502600","貢寮區"
"224002","639-TC","2018/05/03 19:38:40","新北市瑞芳區民享新村13號","121.81663","25.105735","6501200","瑞芳區"
"227010","642-TC","2018/05/03 19:38:42","新北市雙溪區新基里新基北街22號","121.86723","25.0388933333333","6502500","雙溪區"
"227004","400-TW","2018/05/03 19:38:47","新北市雙溪區雙溪里內挖路8號","121.86346","25.0361083333333","6502500","雙溪區"
"222001","KEA-2212","2018/05/03 19:38:50","新北市深坑區深坑街136號","121.613286666667","25.0013766666667","6501800","深坑區"
"208002","KEA-2872","2018/05/03 19:38:37","新北市金山區三民街3號","121.634745","25.22238","6502700","金山區"
"208003","665-BX","2018/05/03 19:38:44","新北市金山區仁愛路37-7號","121.635996666667","25.2198333333333","6502700","金山區"
"208001","761-BX","2018/05/03 19:38:41","新北市金山區六股里下六股49號","121.617626666667","25.221875","6502700","金山區"
"251009","008-UM","2018/05/03 19:38:36","新北市淡水區中山北路一段198巷15號","121.445458333333","25.1792233333333","6501000","淡水區"
"251001","011-UM","2018/05/03 19:38:33","新北市淡水區民權路89號","121.459873333333","25.1382116666667","6501000","淡水區"
"251013","KEA-2871","2018/05/03 19:38:40","新北市淡水區店子後10號","121.460371666667","25.2187083333333","6501000","淡水區"
"251014","180-VK","2018/05/03 19:38:35","新北市淡水區桂竹圍4-1號","121.474551666667","25.2319383333333","6501000","淡水區"
"251015","182-VK","2018/05/03 19:38:39","新北市淡水區山子頂22號","121.49145","25.1872833333333","6501000","淡水區"
"251010","413-VK","2018/05/03 19:38:52","新北市淡水區新市三路一段336號","121.430038333333","25.195425","6501000","淡水區"
"251012","441-VK","2018/05/03 19:38:31","新北市淡水區中山北路三段164號","121.445688333333","25.19658","6501000","淡水區"
"251007","442-VK","2018/05/03 19:38:39","新北市淡水區中正東路一段111巷25號","121.455311666667","25.160695","6501000","淡水區"
"251005","443-VK","2018/05/03 19:38:32","新北市淡水區原德路116巷1號","121.443731666667","25.1741566666667","6501000","淡水區"
"251006","561-UM","2018/05/03 19:38:43","新北市淡水區中山北路一段207巷21號","121.443483333333","25.1791716666667","6501000","淡水區"
"251016","575-R6","2018/05/03 19:38:35","新北市淡水區下圭柔山119-51號","121.450766666667","25.2084133333333","6501000","淡水區"
"251011","650-BX","2018/05/03 19:38:45","新北市淡水區八勢一街77號","121.461448333333","25.1550533333333","6501000","淡水區"
"251003","673-BX","2018/05/03 19:38:46","新北市淡水區崁頂145號","121.430896666667","25.20608","6501000","淡水區"
"207003","550-UM","2018/05/03 19:38:45","新北市萬里區大鵬里下社18號","121.648358333333","25.2176066666667","6502800","萬里區"
"207004","225-TW","2018/05/03 19:38:47","新北市萬里區萬里里瑪鋉路33-1號","121.687591666667","25.1755916666667","6502800","萬里區"
"252002","178-VK","2018/05/03 19:38:48","新北市三芝區中正路一段36巷26號","121.504035","25.2588933333333","6502100","三芝區"
"252001","292-VK","2018/05/03 19:38:39","新北市三芝區公正街66號","121.499798333333","25.2574233333333","6502100","三芝區"
"237007","153-BY","2018/05/03 19:38:33","新北市三峽區二鬮路136巷20弄43號","121.357366666667","24.9099633333333","6500900","三峽區"
"237009","210-TH","2018/05/03 19:38:43","新北市三峽區中園街62-1號","121.368088333333","24.92587","6500900","三峽區"
"237013","252-BX","2018/05/03 19:38:49","新北市三峽區介壽路二段12-1號","121.390255","24.93491","6500900","三峽區"
"237012","275-BY","2018/05/03 19:38:40","新北市三峽區中正路一段28號","121.375893333333","24.9309416666667","6500900","三峽區"
"237008","302-VK","2018/05/03 19:38:40","新北市三峽區光明路60號","121.37492","24.9293633333333","6500900","三峽區"
"237014","433-BY","2018/05/03 19:38:40","新北市三峽區中山路67巷5號","121.366676666667","24.93418","6500900","三峽區"
"237006","5529-G3","2018/05/03 19:38:43","新北市三峽區中正路一段336巷15弄2號","121.369946666667","24.924955","6500900","三峽區"
"237005","AKY-6261","2018/05/03 19:38:34","新北市三峽區中山路219巷17弄7號","121.36349","24.9362033333333","6500900","三峽區"
"236070","105-UM","2018/05/03 19:38:21","新北市土城區學士路1號","121.4539","24.983145","6501300","土城區"
"236078","166-UM","2018/05/03 19:38:46","新北市土城區中州路53號","121.412718333333","24.9578633333333","6501300","土城區"
"236030","253-BX","2018/05/03 19:38:42","新北市土城區福祥街51號","121.440815","24.9800033333333","6501300","土城區"
"236026","269-VK","2018/05/03 19:38:30","新北市土城區中央路二段61巷26號","121.443336666667","24.97876","6501300","土城區"
"236038","271-VK","2018/05/03 19:38:45","新北市土城區清水路98巷3弄45號","121.45855","24.980855","6501300","土城區"
"236021","401-BY","2018/05/03 19:38:35","新北市土城區峰廷街3號","121.469053333333","24.9873283333333","6501300","土城區"
"236049","913-UM","2018/05/03 19:38:44","新北市土城區明德路一段8號","121.464935","24.9852666666667","6501300","土城區"
"236063","915-UM","2018/05/03 19:38:35","新北市土城區延平街53號","121.46786","24.9924616666667","6501300","土城區"
"236055","AAC-216","2018/05/03 19:38:39","新北市土城區學府路一段76號","121.45659","24.9881783333333","6501300","土城區"
"242007","413-TV","2018/05/03 19:38:38","新北市新莊區中正路461號","121.442233333333","25.0339633333333","6500500","新莊區"
"242023","362-BY","2018/05/03 19:38:50","新北市新莊區復興路二段123號","121.456908333333","25.04435","6500500","新莊區"
"242031","135-UY","2018/05/03 19:38:42","新北市新莊區新泰路215號","121.446385","25.0388083333333","6500500","新莊區"
"242048","172-VK","2018/05/03 19:38:29","新北市新莊區民安路39號","121.423641666667","25.026675","6500500","新莊區"
"242011","173-VK","2018/05/03 19:38:06","新北市新莊區三和路12-21號","121.44211","25.03867","6500500","新莊區"
"242004","176-VK","2018/05/03 19:38:42","新北市新莊區化成路29巷44號","121.463398333333","25.04392","6500500","新莊區"
"242013","351-TH","2018/05/03 19:38:46","新北市新莊區中誠街123號","121.449335","25.0475716666667","6500500","新莊區"
"238015","755-BX","2018/05/03 19:38:38","新北市樹林區日新街117號","121.421258333333","24.9896383333333","6500700","樹林區"
"238023","601-UM","2018/05/03 19:38:31","新北市樹林區三福街38號","121.408085","25.016545","6500700","樹林區"
"238024","5061-A6","2018/05/03 19:38:39","新北市樹林區佳園路一段72巷13-2號","121.391956666667","24.9696866666667","6500700","樹林區"
"238022","KEA-2213","2018/05/03 19:38:49","新北市樹林區國凱街50巷1弄1號","121.420408333333","24.9786433333333","6500700","樹林區"
"238021","KEA-2539","2018/05/03 19:38:40","新北市樹林區佳園路三段145巷30號","121.388403333333","24.9490616666667","6500700","樹林區"
"238025","303-VK","2018/05/03 19:38:39","新北市樹林區中山路一段195號","121.42127","24.98764","6500700","樹林區"
"238017","283-BY","2018/05/03 19:38:44","新北市樹林區光興街90號","121.408076666667","25.003425","6500700","樹林區"
"238014","282-BY","2018/05/03 19:38:41","新北市樹林區千歲街50號","121.426063333333","24.9970183333333","6500700","樹林區"
"238020","268-VK","2018/05/03 19:38:36","新北市樹林區俊英街33-1號","121.428201666667","25.0036683333333","6500700","樹林區"
"238026","172-UY","2018/05/03 19:38:41","新北市樹林區寶園街11號","121.38629","24.9536933333333","6500700","樹林區"
"239006","891-R6","2018/05/03 19:38:46","新北市鶯歌區永昌街108號","121.340973333333","24.9499183333333","6500800","鶯歌區"
"239005","526-UM","2018/05/03 19:38:41","新北市鶯歌區中湖街303巷2號","121.347611666667","24.977615","6500800","鶯歌區"
"239001","417-VK","2018/05/03 19:38:42","新北市鶯歌區尖山埔路二段57號","121.341655","24.9484933333333","6500800","鶯歌區"
"239003","360-BY","2018/05/03 19:38:45","新北市樹林區中山路三段210-2號","121.381408333333","24.9656666666667","6500800","鶯歌區"
"239004","193-VK","2018/05/03 19:38:34","新北市鶯歌區二甲路中心巷13弄1號","121.337673333333","24.935505","6500800","鶯歌區"
"221008","489-VK","2018/05/03 19:38:46","新北市汐止區康寧街145號","121.621903333333","25.0666383333333","6501100","汐止區"
"221036","130-UY","2018/05/03 19:38:43","新北市汐止區康寧街901號","121.650805","25.0752533333333","6501100","汐止區"
"221015","131-UY","2018/05/03 19:38:49","新北市汐止區康寧街901號","121.651021666667","25.0751216666667","6501100","汐止區"
"221010","269-BY","2018/05/03 19:38:34","新北市汐止區汐萬路一段357號","121.649916666667","25.0777116666667","6501100","汐止區"
"221012","278-VK","2018/05/03 19:38:34","新北市汐止區汐平路一段5號","121.680746666667","25.0712383333333","6501100","汐止區"
"221023","279-VK","2018/05/03 19:38:29","新北市汐止區中興路278號","121.628465","25.0691033333333","6501100","汐止區"
"221032","280-BY","2018/05/03 19:38:41","新北市汐止區汐萬路一段256巷3號","121.652591666667","25.0745483333333","6501100","汐止區"
"221027","281-BY","2018/05/03 19:38:36","新北市汐止區忠孝東路9號","121.658295","25.0659583333333","6501100","汐止區"
"221029","298-VK","2018/05/03 19:38:33","新北市汐止區康寧街901號","121.651563333333","25.0751183333333","6501100","汐止區"
"221021","299-VK","2018/05/03 19:38:38","新北市汐止區新台五路一段131號","121.65224","25.06195","6501100","汐止區"
"221031","353-TW","2018/05/03 19:38:48","新北市汐止區康寧街901號","121.650801666667","25.07528","6501100","汐止區"
"221025","623-UM","2018/05/03 19:38:40","新北市汐止區福安街12-1號","121.662246666667","25.065315","6501100","汐止區"
"221038","646-BX","2018/05/03 19:38:52","新北市汐止區忠孝東路210號","121.66203","25.066475","6501100","汐止區"
"221002","707-TV","2018/05/03 19:38:47","新北市汐止區大同路一段219巷27號","121.633271666667","25.0583733333333","6501100","汐止區"
"220079","145-BY","2018/05/03 19:38:41","新北市板橋區復興街84號","121.459446666667","25.01769","6500100","板橋區"
"220080","200-UY","2018/05/03 19:38:42","新北市板橋區大觀路二段37巷180號","121.449551666667","25.0022016666667","6500100","板橋區"
"220082","610-BX","2018/05/03 19:38:43","新北市板橋區篤行路一段30號","121.431863333333","24.9941366666667","6500100","板橋區"
"220101","245-BX","2018/05/03 19:38:37","新北市板橋區縣民大道三段33巷1弄13號","121.473368333333","25.0205233333333","6500100","板橋區"
"220056","276-BY","2018/05/03 19:38:42","新北市板橋區四川路二段47巷2弄2號","121.453973333333","24.994965","6500100","板橋區"
"220072","277-BY","2018/05/03 19:38:49","新北市板橋區金門街253巷16弄11號","121.432728333333","24.9879416666667","6500100","板橋區"
"220094","283-UM","2018/05/03 19:38:46","新北市板橋區銘傳街96-3號","121.469586666667","25.0315783333333","6500100","板橋區"
"220071","283-VK","2018/05/03 19:38:39","新北市板橋區四川路一段325巷2弄1號","121.45932","25.0002316666667","6500100","板橋區"
"220053","285-VK","2018/05/03 19:38:40","新北市板橋區中山路二段267號","121.477605","25.0180316666667","6500100","板橋區"
"220083","286-VK","2018/05/03 19:38:42","新北市板橋區大觀路二段174巷132號","121.441571666667","25.002245","6500100","板橋區"
"220081","287-VK","2018/05/03 19:38:37","新北市板橋區大觀路一段29巷131弄136號","121.451091666667","25.003985","6500100","板橋區"
"220090","288-VK","2018/05/03 19:38:39","新北市板橋區長江路一段48巷4弄1-3號","121.459091666667","25.0285166666667","6500100","板橋區"
"220061","293-UM","2018/05/03 19:38:46","新北市板橋區中山路二段181號","121.47601","25.01708","6500100","板橋區"
"220084","296-UM","2018/05/03 19:38:48","新北市板橋區滿平二街1-3號","121.425478333333","24.98639","6500100","板橋區"
"220075","303-R5","2018/05/03 19:38:50","新北市板橋區大仁街110巷22號","121.452688333333","25.01652","6500100","板橋區"
"220062","305-R5","2018/05/03 19:38:43","新北市板橋區三民路二段35巷27-1號","121.481235","25.0179933333333","6500100","板橋區"
"220092","307-R5","2018/05/03 19:38:35","新北市板橋區文化路一段387巷29-3號","121.465668333333","25.022395","6500100","板橋區"
"220098","317-R6","2018/05/03 19:38:42","新北市板橋區四維路291號","121.463295","25.0281633333333","6500100","板橋區"
"220064","486-VK","2018/05/03 19:38:50","新北市板橋區民權路65號","121.461678333333","25.0112583333333","6500100","板橋區"
"220088","491-VK","2018/05/03 19:38:41","新北市板橋區民治街15-2號","121.477766666667","25.0343766666667","6500100","板橋區"
"220035","560-BX","2018/05/03 19:38:36","新北市板橋區新生街98巷24號","121.459123333333","25.0213416666667","6500100","板橋區"
"220103","561-BX","2018/05/03 19:38:38","新北市板橋區文化路一段286巷2弄7號","121.468508333333","25.0207933333333","6500100","板橋區"
"220063","609-BX","2018/05/03 19:38:32","新北市板橋區中山路二段505巷25號","121.48209","25.0220716666667","6500100","板橋區"
"220055","630-UY","2018/05/03 19:38:46","新北市板橋區國慶路149巷7-3號","121.461203333333","24.9969766666667","6500100","板橋區"
"220091","637-BX","2018/05/03 19:38:25","新北市板橋區懷德街181巷25號","121.48011","25.030485","6500100","板橋區"
"220057","686-BX","2018/05/03 19:38:36","新北市板橋區和平路101巷27號","121.461898333333","24.9955383333333","6500100","板橋區"
"220077","687-BX","2018/05/03 19:38:32","新北市板橋區僑中一街100號","121.446688333333","25.0116166666667","6500100","板橋區"
"220093","689-BX","2018/05/03 19:38:36","新北市板橋區新海路405號","121.45857","25.0268133333333","6500100","板橋區"
"220054","741-BX","2018/05/03 19:38:44","新北市板橋區忠孝路239巷21-3號","121.466523333333","25.0033766666667","6500100","板橋區"
"220102","KEA-2699","2018/05/03 19:38:45","新北市板橋區文化路二段410巷39號","121.47481","25.0303083333333","6500100","板橋區"
"220067","829-TW","2018/05/03 19:38:39","新北市板橋區長安街138巷1弄37號","121.473841666667","25.0101883333333","6500100","板橋區"
"220096","830-TW","2018/05/03 19:38:46","新北市板橋區文化路一段368-5號","121.469416666667","25.02323","6500100","板橋區"
"220089","833-TW","2018/05/03 19:38:35","新北市板橋區英士路153號","121.459678333333","25.0240066666667","6500100","板橋區"
"220074","895-R6","2018/05/03 19:38:35","新北市板橋區北門街25號","121.456621666667","25.0111716666667","6500100","板橋區"
"220073","985-R7","2018/05/03 19:38:43","新北市板橋區國光路67巷14號","121.459095","25.018695","6500100","板橋區"
"220097","AAC-210","2018/05/03 19:38:44","新北市板橋區幸福路32巷17號","121.461235","25.0210466666667","6500100","板橋區"
"220070","AAC-253","2018/05/03 19:36:41","新北市板橋區民族路224號","121.468698333333","25.0074233333333","6500100","板橋區"
