"lineid","car","time","location","longitude","latitude","cityid","cityname"
"234046","148-BY","2018/05/03 19:58:55","新北市永和區成功路一段68號","121.526868333333","25.0036166666667","6500400","永和區"
"234050","149-BY","2018/05/03 19:59:08","新北市永和區保安路244號","121.506676666667","25.0126116666667","6500400","永和區"
"234007","207-UY","2018/05/03 19:59:06","新北市永和區保生路22巷19弄10號","121.507341666667","25.0084766666667","6500400","永和區"
"234081","298-R6","2018/05/03 19:59:07","新北市永和區永亨路100號","121.523203333333","25.0048666666667","6500400","永和區"
"234038","336-UY","2018/05/03 19:59:01","新北市中和區秀朗路三段18號","121.526375","24.9964533333333","6500400","永和區"
"234064","337-UY","2018/05/03 19:58:59","新北市永和區中正路412巷2弄11號","121.518458333333","25.0018783333333","6500400","永和區"
"234086","338-UY","2018/05/03 19:59:05","新北市永和區福和路63號","121.522861666667","25.00789","6500400","永和區"
"234070","552-UM","2018/05/03 19:59:12","新北市永和區國光路12巷1號","121.519201666667","25.0086683333333","6500400","永和區"
"234017","745-BX","2018/05/03 19:59:01","新北市永和區文化路69號","121.513861666667","25.0150816666667","6500400","永和區"
"234030","746-BX","2018/05/03 19:58:59","新北市永和區民生路22巷9號","121.52196","24.997185","6500400","永和區"
"234054","KEA-2590","2018/05/03 19:59:13","新北市永和區環河東路一段122號","121.52064","25.0155016666667","6500400","永和區"
"234013","KEA-2591","2018/05/03 19:58:58","新北市永和區保生路55號","121.504736666667","25.01056","6500400","永和區"
"234061","AAD-866","2018/05/03 19:59:07","新北市永和區中正路285號","121.51736","25.0012266666667","6500400","永和區"
"234042","862-TW","2018/05/03 19:59:13","新北市永和區中和路335巷18弄5號","121.507626666667","25.0003183333333","6500400","永和區"
"234026","9371-KE","2018/05/03 19:59:13","新北市永和區水源街27巷12號","121.51131","25.0037833333333","6500400","永和區"
"234011","9373-KE","2018/05/03 19:59:09","新北市永和區仁愛路352巷112弄4號","121.500861666667","25.00841","6500400","永和區"
"249005","172-UM","2018/05/03 19:59:03","新北市八里區楓林路2-43號","121.384335","25.1308483333333","6502300","八里區"
"249001","173-UM","2018/05/03 19:59:05","新北市八里區中華路二段312號","121.403786666667","25.1483366666667","6502300","八里區"
"249004","303-UY","2018/05/03 19:58:53","新北市八里區中華路一段333-1號","121.41271","25.1544866666667","6502300","八里區"
"249002","305-UY","2018/05/03 19:59:12","新北市八里區頂寮一街5號","121.451446666667","25.1240483333333","6502300","八里區"
"249003","593-UM","2018/05/03 19:58:58","新北市八里區中華路二段538-4號","121.398711666667","25.1451383333333","6502300","八里區"
"248016","026-BX","2018/05/03 19:59:08","新北市五股區成泰路三段577巷80弄25號","121.449553333333","25.1045733333333","6501500","五股區"
"248008","095-VK","2018/05/03 19:59:06","新北市五股區四維路30巷10號","121.46782","25.0714916666667","6501500","五股區"
"248012","247-BX","2018/05/03 19:59:03","新北市五股區民義路一段59號","121.43593","25.0848833333333","6501500","五股區"
"248014","261-SL","2018/05/03 19:58:58","新北市五股區五福路20號","121.434303333333","25.0888416666667","6501500","五股區"
"248004","677-BX","2018/05/03 19:59:04","新北市五股區成泰路一段32巷56號","121.4349","25.06707","6501500","五股區"
"248002","678-BX","2018/05/03 19:58:56","新北市五股區成泰路三段487號","121.450761666667","25.0992883333333","6501500","五股區"
"248010","682-TV","2018/05/03 19:58:55","新北市五股區登林路75號","121.428285","25.0698916666667","6501500","五股區"
"234077","969-R7","2018/05/03 19:59:04","新北市永和區民有街14號","121.516415","24.99672","6500400","永和區"
"234074","AAC-211","2018/05/03 19:58:57","新北市永和區豫溪街205號","121.523613333333","25.00963","6500400","永和區"
"234067","AAC-212","2018/05/03 19:59:02","新北市永和區永貞路335號","121.509616666667","25.0070833333333","6500400","永和區"
"234003","AAC-295","2018/05/03 19:58:57","新北市永和區中正路708號","121.516065","25.0099466666667","6500400","永和區"
"243013","AAD-798","2018/05/03 19:53:50","新北市泰山區應化街13號","121.423856666667","25.0437066666667","6501600","泰山區"
"243009","297-R6","2018/05/03 19:58:58","新北市泰山區楓江路16巷28號","121.433948333333","25.0615216666667","6501600","泰山區"
"243016","380-SR","2018/05/03 19:59:10","新北市泰山區新北大道七段87號","121.418153333333","25.032","6501600","泰山區"
"243015","421-VK","2018/05/03 19:59:05","新北市泰山區明志路二段214巷16弄13號","121.426806666667","25.0496083333333","6501600","泰山區"
"243011","KEA-2215","2018/05/03 19:58:59","新北市泰山區明志路三段196巷54號","121.421476666667","25.040045","6501600","泰山區"
"243010","KEA-2216","2018/05/03 19:58:36","新北市泰山區中華街10巷1號","121.427876666667","25.05253","6501600","泰山區"
"243012","646-TV","2018/05/03 19:59:01","新北市泰山區全興路103號","121.433573333333","25.0569583333333","6501600","泰山區"
"243014","680-BX","2018/05/03 19:58:59","新北市泰山區泰林路二段105號","121.434675","25.0590516666667","6501600","泰山區"
"222003","436-BY","2018/05/03 19:59:00","新北市深坑區埔新街14號","121.620756666667","25.0039433333333","6501800","深坑區"
"222002","659-BX","2018/05/03 19:58:56","新北市深坑區北深路二段55巷12弄18號","121.618466666667","25.00323","6501800","深坑區"
"231059","046-UY","2018/05/03 19:59:02","新北市新店區安康路二段190號","121.51129","24.9600566666667","6500600","新店區"
"231040","047-UY","2018/05/03 19:59:05","新北市新店區北新路一段126巷23號","121.543136666667","24.96979","6500600","新店區"
"231044","106-UY","2018/05/03 19:59:07","新北市新店區復興路44-1號","121.538568333333","24.9867066666667","6500600","新店區"
"231052","108-UY","2018/05/03 19:59:06","新北市新店區新烏路三段寶島巷2弄3號","121.552015","24.898675","6500600","新店區"
"231047","187-VK","2018/05/03 19:58:59","新北市新店區寶宏路38號","121.549461666667","24.9755333333333","6500600","新店區"
"231054","KEA-2219","2018/05/03 19:59:07","新北市新店區光明街139號","121.539526666667","24.96203","6500600","新店區"
"231057","256-BX","2018/05/03 19:59:05","新北市新店區花園二路一段11號","121.555475","24.9324616666667","6500600","新店區"
"231051","278-BY","2018/05/03 19:59:02","新北市新店區中央路129號","121.530518333333","24.973965","6500600","新店區"
"231050","AAD-862","2018/05/03 19:58:57","新北市新店區北宜路一段183號","121.544955","24.9531566666667","6500600","新店區"
"231066","4716-K9","2018/05/03 19:58:59","新北市新店區柴埕路20巷2號","121.513983333333","24.9658483333333","6500600","新店區"
"231056","4715-K9","2018/05/03 19:59:03","新北市新店區民權路32號","121.540848333333","24.9829933333333","6500600","新店區"
"231067","4772-VM","2018/05/03 19:58:58","新北市新店區秀山路11巷14號","121.531791666667","24.9592633333333","6500600","新店區"
"231065","512-UM","2018/05/03 19:58:59","新北市新店區安祥路109巷8號","121.475331666667","24.9587816666667","6500600","新店區"
"231049","513-UM","2018/05/03 19:58:54","新北市新店區民族路45-1號","121.540376666667","24.97868","6500600","新店區"
"231042","515-UM","2018/05/03 19:58:59","新北市新店區中興路一段290號","121.545835","24.96906","6500600","新店區"
"231063","616-UM","2018/05/03 19:59:10","新北市新店區車子路11號","121.50304","24.952035","6500600","新店區"
"231041","618-UM","2018/05/03 19:59:06","新北市新店區中正路335號","121.535901666667","24.97529","6500600","新店區"
"231061","619-UM","2018/05/03 19:59:12","新北市新店區安民街206號","121.517353333333","24.971975","6500600","新店區"
"231068","718-UY","2018/05/03 19:59:12","新北市新店區安康路一段355-3號","121.519818333333","24.96225","6500600","新店區"
"231064","719-UM","2018/05/03 19:58:57","新北市新店區光華街12號","121.51759","24.96909","6500600","新店區"
"231062","720-UM","2018/05/03 19:58:55","新北市新店區華城路36巷1-3號","121.52746","24.9554133333333","6500600","新店區"
"231060","897-TW","2018/05/03 19:59:07","新北市新店區安康路二段458號","121.494331666667","24.9541983333333","6500600","新店區"
"231045","898-TW","2018/05/03 19:58:59","新北市新店區北宜路二段82-13號","121.554675","24.9535366666667","6500600","新店區"
"231043","899-TW","2018/05/03 19:58:54","新北市新店區中正路265巷3號","121.538243333333","24.9736733333333","6500600","新店區"
"231055","AKT-0513","2018/05/03 19:59:09","新北市新店區中華路83巷67號","121.538353333333","24.9672583333333","6500600","新店區"
"241011","013-R5","2018/05/03 19:59:09","新北市三重區三和路二段119號","121.498843333333","25.0690066666667","6500200","三重區"
"241028","022-UY","2018/05/03 19:58:54","新北市三重區中正南路40號","121.493823333333","25.06009","6500200","三重區"
"241008","059-VK","2018/05/03 19:58:54","新北市三重區永福街179巷11號","121.478471666667","25.0750033333333","6500200","三重區"
"241009","060-VK","2018/05/03 19:59:14","新北市三重區三和路四段390巷21號","121.480918333333","25.0787866666667","6500200","三重區"
"241031","061-VK","2018/05/03 19:59:07","新北市三重區重新路四段184巷16號","121.487106666667","25.0549233333333","6500200","三重區"
"241015","062-VK","2018/05/03 19:58:53","新北市三重區三和路二段8號","121.501031666667","25.0669766666667","6500200","三重區"
"241017","063-VK","2018/05/03 19:58:57","新北市三重區自強路一段304號","121.491326666667","25.0683833333333","6500200","三重區"
"241024","065-VK","2018/05/03 19:58:58","新北市三重區力行路一段277號","121.482085","25.0715783333333","6500200","三重區"
"241026","066-VK","2018/05/03 19:59:07","新北市三重區中央南路57號","121.501335","25.061585","6500200","三重區"
"241002","090-VK","2018/05/03 19:59:06","新北市三重區仁愛街269巷40號","121.494103333333","25.07947","6500200","三重區"
"241003","091-VK","2018/05/03 19:59:05","新北市三重區仁愛街445巷15號","121.490455","25.0825883333333","6500200","三重區"
"241005","262-UM","2018/05/03 19:59:07","新北市三重區溪尾街325巷23號","121.488618333333","25.08337","6500200","三重區"
"241016","266-UM","2018/05/03 19:58:54","新北市三重區正義北路36巷17號","121.496656666667","25.0633616666667","6500200","三重區"
"241022","267-UM","2018/05/03 19:59:06","新北市三重區過圳街31巷2號","121.488835","25.0605566666667","6500200","三重區"
"241018","268-UM","2018/05/03 19:59:12","新北市三重區正義北路244巷51號","121.494393333333","25.0678183333333","6500200","三重區"
"241032","269-UM","2018/05/03 19:59:03","新北市三重區捷運路37巷7號","121.483938333333","25.057665","6500200","三重區"
"241013","270-UM","2018/05/03 19:58:59","新北市三重區三和路三段125巷31號","121.493778333333","25.073635","6500200","三重區"
"241007","398-BY","2018/05/03 19:59:03","新北市三重區慈愛街76號","121.48781","25.0796966666667","6500200","三重區"
"241035","KEA-2210","2018/05/03 19:58:57","新北市三重區大榮街7號","121.498181666667","25.063035","6500200","三重區"
"241004","475-VK","2018/05/03 19:59:00","新北市三重區五華街74號","121.493373333333","25.0819733333333","6500200","三重區"
"241020","478-VK","2018/05/03 19:59:13","新北市三重區忠孝路一段87號","121.489785","25.07206","6500200","三重區"
"241030","480-VK","2018/05/03 19:59:09","新北市三重區重新路四段254號","121.485681666667","25.0533133333333","6500200","三重區"
"241014","543-UM","2018/05/03 19:59:05","新北市三重區三和路二段172號","121.498983333333","25.0687","6500200","三重區"
"241023","545-UM","2018/05/03 19:58:53","新北市三重區頂崁街168號","121.477516666667","25.0658833333333","6500200","三重區"
"241001","547-UM","2018/05/03 19:59:08","新北市三重區仁愛街283巷32號","121.494231666667","25.0798633333333","6500200","三重區"
"241019","KEA-2593","2018/05/03 19:58:59","新北市三重區重陽路四段2號","121.490371666667","25.0687616666667","6500200","三重區"
"241006","AAD-863","2018/05/03 19:58:53","新北市三重區力行路二段122號","121.482108333333","25.0750316666667","6500200","三重區"
"241025","887-TS","2018/05/03 19:58:55","新北市三重區頂崁街210巷20號","121.476208333333","25.0678333333333","6500200","三重區"
"241012","941-UM","2018/05/03 19:58:56","新北市三重區仁厚街69號","121.500815","25.0767466666667","6500200","三重區"
"241029","942-UM","2018/05/03 19:59:01","新北市三重區重安街1號","121.490016666667","25.0583216666667","6500200","三重區"
"235056","096-UM","2018/05/03 19:59:02","新北市中和區中山路三段170巷8弄1號","121.472605","25.0075483333333","6500300","中和區"
"235039","097-UM","2018/05/03 19:59:01","新北市中和區大勇街25巷17號","121.515678333333","24.9937033333333","6500300","中和區"
"235065","098-UM","2018/05/03 19:59:06","新北市中和區福美路255號","121.498676666667","25.005155","6500300","中和區"
"235040","150-BY","2018/05/03 19:59:12","新北市中和區保健路19巷2弄2號","121.508328333333","24.998285","6500300","中和區"
"235058","151-BY","2018/05/03 19:59:07","新北市中和區員山路150巷2弄14號","121.481651666667","24.9978716666667","6500300","中和區"
"235055","183-VK","2018/05/03 19:59:12","新北市中和區民生街12巷1號","121.470541666667","25.0055766666667","6500300","中和區"
"235049","186-VK","2018/05/03 19:59:04","新北市中和區景平路385-2號","121.502885","24.9940966666667","6500300","中和區"
"235067","255-BX","2018/05/03 19:59:05","新北市中和區員山路148巷23弄28號","121.482251666667","24.9977466666667","6500300","中和區"
"235044","293-VK","2018/05/03 19:58:56","新北市中和區中興街108號","121.50029","24.9932433333333","6500300","中和區"
"235043","352-BY","2018/05/03 19:59:09","新北市中和區興南路二段159巷1號","121.505178333333","24.98325","6500300","中和區"
"235068","377-QA","2018/05/03 19:58:59","新北市中和區中山路二段250巷22號","121.497446666667","25.0032966666667","6500300","中和區"
"235061","378-QA","2018/05/03 19:58:57","新北市中和區新生街176巷26號","121.482541666667","24.9998166666667","6500300","中和區"
"235050","4979-A6","2018/05/03 19:58:53","新北市中和區景平路241巷60號","121.507861666667","24.9922416666667","6500300","中和區"
"235069","4980-A6","2018/05/03 19:59:00","新北市中和區南山路41號","121.502081666667","24.9986233333333","6500300","中和區"
"235042","551-UM","2018/05/03 19:59:05","新北市中和區保健路2巷23號","121.50719","24.9974933333333","6500300","中和區"
"235070","558-UM","2018/05/03 19:59:01","新北市中和區圓通路154號","121.49796","24.9956433333333","6500300","中和區"
"235054","640-BX","2018/05/03 19:58:54","新北市中和區莒光路132號","121.472443333333","25.0014616666667","6500300","中和區"
"235046","733-UM","2018/05/03 19:58:52","新北市中和區興南路一段93巷24號","121.51021","24.986785","6500300","中和區"
"235026","800-TS","2018/05/03 19:59:04","新北市中和區員山路36巷13號","121.484348333333","24.990755","6500300","中和區"
"235041","802-TS","2018/05/03 19:59:07","新北市中和區中安街218號","121.511945","24.9988316666667","6500300","中和區"
"235052","805-TS","2018/05/03 19:58:59","新北市中和區華新街142號","121.507925","24.98251","6500300","中和區"
"235048","896-TW","2018/05/03 19:59:01","新北市中和區景新街412號","121.512821666667","24.989105","6500300","中和區"
"235053","900-TW","2018/05/03 19:58:55","新北市中和區民德路264號","121.467861666667","24.9967266666667","6500300","中和區"
"235066","911-UM","2018/05/03 19:58:58","新北市中和區光華街10號","121.504153333333","25.0042033333333","6500300","中和區"
"235051","157-BY","2018/05/03 19:59:06","新北市中和區復興路301巷16號","121.501508333333","24.9895566666667","6500300","中和區"
"235037","AAC-213","2018/05/03 19:59:00","新北市中和區大智街55巷30弄58-1號","121.522143333333","24.9933783333333","6500300","中和區"
"235059","AAC-215","2018/05/03 19:58:36","新北市中和區圓通路345號","121.49152","24.990345","6500300","中和區"
"220068","013-TV","2018/05/03 19:59:02","新北市板橋區光復街190號","121.485551666667","25.0199433333333","6500100","板橋區"
"220065","072-UY","2018/05/03 19:59:05","新北市板橋區中山路一段154巷21號","121.4654","25.010595","6500100","板橋區"
"220086","073-UY","2018/05/03 19:58:54","新北市板橋區國光路15號","121.456745","25.017475","6500100","板橋區"
"220106","075-UY","2018/05/03 19:59:00","新北市板橋區民治街82巷25號","121.47869","25.032675","6500100","板橋區"
"220069","AAD-861","2018/05/03 19:59:01","新北市板橋區大明街35號","121.45812","25.0026833333333","6500100","板橋區"
"247024","893-R6","2018/05/03 19:59:07","新北市蘆洲區光榮路120巷12號","121.465511666667","25.088315","6501400","蘆洲區"
"247014","546-UM","2018/05/03 19:59:02","新北市蘆洲區成功路151號","121.47218","25.0825833333333","6501400","蘆洲區"
"247010","341-TH","2018/05/03 19:58:54","新北市三重區集賢路188號","121.48394","25.0881016666667","6501400","蘆洲區"
"247012","339-TH","2018/05/03 19:58:56","新北市蘆洲區民族路151號","121.479571666667","25.08794","6501400","蘆洲區"
"247004","337-TH","2018/05/03 19:59:04","新北市蘆洲區長安街307號","121.457731666667","25.0852416666667","6501400","蘆洲區"
"247006","336-TH","2018/05/03 19:58:55","新北市蘆洲區九芎街115號","121.465538333333","25.0795883333333","6501400","蘆洲區"
"247008","056-VK","2018/05/03 19:58:59","新北市蘆洲區信義路113巷1弄19號","121.477628333333","25.0802266666667","6501400","蘆洲區"
"247016","007-UY","2018/05/03 19:59:12","新北市蘆洲區中正路116號","121.469413333333","25.0846833333333","6501400","蘆洲區"
"247002","002-UY","2018/05/03 19:58:55","新北市蘆洲區永樂街31巷9號","121.45811","25.087055","6501400","蘆洲區"
"247020","001-UY","2018/05/03 19:59:00","新北市蘆洲區民義街66號","121.472993333333","25.0898166666667","6501400","蘆洲區"
"226004","312-R5","2018/05/03 19:58:58","新北市平溪區靜安路二段462巷9號","121.74197","25.0247616666667","6502400","平溪區"
"228003","097-TW","2018/05/03 19:59:02","新北市貢寮區仁理村仁和路37號","121.92397","25.053945","6502600","貢寮區"
"224010","AGQ-8101","2018/05/03 19:59:09","新北市瑞芳區輕便路316號","121.841848333333","25.1072633333333","6501200","瑞芳區"
"227010","642-TC","2018/05/03 19:59:01","新北市雙溪區新基里新基南街25號","121.86621","25.03815","6502500","雙溪區"
"227004","400-TW","2018/05/03 19:59:07","新北市雙溪區雙溪里長安街16號","121.864946666667","25.0346916666667","6502500","雙溪區"
"222001","KEA-2212","2018/05/03 19:59:09","新北市深坑區北深路三段145號","121.603295","25.0027066666667","6501800","深坑區"
"208002","KEA-2872","2018/05/03 19:58:57","新北市金山區環金路77號","121.637541666667","25.217355","6502700","金山區"
"208003","665-BX","2018/05/03 19:58:57","新北市金山區海興路107號","121.633791666667","25.2428666666667","6502700","金山區"
"208001","761-BX","2018/05/03 19:59:01","新北市金山區南勢湖39號","121.61217","25.217845","6502700","金山區"
"251009","008-UM","2018/05/03 19:59:07","新北市淡水區英專路28巷2弄8-4號","121.445853333333","25.1697116666667","6501000","淡水區"
"251004","010-UM","2018/05/03 19:59:14","新北市淡水區民權路177巷7號","121.4609","25.1356283333333","6501000","淡水區"
"251001","011-UM","2018/05/03 19:59:13","新北市淡水區水源街二段194號","121.457125","25.1756483333333","6501000","淡水區"
"251013","KEA-2871","2018/05/03 19:59:00","新北市淡水區奎柔山路63號","121.451671666667","25.2062083333333","6501000","淡水區"
"251014","180-VK","2018/05/03 19:58:55","新北市淡水區石頭厝14-53號","121.464288333333","25.2366466666667","6501000","淡水區"
"251008","181-VK","2018/05/03 19:58:55","新北市淡水區淡海路72巷22號","121.424123333333","25.1810766666667","6501000","淡水區"
"251015","182-VK","2018/05/03 19:58:58","新北市淡水區商工路335號","121.46551","25.1858433333333","6501000","淡水區"
"251012","441-VK","2018/05/03 19:59:11","新北市淡水區下圭柔山100-3號","121.440786666667","25.2115183333333","6501000","淡水區"
"251005","443-VK","2018/05/03 19:59:12","新北市淡水區學府路136巷19號","121.451385","25.1727783333333","6501000","淡水區"
"251006","561-UM","2018/05/03 19:59:05","新北市淡水區北新路14號","121.444676666667","25.1774183333333","6501000","淡水區"
"251016","575-R6","2018/05/03 19:58:55","新北市淡水區淡金路四段496號","121.452058333333","25.2252916666667","6501000","淡水區"
"251011","650-BX","2018/05/03 19:59:05","新北市淡水區崁頂55-3號","121.44234","25.196605","6501000","淡水區"
"251003","673-BX","2018/05/03 19:59:06","新北市淡水區中山北路二段375號","121.44407","25.18738","6501000","淡水區"
"207003","550-UM","2018/05/03 19:59:05","新北市萬里區磺潭里公館崙5號","121.641873333333","25.2142466666667","6502800","萬里區"
"207004","225-TW","2018/05/03 19:58:59","新北市萬里區北基里忠一街1號","121.686376666667","25.1762016666667","6502800","萬里區"
"252002","178-VK","2018/05/03 19:59:09","新北市三芝區三民街39巷5號","121.505356666667","25.2576216666667","6502100","三芝區"
"252001","292-VK","2018/05/03 19:58:59","新北市三芝區公正街66號","121.499738333333","25.2574366666667","6502100","三芝區"
"237007","153-BY","2018/05/03 19:59:13","新北市三峽區麻園15-1號","121.363006666667","24.913305","6500900","三峽區"
"237009","210-TH","2018/05/03 19:59:03","新北市三峽區民族街78巷3號","121.368813333333","24.929855","6500900","三峽區"
"237012","275-BY","2018/05/03 19:59:01","新北市三峽區中華路64號","121.371656666667","24.9297966666667","6500900","三峽區"
"237008","302-VK","2018/05/03 19:59:00","新北市三峽區中正路一段292巷23號","121.370471666667","24.9258766666667","6500900","三峽區"
"237014","433-BY","2018/05/03 19:59:00","新北市三峽區添福139號","121.375373333333","24.900975","6500900","三峽區"
"237006","5529-G3","2018/05/03 19:59:03","新北市三峽區中正路二段168號","121.366065","24.91571","6500900","三峽區"
"237005","AKY-6261","2018/05/03 19:58:54","新北市三峽區民生街1巷5-2號","121.378675","24.9364733333333","6500900","三峽區"
"236070","105-UM","2018/05/03 19:59:01","新北市土城區忠義路77-1號","121.442825","24.9652416666667","6501300","土城區"
"236078","166-UM","2018/05/03 19:59:05","新北市土城區民生街4號","121.41471","24.9616016666667","6501300","土城區"
"236030","253-BX","2018/05/03 19:59:02","新北市土城區中央路一段256巷2號","121.444061666667","24.98455","6501300","土城區"
"236026","269-VK","2018/05/03 19:59:10","新北市土城區員林街1號","121.442478333333","24.9781783333333","6501300","土城區"
"236014","270-VK","2018/05/03 19:59:09","新北市土城區廣福街123號","121.456211666667","24.9928733333333","6501300","土城區"
"236038","271-VK","2018/05/03 19:59:05","新北市土城區國際路60號","121.46651","24.977545","6501300","土城區"
"236021","401-BY","2018/05/03 19:58:54","新北市土城區延吉街111巷12弄15-3號","121.471561666667","24.98495","6501300","土城區"
"236049","913-UM","2018/05/03 19:59:04","新北市土城區金城路三段97號","121.467205","24.98762","6501300","土城區"
"236063","915-UM","2018/05/03 19:59:10","新北市土城區金城路三段73巷11弄1號","121.46622","24.9878783333333","6501300","土城區"
"236055","AAC-216","2018/05/03 19:58:59","新北市土城區立德路28號","121.463113333333","24.9875816666667","6501300","土城區"
"242034","AAC-296","2018/05/03 19:58:52","新北市新莊區建中街104號","121.446356666667","25.0365866666667","6500500","新莊區"
"242058","986-R7","2018/05/03 19:58:59","新北市新莊區八德街1號","121.42562","25.022785","6500500","新莊區"
"242053","751-BX","2018/05/03 19:59:10","新北市新莊區西盛街422號","121.427158333333","25.0120833333333","6500500","新莊區"
"242025","613-BX","2018/05/03 19:59:08","新北市新莊區五工二路86巷39號","121.460703333333","25.067375","6500500","新莊區"
"242029","612-BX","2018/05/03 19:59:07","新北市新莊區中原路331號","121.445895","25.0541416666667","6500500","新莊區"
"242046","497-BY","2018/05/03 19:59:00","新北市新莊區裕民街19巷4號","121.419691666667","25.0251966666667","6500500","新莊區"
"242039","442-UM","2018/05/03 19:58:58","新北市新莊區民安路316號","121.42848","25.022075","6500500","新莊區"
"242051","441-UM","2018/05/03 19:59:09","新北市新莊區西盛街137號","121.428195","25.0185383333333","6500500","新莊區"
"242007","413-TV","2018/05/03 19:58:58","新北市新莊區思源路585號","121.459588333333","25.0593983333333","6500500","新莊區"
"242044","400-BY","2018/05/03 19:59:09","新北市新莊區中正路746巷25-2號","121.410683333333","25.02414","6500500","新莊區"
"242023","362-BY","2018/05/03 19:59:09","新北市新莊區化成路197號","121.465888333333","25.0506083333333","6500500","新莊區"
"242031","135-UY","2018/05/03 19:59:06","新北市新莊區公園一路61號","121.443036666667","25.0364083333333","6500500","新莊區"
"242048","172-VK","2018/05/03 19:59:09","新北市新莊區民安路138號","121.424161666667","25.0253733333333","6500500","新莊區"
"242011","173-VK","2018/05/03 19:59:06","新北市新莊區中港路531巷21號","121.450633333333","25.051395","6500500","新莊區"
"242017","175-VK","2018/05/03 19:59:14","新北市新莊區中華路二段45巷2號","121.452936666667","25.0465416666667","6500500","新莊區"
"242004","176-VK","2018/05/03 19:59:03","新北市新莊區頭前路96號","121.463648333333","25.0525133333333","6500500","新莊區"
"242015","346-TH","2018/05/03 19:59:07","新北市新莊區泰安街44號","121.446896666667","25.0423716666667","6500500","新莊區"
"242021","347-TH","2018/05/03 19:59:11","新北市新莊區建中街16巷29號","121.449015","25.0385516666667","6500500","新莊區"
"242036","349-TH","2018/05/03 19:58:54","新北市新莊區建安街41巷2號","121.428891666667","25.0254616666667","6500500","新莊區"
"242019","350-TH","2018/05/03 19:59:07","新北市新莊區長青街35巷9號","121.45685","25.0417683333333","6500500","新莊區"
"242013","351-TH","2018/05/03 19:59:06","新北市新莊區幸福路672號","121.450991666667","25.0494416666667","6500500","新莊區"
"238015","755-BX","2018/05/03 19:58:58","新北市樹林區中山路三段206-3號","121.382873333333","24.9663583333333","6500700","樹林區"
"238023","601-UM","2018/05/03 19:58:51","新北市樹林區中正路246號","121.417751666667","25.0071333333333","6500700","樹林區"
"238021","KEA-2539","2018/05/03 19:59:00","新北市樹林區田尾街247號","121.39733","24.9487233333333","6500700","樹林區"
"238017","283-BY","2018/05/03 19:59:04","新北市樹林區保安街二段107巷1弄5號","121.415178333333","25.0008533333333","6500700","樹林區"
"238026","172-UY","2018/05/03 19:58:22","新北市樹林區佳園路二段15巷9弄19號","121.394303333333","24.96368","6500700","樹林區"
"239006","891-R6","2018/05/03 19:59:06","新北市鶯歌區文化路145巷4號","121.356611666667","24.954015","6500800","鶯歌區"
"239003","360-BY","2018/05/03 19:59:05","新北市鶯歌區二甲路12-2號","121.345841666667","24.9350183333333","6500800","鶯歌區"
"221008","489-VK","2018/05/03 19:59:06","新北市汐止區康寧街13號","121.617806666667","25.0675366666667","6501100","汐止區"
"221036","130-UY","2018/05/03 19:59:02","新北市汐止區新台五路二段85巷20號","121.664246666667","25.0675116666667","6501100","汐止區"
"221015","131-UY","2018/05/03 19:58:30","新北市汐止區橋東街9號","121.66657","25.0760233333333","6501100","汐止區"
"221010","269-BY","2018/05/03 19:59:14","新北市汐止區八連路一段86巷1號","121.644595","25.0803333333333","6501100","汐止區"
"221012","278-VK","2018/05/03 19:59:14","新北市汐止區大同路三段194號","121.674483333333","25.0742233333333","6501100","汐止區"
"221023","279-VK","2018/05/03 19:59:09","新北市汐止區明峰街190號","121.628126666667","25.069565","6501100","汐止區"
"221027","281-BY","2018/05/03 19:58:56","新北市汐止區中正路81號","121.661361666667","25.0694216666667","6501100","汐止區"
"221029","298-VK","2018/05/03 19:58:53","新北市汐止區樟樹一路137巷26號","121.641013333333","25.0659916666667","6501100","汐止區"
"221021","299-VK","2018/05/03 19:58:58","新北市汐止區新台五路一段208-18號","121.6556","25.0627183333333","6501100","汐止區"
"221031","353-TW","2018/05/03 19:59:09","新北市汐止區福德一路176巷2號","121.635663333333","25.0661683333333","6501100","汐止區"
"221035","622-UM","2018/05/03 19:58:56","新北市汐止區長江街35號","121.65565","25.07138","6501100","汐止區"
"221025","623-UM","2018/05/03 19:59:00","新北市汐止區秀峰路109巷26弄8號","121.660995","25.06348","6501100","汐止區"
"221038","646-BX","2018/05/03 19:59:11","新北市汐止區忠孝東路471號","121.666093333333","25.072945","6501100","汐止區"
"221033","647-BX","2018/05/03 19:59:08","新北市汐止區東勢街215巷2號","121.634508333333","25.04299","6501100","汐止區"
"221018","753-BX","2018/05/03 19:59:07","新北市汐止區茄苳路181號","121.669888333333","25.069405","6501100","汐止區"
"220079","145-BY","2018/05/03 19:59:01","新北市板橋區南雅西路二段183號","121.451791666667","25.0127466666667","6500100","板橋區"
"220080","200-UY","2018/05/03 19:59:02","新北市板橋區大觀路二段37巷36號","121.448556666667","25.00269","6500100","板橋區"
"242002","KEA-2550","2018/05/03 19:59:06","新北市新莊區中正路176號","121.45066","25.0358483333333","6500500","新莊區"
"220082","610-BX","2018/05/03 19:59:03","新北市板橋區大觀路三段121號","121.432711666667","24.9945366666667","6500100","板橋區"
"220101","245-BX","2018/05/03 19:58:57","新北市板橋區縣民大道三段97巷2號","121.476081666667","25.0221383333333","6500100","板橋區"
"220072","277-BY","2018/05/03 19:59:09","新北市板橋區金門街139號","121.43288","24.9911483333333","6500100","板橋區"
"220094","283-UM","2018/05/03 19:59:06","新北市板橋區陽明街243號","121.462935","25.0245316666667","6500100","板橋區"
"220071","283-VK","2018/05/03 19:59:13","新北市板橋區五權街30巷24弄1號","121.46383","24.9931633333333","6500100","板橋區"
"220053","285-VK","2018/05/03 19:58:40","新北市板橋區中山路二段90巷42號","121.475873333333","25.0152416666667","6500100","板橋區"
"220083","286-VK","2018/05/03 19:59:01","新北市板橋區僑中二街52號","121.446623333333","25.0099933333333","6500100","板橋區"
"220081","287-VK","2018/05/03 19:58:56","新北市板橋區大觀路一段28巷88號","121.449753333333","25.0109983333333","6500100","板橋區"
"220090","288-VK","2018/05/03 19:59:05","新北市板橋區幸福路32巷2弄45號","121.460653333333","25.0222","6500100","板橋區"
"220061","293-UM","2018/05/03 19:59:07","新北市板橋區中山路一段283巷2弄2-3號","121.470166666667","25.014495","6500100","板橋區"
"220084","296-UM","2018/05/03 19:59:08","新北市板橋區溪崑二街112巷12號","121.426031666667","24.9889233333333","6500100","板橋區"
"220075","303-R5","2018/05/03 19:59:12","新北市板橋區金華街10巷48弄75號","121.459746666667","25.0203533333333","6500100","板橋區"
"220062","305-R5","2018/05/03 19:59:03","新北市板橋區中山路二段613號","121.485495","25.02255","6500100","板橋區"
"220092","307-R5","2018/05/03 19:59:15","新北市板橋區互助街100號","121.459888333333","25.026185","6500100","板橋區"
"220098","317-R6","2018/05/03 19:59:02","新北市板橋區新海路135巷1號","121.46075","25.0233633333333","6500100","板橋區"
"220064","486-VK","2018/05/03 19:58:23","新北市板橋區區運路82號","121.466678333333","25.0103333333333","6500100","板橋區"
"242056","280-VK","2018/05/03 19:59:08","新北市新莊區中正路347巷17-1號","121.447503333333","25.0344383333333","6500500","新莊區"
"220088","491-VK","2018/05/03 19:59:02","新北市板橋區懷德街180號","121.479515","25.0298083333333","6500100","板橋區"
"220035","560-BX","2018/05/03 19:58:56","新北市板橋區新生街53巷3弄12號","121.457078333333","25.021815","6500100","板橋區"
"220103","561-BX","2018/05/03 19:59:09","新北市板橋區陽明街29巷1弄24號","121.464043333333","25.022175","6500100","板橋區"
"220063","609-BX","2018/05/03 19:59:13","新北市板橋區中山路二段98號","121.47554","25.0164733333333","6500100","板橋區"
"220055","630-UY","2018/05/03 19:59:13","新北市板橋區仁愛路62巷11號","121.459928333333","24.9987733333333","6500100","板橋區"
"220091","637-BX","2018/05/03 19:59:02","新北市板橋區文聖街89巷20號","121.478035","25.030235","6500100","板橋區"
"220057","686-BX","2018/05/03 19:58:57","新北市板橋區南雅南路二段49號","121.451468333333","24.994385","6500100","板橋區"
"220093","689-BX","2018/05/03 19:58:56","新北市板橋區文化路二段503號","121.476083333333","25.034455","6500100","板橋區"
"220054","741-BX","2018/05/03 19:59:04","新北市板橋區忠孝路201巷54號","121.464886666667","25.0039366666667","6500100","板橋區"
"220102","KEA-2699","2018/05/03 19:58:52","新北市板橋區仁化街56號","121.475675","25.0315266666667","6500100","板橋區"
"220067","829-TW","2018/05/03 19:58:55","新北市板橋區漢生東路193巷45弄13號","121.471971666667","25.0123416666667","6500100","板橋區"
"220096","830-TW","2018/05/03 19:59:10","新北市板橋區莒光路79巷7號","121.47185","25.024505","6500100","板橋區"
"220089","833-TW","2018/05/03 19:58:55","新北市板橋區龍泉街56-1號","121.457075","25.0259916666667","6500100","板橋區"
"220074","895-R6","2018/05/03 19:58:55","新北市板橋區文化路一段52巷10號","121.460545","25.0115383333333","6500100","板橋區"
"220073","985-R7","2018/05/03 19:59:14","新北市板橋區南雅西路二段157號","121.452045","25.0121383333333","6500100","板橋區"
"220097","AAC-210","2018/05/03 19:58:54","新北市板橋區國光路200號","121.461763333333","25.0185183333333","6500100","板橋區"
"220070","AAC-253","2018/05/03 19:59:01","新北市板橋區成都街1號","121.460038333333","25.0048866666667","6500100","板橋區"
