"lineid","car","time","location","longitude","latitude","cityid","cityname"
"234064","337-UY","2018/05/03 20:38:59","新北市永和區環河西路二段167號","121.505148333333","25.0137816666667","6500400","永和區"
"234086","338-UY","2018/05/03 20:39:05","新北市中和區橋和路281巷1號","121.495426666667","25.00774","6500400","永和區"
"234030","746-BX","2018/05/03 20:38:58","新北市板橋區長江路二段311巷18-1號","121.470545","25.036135","6500400","永和區"
"234054","KEA-2590","2018/05/03 20:38:52","新北市永和區環河東路一段80號","121.519568333333","25.0164266666667","6500400","永和區"
"234061","AAD-866","2018/05/03 20:38:58","新北市永和區秀朗路一段108巷6號","121.516286666667","25.0036966666667","6500400","永和區"
"249001","173-UM","2018/05/03 20:39:05","新北市八里區中山路三段367號","121.373486666667","25.1379516666667","6502300","八里區"
"249004","303-UY","2018/05/03 20:38:53","新北市八里區中山路一段219號","121.411228333333","25.1578433333333","6502300","八里區"
"234023","9380-KE","2018/05/03 20:39:00","新北市永和區博愛街32巷13號","121.518883333333","25.0153366666667","6500400","永和區"
"234077","969-R7","2018/05/03 20:39:03","新北市五股區新城三路61號","121.449193333333","25.094","6500400","永和區"
"234074","AAC-211","2018/05/03 20:38:57","新北市永和區竹林路119巷30弄1號","121.52209","25.0117","6500400","永和區"
"243016","380-SR","2018/05/03 20:38:50","新北市泰山區明志路二段289號","121.42674","25.04689","6501600","泰山區"
"243015","421-VK","2018/05/03 20:39:05","新北市泰山區橫窠雅36號","121.40377","25.0729916666667","6501600","泰山區"
"243011","KEA-2215","2018/05/03 20:38:59","新北市泰山區公園路67-1號","121.426705","25.055135","6501600","泰山區"
"243010","KEA-2216","2018/05/03 20:38:56","新北市泰山區橫窠雅8-12號","121.416266666667","25.0664583333333","6501600","泰山區"
"222003","436-BY","2018/05/03 20:39:00","新北市深坑區深坑街165號","121.61274","25.0007666666667","6501800","深坑區"
"222002","659-BX","2018/05/03 20:38:56","新北市深坑區萬福路45號","121.599518333333","25.0068183333333","6501800","深坑區"
"231059","046-UY","2018/05/03 20:39:02","新北市新店區僑信路132巷9號","121.500428333333","24.9456","6500600","新店區"
"231040","047-UY","2018/05/03 20:39:05","新北市新店區中正路274號","121.538871666667","24.97361","6500600","新店區"
"231044","106-UY","2018/05/03 20:38:48","新北市新店區建國路293巷1號","121.536665","24.9861633333333","6500600","新店區"
"231052","108-UY","2018/05/03 20:39:06","新北市新店區松林路7號","121.547081666667","24.9113933333333","6500600","新店區"
"231047","187-VK","2018/05/03 20:38:59","新北市新店區寶慶街5號","121.544268333333","24.9866266666667","6500600","新店區"
"231054","KEA-2219","2018/05/03 20:39:07","新北市新店區行政街30號","121.542816666667","24.9655166666667","6500600","新店區"
"231057","256-BX","2018/05/03 20:39:05","新北市新店區花園六路二段9-2號","121.555713333333","24.9329783333333","6500600","新店區"
"231051","278-BY","2018/05/03 20:39:02","新北市新店區中央八街112號","121.525858333333","24.97796","6500600","新店區"
"231050","AAD-862","2018/05/03 20:39:00","新北市新店區中正路270號","121.538995","24.9735783333333","6500600","新店區"
"231058","3713-VJ","2018/05/03 20:38:52","新北市新店區平等街31號","121.536625","24.9735616666667","6500600","新店區"
"231066","4716-K9","2018/05/03 20:38:59","新北市新店區安民街341-1號","121.516913333333","24.9749316666667","6500600","新店區"
"231056","4715-K9","2018/05/03 20:39:02","新北市新店區中央六街16號","121.5298","24.97469","6500600","新店區"
"231065","512-UM","2018/05/03 20:39:04","新北市新店區安祥路102巷87號","121.487155","24.9635216666667","6500600","新店區"
"231049","513-UM","2018/05/03 20:38:54","新北市新店區永業路81巷5弄32號","121.531045","24.949775","6500600","新店區"
"231042","515-UM","2018/05/03 20:38:59","新北市新店區寶橋路238號","121.55158","24.9789233333333","6500600","新店區"
"231063","616-UM","2018/05/03 20:38:50","新北市新店區玫瑰路4-1號","121.493603333333","24.951365","6500600","新店區"
"231041","618-UM","2018/05/03 20:39:05","新北市新店區中正路543-4號","121.533706666667","24.98749","6500600","新店區"
"231061","619-UM","2018/05/03 20:38:52","新北市新店區新和街34號","121.519218333333","24.984835","6500600","新店區"
"231068","718-UY","2018/05/03 20:38:52","新北市新店區寶元路一段61號","121.54218","24.9859733333333","6500600","新店區"
"231064","719-UM","2018/05/03 20:38:57","新北市新店區安和路三段175號","121.515665","24.9862566666667","6500600","新店區"
"231062","720-UM","2018/05/03 20:38:54","新北市新店區安泰路60巷55-7號","121.484061666667","24.9453466666667","6500600","新店區"
"231060","897-TW","2018/05/03 20:39:07","新北市新店區安康路三段738號","121.47381","24.9420133333333","6500600","新店區"
"231045","898-TW","2018/05/03 20:38:59","新北市新店區長春路22號","121.549876666667","24.95747","6500600","新店區"
"231043","899-TW","2018/05/03 20:38:54","新北市新店區建國路12-1號","121.540086666667","24.9737383333333","6500600","新店區"
"241011","013-R5","2018/05/03 20:38:50","新北市三重區龍門路132號","121.498145","25.073025","6500200","三重區"
"241028","022-UY","2018/05/03 20:38:54","新北市三重區光興街93號","121.497346666667","25.05995","6500200","三重區"
"241008","059-VK","2018/05/03 20:38:54","新北市三重區下竹圍街89號","121.48115","25.0749466666667","6500200","三重區"
"241009","060-VK","2018/05/03 20:38:54","新北市三重區碧華街57號","121.484761666667","25.08133","6500200","三重區"
"241031","061-VK","2018/05/03 20:39:07","新北市三重區過圳街2號","121.488368333333","25.0588333333333","6500200","三重區"
"241015","062-VK","2018/05/03 20:38:53","新北市三重區文化北路103號","121.497903333333","25.0684383333333","6500200","三重區"
"241017","063-VK","2018/05/03 20:38:57","新北市三重區大同北路273號","121.490771666667","25.0673916666667","6500200","三重區"
"241024","065-VK","2018/05/03 20:38:58","新北市三重區中正北路310號","121.47938","25.0690933333333","6500200","三重區"
"241026","066-VK","2018/05/03 20:39:00","新北市三重區環河南路7號","121.503988333333","25.0631716666667","6500200","三重區"
"241002","090-VK","2018/05/03 20:39:06","新北市三重區仁義街167巷43號","121.498468333333","25.082305","6500200","三重區"
"241003","091-VK","2018/05/03 20:39:05","新北市三重區五華街141巷58號","121.493573333333","25.0867666666667","6500200","三重區"
"241005","262-UM","2018/05/03 20:39:07","新北市三重區碧華街387號","121.492896666667","25.0855783333333","6500200","三重區"
"241016","266-UM","2018/05/03 20:38:54","新北市三重區長壽西街143-3號","121.494291666667","25.0666983333333","6500200","三重區"
"241022","267-UM","2018/05/03 20:39:06","新北市三重區新北大道一段46巷18弄11號","121.488415","25.0620183333333","6500200","三重區"
"241018","268-UM","2018/05/03 20:38:52","新北市三重區自強路一段193-1號","121.49179","25.0682216666667","6500200","三重區"
"241032","269-UM","2018/05/03 20:39:03","新北市三重區重陽路一段120巷35號","121.485218333333","25.060295","6500200","三重區"
"241013","270-UM","2018/05/03 20:38:59","新北市三重區三和路四段1號","121.491583333333","25.0741633333333","6500200","三重區"
"241007","398-BY","2018/05/03 20:39:03","新北市三重區三和路四段101巷9號","121.488326666667","25.07691","6500200","三重區"
"241035","KEA-2210","2018/05/03 20:38:57","新北市三重區正義北路268號","121.495893333333","25.06884","6500200","三重區"
"241004","475-VK","2018/05/03 20:39:00","新北市三重區仁愛街406巷3號","121.490643333333","25.081245","6500200","三重區"
"241020","478-VK","2018/05/03 20:38:53","新北市三重區忠孝路一段101號","121.489513333333","25.072055","6500200","三重區"
"241030","480-VK","2018/05/03 20:39:08","新北市三重區成功路73巷20號","121.489413333333","25.0520283333333","6500200","三重區"
"241014","543-UM","2018/05/03 20:39:05","新北市三重區三和路二段156號","121.49935","25.0684483333333","6500200","三重區"
"241023","545-UM","2018/05/03 20:38:53","新北市三重區自由街33號","121.479251666667","25.066785","6500200","三重區"
"241001","547-UM","2018/05/03 20:38:48","新北市三重區三和路四段160巷76號","121.485805","25.074905","6500200","三重區"
"241019","KEA-2593","2018/05/03 20:38:59","新北市三重區重陽路四段77號","121.492415","25.0708566666667","6500200","三重區"
"241025","887-TS","2018/05/03 20:38:55","新北市三重區頂崁街206巷40號","121.475685","25.0663466666667","6500200","三重區"
"241012","941-UM","2018/05/03 20:38:56","新北市三重區河邊北街174巷1號","121.503073333333","25.0734516666667","6500200","三重區"
"241029","942-UM","2018/05/03 20:39:01","新北市三重區集美街126巷27號","121.490161666667","25.0538416666667","6500200","三重區"
"235039","097-UM","2018/05/03 20:39:01","新北市中和區大勇街29巷15號","121.515841666667","24.9945283333333","6500300","中和區"
"235069","4980-A6","2018/05/03 20:39:00","新北市中和區連城路270號","121.484725","24.9963","6500300","中和區"
"247024","893-R6","2018/05/03 20:39:07","新北市蘆洲區長樂路56-2號","121.463096666667","25.0863316666667","6501400","蘆洲區"
"247014","546-UM","2018/05/03 20:39:09","新北市蘆洲區中山一路259號","121.472975","25.0801016666667","6501400","蘆洲區"
"247022","500-BY","2018/05/03 20:39:06","新北市蘆洲區中正路243巷7弄46號","121.467523333333","25.0857233333333","6501400","蘆洲區"
"247010","341-TH","2018/05/03 20:38:59","新北市蘆洲區集賢路385號","121.480428333333","25.0825516666667","6501400","蘆洲區"
"247012","339-TH","2018/05/03 20:38:56","新北市蘆洲區集賢路224巷46弄8號","121.481651666667","25.087755","6501400","蘆洲區"
"247004","337-TH","2018/05/03 20:39:04","新北市蘆洲區長安街297號","121.458038333333","25.0848416666667","6501400","蘆洲區"
"247006","336-TH","2018/05/03 20:38:54","新北市蘆洲區和平路186號","121.466276666667","25.0815816666667","6501400","蘆洲區"
"247008","056-VK","2018/05/03 20:38:59","新北市蘆洲區集賢路281號","121.481265","25.0829183333333","6501400","蘆洲區"
"247016","007-UY","2018/05/03 20:38:53","新北市蘆洲區中山二路179號","121.470918333333","25.0809516666667","6501400","蘆洲區"
"247002","002-UY","2018/05/03 20:38:55","新北市蘆洲區長安街375巷1號","121.456965","25.0877683333333","6501400","蘆洲區"
"247020","001-UY","2018/05/03 20:39:00","新北市蘆洲區民族路331號","121.473815","25.09168","6501400","蘆洲區"
"222001","KEA-2212","2018/05/03 20:38:50","新北市深坑區北深路三段232號","121.600751666667","25.0041166666667","6501800","深坑區"
"251009","008-UM","2018/05/03 20:38:55","新北市淡水區民族路112巷70號","121.461715","25.13392","6501000","淡水區"
"251001","011-UM","2018/05/03 20:38:53","新北市淡水區淡金路132號","121.457903333333","25.164775","6501000","淡水區"
"251013","KEA-2871","2018/05/03 20:39:00","新北市淡水區下圭柔山28巷29號","121.458268333333","25.2037983333333","6501000","淡水區"
"251014","180-VK","2018/05/03 20:38:55","新北市淡水區桂竹圍2-2號","121.473003333333","25.233545","6501000","淡水區"
"251008","181-VK","2018/05/03 20:38:55","新北市淡水區中正路二段397號","121.425198333333","25.19142","6501000","淡水區"
"251015","182-VK","2018/05/03 20:38:58","新北市淡水區淡金路四段542巷17號","121.452731666667","25.22708","6501000","淡水區"
"251010","413-VK","2018/05/03 20:38:52","新北市淡水區沙崙路181巷15號","121.423891666667","25.1844116666667","6501000","淡水區"
"251012","441-VK","2018/05/03 20:38:51","新北市淡水區興仁路105號","121.451566666667","25.2181283333333","6501000","淡水區"
"251007","442-VK","2018/05/03 20:39:00","新北市淡水區淡金路二段30號","121.452455","25.1809183333333","6501000","淡水區"
"251006","561-UM","2018/05/03 20:39:03","新北市淡水區商工路186巷33號","121.451035","25.1865966666667","6501000","淡水區"
"251016","575-R6","2018/05/03 20:38:51","新北市淡水區後洲子8-2號","121.449608333333","25.22399","6501000","淡水區"
"251011","650-BX","2018/05/03 20:39:05","新北市淡水區新市一路一段361號","121.43633","25.1862683333333","6501000","淡水區"
"251002","672-BX","2018/05/03 20:38:58","新北市淡水區中正路34-1號","121.44387","25.169305","6501000","淡水區"
"251003","673-BX","2018/05/03 20:39:06","新北市淡水區新民街120巷23號","121.438421666667","25.1781966666667","6501000","淡水區"
"252002","178-VK","2018/05/03 20:39:09","新北市三芝區淡金路二段81號","121.503818333333","25.2605283333333","6502100","三芝區"
"252001","292-VK","2018/05/03 20:38:59","新北市三芝區長安街34號","121.5016","25.2561566666667","6502100","三芝區"
"242034","AAC-296","2018/05/03 20:38:55","新北市新莊區中正路334巷25弄8號","121.445411666667","25.0361733333333","6500500","新莊區"
"242058","986-R7","2018/05/03 20:38:59","新北市新莊區四維路160號","121.422618333333","25.0223566666667","6500500","新莊區"
"242053","751-BX","2018/05/03 20:39:01","新北市新莊區西盛街323巷3號","121.428343333333","25.01477","6500500","新莊區"
"242061","705-TV","2018/05/03 20:38:51","新北市新莊區新樹路284號","121.432541666667","25.0125666666667","6500500","新莊區"
"242027","615-BX","2018/05/03 20:38:47","新北市新莊區思源路41號","121.4601","25.0398","6500500","新莊區"
"242025","613-BX","2018/05/03 20:39:03","新北市新莊區化成路579巷1號","121.464366666667","25.0661083333333","6500500","新莊區"
"242029","612-BX","2018/05/03 20:39:07","新北市新莊區中華路二段21號","121.453695","25.0458116666667","6500500","新莊區"
"242042","566-BX","2018/05/03 20:39:03","新北市新莊區中正路694巷47號","121.417885","25.0291083333333","6500500","新莊區"
"242046","497-BY","2018/05/03 20:39:00","新北市新莊區龍安路108號","121.418381666667","25.0203816666667","6500500","新莊區"
"242039","442-UM","2018/05/03 20:38:58","新北市新莊區瓊林路73號","121.436355","25.0217633333333","6500500","新莊區"
"242051","441-UM","2018/05/03 20:39:08","新北市新莊區西盛街260號","121.42791","25.0158383333333","6500500","新莊區"
"242007","413-TV","2018/05/03 20:38:58","新北市新莊區思源路287巷1弄1號","121.459391666667","25.0482883333333","6500500","新莊區"
"242044","400-BY","2018/05/03 20:39:08","新北市新莊區中正路新生巷85弄1號","121.417041666667","25.0217666666667","6500500","新莊區"
"242023","362-BY","2018/05/03 20:38:49","新北市新莊區化成路414號","121.465983333333","25.0508316666667","6500500","新莊區"
"242009","132-UY","2018/05/03 20:39:01","新北市新莊區福壽街99巷15弄5號","121.456888333333","25.0502466666667","6500500","新莊區"
"242031","135-UY","2018/05/03 20:39:02","新北市新莊區中正路508巷5弄2號","121.435016666667","25.0338116666667","6500500","新莊區"
"242048","172-VK","2018/05/03 20:38:49","新北市新莊區中正路671號","121.426665","25.0301066666667","6500500","新莊區"
"242011","173-VK","2018/05/03 20:31:46","新北市新莊區中信街40號","121.449856666667","25.0509266666667","6500500","新莊區"
"242017","175-VK","2018/05/03 20:39:07","新北市新莊區中和街64號","121.447803333333","25.0457983333333","6500500","新莊區"
"242015","346-TH","2018/05/03 20:39:07","新北市新莊區中和街8號","121.44848","25.0430816666667","6500500","新莊區"
"242021","347-TH","2018/05/03 20:38:56","新北市新莊區中華路一段73號","121.452223333333","25.0400366666667","6500500","新莊區"
"242036","349-TH","2018/05/03 20:38:54","新北市新莊區建安街10-1號","121.428528333333","25.0265233333333","6500500","新莊區"
"242019","350-TH","2018/05/03 20:39:07","新北市新莊區中港路50號","121.45538","25.0383316666667","6500500","新莊區"
"242013","351-TH","2018/05/03 20:39:06","新北市新莊區中和街175巷9號","121.447185","25.0504383333333","6500500","新莊區"
"221008","489-VK","2018/05/03 20:38:56","新北市汐止區康寧街706-1號","121.638106666667","25.072715","6501100","汐止區"
"221036","130-UY","2018/05/03 20:39:02","新北市汐止區新昌路70號","121.663568333333","25.0687516666667","6501100","汐止區"
"221015","131-UY","2018/05/03 20:38:57","新北市汐止區建成路50號","121.663836666667","25.072835","6501100","汐止區"
"221023","279-VK","2018/05/03 20:39:09","新北市汐止區明峰街11號","121.635226666667","25.0713566666667","6501100","汐止區"
"221032","280-BY","2018/05/03 20:39:00","新北市汐止區弘道街53巷30弄2號","121.618831666667","25.05006","6501100","汐止區"
"221027","281-BY","2018/05/03 20:38:56","新北市汐止區大同路二段567號","121.662871666667","25.0699066666667","6501100","汐止區"
"221029","298-VK","2018/05/03 20:38:53","新北市汐止區大同路一段421號","121.642688333333","25.06097","6501100","汐止區"
"221021","299-VK","2018/05/03 20:38:58","新北市汐止區水源路一段290號","121.654088333333","25.0580416666667","6501100","汐止區"
"221031","353-TW","2018/05/03 20:38:48","新北市汐止區中興路62號","121.635238333333","25.06134","6501100","汐止區"
"221035","622-UM","2018/05/03 20:38:56","新北市汐止區長江街101-5號","121.658723333333","25.07315","6501100","汐止區"
"221025","623-UM","2018/05/03 20:39:00","新北市汐止區水源路二段183號","121.657795","25.0535983333333","6501100","汐止區"
"221038","646-BX","2018/05/03 20:38:51","新北市汐止區大同路二段269號","121.652321666667","25.066925","6501100","汐止區"
"221033","647-BX","2018/05/03 20:39:08","新北市汐止區合順街18巷8弄5號","121.620355","25.0419","6501100","汐止區"
"221002","707-TV","2018/05/03 20:39:07","新北市汐止區福德二路132巷2號","121.631093333333","25.06529","6501100","汐止區"
"221018","753-BX","2018/05/03 20:38:47","新北市汐止區茄苳路107號","121.667598333333","25.07135","6501100","汐止區"
"242002","KEA-2550","2018/05/03 20:39:07","新北市新莊區中正路147-8號","121.45752","25.0371383333333","6500500","新莊區"
"242056","280-VK","2018/05/03 20:39:09","新北市新莊區瓊泰路71號","121.443235","25.0288783333333","6500500","新莊區"
"220103","561-BX","2018/05/03 20:38:58","新北市板橋區漢生東路37號","121.46549","25.0168533333333","6500100","板橋區"
"220070","AAC-253","2018/05/03 20:39:01","新北市五股區凌雲路三段24巷7號","121.437968333333","25.1064616666667","6500100","板橋區"
