"lineid","car","time","location","longitude","latitude","cityid","cityname"
"234077","969-R7","2018/05/03 21:18:44","新北市八里區中山路三段380號","121.36948","25.1363216666667","6500400","永和區"
"231059","046-UY","2018/05/03 21:18:42","新北市新店區薏仁坑路自強巷1號","121.496711666667","24.9579516666667","6500600","新店區"
"231040","047-UY","2018/05/03 21:18:46","新北市新店區北新路一段217號","121.540505","24.9652116666667","6500600","新店區"
"231047","187-VK","2018/05/03 21:18:39","新北市新店區民族路192號","121.53608","24.975395","6500600","新店區"
"231054","KEA-2219","2018/05/03 21:18:47","新北市新店區檳榔路11-1號","121.541146666667","24.9646166666667","6500600","新店區"
"231051","278-BY","2018/05/03 21:18:41","新北市新店區中正路700巷322-10號","121.534035","24.9935616666667","6500600","新店區"
"231050","AAD-862","2018/05/03 21:18:37","新北市新店區中華路145號","121.538228333333","24.970215","6500600","新店區"
"231063","616-UM","2018/05/03 21:18:50","新北市新店區吉祥街15巷1號","121.497696666667","24.9455966666667","6500600","新店區"
"231061","619-UM","2018/05/03 21:18:52","新北市新店區永平街27號","121.51683","24.9836116666667","6500600","新店區"
"241011","013-R5","2018/05/03 21:18:50","新北市三重區龍濱路114號","121.50221","25.070255","6500200","三重區"
"241028","022-UY","2018/05/03 21:18:34","新北市三重區正義南路169號","121.49896","25.0575183333333","6500200","三重區"
"241008","059-VK","2018/05/03 21:18:54","新北市三重區自強路一段64號","121.497253333333","25.0665233333333","6500200","三重區"
"241009","060-VK","2018/05/03 21:18:54","新北市三重區忠孝路二段160號","121.482195","25.067985","6500200","三重區"
"241031","061-VK","2018/05/03 21:18:47","新北市三重區五谷王南街46巷37號","121.475736666667","25.0455116666667","6500200","三重區"
"241017","063-VK","2018/05/03 21:18:38","新北市三重區中正北路25巷25弄3號","121.49336","25.0624566666667","6500200","三重區"
"241024","065-VK","2018/05/03 21:18:38","新北市三重區中正北路145巷14號","121.484138333333","25.0677533333333","6500200","三重區"
"241026","066-VK","2018/05/03 21:18:40","新北市三重區大同南路220號","121.496838333333","25.0562166666667","6500200","三重區"
"241002","090-VK","2018/05/03 21:18:46","新北市三重區五華街20號","121.494836666667","25.08038","6500200","三重區"
"241003","091-VK","2018/05/03 21:18:44","新北市三重區仁義街329號","121.495365","25.08467","6500200","三重區"
"241005","262-UM","2018/05/03 21:18:47","新北市三重區三信路186號","121.48788","25.0861116666667","6500200","三重區"
"241016","266-UM","2018/05/03 21:18:54","新北市三重區自強路一段162號","121.495411666667","25.066355","6500200","三重區"
"241018","268-UM","2018/05/03 21:18:52","新北市三重區忠孝路二段128號","121.48283","25.0686316666667","6500200","三重區"
"241032","269-UM","2018/05/03 21:18:42","新北市三重區中興北街265號","121.469263333333","25.0599233333333","6500200","三重區"
"241013","270-UM","2018/05/03 21:18:40","新北市三重區仁愛街81-1號","121.495983333333","25.073215","6500200","三重區"
"241007","398-BY","2018/05/03 21:18:43","新北市三重區自強路三段72號","121.486806666667","25.0735416666667","6500200","三重區"
"241004","475-VK","2018/05/03 21:18:40","新北市三重區仁愛街423-1號","121.490381666667","25.0814766666667","6500200","三重區"
"241030","480-VK","2018/05/03 21:18:48","新北市三重區五谷王北街161-1號","121.4767","25.0541566666667","6500200","三重區"
"241014","543-UM","2018/05/03 21:18:45","新北市三重區萬全街18號","121.49934","25.06974","6500200","三重區"
"241023","545-UM","2018/05/03 21:18:52","新北市三重區中正北路176巷27號","121.482603333333","25.0659533333333","6500200","三重區"
"241001","547-UM","2018/05/03 21:18:48","新北市三重區碧華街309號","121.49083","25.0841133333333","6500200","三重區"
"241019","KEA-2593","2018/05/03 21:18:39","新北市三重區自強路二段74巷21號","121.487966666667","25.0698266666667","6500200","三重區"
"241006","AAD-863","2018/05/03 21:18:53","新北市三重區重陽路二段67號","121.48776","25.0638283333333","6500200","三重區"
"241025","887-TS","2018/05/03 21:18:55","新北市三重區中正北路208巷8號","121.482328333333","25.0669833333333","6500200","三重區"
"241012","941-UM","2018/05/03 21:18:36","新北市三重區龍門路239號","121.501955","25.0740066666667","6500200","三重區"
"247024","893-R6","2018/05/03 21:18:47","新北市蘆洲區光明路96號","121.4631","25.0879483333333","6501400","蘆洲區"
"247014","546-UM","2018/05/03 21:18:42","新北市蘆洲區保和街50-6號","121.469848333333","25.0862883333333","6501400","蘆洲區"
"247022","500-BY","2018/05/03 21:18:46","新北市蘆洲區三民路243號","121.469028333333","25.0888883333333","6501400","蘆洲區"
"247010","341-TH","2018/05/03 21:18:54","新北市蘆洲區鷺江街23號","121.478841666667","25.0824283333333","6501400","蘆洲區"
"247012","339-TH","2018/05/03 21:18:16","新北市蘆洲區民族路236巷8號","121.480295","25.08852","6501400","蘆洲區"
"247004","337-TH","2018/05/03 21:18:44","新北市蘆洲區環堤大道2-1號","121.456931666667","25.0825766666667","6501400","蘆洲區"
"247006","336-TH","2018/05/03 21:18:35","新北市蘆洲區長安街51號","121.463235","25.079615","6501400","蘆洲區"
"247018","057-VK","2018/05/03 21:18:46","新北市蘆洲區民族路227巷29號","121.476461666667","25.0884983333333","6501400","蘆洲區"
"247008","056-VK","2018/05/03 21:18:39","新北市蘆洲區中山一路95巷20弄33號","121.476248333333","25.080095","6501400","蘆洲區"
"247002","002-UY","2018/05/03 21:18:35","新北市蘆洲區永樂街38巷27號","121.458196666667","25.089165","6501400","蘆洲區"
"247020","001-UY","2018/05/03 21:18:44","新北市蘆洲區仁愛街48號","121.47176","25.0935083333333","6501400","蘆洲區"
"251009","008-UM","2018/05/03 21:18:56","新北市淡水區民族路112巷1號","121.462668333333","25.1351816666667","6501000","淡水區"
"251001","011-UM","2018/05/03 21:18:53","新北市淡水區中山北路二段381巷122號","121.443291666667","25.1858766666667","6501000","淡水區"
"251013","KEA-2871","2018/05/03 21:18:40","新北市淡水區行忠路328號","121.460523333333","25.1996333333333","6501000","淡水區"
"251014","180-VK","2018/05/03 21:18:55","新北市淡水區六塊厝2-1號","121.450138333333","25.24043","6501000","淡水區"
"251008","181-VK","2018/05/03 21:18:34","新北市淡水區水源街二段238號","121.461008333333","25.17632","6501000","淡水區"
"251015","182-VK","2018/05/03 21:18:44","新北市淡水區淡金路四段542巷83弄12號","121.456128333333","25.2269633333333","6501000","淡水區"
"251010","413-VK","2018/05/03 21:18:52","新北市淡水區中正路一段156巷8號","121.42164","25.1807083333333","6501000","淡水區"
"251012","441-VK","2018/05/03 21:18:51","新北市淡水區淡金路五段35巷46號","121.452505","25.2347766666667","6501000","淡水區"
"251005","443-VK","2018/05/03 21:18:52","新北市淡水區仁愛街18巷4號","121.446973333333","25.17036","6501000","淡水區"
"251006","561-UM","2018/05/03 21:18:44","新北市淡水區沙崙路1號","121.420313333333","25.1807666666667","6501000","淡水區"
"251016","575-R6","2018/05/03 21:18:51","新北市淡水區前洲子28號","121.441038333333","25.2192166666667","6501000","淡水區"
"251011","650-BX","2018/05/03 21:18:45","新北市淡水區新民街152巷6弄22號","121.438895","25.1787333333333","6501000","淡水區"
"251003","673-BX","2018/05/03 21:18:46","新北市淡水區新春街90號","121.43889","25.1823533333333","6501000","淡水區"
"242051","441-UM","2018/05/03 21:18:48","新北市八里區商港路105巷15號","121.38968","25.14814","6500500","新莊區"
"220070","AAC-253","2018/05/03 21:18:40","新北市八里區荖阡坑路22-5號","121.398676666667","25.1349766666667","6500100","板橋區"
