"lineid","car","time","location","longitude","latitude","cityid","cityname"
"231063","616-UM","2018/05/03 21:58:56","新北市新店區安華路28-1號","121.519395","24.9606083333333","6500600","新店區"
"235010","733-UM","2018/05/03 21:41:17","新北市中和區員山路36巷13號","121.484166666667","24.990815","6500300","中和區"
"247010","341-TH","2018/05/03 21:58:54","新北市林口區太平里180號","121.367508333333","25.1337483333333","6501400","蘆洲區"
"251004","010-UM","2018/05/03 21:59:14","新北市淡水區民權路205號","121.45882","25.1324466666667","6501000","淡水區"
"251001","011-UM","2018/05/03 21:59:13","新北市淡水區新市三路一段306號","121.42923","25.1974583333333","6501000","淡水區"
"251008","181-VK","2018/05/03 21:59:15","新北市淡水區學府路104號","121.449916666667","25.171775","6501000","淡水區"
"251010","413-VK","2018/05/03 21:59:12","新北市淡水區中正路二段208號","121.426296666667","25.1891533333333","6501000","淡水區"
"251007","442-VK","2018/05/03 21:59:19","新北市淡水區北新路184巷242號","121.451915","25.17715","6501000","淡水區"
"251005","443-VK","2018/05/03 21:59:12","新北市淡水區鄧公路30巷1弄68號","121.454495","25.169365","6501000","淡水區"
"251006","561-UM","2018/05/03 21:59:04","新北市淡水區中正路11巷3號","121.437828333333","25.1707466666667","6501000","淡水區"
"251011","650-BX","2018/05/03 21:59:05","新北市淡水區水碓街7號","121.443173333333","25.1771116666667","6501000","淡水區"
"251003","673-BX","2018/05/03 21:59:06","新北市淡水區新春街87號","121.438971666667","25.18259","6501000","淡水區"
