"lineid","car","time","location","longitude","latitude","cityid","cityname"
"232014","291-BY","2018/11/15 06:39:07","新北市坪林區北宜路八段558號","121.717938333333","24.909285","6502000","坪林區"
"232010","375-UM","2018/11/15 06:39:02","新北市坪林區北宜路八段373號","121.708415","24.93004","6502000","坪林區"
"232018","705-BZ","2018/11/15 06:39:06","新北市坪林區北宜路八段558號","121.717885","24.9093366666667","6502000","坪林區"
"232007","758-BX","2018/11/15 06:38:57","新北市坪林區北宜路八段558號","121.717926666667","24.9093566666667","6502000","坪林區"
"235001","611-BX","2018/11/15 06:39:07","新北市中和區圓通路369巷36弄6號","121.489895","24.9841116666667","6500300","中和區"
"223002","KEA-2673","2018/11/15 06:38:53","新北市石碇區碇坪路一段95號","121.662778333333","24.9896883333333","6501900","石碇區"
"223003","205-TH","2018/11/15 06:38:50","新北市石碇區碇坪路一段198號","121.67132","24.9823466666667","6501900","石碇區"
"223001","592-UM","2018/11/15 06:38:59","新北市石碇區小粗坑(潭邊里)2號","121.670421666667","24.9826283333333","6501900","石碇區"
"223007","661-BX","2018/11/15 06:39:02","新北市石碇區碇坪路一段160號","121.665231666667","24.9870416666667","6501900","石碇區"
"227007","282-VK","2018/11/15 06:38:50","新北市雙溪區牡丹里聖南10-3號","121.861288333333","25.0486333333333","6502500","雙溪區"
