"lineid","car","time","location","longitude","latitude","cityid","cityname"
"248004","653-BX","2018/11/15 07:38:56","新北市五股區明德路12巷1號","121.433335","25.0717583333333","6501500","五股區"
"232001","290-BY","2018/11/15 07:38:53","新北市坪林區上坑子口2號","121.698921666667","24.9575916666667","6502000","坪林區"
"232014","291-BY","2018/11/15 07:39:07","新北市坪林區九芎根3-1號","121.666758333333","24.8862083333333","6502000","坪林區"
"232010","375-UM","2018/11/15 07:39:02","新北市坪林區苦苓腳3號","121.714665","24.9393583333333","6502000","坪林區"
"232007","758-BX","2018/11/15 07:38:57","新北市坪林區魚堀49號","121.701453333333","24.9298916666667","6502000","坪林區"
"244003","248-BX","2018/11/15 07:39:03","新北市林口區頂福里53-1號","121.342438333333","25.0874833333333","6501700","林口區"
"222006","289-BY","2018/11/15 07:38:56","新北市深坑區文化街39巷1號","121.619028333333","25.0011883333333","6501800","深坑區"
"231008","192-VK","2018/11/15 07:39:07","新北市新店區安一路一段1-1號","121.519161666667","24.9612633333333","6500600","新店區"
"235001","611-BX","2018/11/15 07:39:07","新北市中和區圓通路367巷6號","121.491488333333","24.98928","6500300","中和區"
"226005","5620-A6","2018/11/15 07:39:09","新北市平溪區靜安路二段294巷18號","121.734586666667","25.0236066666667","6502400","平溪區"
"226007","7418-A5","2018/11/15 07:39:13","新北市平溪區平湖里大厝37-5號","121.778993333333","25.0307516666667","6502400","平溪區"
"226003","AGD-0702","2018/11/15 07:32:54","新北市平溪區嶺腳里嶺腳寮83-2號","121.750098333333","25.0352466666667","6502400","平溪區"
"223006","022-BY","2018/11/15 07:39:06","新北市石碇區番子坑103號","121.674771666667","25.0104166666667","6501900","石碇區"
"223002","KEA-2673","2018/11/15 07:38:32","新北市石碇區北宜路五段竹坑巷18號","121.624526666667","24.9392433333333","6501900","石碇區"
"223003","205-TH","2018/11/15 07:37:46","新北市石碇區中楒子腳2-5號","121.637535","24.972545","6501900","石碇區"
"223001","592-UM","2018/11/15 07:38:59","新北市石碇區中楒子腳2-15號","121.638693333333","24.9734733333333","6501900","石碇區"
"223004","660-BX","2018/11/15 07:39:03","新北市石碇區八分寮47-1號","121.64207","25.01349","6501900","石碇區"
"223007","661-BX","2018/11/15 07:39:10","新北市石碇區靜安路一段337號","121.698871666667","25.014505","6501900","石碇區"
"223005","677-TV","2018/11/15 07:39:10","新北市石碇區靜安路一段5號","121.641613333333","25.0114683333333","6501900","石碇區"
"227007","282-VK","2018/11/15 07:39:10","新北市雙溪區雙溪里太平路54號","121.864856666667","25.03543","6502500","雙溪區"
"252004","249-BX","2018/11/15 07:38:52","新北市三芝區店子里菜公坑76-1號","121.509386666667","25.205555","6502100","三芝區"
"252007","AAC-283","2018/11/15 07:38:59","新北市三芝區後厝里北勢子20號","121.473891666667","25.254285","6502100","三芝區"
"237001","159-UY","2018/11/15 07:39:02","新北市三峽區隆恩街245號","121.35768","24.9409716666667","6500900","三峽區"
"242055","751-BX","2018/11/15 07:38:56","新北市新莊區新泰路255巷83號","121.442343333333","25.0386516666667","6500500","新莊區"
"242022","705-TV","2018/11/15 07:39:00","新北市新莊區三和路12-17號","121.442245","25.0375333333333","6500500","新莊區"
"242026","615-BX","2018/11/15 07:39:05","新北市新莊區新泰路357巷3弄57號","121.442068333333","25.0391166666667","6500500","新莊區"
"242028","612-BX","2018/11/15 07:39:03","新北市新莊區新泰路255巷83號","121.44227","25.0389266666667","6500500","新莊區"
"242043","566-BX","2018/11/15 07:38:56","新北市新莊區三和路12-21號","121.442295","25.0384366666667","6500500","新莊區"
"242047","497-BY","2018/11/15 07:39:07","新北市新莊區中正路400號","121.44195","25.034375","6500500","新莊區"
"242052","442-UM","2018/11/15 07:39:09","新北市新莊區中正路386號","121.44139","25.0347283333333","6500500","新莊區"
"242038","415-TV","2018/11/15 07:38:53","新北市新莊區新泰路255巷83號","121.442296666667","25.0390983333333","6500500","新莊區"
"242008","413-TV","2018/11/15 07:38:51","新北市新莊區新泰路357巷3弄57號","121.441846666667","25.0394166666667","6500500","新莊區"
"242059","353-BY","2018/11/15 07:39:07","新北市新莊區新泰路357巷3弄57號","121.441893333333","25.03915","6500500","新莊區"
"242040","133-UY","2018/11/15 07:38:57","新北市新莊區三和路12-21號","121.441921666667","25.0388616666667","6500500","新莊區"
"242033","135-UY","2018/11/15 07:39:10","新北市新莊區三和路12-21號","121.441963333333","25.0387366666667","6500500","新莊區"
"242049","172-VK","2018/11/15 07:38:56","新北市新莊區中正路400號","121.442025","25.0342316666667","6500500","新莊區"
"242012","173-VK","2018/11/15 07:39:05","新北市新莊區三和路12-21號","121.441983333333","25.0386766666667","6500500","新莊區"
"242018","175-VK","2018/11/15 07:39:03","新北市新莊區三和路12-21號","121.441925","25.0386683333333","6500500","新莊區"
"242006","176-VK","2018/11/15 07:38:57","新北市新莊區三和路12-21號","121.441901666667","25.0386116666667","6500500","新莊區"
"242016","346-TH","2018/11/15 07:39:04","新北市新莊區三和路12-21號","121.442255","25.037975","6500500","新莊區"
"242030","348-TH","2018/11/15 07:39:08","新北市新莊區新泰路357巷3弄57號","121.442058333333","25.0395983333333","6500500","新莊區"
"242003","349-TH","2018/11/15 07:39:06","新北市新莊區三和路12-21號","121.442283333333","25.038255","6500500","新莊區"
"242020","350-TH","2018/11/15 07:39:07","新北市新莊區新泰路255巷83號","121.442073333333","25.038895","6500500","新莊區"
"242014","351-TH","2018/11/15 07:38:58","新北市新莊區新泰路357巷3弄57號","121.4421","25.039485","6500500","新莊區"
"242001","281-VK","2018/11/15 07:39:02","新北市新莊區三和路12-11號","121.44218","25.0369916666667","6500500","新莊區"
"242045","280-VK","2018/11/15 07:38:57","新北市新莊區三和路12-21號","121.441968333333","25.0383133333333","6500500","新莊區"
