"lineid","car","time","location","longitude","latitude","cityid","cityname"
"248005","653-BX","2018/09/29 08:48:43","新北市五股區明德路10號","121.43336","25.0717766666667","6501500","五股區"
"222004","289-BY","2018/09/29 08:48:57","新北市深坑區王軍寮1-10號","121.61769","24.9889133333333","6501800","深坑區"
"231007","189-VK","2018/09/29 08:48:39","新北市新店區新潭路三段236號","121.50115","24.9035433333333","6500600","新店區"
"231008","192-VK","2018/09/29 08:48:48","新北市新店區新烏路三段112號","121.552866666667","24.90343","6500600","新店區"
"235001","611-BX","2018/09/29 08:48:48","新北市中和區國光街60號","121.470505","25.0003083333333","6500300","中和區"
"226005","5620-A6","2018/09/29 08:48:56","新北市平溪區十分里十分街192號","121.778831666667","25.044075","6502400","平溪區"
"226007","7418-A5","2018/09/29 08:48:43","新北市平溪區東勢里芊蓁坑30號","121.727521666667","24.9791833333333","6502400","平溪區"
"226003","AGD-0702","2018/09/29 08:48:45","新北市平溪區南山里南山坪15號","121.767366666667","25.033205","6502400","平溪區"
"223006","022-BY","2018/09/29 08:48:54","新北市石碇區碇坪路一段39號","121.6582","24.99139","6501900","石碇區"
"223008","406-TH","2018/09/29 08:47:39","新北市石碇區光明路13號","121.68","25.0336833333333","6501900","石碇區"
"223004","437-BY","2018/09/29 08:48:51","新北市石碇區碇坪路二段55號","121.68418","24.9717933333333","6501900","石碇區"
"223001","592-UM","2018/09/29 08:48:45","新北市石碇區北宜路六段水底寮巷1號","121.657255","24.94533","6501900","石碇區"
"223005","677-TV","2018/09/29 08:48:53","新北市石碇區崩山58號","121.687043333333","24.9655533333333","6501900","石碇區"
"227006","282-VK","2018/09/29 08:49:01","新北市雙溪區上林里大瀨3號","121.82734","25.0240083333333","6502500","雙溪區"
"252004","249-BX","2018/09/29 08:48:56","新北市三芝區興華里田心子16號","121.49335","25.2043083333333","6502100","三芝區"
"252007","AAC-283","2018/09/29 08:48:58","新北市三芝區後厝里北勢子28號","121.475185","25.2508316666667","6502100","三芝區"
"237001","159-UY","2018/09/29 08:49:03","新北市三峽區大觀路343號","121.373258333333","24.947415","6500900","三峽區"
"242001","233-RS","2018/09/29 08:48:45","新北市樹林區八德街490號","121.400426666667","24.970275","6500500","新莊區"
