"lineid","car","time","location","longitude","latitude","cityid","cityname"
"248005","653-BX","2018/09/29 09:48:43","新北市五股區成泰路一段7巷13號","121.432643333333","25.0669066666667","6501500","五股區"
"231007","189-VK","2018/09/29 09:47:39","新北市新店區新潭路三段215巷25號","121.5082","24.9040766666667","6500600","新店區"
"231008","192-VK","2018/09/29 09:48:48","新北市新店區平廣路一段22號","121.537626666667","24.90589","6500600","新店區"
"223006","022-BY","2018/09/29 09:47:53","新北市石碇區碇坪路一段101號","121.663116666667","24.98909","6501900","石碇區"
"227006","282-VK","2018/09/29 09:35:41","新北市雙溪區長源里盤山坑7號","121.782638333333","25.0018316666667","6502500","雙溪區"
"252004","249-BX","2018/09/29 09:48:56","新北市三芝區福德里大水堀21號","121.5122","25.2199733333333","6502100","三芝區"
"252007","AAC-283","2018/09/29 09:48:58","新北市三芝區新庄里新庄子80號","121.508378333333","25.2722016666667","6502100","三芝區"
"242001","233-RS","2018/09/29 09:31:36","新北市新莊區環河路636-7號","121.437456666667","25.0117116666667","6500500","新莊區"
