"lineid","car","time","location","longitude","latitude","cityid","cityname"
"234044","148-BY","2018/09/29 13:18:54","新北市永和區得和路373巷1號","121.524651666667","24.9995783333333","6500400","永和區"
"234005","207-UY","2018/09/29 13:18:54","新北市永和區保生路1號","121.5067","25.0072883333333","6500400","永和區"
"234078","298-R6","2018/09/29 13:19:00","新北市永和區福和路28號","121.523903333333","25.0083916666667","6500400","永和區"
"234036","336-UY","2018/09/29 13:18:54","新北市永和區民樂街53號","121.527485","24.998705","6500400","永和區"
"234062","337-UY","2018/09/29 13:19:08","新北市永和區永元路17巷15號","121.521281666667","25.0007783333333","6500400","永和區"
"234084","338-UY","2018/09/29 13:19:08","新北市永和區永利路23號","121.518056666667","25.0060216666667","6500400","永和區"
"234068","552-UM","2018/09/29 13:18:53","新北市永和區豫溪街93號","121.51851","25.0100783333333","6500400","永和區"
"234066","553-UM","2018/09/29 13:19:06","新北市永和區保平路52號","121.511348333333","25.00707","6500400","永和區"
"234015","745-BX","2018/09/29 13:18:51","新北市永和區文化路144巷19弄10號","121.512273333333","25.0166183333333","6500400","永和區"
"234028","746-BX","2018/09/29 13:19:02","新北市永和區厚德街66號","121.524105","24.9988916666667","6500400","永和區"
"234052","KEA-2590","2018/09/29 13:19:04","新北市永和區中興街43號","121.516395","25.01183","6500400","永和區"
"234012","KEA-2591","2018/09/29 13:19:05","新北市永和區信義路44號","121.513455","25.0125133333333","6500400","永和區"
"234060","AAD-866","2018/09/29 13:19:06","新北市永和區中正路381號","121.517136666667","25.0036466666667","6500400","永和區"
"234040","862-TW","2018/09/29 13:19:09","新北市永和區保平路151巷2弄4號","121.509911666667","25.0055183333333","6500400","永和區"
"234048","863-TW","2018/09/29 13:19:06","新北市永和區保福路二段96號","121.510315","25.0135416666667","6500400","永和區"
"234025","9371-KE","2018/09/29 13:19:00","新北市永和區豫溪街42巷6號","121.51539","25.0094533333333","6500400","永和區"
"234010","9373-KE","2018/09/29 13:18:53","新北市永和區永和路二段425巷57弄1號","121.513745","25.017215","6500400","永和區"
"248017","225-UY","2018/09/29 13:18:59","新北市五股區御史路203號","121.43187","25.09983","6501500","五股區"
"234022","9380-KE","2018/09/29 13:19:03","新北市永和區竹林路91巷11號","121.520076666667","25.0122933333333","6500400","永和區"
"234076","969-R7","2018/09/29 13:18:58","新北市永和區民有街69號","121.517916666667","24.995755","6500400","永和區"
"234072","AAC-211","2018/09/29 13:18:53","新北市永和區竹林路30號","121.517126666667","25.01473","6500400","永和區"
"234001","AAC-295","2018/09/29 13:18:54","新北市永和區中山路一段105號","121.510963333333","25.0103316666667","6500400","永和區"
"231002","002-UM","2018/09/29 13:19:08","新北市新店區安華路28-1號","121.519615","24.9608616666667","6500600","新店區"
"231027","0291-UT","2018/09/29 13:18:48","新北市新店區安康路一段107-2號","121.528801666667","24.9616733333333","6500600","新店區"
"231028","046-UY","2018/09/29 13:18:59","新北市新店區安華路28-1號","121.519621666667","24.9608866666667","6500600","新店區"
"231001","047-UY","2018/09/29 13:18:51","新北市新店區安華路28-1號","121.519333333333","24.9609816666667","6500600","新店區"
"231005","106-UY","2018/09/29 13:18:56","新北市新店區安華路28-1號","121.519711666667","24.9608","6500600","新店區"
"231010","107-UY","2018/09/29 13:19:03","新北市新店區安康路一段355號","121.519901666667","24.9628183333333","6500600","新店區"
"231020","110-UY","2018/09/29 13:19:02","新北市新店區安一路一段1-1號","121.519586666667","24.9610633333333","6500600","新店區"
"231012","187-VK","2018/09/29 13:18:49","新北市新店區安一路一段1-1號","121.519568333333","24.9612433333333","6500600","新店區"
"231033","188-VK","2018/09/29 13:19:03","新北市新店區安一路一段1-1號","121.519366666667","24.9616433333333","6500600","新店區"
"231026","256-BX","2018/09/29 13:19:02","新北市新店區安一路一段1-1號","121.51975","24.9611416666667","6500600","新店區"
"231003","268-BY","2018/09/29 13:19:06","新北市新店區安華路28-1號","121.519598333333","24.9607433333333","6500600","新店區"
"231018","278-BY","2018/09/29 13:18:59","新北市新店區環河路106號","121.536956666667","24.9641316666667","6500600","新店區"
"231017","AAD-862","2018/09/29 13:18:49","新北市新店區安康路一段76號","121.52822","24.9619333333333","6500600","新店區"
"231038","3712-VJ","2018/09/29 13:19:07","新北市新店區安華路28-1號","121.519373333333","24.9606766666667","6500600","新店區"
"231037","4716-K9","2018/09/29 13:18:52","新北市新店區安華路28-1號","121.51972","24.9609733333333","6500600","新店區"
"231025","4715-K9","2018/09/29 13:19:02","新北市新店區中央五街55號","121.527716666667","24.9754633333333","6500600","新店區"
"231036","512-UM","2018/09/29 13:19:06","新北市新店區安一路一段1-1號","121.519293333333","24.9612733333333","6500600","新店區"
"231013","513-UM","2018/09/29 13:18:54","新北市新店區安一路一段1-1號","121.519595","24.961145","6500600","新店區"
"231034","616-UM","2018/09/29 13:18:58","新北市新店區安華路28-1號","121.519493333333","24.9606233333333","6500600","新店區"
"231006","617-UM","2018/09/29 13:18:55","新北市新店區安華路28-1號","121.519491666667","24.9609366666667","6500600","新店區"
"231030","619-UM","2018/09/29 13:19:06","新北市新店區安華路28-1號","121.519588333333","24.9608733333333","6500600","新店區"
"231035","719-UM","2018/09/29 13:19:07","新北市新店區安一路一段1-1號","121.519585","24.96139","6500600","新店區"
"231023","719-UY","2018/09/29 13:19:09","新北市新店區環河路29巷1號","121.536523333333","24.9612383333333","6500600","新店區"
"231029","897-TW","2018/09/29 13:18:48","新北市新店區安華路28-1號","121.51958","24.9608116666667","6500600","新店區"
"231004","899-TW","2018/09/29 13:19:03","新北市新店區安華路28-1號","121.519338333333","24.9608516666667","6500600","新店區"
"231024","AKT-0513","2018/09/29 13:18:56","新北市新店區北新路二段2號","121.54263","24.9707783333333","6500600","新店區"
"235028","005-UY","2018/09/29 13:19:04","新北市中和區圓通路172號","121.497231666667","24.99458","6500300","中和區"
"235027","006-UY","2018/09/29 13:19:06","新北市中和區員山路36巷16-3號","121.485031666667","24.9913","6500300","中和區"
"235020","096-UM","2018/09/29 13:18:59","新北市中和區員山路36巷13號","121.484185","24.99151","6500300","中和區"
"235003","097-UM","2018/09/29 13:19:07","新北市中和區安平路59號","121.509668333333","24.994955","6500300","中和區"
"235029","098-UM","2018/09/29 13:18:46","新北市中和區莊敬路49巷20弄20號","121.502668333333","25.0057333333333","6500300","中和區"
"235004","150-BY","2018/09/29 13:18:58","新北市中和區景平路353號","121.504818333333","24.9934183333333","6500300","中和區"
"235022","151-BY","2018/09/29 13:19:02","新北市中和區圓通路367巷29號","121.492476666667","24.985305","6500300","中和區"
"235019","183-VK","2018/09/29 13:19:00","新北市中和區連城路469巷79弄16號","121.483816666667","24.99368","6500300","中和區"
"235002","185-VK","2018/09/29 13:18:49","新北市中和區自立路36-13號","121.521943333333","24.9922966666667","6500300","中和區"
"235031","255-BX","2018/09/29 13:18:54","新北市中和區員山路148巷44弄7號","121.482635","24.9966133333333","6500300","中和區"
"235036","301-VK","2018/09/29 13:19:02","新北市中和區錦和路158號","121.489803333333","24.99595","6500300","中和區"
"235006","KEA-2878","2018/09/29 13:19:02","新北市中和區大仁街20巷25弄39號","121.519553333333","24.9937866666667","6500300","中和區"
"235014","4979-A6","2018/09/29 13:18:59","新北市中和區南山路261號","121.503928333333","24.9926933333333","6500300","中和區"
"235033","4980-A6","2018/09/29 13:19:03","新北市中和區圓通路297巷9弄2號","121.495125","24.9914","6500300","中和區"
"235034","558-UM","2018/09/29 13:19:02","新北市中和區圓通路114號","121.49926","24.9963766666667","6500300","中和區"
"235009","565-BX","2018/09/29 13:18:58","新北市中和區復興路79號","121.503436666667","24.9900133333333","6500300","中和區"
"235018","640-BX","2018/09/29 13:19:03","新北市中和區國光街112巷1弄5號","121.469591666667","25.0011016666667","6500300","中和區"
"235011","732-UM","2018/09/29 13:18:50","新北市中和區南山路425號","121.50754","24.9893783333333","6500300","中和區"
"235035","783-BX","2018/09/29 13:18:52","新北市中和區中板路18巷3弄1號","121.483978333333","25.0126483333333","6500300","中和區"
"235026","800-TS","2018/09/29 13:18:52","新北市中和區景平路999巷3號","121.49535","25.0059066666667","6500300","中和區"
"235021","801-TS","2018/09/29 13:18:51","新北市中和區連城路469巷79弄22號","121.483981666667","24.993695","6500300","中和區"
"235005","802-TS","2018/09/29 13:18:54","新北市中和區景安路58號","121.50678","24.9979183333333","6500300","中和區"
"235016","805-TS","2018/09/29 13:19:01","新北市中和區南山路279號","121.50415","24.9923883333333","6500300","中和區"
"235012","896-TW","2018/09/29 13:18:57","新北市中和區員山路36巷16-2號","121.485003333333","24.9918883333333","6500300","中和區"
"235017","900-TW","2018/09/29 13:19:05","新北市中和區員山路36巷16-2號","121.485101666667","24.99189","6500300","中和區"
"235015","157-BY","2018/09/29 13:18:58","新北市中和區信義街63號","121.511586666667","24.9882583333333","6500300","中和區"
"235001","AAC-213","2018/09/29 13:19:06","新北市中和區景德街88號","121.516241666667","24.99152","6500300","中和區"
"235023","AAC-215","2018/09/29 13:18:59","新北市中和區員山路36巷16-3號","121.484933333333","24.9912766666667","6500300","中和區"
"220017","AAD-861","2018/09/29 13:18:54","新北市板橋區華東街1-10號","121.448521666667","24.9950633333333","6500100","板橋區"
"235007","251-BX","2018/09/29 13:18:55","新北市中和區景平路375號","121.504168333333","24.99348","6500300","中和區"
"228005","097-TW","2018/09/29 13:19:00","新北市貢寮區美豐里丹裡街12號","121.914865","25.056885","6502600","貢寮區"
"228004","212-TW","2018/09/29 13:19:00","新北市貢寮區吉林里內寮街21號","121.90067","24.98293","6502600","貢寮區"
"253003","6232-TK","2018/09/29 13:18:58","新北市石門區老崩山39-3號","121.565326666667","25.26625","6502200","石門區"
"253001","6251-TK","2018/09/29 13:19:04","新北市石門區楓林17-6號","121.537366666667","25.2924616666667","6502200","石門區"
"253002","637-UY","2018/09/29 13:18:28","新北市石門區大溪墘9-7號","121.552768333333","25.2751366666667","6502200","石門區"
"253004","8270-PC","2018/09/29 13:19:03","新北市石門區阿里荖54號","121.609486666667","25.2735016666667","6502200","石門區"
"207002","749-BX","2018/09/29 13:18:52","新北市萬里區崁腳里崁腳路166號","121.645083333333","25.1558283333333","6502800","萬里區"
"252005","073-UM","2018/09/29 13:18:46","新北市三芝區八賢里八連溪65號","121.51765","25.2313983333333","6502100","三芝區"
"207001","662-BX","2018/09/29 13:19:00","新北市萬里區龜吼里玉田路25號","121.680411666667","25.1940416666667","6502800","萬里區"
"242050","172-VK","2018/09/29 13:18:49","新北市新莊區復興路一段47巷12號","121.44683","25.0426816666667","6500500","新莊區"
"221012","246-BX","2018/09/29 13:08:00","新北市汐止區汐萬路一段256巷3號","121.652178333333","25.0748533333333","6501100","汐止區"
"221010","269-BY","2018/09/29 13:18:59","台北市內湖區大湖山莊街89號","121.601836666667","25.0854483333333","6501100","汐止區"
"221032","280-BY","2018/09/29 13:18:54","新北市汐止區水源路一段56-1號","121.656846666667","25.0654683333333","6501100","汐止區"
"220030","610-BX","2018/09/29 13:18:58","新北市板橋區華東街1-10號","121.448321666667","24.9950516666667","6500100","板橋區"
"220025","687-BX","2018/09/29 13:19:01","新北市板橋區華東街1-10號","121.448281666667","24.9949516666667","6500100","板橋區"
"235032","KEA-2873","2018/09/29 13:18:57","新北市中和區員山路36巷16-3號","121.484988333333","24.9912766666667","6500300","中和區"
"235025","KEA-2875","2018/09/29 13:18:39","新北市中和區民德路187號","121.468331666667","24.9993016666667","6500300","中和區"
"235024","KEA-2876","2018/09/29 13:18:44","新北市中和區員山路36巷16-3號","121.484916666667","24.9916633333333","6500300","中和區"
