"lineid","car","time","location","longitude","latitude","cityid","cityname"
"234044","148-BY","2018/09/29 13:29:05","新北市永和區秀朗路二段231號","121.526373333333","25.0002433333333","6500400","永和區"
"234005","207-UY","2018/09/29 13:28:54","新北市永和區中山路一段238號","121.50743","25.0076","6500400","永和區"
"234078","298-R6","2018/09/29 13:29:00","新北市永和區環河東路三段52巷2弄2號","121.526545","25.0061483333333","6500400","永和區"
"234036","336-UY","2018/09/29 13:28:54","新北市永和區民樂街28號","121.527513333333","25.0015283333333","6500400","永和區"
"234062","337-UY","2018/09/29 13:28:53","新北市永和區中正路368巷1弄88號","121.520506666667","25.0007083333333","6500400","永和區"
"234084","338-UY","2018/09/29 13:29:07","新北市永和區林森路100號","121.522896666667","25.0034483333333","6500400","永和區"
"234068","552-UM","2018/09/29 13:28:53","新北市永和區警光街12號","121.51977","25.0095466666667","6500400","永和區"
"234066","553-UM","2018/09/29 13:29:08","新北市永和區永貞路390號","121.509425","25.0073383333333","6500400","永和區"
"234015","745-BX","2018/09/29 13:28:51","新北市永和區環河西路一段51巷1號","121.514088333333","25.01815","6500400","永和區"
"234028","746-BX","2018/09/29 13:29:02","新北市永和區民生路29號","121.522828333333","24.9984466666667","6500400","永和區"
"234052","KEA-2590","2018/09/29 13:29:04","新北市永和區復興街21號","121.516106666667","25.013075","6500400","永和區"
"234012","KEA-2591","2018/09/29 13:29:07","新北市永和區永貞路393號","121.507988333333","25.0089116666667","6500400","永和區"
"234060","AAD-866","2018/09/29 13:28:57","新北市永和區中正路399號","121.517086666667","25.0043016666667","6500400","永和區"
"234040","862-TW","2018/09/29 13:28:51","新北市永和區中和路573號","121.511618333333","25.0034333333333","6500400","永和區"
"234048","863-TW","2018/09/29 13:28:46","新北市永和區信義路87號","121.512355","25.0137733333333","6500400","永和區"
"234025","9371-KE","2018/09/29 13:28:56","新北市永和區中山路一段17巷4弄14號","121.51318","25.010205","6500400","永和區"
"234010","9373-KE","2018/09/29 13:28:53","新北市永和區信義路43巷22弄2號","121.512405","25.0121883333333","6500400","永和區"
"248017","225-UY","2018/09/29 13:28:59","新北市五股區民義路二段52巷22號","121.415418333333","25.11146","6501500","五股區"
"234022","9380-KE","2018/09/29 13:29:03","新北市永和區豫溪街159-1號","121.521403333333","25.0104316666667","6500400","永和區"
"234076","969-R7","2018/09/29 13:28:58","新北市永和區民治街80號","121.517496666667","24.9983783333333","6500400","永和區"
"234072","AAC-211","2018/09/29 13:29:08","新北市永和區環河東路二段30號","121.522616666667","25.0126916666667","6500400","永和區"
"234001","AAC-295","2018/09/29 13:28:55","新北市永和區永和路一段112-1號","121.51359","25.0074583333333","6500400","永和區"
"231002","002-UM","2018/09/29 13:28:48","新北市新店區安康路一段17號","121.5331","24.9603683333333","6500600","新店區"
"231027","0291-UT","2018/09/29 13:28:48","新北市新店區新店後街99號","121.537665","24.9557833333333","6500600","新店區"
"231028","046-UY","2018/09/29 13:28:59","新北市新店區安華路28-1號","121.51969","24.96083","6500600","新店區"
"231001","047-UY","2018/09/29 13:28:51","新北市新店區安康路一段35號","121.531835","24.9607116666667","6500600","新店區"
"231005","106-UY","2018/09/29 13:28:56","新北市新店區安康路一段24巷4號","121.532446666667","24.960495","6500600","新店區"
"231010","107-UY","2018/09/29 13:29:03","新北市新店區中央路25號","121.533128333333","24.9780316666667","6500600","新店區"
"231020","110-UY","2018/09/29 13:29:02","新北市新店區光明街105號","121.538903333333","24.9613283333333","6500600","新店區"
"231012","187-VK","2018/09/29 13:28:49","新北市新店區秀山路20號","121.53258","24.960365","6500600","新店區"
"231033","188-VK","2018/09/29 13:29:03","新北市新店區安豐路22巷7號","121.500885","24.95432","6500600","新店區"
"231026","256-BX","2018/09/29 13:29:03","新北市新店區安康路一段44號","121.530775","24.96107","6500600","新店區"
"231003","268-BY","2018/09/29 13:28:46","新北市新店區安康路一段48號","121.530433333333","24.9611066666667","6500600","新店區"
"231018","278-BY","2018/09/29 13:28:59","新北市新店區中央路147號","121.530073333333","24.9734566666667","6500600","新店區"
"231017","AAD-862","2018/09/29 13:28:49","新北市新店區北宜路二段30巷5弄20號","121.548636666667","24.950755","6500600","新店區"
"231038","3712-VJ","2018/09/29 13:28:47","新北市新店區安華路28-1號","121.51936","24.9606766666667","6500600","新店區"
"231037","4716-K9","2018/09/29 13:28:52","新北市新店區安豐路22巷18號","121.502683333333","24.95446","6500600","新店區"
"231025","4715-K9","2018/09/29 13:29:02","新北市新店區中央六街58號","121.52784","24.9757383333333","6500600","新店區"
"231036","512-UM","2018/09/29 13:29:06","新北市新店區安康路三段237號","121.487358333333","24.9517966666667","6500600","新店區"
"231013","513-UM","2018/09/29 13:28:54","新北市新店區環河路114巷4-1號","121.536986666667","24.96453","6500600","新店區"
"231034","616-UM","2018/09/29 13:28:57","新北市新店區安華路28-1號","121.519486666667","24.9605666666667","6500600","新店區"
"231006","617-UM","2018/09/29 13:28:55","新北市新店區秀山路72號","121.531405","24.9608633333333","6500600","新店區"
"231030","619-UM","2018/09/29 13:29:06","新北市新店區安華路30巷1號","121.519601666667","24.95979","6500600","新店區"
"231035","719-UM","2018/09/29 13:29:07","新北市新店區安一路一段1-1號","121.519608333333","24.9612583333333","6500600","新店區"
"231023","719-UY","2018/09/29 13:28:49","新北市新店區新店路13號","121.540341666667","24.9528683333333","6500600","新店區"
"231029","897-TW","2018/09/29 13:29:08","新北市新店區安華路30巷3號","121.518808333333","24.9585683333333","6500600","新店區"
"231004","899-TW","2018/09/29 13:29:03","新北市新店區安康路一段355-10號","121.520625","24.9638383333333","6500600","新店區"
"231024","AKT-0513","2018/09/29 13:28:56","新北市新店區中正路211號","121.539958333333","24.9727833333333","6500600","新店區"
"235028","005-UY","2018/09/29 13:29:04","新北市中和區連城路139巷58號","121.496853333333","24.99719","6500300","中和區"
"235027","006-UY","2018/09/29 13:28:46","新北市中和區中正路395號","121.48959","24.994115","6500300","中和區"
"235020","096-UM","2018/09/29 13:29:02","新北市中和區中山路二段586號","121.482411666667","25.0051883333333","6500300","中和區"
"235003","097-UM","2018/09/29 13:29:07","新北市中和區大勇街27巷4號","121.517186666667","24.9937016666667","6500300","中和區"
"235029","098-UM","2018/09/29 13:29:06","新北市中和區莊敬路49巷18號","121.5018","25.0060983333333","6500300","中和區"
"235004","150-BY","2018/09/29 13:28:59","新北市中和區安平路59號","121.509696666667","24.9950683333333","6500300","中和區"
"235022","151-BY","2018/09/29 13:29:02","新北市中和區圓通路369巷156弄9號","121.48845","24.981955","6500300","中和區"
"235019","183-VK","2018/09/29 13:29:00","新北市中和區莒光路207-5號","121.470766666667","24.9967916666667","6500300","中和區"
"235002","185-VK","2018/09/29 13:29:08","新北市中和區秀朗路三段128巷17弄19號","121.523375","24.993325","6500300","中和區"
"235013","186-VK","2018/09/29 13:29:02","新北市中和區景安路106號","121.505445","24.9953466666667","6500300","中和區"
"235031","255-BX","2018/09/29 13:28:54","新北市中和區新生街242巷11弄8號","121.482925","24.997485","6500300","中和區"
"235036","301-VK","2018/09/29 13:29:02","新北市中和區連城路249巷2號","121.49343","24.9970316666667","6500300","中和區"
"235006","KEA-2878","2018/09/29 13:29:02","新北市中和區自立路56巷2號","121.523385","24.9919","6500300","中和區"
"235014","4979-A6","2018/09/29 13:28:59","新北市中和區景新街368號","121.512026666667","24.9903766666667","6500300","中和區"
"235033","4980-A6","2018/09/29 13:29:03","新北市中和區連城路127巷23號","121.496981666667","24.99782","6500300","中和區"
"235034","558-UM","2018/09/29 13:29:02","新北市中和區景平路576號","121.501551666667","24.9954733333333","6500300","中和區"
"235009","565-BX","2018/09/29 13:28:58","新北市中和區南山路236巷22弄21號","121.504968333333","24.9891966666667","6500300","中和區"
"235018","640-BX","2018/09/29 13:29:03","新北市中和區民享街95-4號","121.47493","25.0000016666667","6500300","中和區"
"235011","732-UM","2018/09/29 13:28:50","新北市中和區南山路493號","121.507965","24.9878966666667","6500300","中和區"
"235035","783-BX","2018/09/29 13:28:39","新北市中和區中山路二段482巷8號","121.488216666667","25.0059816666667","6500300","中和區"
"235026","800-TS","2018/09/29 13:28:52","新北市中和區景平路754號","121.49644","25.0045283333333","6500300","中和區"
"235021","801-TS","2018/09/29 13:28:51","新北市中和區民享街97巷11號","121.475243333333","24.9995183333333","6500300","中和區"
"235005","802-TS","2018/09/29 13:28:54","新北市中和區中和路324巷6弄1號","121.509833333333","25.00065","6500300","中和區"
"235016","805-TS","2018/09/29 13:29:01","新北市中和區興南路二段96號","121.5052","24.9842583333333","6500300","中和區"
"235012","896-TW","2018/09/29 13:28:56","新北市中和區錦和路350-1號","121.490428333333","24.9935766666667","6500300","中和區"
"235017","900-TW","2018/09/29 13:29:05","新北市中和區民享街467號","121.469866666667","24.9924333333333","6500300","中和區"
"235015","157-BY","2018/09/29 13:28:58","新北市中和區興南路二段142巷19弄19-1號","121.502513333333","24.9833","6500300","中和區"
"235001","AAC-213","2018/09/29 13:29:06","新北市中和區景德街95號","121.515865","24.99124","6500300","中和區"
"235023","AAC-215","2018/09/29 13:28:59","新北市中和區員山路36巷16-3號","121.484945","24.9913083333333","6500300","中和區"
"220013","072-UY","2018/09/29 13:28:46","新北市板橋區縣民大道二段68號","121.463218333333","25.012705","6500100","板橋區"
"220034","073-UY","2018/09/29 13:29:00","新北市板橋區南雅南路二段144巷60號","121.450311666667","24.9974433333333","6500100","板橋區"
"220017","AAD-861","2018/09/29 13:28:54","新北市板橋區華東街1-10號","121.44842","24.9951483333333","6500100","板橋區"
"247009","056-VK","2018/09/29 13:28:54","新北市五股區中興路三段2巷10號","121.449108333333","25.0811416666667","6501400","蘆洲區"
"247003","002-UY","2018/09/29 13:29:05","新北市五股區中興路三段2巷10號","121.449311666667","25.08091","6501400","蘆洲區"
"235007","251-BX","2018/09/29 13:28:55","新北市中和區景平路293號","121.50715","24.9931533333333","6500300","中和區"
"228005","097-TW","2018/09/29 13:29:00","新北市貢寮區美豐里文秀坑8號","121.902561666667","25.0504366666667","6502600","貢寮區"
"228004","212-TW","2018/09/29 13:29:00","新北市貢寮區龍崗里石壁坑街17號","121.910266666667","24.9894833333333","6502600","貢寮區"
"253003","6232-TK","2018/09/29 13:28:58","新北市石門區內石門83-2號","121.569981666667","25.2628966666667","6502200","石門區"
"253001","6251-TK","2018/09/29 13:29:04","新北市石門區下員坑30-3號","121.519961666667","25.2826983333333","6502200","石門區"
"253002","637-UY","2018/09/29 13:28:47","新北市石門區九芎林8號","121.564453333333","25.2649883333333","6502200","石門區"
"253004","8270-PC","2018/09/29 13:29:03","新北市石門區竹子湖11號","121.617568333333","25.258365","6502200","石門區"
"207002","749-BX","2018/09/29 13:28:52","新北市萬里區崁腳里崁腳路166號","121.64509","25.1558833333333","6502800","萬里區"
"252005","073-UM","2018/09/29 13:29:07","新北市三芝區福德里土地公埔72-1號","121.522441666667","25.2238916666667","6502100","三芝區"
"207001","662-BX","2018/09/29 13:27:40","新北市萬里區龜吼里海景路1號","121.683826666667","25.191395","6502800","萬里區"
"242050","172-VK","2018/09/29 13:26:49","新北市新莊區立信三街35巷5號","121.442931666667","25.0507416666667","6500500","新莊區"
"221012","246-BX","2018/09/29 13:29:00","新北市汐止區民族三街30-1號","121.630045","25.07037","6501100","汐止區"
"221010","269-BY","2018/09/29 13:28:59","新北市汐止區長青路138號","121.60527","25.109805","6501100","汐止區"
"221032","280-BY","2018/09/29 13:28:54","新北市汐止區水源路一段56號","121.657471666667","25.06573","6501100","汐止區"
"220030","610-BX","2018/09/29 13:28:58","新北市板橋區華東街1-10號","121.448275","24.9949766666667","6500100","板橋區"
"220019","283-VK","2018/09/29 13:28:53","新北市板橋區華東街1-9號","121.448116666667","24.9948733333333","6500100","板橋區"
"220043","285-UM","2018/09/29 13:29:02","新北市板橋區民生路二段120號","121.470395","25.0198266666667","6500100","板橋區"
"220029","287-VK","2018/09/29 13:28:48","新北市板橋區華東街1-10號","121.448295","24.9950133333333","6500100","板橋區"
"220032","296-UM","2018/09/29 13:28:59","新北市板橋區華東街1-9號","121.448153333333","24.9949716666667","6500100","板橋區"
"220023","303-R5","2018/09/29 13:28:48","新北市板橋區華東街1-9號","121.448221666667","24.99496","6500100","板橋區"
"220012","486-VK","2018/09/29 13:29:07","新北市板橋區華東街260號","121.452723333333","25.001565","6500100","板橋區"
"220104","560-BX","2018/09/29 13:28:55","新北市板橋區南雅東路120號","121.453323333333","25.0083283333333","6500100","板橋區"
"220025","687-BX","2018/09/29 13:29:01","新北市板橋區篤行路一段30號","121.431863333333","24.9939833333333","6500100","板橋區"
"220002","741-BX","2018/09/29 13:28:46","新北市板橋區華東街1-9號","121.448215","24.9948916666667","6500100","板橋區"
"220022","895-R6","2018/09/29 13:29:08","新北市板橋區華東街1-10號","121.448816666667","24.9947033333333","6500100","板橋區"
"235032","KEA-2873","2018/09/29 13:28:57","新北市中和區中正路571巷2弄1號","121.486453333333","24.9935516666667","6500300","中和區"
"235025","KEA-2875","2018/09/29 13:28:39","新北市中和區民享街93巷8號","121.475498333333","25.0007066666667","6500300","中和區"
"235024","KEA-2876","2018/09/29 13:28:44","新北市中和區員山路168號","121.481351666667","24.9997783333333","6500300","中和區"
