"lineid","car","time","location","longitude","latitude","cityid","cityname"
"234044","148-BY","2018/09/29 14:18:54","新北市永和區永利路156號","121.522711666667","25.0027166666667","6500400","永和區"
"234005","207-UY","2018/09/29 14:18:54","新北市永和區中正路676號","121.516813333333","25.0092666666667","6500400","永和區"
"234078","298-R6","2018/09/29 14:19:00","新北市永和區福和路7巷10弄7號","121.524838333333","25.00757","6500400","永和區"
"234036","336-UY","2018/09/29 14:19:05","新北市永和區成功路一段30號","121.527078333333","25.0047166666667","6500400","永和區"
"234062","337-UY","2018/09/29 14:18:53","新北市永和區得和路120號","121.51853","25.0001883333333","6500400","永和區"
"234084","338-UY","2018/09/29 14:19:07","新北市永和區中正路631號","121.515508333333","25.0100116666667","6500400","永和區"
"234068","552-UM","2018/09/29 14:18:53","新北市永和區永寧街115巷9號","121.518501666667","25.006165","6500400","永和區"
"234066","553-UM","2018/09/29 14:19:06","新北市永和區保平路268巷51弄22號","121.506635","25.0060683333333","6500400","永和區"
"234028","746-BX","2018/09/29 14:19:02","新北市永和區民權路49巷4號","121.52033","24.9971483333333","6500400","永和區"
"234052","KEA-2590","2018/09/29 14:19:03","新北市永和區光復街2巷16弄9號","121.517611666667","25.01637","6500400","永和區"
"234012","KEA-2591","2018/09/29 14:19:05","新北市永和區保生路55-1號","121.504758333333","25.01141","6500400","永和區"
"234060","AAD-866","2018/09/29 14:19:06","新北市永和區得和路6號","121.514978333333","25.0006716666667","6500400","永和區"
"234040","862-TW","2018/09/29 14:18:51","新北市中和區中安街226號","121.512221666667","24.9987216666667","6500400","永和區"
"234048","863-TW","2018/09/29 14:19:07","新北市永和區新生路57號","121.508868333333","25.01633","6500400","永和區"
"248017","225-UY","2018/09/29 14:16:26","新北市五股區壟路16號","121.41534","25.08589","6501500","五股區"
"234076","969-R7","2018/09/29 14:18:58","新北市永和區民族街81巷60號","121.520116666667","24.9964483333333","6500400","永和區"
"234072","AAC-211","2018/09/29 14:18:53","新北市永和區竹林路119巷30弄7號","121.522501666667","25.0116533333333","6500400","永和區"
"234001","AAC-295","2018/09/29 14:18:57","新北市永和區福和路310-1號","121.51615","25.0075966666667","6500400","永和區"
"231002","002-UM","2018/09/29 14:19:08","新北市新店區中央路155號","121.529603333333","24.9726866666667","6500600","新店區"
"231027","0291-UT","2018/09/29 14:18:48","新北市新店區北新路二段90號","121.542971666667","24.9729866666667","6500600","新店區"
"231028","046-UY","2018/09/29 14:18:59","新北市新店區安和路二段221號","121.51743","24.9757983333333","6500600","新店區"
"231001","047-UY","2018/09/29 14:18:51","新北市新店區中正路75巷71號","121.543075","24.9688616666667","6500600","新店區"
"231005","106-UY","2018/09/29 14:18:56","新北市新店區中興路三段208號","121.543798333333","24.9822766666667","6500600","新店區"
"231020","110-UY","2018/09/29 14:19:02","新北市新店區櫻花街150號","121.547525","24.9217683333333","6500600","新店區"
"231012","187-VK","2018/09/29 14:18:49","新北市新店區中興路一段282-5號","121.546231666667","24.9681133333333","6500600","新店區"
"231033","188-VK","2018/09/29 14:19:03","新北市新店區溪洲路121號","121.531115","24.962735","6500600","新店區"
"231003","268-BY","2018/09/29 14:19:06","新北市新店區中興路一段187號","121.543126666667","24.9649733333333","6500600","新店區"
"231018","278-BY","2018/09/29 14:18:59","新北市新店區中央四街62號","121.527195","24.975325","6500600","新店區"
"231017","AAD-862","2018/09/29 14:19:09","新北市新店區北宜路三段105號","121.580231666667","24.9504083333333","6500600","新店區"
"231038","3712-VJ","2018/09/29 14:19:07","新北市新店區溪洲路101-1號","121.532091666667","24.9624133333333","6500600","新店區"
"231037","4716-K9","2018/09/29 14:18:51","新北市新店區車子路10-2號","121.504636666667","24.9547083333333","6500600","新店區"
"231025","4715-K9","2018/09/29 14:19:02","新北市新店區自立街1號","121.538803333333","24.9778633333333","6500600","新店區"
"231036","512-UM","2018/09/29 14:19:06","新北市新店區安祥路109巷11號","121.475846666667","24.95904","6500600","新店區"
"231013","513-UM","2018/09/29 14:18:54","新北市新店區建國路128巷1-1號","121.539043333333","24.9793883333333","6500600","新店區"
"231034","616-UM","2018/09/29 14:18:58","新北市新店區車子路11號","121.503038333333","24.95202","6500600","新店區"
"231006","617-UM","2018/09/29 14:18:55","新北市新店區北宜路二段448號","121.569993333333","24.9562783333333","6500600","新店區"
"231030","619-UM","2018/09/29 14:19:06","新北市新店區安民街3巷1號","121.514561666667","24.964145","6500600","新店區"
"231035","719-UM","2018/09/29 14:18:48","新北市新店區安和路二段113巷3弄5號","121.518051666667","24.9699616666667","6500600","新店區"
"231023","719-UY","2018/09/29 14:19:09","新北市新店區光明街138巷1號","121.53945","24.9613516666667","6500600","新店區"
"231029","897-TW","2018/09/29 14:18:54","新北市新店區安康路二段223號","121.50862","24.9587483333333","6500600","新店區"
"231004","899-TW","2018/09/29 14:19:03","新北市新店區北新路二段42號","121.542863333333","24.971755","6500600","新店區"
"231024","AKT-0513","2018/09/29 14:18:56","新北市新店區安德街116巷26弄3號","121.508965","24.9620283333333","6500600","新店區"
"235028","005-UY","2018/09/29 14:19:04","新北市中和區中和路35-1號","121.500121666667","25.0014383333333","6500300","中和區"
"235027","006-UY","2018/09/29 14:19:06","新北市中和區連城路249巷30弄1號","121.494835","24.9946133333333","6500300","中和區"
"235020","096-UM","2018/09/29 14:18:59","新北市中和區民富街50號","121.476708333333","25.0070516666667","6500300","中和區"
"235003","097-UM","2018/09/29 14:18:47","新北市中和區秀峰街60號","121.520726666667","24.99042","6500300","中和區"
"235029","098-UM","2018/09/29 14:19:06","新北市中和區中山路二段2巷7弄2號","121.504178333333","25.006555","6500300","中和區"
"235004","150-BY","2018/09/29 14:18:58","新北市中和區保健路106巷71號","121.511406666667","24.994665","6500300","中和區"
"235022","151-BY","2018/09/29 14:19:02","新北市中和區連城路523巷11弄1號","121.481721666667","24.994215","6500300","中和區"
"235019","183-VK","2018/09/29 14:19:00","新北市中和區中山路三段147號","121.473745","25.0061333333333","6500300","中和區"
"235002","185-VK","2018/09/29 14:18:48","新北市中和區大智街23巷2弄3號","121.520085","24.99241","6500300","中和區"
"235013","186-VK","2018/09/29 14:19:02","新北市中和區景新街230巷3號","121.508151666667","24.994085","6500300","中和區"
"235031","255-BX","2018/09/29 14:18:54","新北市中和區中正路677號","121.485048333333","24.9972883333333","6500300","中和區"
"235008","293-VK","2018/09/29 14:19:02","新北市中和區中興街266巷1號","121.49847","24.98758","6500300","中和區"
"235036","301-VK","2018/09/29 14:19:02","新北市中和區福祥路77號","121.499215","25.0055366666667","6500300","中和區"
"235006","KEA-2878","2018/09/29 14:19:01","新北市中和區安樂路143巷2弄5號","121.514078333333","24.9978716666667","6500300","中和區"
"247011","KEA-2869","2018/09/29 14:18:50","新北市蘆洲區信義路351巷18號","121.476703333333","25.0868","6501400","蘆洲區"
"235014","4979-A6","2018/09/29 14:18:59","新北市中和區景安路206號","121.50407","24.990925","6500300","中和區"
"235033","4980-A6","2018/09/29 14:19:03","新北市中和區永和路56號","121.499328333333","25.00428","6500300","中和區"
"235034","558-UM","2018/09/29 14:19:02","新北市中和區連城路55號","121.497778333333","25.00164","6500300","中和區"
"235009","565-BX","2018/09/29 14:18:59","新北市中和區景新街383巷57號","121.513723333333","24.9907233333333","6500300","中和區"
"235018","640-BX","2018/09/29 14:19:03","新北市中和區國光街107巷2弄28號","121.46956","24.999345","6500300","中和區"
"235011","732-UM","2018/09/29 14:18:50","新北市中和區和平街38巷25號","121.509471666667","24.9911116666667","6500300","中和區"
"235010","733-UM","2018/09/29 14:19:05","新北市中和區華新街136號","121.508098333333","24.982555","6500300","中和區"
"235035","783-BX","2018/09/29 14:18:55","新北市中和區中板路47巷12號","121.48203","25.0109516666667","6500300","中和區"
"235026","800-TS","2018/09/29 14:18:52","新北市中和區中山路二段488-1號","121.487396666667","25.0049416666667","6500300","中和區"
"235021","801-TS","2018/09/29 14:18:51","新北市中和區員山路423巷14弄1-1號","121.480341666667","25.002855","6500300","中和區"
"235005","802-TS","2018/09/29 14:18:54","新北市中和區安平路161號","121.512401666667","24.998565","6500300","中和區"
"235016","805-TS","2018/09/29 14:19:01","新北市中和區華新街232巷8號","121.505866666667","24.9821","6500300","中和區"
"235012","896-TW","2018/09/29 14:18:56","新北市中和區華新街109巷1-2號","121.509028333333","24.98235","6500300","中和區"
"235017","900-TW","2018/09/29 14:19:05","新北市中和區華安街21巷9號","121.467425","24.9976266666667","6500300","中和區"
"235015","157-BY","2018/09/29 14:18:58","新北市中和區和平街7號","121.50939","24.990225","6500300","中和區"
"235001","AAC-213","2018/09/29 14:19:06","新北市中和區自立路15巷25號","121.523136666667","24.9960083333333","6500300","中和區"
"235023","AAC-215","2018/09/29 14:18:59","新北市中和區圓通路286巷26號","121.492048333333","24.9914683333333","6500300","中和區"
"220016","013-TV","2018/09/29 14:18:57","新北市板橋區萬安街132號","121.483303333333","25.02596","6500100","板橋區"
"220013","072-UY","2018/09/29 14:19:06","新北市板橋區民族路129巷1號","121.467438333333","25.0082516666667","6500100","板橋區"
"220034","073-UY","2018/09/29 14:19:00","新北市板橋區中正路250巷22號","121.456321666667","25.0193966666667","6500100","板橋區"
"220105","075-UY","2018/09/29 14:18:53","新北市板橋區雙十路三段70巷1號","121.470286666667","25.0324333333333","6500100","板橋區"
"220017","AAD-861","2018/09/29 14:18:54","新北市板橋區華興街33號","121.458353333333","25.0044866666667","6500100","板橋區"
"247001","893-R6","2018/09/29 14:18:51","新北市蘆洲區永樂街45號","121.457088333333","25.0885183333333","6501400","蘆洲區"
"247015","546-UM","2018/09/29 14:19:02","新北市蘆洲區中正路185巷31弄35號","121.467078333333","25.0834383333333","6501400","蘆洲區"
"247023","500-BY","2018/09/29 14:19:05","新北市蘆洲區長榮路746號","121.46081","25.092675","6501400","蘆洲區"
"247013","339-TH","2018/09/29 14:18:51","新北市蘆洲區中山一路182號","121.47404","25.0810416666667","6501400","蘆洲區"
"247005","337-TH","2018/09/29 14:19:09","新北市蘆洲區長安街23巷3號","121.463838333333","25.0788183333333","6501400","蘆洲區"
"247007","336-TH","2018/09/29 14:19:03","新北市蘆洲區信義路75巷2號","121.476356666667","25.0798733333333","6501400","蘆洲區"
"247019","057-VK","2018/09/29 14:18:53","新北市蘆洲區民族路339號","121.472888333333","25.0919283333333","6501400","蘆洲區"
"247009","056-VK","2018/09/29 14:18:54","新北市蘆洲區三民路26巷26弄1號","121.477735","25.083","6501400","蘆洲區"
"247017","007-UY","2018/09/29 14:18:50","新北市蘆洲區民權路100號","121.474045","25.0880616666667","6501400","蘆洲區"
"247003","002-UY","2018/09/29 14:19:04","新北市蘆洲區長安街170號","121.459305","25.0834133333333","6501400","蘆洲區"
"247021","001-UY","2018/09/29 14:18:52","新北市蘆洲區中正路434巷8-2號","121.463486666667","25.0948233333333","6501400","蘆洲區"
"235007","251-BX","2018/09/29 14:18:55","新北市中和區景平路296號","121.51312","24.9926616666667","6500300","中和區"
"228005","097-TW","2018/09/29 14:19:00","新北市貢寮區美豐里雞母嶺街6-2號","121.898893333333","25.0632016666667","6502600","貢寮區"
"228004","212-TW","2018/09/29 14:19:00","新北市貢寮區雙玉里下雙溪街26-1號","121.924655","25.0113483333333","6502600","貢寮區"
"253003","6232-TK","2018/09/29 14:18:58","新北市石門區尖子鹿31-1號","121.579285","25.2669733333333","6502200","石門區"
"253001","6251-TK","2018/09/29 14:19:04","新北市石門區八甲14-1號","121.522846666667","25.2814783333333","6502200","石門區"
"253002","637-UY","2018/09/29 14:18:47","新北市石門區楓林32號","121.544915","25.2828033333333","6502200","石門區"
"253004","8270-PC","2018/09/29 14:19:03","新北市石門區內阿里磅2-1號","121.591076666667","25.25408","6502200","石門區"
"207002","749-BX","2018/09/29 14:18:52","新北市萬里區溪底里瑞泉路9號","121.603035","25.1440666666667","6502800","萬里區"
"252005","073-UM","2018/09/29 14:19:06","新北市三芝區橫山里橫山31-1號","121.5442","25.2579483333333","6502100","三芝區"
"207001","662-BX","2018/09/29 14:19:00","新北市萬里區磺潭里清水18號","121.637783333333","25.19776","6502800","萬里區"
"236068","105-UM","2018/09/29 14:18:57","新北市土城區明德路一段80號","121.464968333333","24.97997","6501300","土城區"
"236074","166-UM","2018/09/29 14:18:54","新北市土城區永安街115巷36號","121.428853333333","24.9628933333333","6501300","土城區"
"236029","253-BX","2018/09/29 14:18:58","新北市土城區順風路45號","121.440335","24.9769933333333","6501300","土城區"
"236024","269-VK","2018/09/29 14:18:57","新北市土城區承天路18號","121.439368333333","24.9634216666667","6501300","土城區"
"236013","270-VK","2018/09/29 14:18:53","新北市土城區青雲路39巷7號","121.460346666667","24.9875733333333","6501300","土城區"
"236032","271-VK","2018/09/29 14:18:51","新北市土城區青雲路451巷8弄12號","121.459528333333","24.974175","6501300","土城區"
"236017","401-BY","2018/09/29 14:18:59","新北市土城區金城路二段206號","121.45517","24.9820116666667","6501300","土城區"
"236040","752-BX","2018/09/29 14:19:03","新北市土城區裕生路21巷6弄23號","121.448748333333","24.9868166666667","6501300","土城區"
"236057","912-UM","2018/09/29 14:19:06","新北市土城區中央路四段356號","121.41315","24.9550816666667","6501300","土城區"
"236045","913-UM","2018/09/29 14:19:02","新北市土城區明德路一段365-1號","121.453976666667","24.9787116666667","6501300","土城區"
"236060","915-UM","2018/09/29 14:18:51","新北市土城區金城路三段245號","121.471671666667","24.989875","6501300","土城區"
"236054","AAC-216","2018/09/29 14:19:08","新北市土城區中華路二段98號","121.438065","24.9744466666667","6501300","土城區"
"221012","246-BX","2018/09/29 14:18:40","新北市汐止區民權街二段109巷8弄1號","121.619266666667","25.0467566666667","6501100","汐止區"
"221010","269-BY","2018/09/29 14:18:59","新北市汐止區八連路二段610巷4號","121.628171666667","25.10836","6501100","汐止區"
"220027","145-BY","2018/09/29 14:19:11","新北市板橋區民權路202巷13弄25號","121.458463333333","25.0162916666667","6500100","板橋區"
"220028","200-UY","2018/09/29 14:19:03","新北市板橋區大觀路二段3巷11號","121.447811666667","25.003825","6500100","板橋區"
"220030","610-BX","2018/09/29 14:18:58","新北市板橋區金門街364號","121.427423333333","24.9839883333333","6500100","板橋區"
"220050","245-BX","2018/09/29 14:19:04","新北市板橋區莊敬路31-1號","121.473525","25.027665","6500100","板橋區"
"220004","276-BY","2018/09/29 14:19:08","新北市板橋區信義路89號","121.457748333333","24.9941533333333","6500100","板橋區"
"220020","277-BY","2018/09/29 14:19:06","新北市板橋區金門街236號","121.430688333333","24.987385","6500100","板橋區"
"220019","283-VK","2018/09/29 14:18:53","新北市板橋區忠孝路48巷28號","121.460851666667","25.0007783333333","6500100","板橋區"
"220043","285-UM","2018/09/29 14:19:02","新北市板橋區吳鳳路82號","121.466951666667","25.0313","6500100","板橋區"
"220001","285-VK","2018/09/29 14:18:54","新北市板橋區富山街10號","121.478603333333","25.0219","6500100","板橋區"
"220031","286-VK","2018/09/29 14:18:51","新北市板橋區龍興街71巷9號","121.44335","25.0019983333333","6500100","板橋區"
"220029","287-VK","2018/09/29 14:19:09","新北市板橋區南雅西路一段10巷7弄17號","121.454041666667","25.00431","6500100","板橋區"
"220039","288-VK","2018/09/29 14:18:57","新北市板橋區長江路一段106巷13弄14號","121.460583333333","25.02932","6500100","板橋區"
"220009","293-UM","2018/09/29 14:19:06","新北市板橋區中山路二段320號","121.480945","25.0194666666667","6500100","板橋區"
"220052","295-UM","2018/09/29 14:18:53","新北市板橋區介壽街20號","121.467605","25.0200816666667","6500100","板橋區"
"220032","296-UM","2018/09/29 14:18:59","新北市板橋區滿平街136巷8弄12號","121.427558333333","24.9877633333333","6500100","板橋區"
"220046","299-UM","2018/09/29 14:18:52","新北市板橋區幸福路60巷38號","121.460148333333","25.0218","6500100","板橋區"
"220023","303-R5","2018/09/29 14:19:06","新北市板橋區南雅南路一段60-1號","121.455443333333","25.0054183333333","6500100","板橋區"
"220010","305-R5","2018/09/29 14:19:06","新北市板橋區三民路二段居仁巷1弄45號","121.480671666667","25.0136633333333","6500100","板橋區"
"220041","307-R5","2018/09/29 14:18:49","新北市板橋區松江街70號","121.468643333333","25.027745","6500100","板橋區"
"220047","317-R6","2018/09/29 14:18:52","新北市板橋區民有街89巷11號","121.464306666667","25.0273616666667","6500100","板橋區"
"220012","486-VK","2018/09/29 14:19:07","新北市板橋區中山路一段48號","121.460835","25.0087966666667","6500100","板橋區"
"220038","487-VK","2018/09/29 14:18:57","新北市板橋區文化路一段357號","121.466756666667","25.0210983333333","6500100","板橋區"
"220037","491-VK","2018/09/29 14:18:59","新北市板橋區雙十路二段193號","121.473553333333","25.028945","6500100","板橋區"
"220104","560-BX","2018/09/29 14:18:56","新北市板橋區中正路413巷2弄16號","121.453448333333","25.023215","6500100","板橋區"
"220011","609-BX","2018/09/29 14:19:06","新北市板橋區三民路二段201號","121.479165","25.0137783333333","6500100","板橋區"
"220040","637-BX","2018/09/29 14:19:01","新北市板橋區松柏街72號","121.476415","25.0304183333333","6500100","板橋區"
"220005","686-BX","2018/09/29 14:18:58","新北市板橋區和平路153號","121.463406666667","24.9956783333333","6500100","板橋區"
"220025","687-BX","2018/09/29 14:19:01","新北市板橋區大觀路二段113號","121.446038333333","25.0016016666667","6500100","板橋區"
"220042","689-BX","2018/09/29 14:18:50","新北市板橋區漢生西路79巷2號","121.46272","25.0193716666667","6500100","板橋區"
"220002","741-BX","2018/09/29 14:18:46","新北市板橋區光明街100號","121.462235","25.0028783333333","6500100","板橋區"
"220051","KEA-2699","2018/09/29 14:19:07","新北市板橋區文聖街113號","121.477796666667","25.0291616666667","6500100","板橋區"
"220003","827-TW","2018/09/29 14:18:59","新北市板橋區館前東路156巷50號","121.46475","25.0067016666667","6500100","板橋區"
"220014","830-TW","2018/09/29 14:19:07","新北市板橋區長安街263號","121.47385","25.01145","6500100","板橋區"
"220045","831-TW","2018/09/29 14:19:08","新北市板橋區大同街26巷36號","121.478498333333","25.02631","6500100","板橋區"
"220022","895-R6","2018/09/29 14:19:08","新北市板橋區北門街5號","121.457663333333","25.01054","6500100","板橋區"
"220021","985-R7","2018/09/29 14:19:04","新北市板橋區中正路360巷57號","121.456583333333","25.0229333333333","6500100","板橋區"
"220018","AAC-253","2018/09/29 14:18:58","新北市板橋區忠孝路116號","121.462826666667","25.0022166666667","6500100","板橋區"
"235032","KEA-2873","2018/09/29 14:18:57","新北市中和區景平路493巷10號","121.49931","24.9970183333333","6500300","中和區"
"235025","KEA-2875","2018/09/29 14:18:39","新北市中和區民利街61巷15號","121.478731666667","24.998165","6500300","中和區"
"235024","KEA-2876","2018/09/29 14:18:44","新北市中和區民治街3巷2號","121.474966666667","25.00521","6500300","中和區"
