"lineid","car","time","location","longitude","latitude","cityid","cityname"
"234040","862-TW","2018/09/29 14:48:51","新北市三重區五谷王北街181-1號","121.477446666667","25.0550083333333","6500400","永和區"
"234025","9371-KE","2018/09/29 14:48:56","新北市永和區雙和街52巷1-1號","121.509088333333","25.00317","6500400","永和區"
"248017","225-UY","2018/09/29 14:27:47","新北市五股區外寮路13-1號","121.424805","25.0811583333333","6501500","五股區"
"231002","002-UM","2018/09/29 14:48:48","新北市新店區建國路268號","121.537491666667","24.983135","6500600","新店區"
"231027","0291-UT","2018/09/29 14:49:08","新北市新店區環河路180號","121.525131666667","24.9756433333333","6500600","新店區"
"231028","046-UY","2018/09/29 14:48:59","新北市新店區安德街79號","121.510113333333","24.9613433333333","6500600","新店區"
"231001","047-UY","2018/09/29 14:48:51","新北市新店區三民路125號","121.534636666667","24.9723466666667","6500600","新店區"
"231005","106-UY","2018/09/29 14:48:56","新北市新店區復興路2號","121.532416666667","24.98829","6500600","新店區"
"231020","110-UY","2018/09/29 14:49:02","新北市新店區新烏路二段300號","121.548635","24.9130783333333","6500600","新店區"
"231012","187-VK","2018/09/29 14:48:49","新北市新店區寶橋路77號","121.545873333333","24.9753916666667","6500600","新店區"
"231033","188-VK","2018/09/29 14:49:03","新北市新店區安康路二段317號","121.499451666667","24.9566966666667","6500600","新店區"
"231003","268-BY","2018/09/29 14:49:06","新北市新店區中興路二段186號","121.548108333333","24.9726983333333","6500600","新店區"
"231018","278-BY","2018/09/29 14:48:59","新北市新店區中央路202號","121.530391666667","24.97416","6500600","新店區"
"231017","AAD-862","2018/09/29 14:48:49","新北市新店區北宜路三段66號","121.575063333333","24.951415","6500600","新店區"
"231038","3712-VJ","2018/09/29 14:48:47","新北市新店區安康路一段266巷4號","121.519846666667","24.963975","6500600","新店區"
"231037","4716-K9","2018/09/29 14:48:51","新北市新店區安康路二段320巷15弄18號","121.502628333333","24.9592683333333","6500600","新店區"
"231025","4715-K9","2018/09/29 14:49:02","新北市新店區民族路161號","121.537576666667","24.9767716666667","6500600","新店區"
"231036","512-UM","2018/09/29 14:49:06","新北市新店區安祥路106巷149號","121.47342","24.9588933333333","6500600","新店區"
"231013","513-UM","2018/09/29 14:48:54","新北市新店區北新路二段35號","121.542785","24.9725366666667","6500600","新店區"
"231034","616-UM","2018/09/29 14:48:57","新北市新店區安康路二段317號","121.499543333333","24.9568466666667","6500600","新店區"
"231006","617-UM","2018/09/29 14:48:55","新北市新店區北宜路一段121-3號","121.540333333333","24.9538483333333","6500600","新店區"
"231030","619-UM","2018/09/29 14:49:06","新北市新店區安民街346號","121.516945","24.9754783333333","6500600","新店區"
"231039","718-UY","2018/09/29 14:49:08","新北市新店區安一路一段1-1號","121.519316666667","24.961105","6500600","新店區"
"231035","719-UM","2018/09/29 14:48:28","新北市新店區安和路二段154號","121.519851666667","24.9732166666667","6500600","新店區"
"231023","719-UY","2018/09/29 14:48:49","新北市新店區檳榔路109號","121.544391666667","24.9616","6500600","新店區"
"231029","897-TW","2018/09/29 14:48:48","新北市新店區錦秀路11巷81號","121.480616666667","24.94462","6500600","新店區"
"231004","899-TW","2018/09/29 14:49:03","新北市新店區建國路133號","121.539336666667","24.978195","6500600","新店區"
"231024","AKT-0513","2018/09/29 14:48:56","新北市新店區中華路83巷61號","121.53844","24.9674633333333","6500600","新店區"
"235020","096-UM","2018/09/29 14:49:01","新北市中和區中山路三段114巷16號","121.475956666667","25.00676","6500300","中和區"
"235003","097-UM","2018/09/29 14:49:07","新北市中和區安樂路139號","121.51448","24.996775","6500300","中和區"
"235029","098-UM","2018/09/29 14:49:06","新北市中和區福美路230號","121.499198333333","25.0052916666667","6500300","中和區"
"235004","150-BY","2018/09/29 14:48:58","新北市中和區安平路59號","121.509628333333","24.99499","6500300","中和區"
"235022","151-BY","2018/09/29 14:49:02","新北市中和區員山路146-2號","121.481276666667","24.996895","6500300","中和區"
"235002","185-VK","2018/09/29 14:49:08","新北市中和區自立路11號","121.522538333333","24.996385","6500300","中和區"
"235013","186-VK","2018/09/29 14:49:02","新北市中和區中正路62號","121.501311666667","24.9937083333333","6500300","中和區"
"235031","255-BX","2018/09/29 14:48:57","新北市中和區新生街186巷1弄19號","121.483406666667","24.9989666666667","6500300","中和區"
"235008","293-VK","2018/09/29 14:49:02","新北市中和區南山路176號","121.505511666667","24.99082","6500300","中和區"
"235036","301-VK","2018/09/29 14:49:02","新北市中和區中山路二段3巷22弄7號","121.506278333333","25.005135","6500300","中和區"
"247011","KEA-2869","2018/09/29 14:48:50","新北市蘆洲區中山一路35號","121.479041666667","25.0809483333333","6501400","蘆洲區"
"235014","4979-A6","2018/09/29 14:48:59","新北市中和區景平路241巷84弄54號","121.506091666667","24.9924266666667","6500300","中和區"
"235034","558-UM","2018/09/29 14:49:02","新北市中和區連勝街45號","121.498128333333","24.9975666666667","6500300","中和區"
"235018","640-BX","2018/09/29 14:49:03","新北市中和區莒光路207號","121.469876666667","24.99566","6500300","中和區"
"235011","732-UM","2018/09/29 14:48:50","新北市中和區和平街84號","121.507611666667","24.9911716666667","6500300","中和區"
"235010","733-UM","2018/09/29 14:49:05","新北市中和區仁愛街37號","121.51097","24.9885316666667","6500300","中和區"
"235026","800-TS","2018/09/29 14:48:52","新北市中和區中山路二段349號","121.491403333333","25.0031766666667","6500300","中和區"
"235021","801-TS","2018/09/29 14:48:51","新北市中和區圓通路369巷35號","121.489916666667","24.986945","6500300","中和區"
"235016","805-TS","2018/09/29 14:49:01","新北市中和區華新街30巷16號","121.506851666667","24.9844866666667","6500300","中和區"
"235012","896-TW","2018/09/29 14:48:56","新北市中和區忠孝街1巷2-1號","121.509083333333","24.9830366666667","6500300","中和區"
"235017","900-TW","2018/09/29 14:49:05","新北市中和區國光街184巷21號","121.467448333333","25.0021033333333","6500300","中和區"
"235015","157-BY","2018/09/29 14:48:58","新北市中和區中興街233巷10號","121.50144","24.989505","6500300","中和區"
"235001","AAC-213","2018/09/29 14:49:05","新北市中和區秀朗路三段175巷2號","121.524543333333","24.99132","6500300","中和區"
"235023","AAC-215","2018/09/29 14:48:59","新北市中和區圓通路305巷5弄45號","121.4949","24.9902916666667","6500300","中和區"
"220016","013-TV","2018/09/29 14:49:00","新北市板橋區光復街144號","121.48444","25.019305","6500100","板橋區"
"220013","072-UY","2018/09/29 14:49:06","新北市板橋區國泰街25巷8-2號","121.469221666667","25.006145","6500100","板橋區"
"220034","073-UY","2018/09/29 14:48:50","新北市板橋區南雅西路二段7巷25號","121.451911666667","25.0094733333333","6500100","板橋區"
"220105","075-UY","2018/09/29 14:48:53","新北市板橋區民治街61巷27號","121.48054","25.0334466666667","6500100","板橋區"
"220017","AAD-861","2018/09/29 14:49:03","新北市板橋區貴興路49號","121.45742","25.00331","6500100","板橋區"
"247001","893-R6","2018/09/29 14:49:04","新北市蘆洲區永康街8號","121.459328333333","25.0858183333333","6501400","蘆洲區"
"247015","546-UM","2018/09/29 14:49:02","新北市蘆洲區和平路209號","121.46592","25.0817483333333","6501400","蘆洲區"
"247013","339-TH","2018/09/29 14:48:51","新北市蘆洲區中央路56號","121.473291666667","25.0835783333333","6501400","蘆洲區"
"235007","251-BX","2018/09/29 14:48:55","新北市中和區興南路一段2號","121.51167","24.9916333333333","6500300","中和區"
"228005","097-TW","2018/09/29 14:49:00","新北市貢寮區美豐里丹裡街54號","121.905988333333","25.05934","6502600","貢寮區"
"228004","212-TW","2018/09/29 14:49:00","新北市貢寮區福隆里裕隆街5號","121.946143333333","25.0159433333333","6502600","貢寮區"
"253003","6232-TK","2018/09/29 14:49:03","新北市石門區尖子鹿19-2號","121.576145","25.2772116666667","6502200","石門區"
"253001","6251-TK","2018/09/29 14:49:04","新北市石門區崁子腳31-2號","121.537366666667","25.2849966666667","6502200","石門區"
"253002","637-UY","2018/09/29 14:49:08","新北市石門區楓林42號","121.539838333333","25.27919","6502200","石門區"
"253004","8270-PC","2018/09/29 14:49:03","新北市石門區坪林29號","121.59118","25.2652683333333","6502200","石門區"
"207002","749-BX","2018/09/29 14:48:52","新北市萬里區崁腳里崁腳路73號","121.647508333333","25.1596183333333","6502800","萬里區"
"252005","073-UM","2018/09/29 14:49:06","新北市三芝區芝柏路2號","121.512588333333","25.2550216666667","6502100","三芝區"
"207001","662-BX","2018/09/29 14:49:00","新北市萬里區雙興里二坪路1號","121.650211666667","25.1781283333333","6502800","萬里區"
"236068","105-UM","2018/09/29 14:48:57","新北市土城區明德路一段369號","121.455348333333","24.9780483333333","6501300","土城區"
"236074","166-UM","2018/09/29 14:48:53","新北市土城區中央路四段67巷46號","121.418063333333","24.9570533333333","6501300","土城區"
"236029","253-BX","2018/09/29 14:48:58","新北市土城區忠義路34號","121.440466666667","24.9698716666667","6501300","土城區"
"236024","269-VK","2018/09/29 14:49:00","新北市土城區慶安街38號","121.441335","24.9733916666667","6501300","土城區"
"236013","270-VK","2018/09/29 14:48:53","新北市土城區金城路二段354巷4號","121.461106666667","24.98495","6501300","土城區"
"236032","271-VK","2018/09/29 14:48:51","新北市土城區明德路一段219號","121.46319","24.9785416666667","6501300","土城區"
"236017","401-BY","2018/09/29 14:48:58","新北市土城區延安街29號","121.467825","24.984705","6501300","土城區"
"236040","752-BX","2018/09/29 14:48:03","新北市土城區裕民路92巷25弄4號","121.449648333333","24.9858983333333","6501300","土城區"
"236057","912-UM","2018/09/29 14:49:06","新北市土城區中央路三段85-4號","121.438006666667","24.96803","6501300","土城區"
"236045","913-UM","2018/09/29 14:49:02","新北市土城區廣福街68巷18弄1號","121.459495","24.9905366666667","6501300","土城區"
"236060","915-UM","2018/09/29 14:48:51","新北市土城區金城路三段207巷6弄14號","121.470735","24.990215","6501300","土城區"
"236054","AAC-216","2018/09/29 14:48:58","新北市土城區裕民路223號","121.454121666667","24.9836133333333","6501300","土城區"
"221012","246-BX","2018/09/29 14:49:00","新北市汐止區民權街二段28號","121.619531666667","25.050105","6501100","汐止區"
"221010","269-BY","2018/09/29 14:48:59","新北市汐止區汐萬路一段256巷3號","121.652091666667","25.0747316666667","6501100","汐止區"
"220027","145-BY","2018/09/29 14:48:58","新北市板橋區建國街116號","121.460388333333","25.0174966666667","6500100","板橋區"
"220028","200-UY","2018/09/29 14:49:02","新北市板橋區大觀路二段163巷30號","121.44648","25.0000766666667","6500100","板橋區"
"220030","610-BX","2018/09/29 14:48:58","新北市板橋區存德街33號","121.430691666667","24.9915583333333","6500100","板橋區"
"220050","245-BX","2018/09/29 14:48:55","新北市板橋區莒光路217-1號","121.474505","25.0226116666667","6500100","板橋區"
"220020","277-BY","2018/09/29 14:49:06","新北市板橋區篤行路二段1巷3-3號","121.432265","24.9930216666667","6500100","板橋區"
"220019","283-VK","2018/09/29 14:48:53","新北市板橋區五權街30巷15號","121.464211666667","24.993205","6500100","板橋區"
"220043","285-UM","2018/09/29 14:49:02","新北市板橋區溪頭街82-3號","121.45907","25.02993","6500100","板橋區"
"220001","285-VK","2018/09/29 14:49:03","新北市板橋區中山路二段60巷1弄7-2號","121.474543333333","25.0154933333333","6500100","板橋區"
"220031","286-VK","2018/09/29 14:49:03","新北市板橋區僑中二街102巷22號","121.445286666667","25.0085233333333","6500100","板橋區"
"220029","287-VK","2018/09/29 14:49:09","新北市板橋區僑中一街80巷6弄1號","121.447698333333","25.0121733333333","6500100","板橋區"
"220039","288-VK","2018/09/29 14:48:57","新北市板橋區龍泉街108巷168號","121.456626666667","25.0237983333333","6500100","板橋區"
"220009","293-UM","2018/09/29 14:49:06","新北市板橋區板新路106號","121.471751666667","25.0153016666667","6500100","板橋區"
"220052","295-UM","2018/09/29 14:48:53","新北市板橋區陽明街29巷32號","121.463698333333","25.0227016666667","6500100","板橋區"
"220032","296-UM","2018/09/29 14:48:59","新北市板橋區溪崑二街112巷8號","121.426158333333","24.9889916666667","6500100","板橋區"
"220046","299-UM","2018/09/29 14:48:52","新北市板橋區漢生西路56號","121.463008333333","25.0187683333333","6500100","板橋區"
"220023","303-R5","2018/09/29 14:48:28","新北市板橋區中正路293號","121.455396666667","25.0193566666667","6500100","板橋區"
"220010","305-R5","2018/09/29 14:48:56","新北市板橋區中山路二段416巷52-4號","121.482801666667","25.0192433333333","6500100","板橋區"
"220041","307-R5","2018/09/29 14:48:57","新北市板橋區四維路259巷25號","121.462008333333","25.0274","6500100","板橋區"
"220047","317-R6","2018/09/29 14:48:52","新北市板橋區新海路385巷24號","121.45796","25.0255866666667","6500100","板橋區"
"220012","486-VK","2018/09/29 14:49:06","新北市板橋區實踐路173號","121.464335","25.0036283333333","6500100","板橋區"
"220038","487-VK","2018/09/29 14:48:52","新北市板橋區雨農路60號","121.460638333333","25.0240933333333","6500100","板橋區"
"220037","491-VK","2018/09/29 14:49:04","新北市板橋區仁化街103號","121.476735","25.0323133333333","6500100","板橋區"
"220104","560-BX","2018/09/29 14:48:55","新北市板橋區新生街87巷8號","121.457688333333","25.0218966666667","6500100","板橋區"
"220011","609-BX","2018/09/29 14:49:06","新北市板橋區林森街3巷1弄6號","121.482575","25.023595","6500100","板橋區"
"220040","637-BX","2018/09/29 14:49:01","新北市板橋區懷德街174巷25號","121.478373333333","25.0292083333333","6500100","板橋區"
"220005","686-BX","2018/09/29 14:48:58","新北市板橋區信義路92號","121.457933333333","24.9929966666667","6500100","板橋區"
"220025","687-BX","2018/09/29 14:49:01","新北市板橋區僑中一街70號","121.447513333333","25.01148","6500100","板橋區"
"220042","689-BX","2018/09/29 14:48:50","新北市板橋區長江路二段57號","121.464566666667","25.0314483333333","6500100","板橋區"
"220002","741-BX","2018/09/29 14:49:06","新北市板橋區實踐路93巷60號","121.466258333333","25.0049866666667","6500100","板橋區"
"220051","KEA-2699","2018/09/29 14:49:07","新北市板橋區松柏街35號","121.475238333333","25.0302883333333","6500100","板橋區"
"220003","827-TW","2018/09/29 14:48:59","新北市板橋區仁愛路47巷2號","121.45983","24.9994833333333","6500100","板橋區"
"220014","830-TW","2018/09/29 14:49:07","新北市板橋區長安街140號","121.472736666667","25.0100566666667","6500100","板橋區"
"220045","831-TW","2018/09/29 14:48:48","新北市板橋區民生路二段226巷31弄2號","121.471188333333","25.02218","6500100","板橋區"
"220022","895-R6","2018/09/29 14:49:08","新北市板橋區府中路22號","121.459653333333","25.009635","6500100","板橋區"
"220021","985-R7","2018/09/29 14:48:53","新北市板橋區南雅西路二段83號","121.452673333333","25.01032","6500100","板橋區"
"220018","AAC-253","2018/09/29 14:49:04","新北市板橋區民族路67號","121.465461666667","25.00863","6500100","板橋區"
"235032","KEA-2873","2018/09/29 14:48:57","新北市中和區中山路二段250巷2號","121.497666666667","25.002805","6500300","中和區"
"235024","KEA-2876","2018/09/29 14:48:52","新北市中和區新生街16巷17號","121.48249","25.0043233333333","6500300","中和區"
