"lineid","car","time","location","longitude","latitude","cityid","cityname"
"231028","046-UY","2018/09/29 15:34:39","新北市新店區僑信路43號","121.499341666667","24.9500066666667","6500600","新店區"
"231020","110-UY","2018/09/29 15:54:22","新北市新店區新烏路一段85巷1號","121.547068333333","24.9424516666667","6500600","新店區"
"231012","187-VK","2018/09/29 15:46:09","新北市新店區文化路78巷1弄2號","121.544795","24.98187","6500600","新店區"
"231033","188-VK","2018/09/29 15:54:03","新北市新店區雙城路129號","121.492755","24.946715","6500600","新店區"
"231026","256-BX","2018/09/29 15:44:53","新北市新店區三民路71號","121.536151666667","24.9714333333333","6500600","新店區"
"231003","268-BY","2018/09/29 15:35:26","新北市新店區寶高路130號","121.554985","24.9761416666667","6500600","新店區"
"231018","278-BY","2018/09/29 15:57:19","新北市新店區中正路663巷7弄13號","121.532836666667","24.9900033333333","6500600","新店區"
"231017","AAD-862","2018/09/29 15:54:09","新北市新店區中華路147號","121.538363333333","24.970565","6500600","新店區"
"231038","3712-VJ","2018/09/29 15:53:07","新北市新店區安康路二段228巷4號","121.509388333333","24.9597133333333","6500600","新店區"
"231037","4716-K9","2018/09/29 15:56:31","新北市新店區吉安街39號","121.515446666667","24.966355","6500600","新店區"
"231013","513-UM","2018/09/29 15:43:54","新北市新店區永業路81巷9弄7號","121.531083333333","24.95069","6500600","新店區"
"231034","616-UM","2018/09/29 15:46:38","新北市新店區玫瑰路57巷47號","121.49748","24.9464383333333","6500600","新店區"
"231006","617-UM","2018/09/29 15:34:22","新北市新店區安華路28-1號","121.519436666667","24.9609666666667","6500600","新店區"
"231030","619-UM","2018/09/29 15:45:46","新北市新店區永安街72號","121.519793333333","24.9866633333333","6500600","新店區"
"231039","718-UY","2018/09/29 15:36:28","新北市新店區寶元路二段14巷1號","121.54592","24.9825733333333","6500600","新店區"
"231035","719-UM","2018/09/29 15:47:28","新北市新店區安興路83號","121.515325","24.9753633333333","6500600","新店區"
"231023","719-UY","2018/09/29 15:40:49","新北市新店區大新街9巷12號","121.543845","24.9675466666667","6500600","新店區"
"231029","897-TW","2018/09/29 15:53:50","新北市新店區安華路28-1號","121.519573333333","24.9606966666667","6500600","新店區"
"231004","899-TW","2018/09/29 15:53:33","新北市新店區安華路28-1號","121.518945","24.96092","6500600","新店區"
"241011","013-R5","2018/09/29 15:51:42","新北市三重區文化北路137號","121.497761666667","25.0691533333333","6500200","三重區"
"241028","022-UY","2018/09/29 15:52:55","新北市三重區中正南路82號","121.494296666667","25.0589783333333","6500200","三重區"
"241008","059-VK","2018/09/29 15:55:53","新北市三重區重新路四段121號","121.485261666667","25.052275","6500200","三重區"
"241017","063-VK","2018/09/29 15:53:39","新北市三重區大仁街36巷49號","121.490381666667","25.064055","6500200","三重區"
"241024","065-VK","2018/09/29 15:50:38","新北市三重區重新路四段121號","121.484696666667","25.0517983333333","6500200","三重區"
"241026","066-VK","2018/09/29 15:57:49","新北市三重區正義南路60-6號","121.49853","25.06017","6500200","三重區"
"241002","090-VK","2018/09/29 15:56:25","新北市三重區仁義街91號","121.499648333333","25.0798716666667","6500200","三重區"
"241005","262-UM","2018/09/29 15:56:52","新北市三重區河邊北街351號","121.50251","25.0757","6500200","三重區"
"241033","265-UM","2018/09/29 15:50:25","新北市三重區光復路一段54巷1號","121.472016666667","25.04861","6500200","三重區"
"241016","266-UM","2018/09/29 15:55:54","新北市三重區重新路四段121號","121.48481","25.0525516666667","6500200","三重區"
"241018","268-UM","2018/09/29 15:53:39","新北市三重區重新路四段121號","121.484613333333","25.05233","6500200","三重區"
"241032","269-UM","2018/09/29 15:58:06","新北市三重區三陽路100巷3弄13號","121.483023333333","25.0581933333333","6500200","三重區"
"241013","270-UM","2018/09/29 15:58:25","新北市三重區三和路三段16巷9號","121.49655","25.0700816666667","6500200","三重區"
"241025","271-UM","2018/09/29 15:56:02","新北市三重區三民街188號","121.481591666667","25.0659183333333","6500200","三重區"
"241007","398-BY","2018/09/29 15:58:23","新北市三重區慈愛街8號","121.484496666667","25.0783933333333","6500200","三重區"
"241004","475-VK","2018/09/29 15:55:23","新北市三重區環河南路125號","121.49738","25.0550116666667","6500200","三重區"
"241020","478-VK","2018/09/29 15:55:40","新北市三重區忠孝路二段69號","121.484788333333","25.0704","6500200","三重區"
"241014","543-UM","2018/09/29 15:56:45","新北市三重區重新路四段121號","121.4848","25.052505","6500200","三重區"
"241023","545-UM","2018/09/29 15:57:34","新北市三重區中正北路174-1號","121.483793333333","25.0666766666667","6500200","三重區"
"241019","KEA-2593","2018/09/29 15:58:03","新北市三重區重新路四段121號","121.484668333333","25.05235","6500200","三重區"
"241006","AAD-863","2018/09/29 15:56:29","新北市三重區重新路四段121號","121.484648333333","25.0523033333333","6500200","三重區"
"241015","743-BX","2018/09/29 15:56:58","新北市三重區成功路110-3號","121.486913333333","25.051905","6500200","三重區"
"241001","887-TS","2018/09/29 15:57:23","新北市三重區忠孝路二段31號","121.485983333333","25.07101","6500200","三重區"
"241012","941-UM","2018/09/29 15:50:50","新北市三重區文化北路61-4號","121.498596666667","25.0664016666667","6500200","三重區"
"241029","942-UM","2018/09/29 15:47:56","新北市三重區正義南路165號","121.498698333333","25.0573816666667","6500200","三重區"
"235030","003-UY","2018/09/29 15:57:44","新北市新店區安康路二段320巷15弄2號","121.503828333333","24.9594983333333","6500300","中和區"
"235006","KEA-2878","2018/09/29 15:57:41","新北市中和區和城路一段271巷1號","121.48547","24.991845","6500300","中和區"
"247011","KEA-2869","2018/09/29 15:57:08","新北市五股區中興路三段163號","121.449161666667","25.0807016666667","6501400","蘆洲區"
"235033","4980-A6","2018/09/29 15:48:06","新北市中和區連城路469巷44弄16號","121.482788333333","24.994175","6500300","中和區"
"235046","733-UM","2018/09/29 15:49:56","新北市中和區員山路36巷13號","121.48416","24.9908383333333","6500300","中和區"
"235023","AAC-215","2018/09/29 15:37:59","新北市中和區員山路23號","121.480451666667","24.9851366666667","6500300","中和區"
"224002","275-VK","2018/09/29 15:53:29","新北市瑞芳區大寮路356-1號","121.784748333333","25.1031633333333","6501200","瑞芳區"
"227002","400-TW","2018/09/29 15:49:32","新北市雙溪區平林里外平林44號","121.852901666667","25.0363633333333","6502500","雙溪區"
"236068","105-UM","2018/09/29 15:36:37","新北市土城區中央路三段140號","121.433308333333","24.9655916666667","6501300","土城區"
"236074","166-UM","2018/09/29 15:31:33","新北市土城區龍泉路23號","121.4116","24.9468466666667","6501300","土城區"
"236029","253-BX","2018/09/29 15:31:58","新北市土城區日新街8巷6號","121.445435","24.98733","6501300","土城區"
"236057","912-UM","2018/09/29 15:32:26","新北市土城區中央路一段197號","121.445886666667","24.9868616666667","6501300","土城區"
"221012","246-BX","2018/09/29 15:55:53","新北市汐止區連峰街1巷1號","121.646358333333","25.076","6501100","汐止區"
"220031","286-VK","2018/09/29 15:56:11","新北市五股區中直路17-4號","121.422833333333","25.1111166666667","6500100","板橋區"
"220052","295-UM","2018/09/29 15:29:53","新北市板橋區漢生東路43巷28號","121.466476666667","25.0175616666667","6500100","板橋區"
"220025","687-BX","2018/09/29 15:43:21","新北市板橋區溪城路90-2號","121.428455","24.9792833333333","6500100","板橋區"
"220018","AAC-253","2018/09/29 15:47:54","新北市板橋區華東街1-9號","121.44826","24.9948966666667","6500100","板橋區"
