"lineid","car","time","location","longitude","latitude","cityid","cityname"
"231046","107-UY","2018/09/29 16:18:52","新北市新店區灣潭路2-27號","121.536498333333","24.9498066666667","6500600","新店區"
"231018","278-BY","2018/09/29 16:18:59","新北市新店區復興路108-1號","121.531568333333","24.98987","6500600","新店區"
"231029","897-TW","2018/09/29 15:53:50","新北市新店區安華路28-1號","121.519573333333","24.9606966666667","6500600","新店區"
"231004","899-TW","2018/09/29 15:53:33","新北市新店區安華路28-1號","121.518945","24.96092","6500600","新店區"
"241011","013-R5","2018/09/29 16:19:02","新北市三重區龍濱路190號","121.501091666667","25.0733083333333","6500200","三重區"
"241028","022-UY","2018/09/29 16:18:55","新北市三重區同安東街42號","121.497786666667","25.0571833333333","6500200","三重區"
"241008","059-VK","2018/09/29 16:18:53","新北市三重區力行路二段136巷45弄12號","121.479035","25.0753433333333","6500200","三重區"
"241031","061-VK","2018/09/29 16:18:49","新北市三重區捷運路41號","121.484031666667","25.0556716666667","6500200","三重區"
"241017","063-VK","2018/09/29 16:18:59","新北市三重區大同北路91號","121.494766666667","25.0637383333333","6500200","三重區"
"241024","065-VK","2018/09/29 16:18:58","新北市三重區中正北路145巷3弄2號","121.483585","25.067555","6500200","三重區"
"241026","066-VK","2018/09/29 16:19:09","新北市三重區正義南路60-1號","121.498303333333","25.0606566666667","6500200","三重區"
"241002","090-VK","2018/09/29 16:19:06","新北市三重區仁義街91號","121.499598333333","25.0798766666667","6500200","三重區"
"241005","262-UM","2018/09/29 16:18:52","新北市三重區溪尾街305號","121.487633333333","25.08377","6500200","三重區"
"241033","265-UM","2018/09/29 16:19:05","新北市三重區重新路五段406-1號","121.476123333333","25.0476983333333","6500200","三重區"
"241016","266-UM","2018/09/29 16:18:54","新北市三重區大仁街37號","121.49294","25.0654083333333","6500200","三重區"
"241009","267-UM","2018/09/29 16:18:53","新北市三重區溪尾街192號","121.488221666667","25.0809816666667","6500200","三重區"
"241018","268-UM","2018/09/29 16:18:59","新北市三重區重陽路三段142號","121.489318333333","25.067035","6500200","三重區"
"241032","269-UM","2018/09/29 16:19:06","新北市三重區三陽路100巷3弄13號","121.483026666667","25.0581633333333","6500200","三重區"
"241013","270-UM","2018/09/29 16:19:08","新北市三重區三和路三段91巷1號","121.494921666667","25.0722783333333","6500200","三重區"
"241025","271-UM","2018/09/29 16:19:02","新北市三重區中正北路560巷100弄2號","121.472631666667","25.068235","6500200","三重區"
"241007","398-BY","2018/09/29 16:19:03","新北市三重區三和路四段163巷97號","121.4867","25.0796216666667","6500200","三重區"
"241004","475-VK","2018/09/29 16:19:03","新北市三重區仁愛街377巷134號","121.493731666667","25.0817066666667","6500200","三重區"
"241020","478-VK","2018/09/29 16:19:00","新北市三重區忠孝路二段56號","121.484898333333","25.0704033333333","6500200","三重區"
"241030","480-VK","2018/09/29 16:18:51","新北市三重區重新路四段121號","121.484875","25.0526333333333","6500200","三重區"
"241014","543-UM","2018/09/29 16:19:05","新北市三重區河邊北街100巷1號","121.504073333333","25.0704833333333","6500200","三重區"
"241023","545-UM","2018/09/29 16:18:54","新北市三重區忠孝路三段84巷5號","121.480195","25.0643966666667","6500200","三重區"
"241019","KEA-2593","2018/09/29 16:19:03","新北市三重區自強路二段76號","121.488181666667","25.07015","6500200","三重區"
"241006","AAD-863","2018/09/29 16:19:09","新北市三重區永福街46巷29號","121.482211666667","25.0776","6500200","三重區"
"241015","743-BX","2018/09/29 16:18:58","新北市三重區福德北路79號","121.501901666667","25.065835","6500200","三重區"
"241001","887-TS","2018/09/29 16:19:03","新北市三重區仁愛街351號","121.492071666667","25.079835","6500200","三重區"
"241012","941-UM","2018/09/29 16:18:50","新北市三重區河邊北街319號","121.50237","25.0749366666667","6500200","三重區"
"241029","942-UM","2018/09/29 16:18:56","新北市三重區中正南路252巷5號","121.49346","25.05265","6500200","三重區"
"235006","KEA-2878","2018/09/29 16:04:53","新北市中和區和城路一段271巷1號","121.485546666667","24.9916666666667","6500300","中和區"
"235046","733-UM","2018/09/29 15:49:56","新北市中和區員山路36巷13號","121.48416","24.9908383333333","6500300","中和區"
"224007","275-VK","2018/09/29 16:18:49","新北市瑞芳區大埔路142號","121.761773333333","25.10089","6501200","瑞芳區"
"224005","271-BY","2018/09/29 16:18:53","新北市瑞芳區傑魚坑路316-2號","121.786556666667","25.1051533333333","6501200","瑞芳區"
"227011","642-TC","2018/09/29 16:18:52","新北市雙溪區三港里雙澳路80號","121.883785","25.053865","6502500","雙溪區"
"227002","400-TW","2018/09/29 16:18:52","新北市雙溪區上林里內平林80號","121.828335","25.0279633333333","6502500","雙溪區"
"251013","KEA-2871","2018/09/29 16:19:07","新北市淡水區中山北路一段156號","121.444198333333","25.17792","6501000","淡水區"
"236068","105-UM","2018/09/29 16:00:04","新北市土城區城林路6巷80號","121.43844","24.9797816666667","6501300","土城區"
"221012","246-BX","2018/09/29 16:13:02","新北市汐止區汐萬路一段256巷1號","121.652043333333","25.0745983333333","6501100","汐止區"
"220005","686-BX","2018/09/29 16:13:02","新北市板橋區溪城路90-2號","121.429163333333","24.980365","6500100","板橋區"
