"lineid","car","time","location","longitude","latitude","cityid","cityname"
"249005","172-UM","2018/09/29 17:18:55","新北市五股區凌雲路三段130號","121.417395","25.128215","6502300","八里區"
"249001","173-UM","2018/09/29 17:18:58","新北市八里區中華路二段165巷3號","121.40769","25.1509466666667","6502300","八里區"
"249004","303-UY","2018/09/29 17:19:10","新北市八里區賢三街23號","121.418883333333","25.159055","6502300","八里區"
"249002","305-UY","2018/09/29 17:18:59","新北市八里區龍米路二段117巷29-1號","121.44642","25.1427633333333","6502300","八里區"
"249003","593-UM","2018/09/29 17:18:58","新北市八里區中山路二段391號","121.398208333333","25.1468466666667","6502300","八里區"
"244023","069-UM","2018/09/29 17:19:04","新北市林口區隆林街92號","121.385945","25.0751733333333","6501700","林口區"
"244007","080-UY","2018/09/29 17:18:57","新北市林口區中湖48-25號","121.380691666667","25.09358","6501700","林口區"
"244019","403-UM","2018/09/29 17:19:03","新北市林口區公園路233-4號","121.375948333333","25.0757983333333","6501700","林口區"
"244013","KEA-2802","2018/09/29 17:19:10","新北市林口區粉寮路二段88巷100-12號","121.40971","25.0901883333333","6501700","林口區"
"244017","485-VK","2018/09/29 17:19:11","新北市林口區粉寮路二段88巷22-1號","121.40614","25.0884516666667","6501700","林口區"
"244011","701-TV","2018/09/29 17:19:00","新北市林口區粉寮路一段139號","121.399093333333","25.0812466666667","6501700","林口區"
"244025","837-TS","2018/09/29 17:19:11","新北市林口區仁愛二路63號","121.368478333333","25.0754183333333","6501700","林口區"
"244021","838-TS","2018/09/29 17:18:54","新北市林口區粉寮路二段358-11號","121.406683333333","25.0968383333333","6501700","林口區"
"231046","107-UY","2018/09/29 17:19:12","新北市新店區直潭路92號","121.530928333333","24.9375633333333","6500600","新店區"
"241011","013-R5","2018/09/29 17:19:02","新北市三重區河邊北街110巷66號","121.502216666667","25.0702283333333","6500200","三重區"
"241028","022-UY","2018/09/29 17:18:54","新北市三重區仁化街63號","121.493816666667","25.0590266666667","6500200","三重區"
"241008","059-VK","2018/09/29 17:19:13","新北市三重區永福街72巷37-6號","121.480611666667","25.0764116666667","6500200","三重區"
"241017","063-VK","2018/09/29 17:18:58","新北市三重區大同北路55號","121.49511","25.063215","6500200","三重區"
"241024","065-VK","2018/09/29 17:18:58","新北市三重區中正北路191巷3弄10號","121.478058333333","25.069765","6500200","三重區"
"241026","066-VK","2018/09/29 17:19:09","新北市三重區正義南路10號","121.498195","25.0614966666667","6500200","三重區"
"241002","090-VK","2018/09/29 17:19:06","新北市三重區自強路五段41號","121.493933333333","25.0813783333333","6500200","三重區"
"251014","742-BX","2018/09/29 17:18:55","新北市淡水區公埔子45號","121.463933333333","25.2302183333333","6501000","淡水區"
"241005","262-UM","2018/09/29 17:19:12","新北市三重區永安北路二段25巷18號","121.482578333333","25.0819616666667","6500200","三重區"
"241033","265-UM","2018/09/29 17:19:05","新北市三重區中興北街199號","121.469051666667","25.057455","6500200","三重區"
"241016","266-UM","2018/09/29 17:18:54","新北市三重區大同北路54巷1號","121.494165","25.0635933333333","6500200","三重區"
"241009","267-UM","2018/09/29 17:18:53","新北市三重區仁美街123號","121.485601666667","25.08123","6500200","三重區"
"241018","268-UM","2018/09/29 17:18:59","新北市三重區安慶街177號","121.493581666667","25.068565","6500200","三重區"
"241032","269-UM","2018/09/29 17:19:06","新北市三重區新北大道一段163號","121.482371666667","25.0609866666667","6500200","三重區"
"241013","270-UM","2018/09/29 17:19:08","新北市三重區仁愛街88號","121.495533333333","25.0737733333333","6500200","三重區"
"241025","271-UM","2018/09/29 17:19:02","新北市三重區三民街328號","121.476535","25.0696016666667","6500200","三重區"
"241007","398-BY","2018/09/29 17:19:03","新北市三重區慈愛街10號","121.484516666667","25.0784366666667","6500200","三重區"
"241004","475-VK","2018/09/29 17:19:03","新北市三重區五華街141巷60號","121.493606666667","25.0867833333333","6500200","三重區"
"241020","478-VK","2018/09/29 17:19:00","新北市三重區自強路三段7巷32號","121.488093333333","25.0722183333333","6500200","三重區"
"241030","480-VK","2018/09/29 17:18:51","新北市三重區成功路73巷36號","121.489696666667","25.0523083333333","6500200","三重區"
"241014","543-UM","2018/09/29 17:19:05","新北市三重區三和路二段83號","121.500103333333","25.0684416666667","6500200","三重區"
"241023","545-UM","2018/09/29 17:18:54","新北市三重區三民街174號","121.482066666667","25.065605","6500200","三重區"
"241019","KEA-2593","2018/09/29 17:19:02","新北市三重區忠孝路二段77號","121.484705","25.070335","6500200","三重區"
"241015","743-BX","2018/09/29 17:18:58","新北市三重區三和路二段1號","121.501763333333","25.06637","6500200","三重區"
"241001","887-TS","2018/09/29 17:19:03","新北市三重區集賢路87-1號","121.493691666667","25.0869133333333","6500200","三重區"
"241012","941-UM","2018/09/29 17:19:09","新北市三重區河邊北街256巷21號","121.500891666667","25.0759383333333","6500200","三重區"
"247012","KEA-2869","2018/09/29 17:19:03","新北市蘆洲區信義路317號","121.478288333333","25.0863983333333","6501400","蘆洲區"
"247002","893-R6","2018/09/29 17:18:57","新北市蘆洲區永樂街38巷33弄3號","121.45789","25.0893466666667","6501400","蘆洲區"
"247016","546-UM","2018/09/29 17:19:08","新北市蘆洲區正和街96巷14號","121.467871666667","25.0810216666667","6501400","蘆洲區"
"247024","500-BY","2018/09/29 17:19:07","新北市蘆洲區長榮路256號","121.460473333333","25.0859983333333","6501400","蘆洲區"
"247014","339-TH","2018/09/29 17:18:53","新北市蘆洲區中正路79-2號","121.470163333333","25.08345","6501400","蘆洲區"
"247006","337-TH","2018/09/29 17:19:06","新北市蘆洲區長安街73巷25號","121.46191","25.0792116666667","6501400","蘆洲區"
"247008","336-TH","2018/09/29 17:19:10","新北市蘆洲區永安北路一段72巷3號","121.476846666667","25.07695","6501400","蘆洲區"
"247020","057-VK","2018/09/29 17:19:00","新北市蘆洲區民族路331-18號","121.473306666667","25.0918333333333","6501400","蘆洲區"
"247010","056-VK","2018/09/29 17:19:03","新北市蘆洲區中山一路120巷7弄33號","121.476886666667","25.0825933333333","6501400","蘆洲區"
"247018","007-UY","2018/09/29 17:19:12","新北市蘆洲區民權路68巷6號","121.475315","25.0875233333333","6501400","蘆洲區"
"247004","002-UY","2018/09/29 17:19:07","新北市蘆洲區永安南路二段282號","121.457888333333","25.0811083333333","6501400","蘆洲區"
"247022","001-UY","2018/09/29 17:18:53","新北市蘆洲區三民路128巷29-2號","121.470113333333","25.08944","6501400","蘆洲區"
"228003","097-TW","2018/09/29 17:19:09","新北市貢寮區福隆里興隆街24號","121.944571666667","25.0166066666667","6502600","貢寮區"
"228001","212-TW","2018/09/29 17:18:54","新北市貢寮區仁理村尖山腳街18-3號","121.925481666667","25.0482683333333","6502600","貢寮區"
"228002","663-BX","2018/09/29 17:19:07","新北市貢寮區雙玉里下雙溪街26號","121.924623333333","25.0112133333333","6502600","貢寮區"
"224006","676-BX","2018/09/29 17:19:11","新北市瑞芳區傑魚坑路245巷2號","121.788416666667","25.1063383333333","6501200","瑞芳區"
"224008","285-BY","2018/09/29 17:19:07","新北市瑞芳區侯硐路94號","121.825888333333","25.0832783333333","6501200","瑞芳區"
"224009","273-VK","2018/09/29 17:19:05","新北市瑞芳區汽車路51號","121.844108333333","25.109645","6501200","瑞芳區"
"224005","271-BY","2018/09/29 17:19:13","","121.90115","25.1204683333333","6501200","瑞芳區"
"227011","642-TC","2018/09/29 17:18:12","新北市雙溪區三貂里定福路4號","121.85128","25.06499","6502500","雙溪區"
"227002","400-TW","2018/09/29 17:18:52","新北市雙溪區上林里內平林90號","121.827565","25.0274666666667","6502500","雙溪區"
"251009","008-UM","2018/09/29 17:19:02","新北市淡水區三民街20號","121.439041666667","25.1717433333333","6501000","淡水區"
"251005","010-UM","2018/09/29 17:18:54","新北市淡水區鄧公路19-1號","121.450361666667","25.169915","6501000","淡水區"
"251002","012-UM","2018/09/29 17:18:55","新北市淡水區中正路二段31號","121.419395","25.1816216666667","6501000","淡水區"
"251013","KEA-2871","2018/09/29 17:19:10","新北市淡水區破瓦厝子3-5號","121.472143333333","25.1975966666667","6501000","淡水區"
"251008","179-VK","2018/09/29 17:19:05","新北市淡水區大同路293號","121.467803333333","25.142445","6501000","淡水區"
"251015","180-VK","2018/09/29 17:18:54","新北市淡水區樹林口14-3號","121.477286666667","25.1671316666667","6501000","淡水區"
"251010","413-VK","2018/09/29 17:19:04","新北市淡水區淡海路100號","121.422763333333","25.182455","6501000","淡水區"
"251012","441-VK","2018/09/29 17:19:05","新北市淡水區中山北路一段158號","121.44431","25.1779266666667","6501000","淡水區"
"251004","443-VK","2018/09/29 17:18:22","新北市淡水區中正東路二段88巷15號","121.459115","25.1504866666667","6501000","淡水區"
"251006","561-UM","2018/09/29 17:19:06","新北市淡水區新生街29號","121.439515","25.17499","6501000","淡水區"
"251016","575-R6","2018/09/29 17:18:56","新北市淡水區埤島63號","121.461581666667","25.190415","6501000","淡水區"
"251007","577-R6","2018/09/29 17:18:50","新北市淡水區民生路47-4號","121.462025","25.13808","6501000","淡水區"
"251011","650-BX","2018/09/29 17:19:02","新北市淡水區坪頂路128號","121.46489","25.16121","6501000","淡水區"
"251003","673-BX","2018/09/29 17:18:55","新北市淡水區中正路二段31號","121.419345","25.18167","6501000","淡水區"
"252002","178-VK","2018/09/29 17:19:10","新北市三芝區忠孝街1-14號","121.505551666667","25.25398","6502100","三芝區"
"252001","292-VK","2018/09/29 17:19:03","新北市三芝區長安街119號","121.498073333333","25.2596583333333","6502100","三芝區"
"237007","153-BY","2018/09/29 17:17:18","新北市三峽區中山路459巷137號","121.349533333333","24.9342016666667","6500900","三峽區"
"242058","986-R7","2018/09/29 17:19:03","新北市泰山區磚雅厝3號","121.44226","25.0415933333333","6500500","新莊區"
"242056","751-BX","2018/09/29 17:18:57","新北市泰山區磚雅厝3號","121.442221666667","25.0416483333333","6500500","新莊區"
"242029","705-TV","2018/09/29 17:18:58","新北市新莊區幸福路774號","121.446921666667","25.0490966666667","6500500","新莊區"
"242027","615-BX","2018/09/29 17:19:01","新北市新莊區中港路307號","121.452745","25.0446516666667","6500500","新莊區"
"242044","566-BX","2018/09/29 17:18:44","新北市新莊區中正路589號","121.434123333333","25.0326233333333","6500500","新莊區"
"242048","497-BY","2018/09/29 17:18:56","新北市新莊區龍安路242號","121.420963333333","25.0196066666667","6500500","新莊區"
"242053","441-UM","2018/09/29 17:19:02","新北市新莊區環河路636-7號","121.436676666667","25.01088","6500500","新莊區"
"242002","440-UM","2018/09/29 17:18:54","新北市新莊區瓊林路31號","121.445281666667","25.02858","6500500","新莊區"
"242039","415-TV","2018/09/29 17:19:07","新北市新莊區民安路304號","121.428308333333","25.0219216666667","6500500","新莊區"
"242009","413-TV","2018/09/29 17:18:58","新北市新莊區新泰路500號","121.442336666667","25.0458566666667","6500500","新莊區"
"242046","400-BY","2018/09/29 17:19:03","新北市新莊區中正路471號","121.441935","25.0336833333333","6500500","新莊區"
"242023","362-BY","2018/09/29 17:19:00","新北市新莊區中華路一段130號","121.452531666667","25.0410216666667","6500500","新莊區"
"242061","353-BY","2018/09/29 17:19:03","新北市新莊區瓊林路59-41號","121.441011666667","25.0232566666667","6500500","新莊區"
"242011","132-UY","2018/09/29 17:18:54","新北市新莊區中環路二段392-1號","121.442363333333","25.0456933333333","6500500","新莊區"
"242042","133-UY","2018/09/29 17:18:53","新北市新莊區新樹路113巷17號","121.438946666667","25.0265966666667","6500500","新莊區"
"242051","172-VK","2018/09/29 17:19:11","新北市新莊區瓊林南路75-4號","121.435635","25.01431","6500500","新莊區"
"242019","175-VK","2018/09/29 17:19:03","新北市新莊區中港路345號","121.452121666667","25.045555","6500500","新莊區"
"242017","346-TH","2018/09/29 17:15:57","新北市新莊區義豐街5巷1號","121.440793333333","25.034635","6500500","新莊區"
"242013","347-TH","2018/09/29 17:19:10","新北市新莊區新泰路357巷3弄1號","121.442365","25.041435","6500500","新莊區"
"242031","348-TH","2018/09/29 17:19:11","新北市新莊區新泰路486號","121.442501666667","25.045735","6500500","新莊區"
"242004","349-TH","2018/09/29 17:19:04","新北市新莊區新泰路308號","121.4454","25.041225","6500500","新莊區"
"242021","350-TH","2018/09/29 17:18:55","新北市新莊區中港路110號","121.455448333333","25.0399183333333","6500500","新莊區"
"242015","351-TH","2018/09/29 17:19:05","新北市新莊區新泰路273號","121.445776666667","25.0403416666667","6500500","新莊區"
"238015","755-BX","2018/09/29 17:19:02","新北市樹林區大安路267號","121.419028333333","24.9936716666667","6500700","樹林區"
"238023","601-UM","2018/09/29 17:18:51","新北市樹林區中正路433-1號","121.41494","25.0081383333333","6500700","樹林區"
"238018","571-TV","2018/09/29 17:19:02","新北市樹林區鎮前街269巷37號","121.419286666667","24.9846983333333","6500700","樹林區"
"238022","KEA-2213","2018/09/29 17:19:07","新北市樹林區中華路37巷11號","121.42417","24.983085","6500700","樹林區"
"238021","KEA-2539","2018/09/29 17:19:07","新北市樹林區西圳街一段111號","121.399281666667","24.9645633333333","6500700","樹林區"
"238025","303-VK","2018/09/29 17:19:07","新北市樹林區中山路一段92號","121.423228333333","24.9912866666667","6500700","樹林區"
"238017","283-BY","2018/09/29 17:19:07","新北市樹林區保安街二段157號","121.415268333333","25.0026583333333","6500700","樹林區"
"238014","282-BY","2018/09/29 17:18:56","新北市樹林區長壽街70巷35弄2號","121.421398333333","24.994965","6500700","樹林區"
"238020","268-VK","2018/09/29 17:18:52","新北市樹林區千歲街101-2號","121.428556666667","25.0009033333333","6500700","樹林區"
"238016","169-UY","2018/09/29 17:19:00","新北市樹林區八德街1號","121.417596666667","24.9849816666667","6500700","樹林區"
"239007","AAC-297","2018/09/29 17:18:56","新北市鶯歌區光復街5號","121.351745","24.9548283333333","6500800","鶯歌區"
"239006","891-R6","2018/09/29 17:18:53","新北市鶯歌區福昌街6號","121.333278333333","24.9608066666667","6500800","鶯歌區"
"239008","527-UM","2018/09/29 17:18:55","新北市鶯歌區西湖街6-2號","121.341241666667","24.9573866666667","6500800","鶯歌區"
"239005","526-UM","2018/09/29 17:19:05","新北市鶯歌區福德二街12號","121.329895","24.9674166666667","6500800","鶯歌區"
"239001","417-VK","2018/09/29 17:18:47","新北市鶯歌區尖山路204號","121.34364","24.9470483333333","6500800","鶯歌區"
"239003","360-BY","2018/09/29 17:18:57","新北市鶯歌區德昌二街3巷1-1號","121.333201666667","24.9594983333333","6500800","鶯歌區"
"239002","359-BY","2018/09/29 17:18:57","新北市鶯歌區南昌街17號","121.349523333333","24.9541333333333","6500800","鶯歌區"
"239004","193-VK","2018/09/29 17:12:48","新北市鶯歌區文化路431號","121.353703333333","24.9486966666667","6500800","鶯歌區"
"242007","281-VK","2018/09/29 17:19:06","新北市新莊區新泰路500號","121.442308333333","25.0458666666667","6500500","新莊區"
"242034","280-VK","2018/09/29 17:19:02","新北市新莊區三和路12-21號","121.441935","25.038375","6500500","新莊區"
