"lineid","car","time","location","longitude","latitude","cityid","cityname"
"249005","172-UM","2018/09/29 17:28:55","新北市八里區荖阡坑路69-2號","121.407658333333","25.12611","6502300","八里區"
"249001","173-UM","2018/09/29 17:29:09","新北市八里區龍米路三段49-1號","121.424021666667","25.15888","6502300","八里區"
"249004","303-UY","2018/09/29 17:29:10","新北市八里區民治街169號","121.413686666667","25.1570116666667","6502300","八里區"
"249002","305-UY","2018/09/29 17:28:59","新北市八里區龍米路二段65巷9號","121.446191666667","25.14135","6502300","八里區"
"249003","593-UM","2018/09/29 17:28:58","新北市八里區中山路二段281號","121.401771666667","25.14864","6502300","八里區"
"232011","375-UM","2018/09/29 17:28:46","新北市坪林區鶯子瀨9-8號","121.710386666667","24.9166666666667","6502000","坪林區"
"244023","069-UM","2018/09/29 17:28:54","新北市林口區東明一街35巷19號","121.392755","25.0715616666667","6501700","林口區"
"244007","080-UY","2018/09/29 17:28:57","新北市林口區湖子7-11號","121.389945","25.0921716666667","6501700","林口區"
"244019","403-UM","2018/09/29 17:29:03","新北市林口區文化一路一段137號","121.373613333333","25.07205","6501700","林口區"
"244013","KEA-2802","2018/09/29 17:29:10","新北市林口區粉寮路二段167-1號","121.404446666667","25.0885516666667","6501700","林口區"
"244017","485-VK","2018/09/29 17:29:11","新北市林口區文化一路二段60號","121.380868333333","25.0777583333333","6501700","林口區"
"244009","656-BX","2018/09/29 17:28:51","新北市林口區中華路225號","121.385113333333","25.0899866666667","6501700","林口區"
"244011","701-TV","2018/09/29 17:29:00","新北市林口區中正路349號","121.387901666667","25.0773183333333","6501700","林口區"
"244025","837-TS","2018/09/29 17:29:11","新北市林口區南勢街112號","121.363595","25.0746633333333","6501700","林口區"
"244021","838-TS","2018/09/29 17:28:54","新北市林口區粉寮路一段139號","121.39907","25.0812166666667","6501700","林口區"
"231046","107-UY","2018/09/29 17:28:52","新北市新店區直潭路92號","121.530926666667","24.9375783333333","6500600","新店區"
"241011","013-R5","2018/09/29 17:29:02","新北市三重區龍濱路191號","121.50202","25.071125","6500200","三重區"
"241017","063-VK","2018/09/29 17:28:58","新北市三重區重新路三段45-6號","121.493465","25.06173","6500200","三重區"
"241024","065-VK","2018/09/29 17:28:58","新北市三重區大勇街82巷15弄30號","121.48127","25.071975","6500200","三重區"
"251014","742-BX","2018/09/29 17:28:55","新北市淡水區公埔子20-6號","121.46912","25.227585","6501000","淡水區"
"241005","262-UM","2018/09/29 17:29:12","新北市三重區永安北路二段33號","121.482366666667","25.08227","6500200","三重區"
"241033","265-UM","2018/09/29 17:29:05","新北市三重區光復路一段138-8號","121.47037","25.05279","6500200","三重區"
"241016","266-UM","2018/09/29 17:28:54","新北市三重區信義西街49號","121.49518","25.0638466666667","6500200","三重區"
"241018","268-UM","2018/09/29 17:28:59","新北市三重區新北大道一段7號","121.489611666667","25.0613516666667","6500200","三重區"
"241032","269-UM","2018/09/29 17:29:06","新北市三重區名源街61巷1號","121.48195","25.0593133333333","6500200","三重區"
"241013","270-UM","2018/09/29 17:29:08","新北市三重區仁愛街112巷7號","121.49463","25.0745416666667","6500200","三重區"
"241025","271-UM","2018/09/29 17:29:02","新北市三重區中正北路426號","121.474598333333","25.0709","6500200","三重區"
"241007","398-BY","2018/09/29 17:29:03","新北市三重區三和路四段145巷186號","121.488821666667","25.0796183333333","6500200","三重區"
"241020","478-VK","2018/09/29 17:29:00","新北市三重區忠孝路二段7號","121.486893333333","25.0714416666667","6500200","三重區"
"241030","480-VK","2018/09/29 17:29:11","新北市三重區中正南路281號","121.493145","25.05225","6500200","三重區"
"241014","543-UM","2018/09/29 17:29:05","新北市三重區安和路15號","121.501281666667","25.0684133333333","6500200","三重區"
"241023","545-UM","2018/09/29 17:28:54","新北市三重區三民街146巷3弄2號","121.48163","25.0646283333333","6500200","三重區"
"241019","KEA-2593","2018/09/29 17:29:04","新北市三重區自強路二段50巷22號","121.488301666667","25.06911","6500200","三重區"
"241015","743-BX","2018/09/29 17:29:00","新北市三重區長元街75號","121.503073333333","25.06667","6500200","三重區"
"241012","941-UM","2018/09/29 17:29:09","新北市三重區仁興街24巷17號","121.498818333333","25.0750633333333","6500200","三重區"
"247012","KEA-2869","2018/09/29 17:29:03","新北市蘆洲區民族路94號","121.47806","25.08506","6501400","蘆洲區"
"247002","893-R6","2018/09/29 17:28:57","新北市蘆洲區永樂街38巷67弄3號","121.458105","25.090485","6501400","蘆洲區"
"247016","546-UM","2018/09/29 17:29:08","新北市蘆洲區光華路22巷36號","121.468446666667","25.084685","6501400","蘆洲區"
"247024","500-BY","2018/09/29 17:29:07","新北市蘆洲區長興路393號","121.461233333333","25.091765","6501400","蘆洲區"
"247014","339-TH","2018/09/29 17:28:53","新北市蘆洲區三民路33號","121.47542","25.08303","6501400","蘆洲區"
"247006","337-TH","2018/09/29 17:29:06","新北市蘆洲區九芎街90巷29號","121.46417","25.081275","6501400","蘆洲區"
"247008","336-TH","2018/09/29 17:29:07","新北市蘆洲區成功路3號","121.47377","25.07795","6501400","蘆洲區"
"247020","057-VK","2018/09/29 17:29:00","新北市蘆洲區仁愛街100號","121.4704","25.0946866666667","6501400","蘆洲區"
"247010","056-VK","2018/09/29 17:29:03","新北市蘆洲區信義路169號","121.479788333333","25.0820383333333","6501400","蘆洲區"
"247018","007-UY","2018/09/29 17:28:52","新北市蘆洲區民權路136-2號","121.473093333333","25.0888833333333","6501400","蘆洲區"
"247004","002-UY","2018/09/29 17:29:07","新北市蘆洲區中原路35號","121.459983333333","25.082615","6501400","蘆洲區"
"247022","001-UY","2018/09/29 17:28:53","新北市蘆洲區三民路226號","121.468535","25.0894133333333","6501400","蘆洲區"
"228003","097-TW","2018/09/29 17:28:58","新北市貢寮區仁理村研海街62-2號","121.925756666667","25.0436683333333","6502600","貢寮區"
"228001","212-TW","2018/09/29 17:28:54","新北市貢寮區仁理村仁愛路62巷1號","121.92564","25.0534416666667","6502600","貢寮區"
"228002","663-BX","2018/09/29 17:29:07","新北市貢寮區福隆里興隆街23號","121.942881666667","25.0164783333333","6502600","貢寮區"
"224010","AGQ-8101","2018/09/29 17:28:45","新北市瑞芳區逢甲路5號","121.809991666667","25.1084316666667","6501200","瑞芳區"
"224006","676-BX","2018/09/29 17:28:51","新北市瑞芳區靜安路四段94號","121.793165","25.1102033333333","6501200","瑞芳區"
"224008","285-BY","2018/09/29 17:29:04","新北市瑞芳區九芎橋路8號","121.832378333333","25.0904516666667","6501200","瑞芳區"
"224009","273-VK","2018/09/29 17:29:05","新北市瑞芳區山尖路172-1號","121.848006666667","25.11184","6501200","瑞芳區"
"224005","271-BY","2018/09/29 17:28:53","新北市瑞芳區海濱路8-6號","121.831735","25.126105","6501200","瑞芳區"
"227011","642-TC","2018/09/29 17:28:52","新北市雙溪區三貂里定福路6號","121.850608333333","25.06475","6502500","雙溪區"
"227002","400-TW","2018/09/29 17:29:12","新北市雙溪區平林里外平林60號","121.84546","25.03477","6502500","雙溪區"
"251009","008-UM","2018/09/29 17:29:02","新北市淡水區新生街30巷64號","121.43968","25.1731533333333","6501000","淡水區"
"251005","010-UM","2018/09/29 17:29:09","新北市淡水區鄧公路31巷6號","121.451521666667","25.170705","6501000","淡水區"
"251002","012-UM","2018/09/29 17:28:55","新北市淡水區中正路437號","121.432023333333","25.1747616666667","6501000","淡水區"
"251013","KEA-2871","2018/09/29 17:29:07","新北市淡水區大竹圍5號","121.46656","25.1952383333333","6501000","淡水區"
"251008","179-VK","2018/09/29 17:29:05","新北市淡水區大同路122巷20號","121.463406666667","25.1397466666667","6501000","淡水區"
"251015","180-VK","2018/09/29 17:29:01","新北市淡水區三空泉15號","121.472791666667","25.1636033333333","6501000","淡水區"
"251010","413-VK","2018/09/29 17:29:04","新北市淡水區中正路二段206號","121.426265","25.1891233333333","6501000","淡水區"
"251012","441-VK","2018/09/29 17:29:05","新北市淡水區北新路115號","121.44861","25.178465","6501000","淡水區"
"251004","443-VK","2018/09/29 17:18:22","新北市淡水區中正東路二段88巷15號","121.459115","25.1504866666667","6501000","淡水區"
"251006","561-UM","2018/09/29 17:29:06","新北市淡水區大仁街19號","121.44249","25.1751666666667","6501000","淡水區"
"251016","575-R6","2018/09/29 17:28:56","新北市淡水區埤島63-3號","121.461368333333","25.1915083333333","6501000","淡水區"
"251007","577-R6","2018/09/29 17:29:10","新北市淡水區民生路47-4號","121.461946666667","25.1380866666667","6501000","淡水區"
"251011","650-BX","2018/09/29 17:29:02","新北市淡水區坪頂路718號","121.482656666667","25.1585683333333","6501000","淡水區"
"251003","673-BX","2018/09/29 17:28:55","新北市淡水區中山路159-1號","121.440778333333","25.1729716666667","6501000","淡水區"
"207003","550-UM","2018/09/29 17:29:04","新北市萬里區龜吼里玉田路46-1號","121.683263333333","25.1894716666667","6502800","萬里區"
"207004","225-TW","2018/09/29 17:29:03","新北市萬里區萬里里景美路15-1號","121.686541666667","25.1733816666667","6502800","萬里區"
"252002","178-VK","2018/09/29 17:29:10","新北市三芝區忠孝街1-14號","121.505591666667","25.2539866666667","6502100","三芝區"
"252001","292-VK","2018/09/29 17:29:03","新北市三芝區淡金路一段3號","121.498093333333","25.25963","6502100","三芝區"
"237007","153-BY","2018/09/29 17:28:58","新北市三峽區中山路459巷163-3號","121.348736666667","24.9327966666667","6500900","三峽區"
"237016","649-BX","2018/09/29 17:29:12","新北市三峽區中山路323號","121.360686666667","24.9381066666667","6500900","三峽區"
"237010","706-TV","2018/09/29 17:29:09","新北市三峽區中山路459巷163-3號","121.348926666667","24.9332216666667","6500900","三峽區"
"242036","AAC-296","2018/09/29 17:29:10","新北市新莊區建國二路1號","121.434896666667","25.02371","6500500","新莊區"
"242058","986-R7","2018/09/29 17:29:03","新北市新莊區中正路597號","121.432828333333","25.0321583333333","6500500","新莊區"
"242056","751-BX","2018/09/29 17:28:57","新北市新莊區新莊路453號","121.449675","25.0332533333333","6500500","新莊區"
"242029","705-TV","2018/09/29 17:29:08","新北市新莊區復興路二段174號","121.458596666667","25.0443383333333","6500500","新莊區"
"242027","615-BX","2018/09/29 17:29:01","新北市新莊區思源路32號","121.46029","25.0405583333333","6500500","新莊區"
"242025","613-BX","2018/09/29 17:29:02","新北市新莊區復興路二段21巷11號","121.454173333333","25.04419","6500500","新莊區"
"242044","566-BX","2018/09/29 17:29:13","新北市新莊區富國路74號","121.419943333333","25.02592","6500500","新莊區"
"242048","497-BY","2018/09/29 17:28:56","新北市新莊區四維路297號","121.421335","25.0199783333333","6500500","新莊區"
"242053","441-UM","2018/09/29 17:29:02","新北市新莊區瓊林南路220號","121.433436666667","25.0056416666667","6500500","新莊區"
"242002","440-UM","2018/09/29 17:28:55","新北市新莊區思明街1號","121.4554","25.035435","6500500","新莊區"
"242039","415-TV","2018/09/29 17:29:07","新北市新莊區民安路270號","121.427616666667","25.0213083333333","6500500","新莊區"
"242009","413-TV","2018/09/29 17:29:10","新北市新莊區中原路101號","121.456158333333","25.0544533333333","6500500","新莊區"
"242046","400-BY","2018/09/29 17:29:03","新北市新莊區新樹路65-5號","121.439366666667","25.0308616666667","6500500","新莊區"
"242023","362-BY","2018/09/29 17:29:00","新北市新莊區公園路138號","121.45283","25.0400216666667","6500500","新莊區"
"242061","353-BY","2018/09/29 17:29:03","新北市新莊區瓊林南路42巷1-2號","121.436005","25.0180383333333","6500500","新莊區"
"242011","132-UY","2018/09/29 17:28:54","新北市新莊區中華路二段83號","121.452641666667","25.0479733333333","6500500","新莊區"
"242042","133-UY","2018/09/29 17:28:53","新北市新莊區新樹路113巷32號","121.43864","25.02671","6500500","新莊區"
"242051","172-VK","2018/09/29 17:28:54","新北市新莊區新樹路449巷5號","121.433023333333","25.01375","6500500","新莊區"
"242019","175-VK","2018/09/29 17:29:03","新北市新莊區中港路106號","121.455526666667","25.039685","6500500","新莊區"
"242017","346-TH","2018/09/29 17:28:57","新北市新莊區復興路一段222號","121.45308","25.0438966666667","6500500","新莊區"
"242013","347-TH","2018/09/29 17:29:10","新北市新莊區中誠街16巷2號","121.451978333333","25.0483266666667","6500500","新莊區"
"242031","348-TH","2018/09/29 17:29:11","新北市新莊區新泰路401巷28-1號","121.442438333333","25.0439916666667","6500500","新莊區"
"242004","349-TH","2018/09/29 17:29:04","新北市新莊區中港路297號","121.452908333333","25.04435","6500500","新莊區"
"242021","350-TH","2018/09/29 17:28:55","新北市新莊區中華路一段29號","121.45197","25.0372566666667","6500500","新莊區"
"242015","351-TH","2018/09/29 17:29:05","新北市新莊區新泰路154號","121.447658333333","25.0373983333333","6500500","新莊區"
"238015","755-BX","2018/09/29 17:29:01","新北市樹林區大安路267號","121.419005","24.9937033333333","6500700","樹林區"
"238023","601-UM","2018/09/29 17:29:11","新北市樹林區三福街4號","121.409065","25.0169133333333","6500700","樹林區"
"238018","571-TV","2018/09/29 17:29:02","新北市樹林區鎮前街97巷8號","121.424688333333","24.9896216666667","6500700","樹林區"
"238024","5061-A6","2018/09/29 17:28:55","新北市樹林區鎮前街160號","121.424438333333","24.990095","6500700","樹林區"
"238022","KEA-2213","2018/09/29 17:29:07","新北市樹林區忠孝街15號","121.423446666667","24.9827583333333","6500700","樹林區"
"238021","KEA-2539","2018/09/29 17:29:06","新北市樹林區佳園路二段47號","121.391958333333","24.9625333333333","6500700","樹林區"
"238025","303-VK","2018/09/29 17:28:58","新北市樹林區保安街一段296號","121.419173333333","24.9972733333333","6500700","樹林區"
"238017","283-BY","2018/09/29 17:29:07","新北市樹林區中正路246號","121.418008333333","25.0075883333333","6500700","樹林區"
"238014","282-BY","2018/09/29 17:29:02","新北市樹林區保安街一段294巷3號","121.419258333333","24.997545","6500700","樹林區"
"238020","268-VK","2018/09/29 17:29:12","新北市樹林區俊英街48-2號","121.428495","25.0033333333333","6500700","樹林區"
"238026","172-UY","2018/09/29 17:28:56","新北市樹林區味王街14號","121.403083333333","24.9759866666667","6500700","樹林區"
"238016","169-UY","2018/09/29 17:24:47","新北市樹林區長壽街9巷7號","121.423778333333","24.992975","6500700","樹林區"
"239007","AAC-297","2018/09/29 17:28:56","新北市鶯歌區陽明街2-2號","121.341463333333","24.9565266666667","6500800","鶯歌區"
"239006","891-R6","2018/09/29 17:28:53","新北市鶯歌區鶯桃路472巷55號","121.333186666667","24.96606","6500800","鶯歌區"
"239008","527-UM","2018/09/29 17:28:55","新北市鶯歌區大湖路584號","121.335811666667","24.9739083333333","6500800","鶯歌區"
"239005","526-UM","2018/09/29 17:27:12","新北市鶯歌區鶯桃路二段6號","121.326163333333","24.9719633333333","6500800","鶯歌區"
"239001","417-VK","2018/09/29 17:29:07","新北市鶯歌區中正三路124號","121.336756666667","24.94024","6500800","鶯歌區"
"239003","360-BY","2018/09/29 17:28:54","新北市鶯歌區鶯桃路252號","121.335926666667","24.9596","6500800","鶯歌區"
"239002","359-BY","2018/09/29 17:28:57","新北市鶯歌區育才街12號","121.349445","24.9551416666667","6500800","鶯歌區"
"239004","193-VK","2018/09/29 17:29:08","新北市鶯歌區三鶯路5號","121.35674","24.9410216666667","6500800","鶯歌區"
"221008","489-VK","2018/09/29 17:29:07","新北市汐止區康寧街901號","121.651385","25.075055","6501100","汐止區"
"221010","269-BY","2018/09/29 17:29:12","新北市汐止區汐萬路一段256巷1號","121.652055","25.0745983333333","6501100","汐止區"
"242007","281-VK","2018/09/29 17:29:06","新北市新莊區中華路二段42號","121.454028333333","25.0456366666667","6500500","新莊區"
"242034","280-VK","2018/09/29 17:29:02","新北市新莊區新莊路378號","121.449206666667","25.0335016666667","6500500","新莊區"
"235061","KEA-2875","2018/09/29 17:27:11","新北市中和區員山路36巷16-2號","121.485338333333","24.9916866666667","6500300","中和區"
