"lineid","car","time","location","longitude","latitude","cityid","cityname"
"234026","9371-KE","2018/09/29 18:08:31","新北市永和區秀朗路一段10巷21號","121.513296666667","25.0063416666667","6500400","永和區"
"249005","172-UM","2018/09/29 18:08:35","新北市八里區荖阡坑路15-40號","121.401696666667","25.1398583333333","6502300","八里區"
"249001","173-UM","2018/09/29 18:08:38","新北市八里區龍米路二段39號","121.448351666667","25.14007","6502300","八里區"
"249004","303-UY","2018/09/29 18:08:30","新北市八里區龍米路二段200巷3號","121.433718333333","25.15874","6502300","八里區"
"249002","305-UY","2018/09/29 18:08:39","新北市八里區龍米路一段356巷46號","121.452175","25.130185","6502300","八里區"
"249003","593-UM","2018/09/29 18:08:38","新北市八里區松子腳13號","121.40272","25.1457933333333","6502300","八里區"
"248014","025-BX","2018/09/29 18:08:31","新北市五股區成泰路一段231-21號","121.43521","25.077915","6501500","五股區"
"248006","077-UY","2018/09/29 18:08:32","新北市五股區中興路二段82號","121.460875","25.0772166666667","6501500","五股區"
"248008","095-VK","2018/09/29 18:08:29","新北市蘆洲區永安南路二段298號","121.457185","25.0821333333333","6501500","五股區"
"248020","225-UY","2018/09/29 18:08:35","新北市五股區凌雲路一段21號","121.454893333333","25.0982816666667","6501500","五股區"
"248010","272-BY","2018/09/29 18:08:37","新北市五股區成泰路一段219-17號","121.434801666667","25.0776766666667","6501500","五股區"
"248002","678-BX","2018/09/29 18:08:35","新北市五股區新城一路12號","121.441173333333","25.0830716666667","6501500","五股區"
"248004","682-TV","2018/09/29 18:08:33","新北市五股區成泰路二段55號","121.437893333333","25.0833666666667","6501500","五股區"
"232011","375-UM","2018/09/29 18:08:26","新北市坪林區坪雙路一段41號","121.711716666667","24.94246","6502000","坪林區"
"244023","069-UM","2018/09/29 18:08:34","新北市林口區東湖路122號","121.384578333333","25.07344","6501700","林口區"
"244007","080-UY","2018/09/29 18:08:37","新北市林口區竹林路560號","121.387075","25.084065","6501700","林口區"
"244019","403-UM","2018/09/29 18:08:43","新北市林口區麗園路89號","121.373071666667","25.068645","6501700","林口區"
"244013","KEA-2802","2018/09/29 18:08:30","新北市林口區中山路73號","121.392971666667","25.0785933333333","6501700","林口區"
"244017","485-VK","2018/09/29 18:08:32","新北市林口區文化一路一段15巷2號","121.369646666667","25.068985","6501700","林口區"
"244009","656-BX","2018/09/29 18:08:31","新北市林口區佳林路56巷35號","121.385236666667","25.0808816666667","6501700","林口區"
"244011","701-TV","2018/09/29 18:08:40","新北市林口區中正路144號","121.392881666667","25.0774233333333","6501700","林口區"
"244025","837-TS","2018/09/29 18:08:31","新北市林口區文化北路一段301-1號","121.360503333333","25.072645","6501700","林口區"
"244021","838-TS","2018/09/29 18:08:34","新北市林口區自強五街7號","121.398843333333","25.0764733333333","6501700","林口區"
"243013","AAD-798","2018/09/29 18:08:29","新北市泰山區南林路99巷8號","121.415283333333","25.0496566666667","6501600","泰山區"
"222003","436-BY","2018/09/29 18:08:37","新北市深坑區阿柔洋47號","121.612255","24.9973016666667","6501800","深坑區"
"222002","659-BX","2018/09/29 18:08:44","新北市深坑區文化街42號","121.619061666667","25.0017133333333","6501800","深坑區"
"231059","046-UY","2018/09/29 18:08:41","新北市新店區安華路28-1號","121.519625","24.9607983333333","6500600","新店區"
"231040","047-UY","2018/09/29 18:08:39","新北市新店區安華路28-1號","121.519283333333","24.9608483333333","6500600","新店區"
"231046","107-UY","2018/09/29 18:08:32","新北市新店區直潭七街60號","121.532298333333","24.9397816666667","6500600","新店區"
"231052","110-UY","2018/09/29 18:08:31","新北市新店區安華路28-1號","121.519486666667","24.9610083333333","6500600","新店區"
"231048","187-VK","2018/09/29 18:08:42","新北市新店區安一路一段1-1號","121.519513333333","24.9611033333333","6500600","新店區"
"231062","188-VK","2018/09/29 18:08:34","新北市新店區安一路一段1-1號","121.519318333333","24.961305","6500600","新店區"
"231042","268-BY","2018/09/29 18:08:37","新北市新店區安華路28-1號","121.519318333333","24.9605966666667","6500600","新店區"
"231051","278-BY","2018/09/29 18:08:39","新北市新店區安一路一段1-1號","121.519716666667","24.9611866666667","6500600","新店區"
"231058","3713-VJ","2018/09/29 18:08:31","新北市新店區安華路28-1號","121.519245","24.9606483333333","6500600","新店區"
"231066","4716-K9","2018/09/29 18:08:25","新北市新店區安華路28-1號","121.519421666667","24.9609916666667","6500600","新店區"
"231056","4715-K9","2018/09/29 18:08:33","新北市新店區安康路一段355-10號","121.520341666667","24.9638216666667","6500600","新店區"
"231065","512-UM","2018/09/29 18:08:39","新北市新店區安一路一段1-1號","121.519345","24.9612616666667","6500600","新店區"
"231049","513-UM","2018/09/29 18:08:43","新北市新店區安華路28-1號","121.519648333333","24.961025","6500600","新店區"
"231063","616-UM","2018/09/29 18:08:43","新北市新店區安華路1-1號","121.519445","24.96043","6500600","新店區"
"231045","617-UM","2018/09/29 18:08:28","新北市新店區安一路一段1-1號","121.519381666667","24.9610483333333","6500600","新店區"
"231061","619-UM","2018/09/29 18:08:25","新北市新店區安華路28-1號","121.519388333333","24.9607216666667","6500600","新店區"
"231064","719-UM","2018/09/29 18:08:26","新北市新店區安一路一段1-1號","121.519411666667","24.9612216666667","6500600","新店區"
"231060","897-TW","2018/09/29 18:08:37","新北市新店區安華路28-1號","121.519528333333","24.9607583333333","6500600","新店區"
"231043","899-TW","2018/09/29 18:08:40","新北市新店區安華路28-1號","121.519195","24.9608183333333","6500600","新店區"
"231055","AKT-0513","2018/09/29 18:08:34","新北市新店區安華路1-1號","121.519486666667","24.9605","6500600","新店區"
"251014","742-BX","2018/09/29 18:08:35","新北市淡水區南平14-2號","121.486398333333","25.2205883333333","6501000","淡水區"
"235064","005-UY","2018/09/29 18:08:33","新北市中和區中正路219號","121.496461666667","24.99372","6500300","中和區"
"235063","006-UY","2018/09/29 18:08:28","新北市中和區員山路36巷16-3號","121.485063333333","24.991305","6500300","中和區"
"235056","096-UM","2018/09/29 18:08:25","新北市中和區中正路637巷60弄61號","121.48548","24.9925316666667","6500300","中和區"
"235039","097-UM","2018/09/29 18:08:36","新北市中和區和城路一段271巷1號","121.485415","24.9917016666667","6500300","中和區"
"235065","098-UM","2018/09/29 18:08:32","新北市中和區莊敬路49巷18號","121.501635","25.0061083333333","6500300","中和區"
"235040","150-BY","2018/09/29 18:08:34","新北市中和區中正路571巷2弄7號","121.486255","24.993575","6500300","中和區"
"235058","151-BY","2018/09/29 18:08:31","新北市中和區圓通路367巷33弄5號","121.494513333333","24.985395","6500300","中和區"
"235055","183-VK","2018/09/29 18:08:30","新北市中和區員山路36巷16-3號","121.48506","24.991355","6500300","中和區"
"235038","185-VK","2018/09/29 18:08:25","新北市中和區景平路123號","121.515346666667","24.9920766666667","6500300","中和區"
"235067","255-BX","2018/09/29 18:08:35","新北市中和區和城路一段271巷1號","121.485803333333","24.9918","6500300","中和區"
"235042","KEA-2878","2018/09/29 18:08:24","新北市中和區圓通路257巷11號","121.49662","24.9932116666667","6500300","中和區"
"247012","KEA-2869","2018/09/29 18:08:23","新北市蘆洲區三民路17號","121.475701666667","25.0823266666667","6501400","蘆洲區"
"235050","4979-A6","2018/09/29 18:08:31","新北市中和區中正路571巷2弄11號","121.4861","24.9935533333333","6500300","中和區"
"235070","558-UM","2018/09/29 18:08:29","新北市中和區中正路454號","121.490703333333","24.9938116666667","6500300","中和區"
"235045","565-BX","2018/09/29 18:08:27","新北市中和區錦和路350-1號","121.490481666667","24.9935716666667","6500300","中和區"
"235054","640-BX","2018/09/29 18:08:29","新北市土城區金城路三段269號","121.472398333333","24.99026","6500300","中和區"
"235047","732-UM","2018/09/29 18:08:43","新北市中和區錦和路350-1號","121.490426666667","24.993565","6500300","中和區"
"235062","800-TS","2018/09/29 18:08:26","新北市中和區民樂路67號","121.484023333333","25.00129","6500300","中和區"
"235057","801-TS","2018/09/29 18:08:40","新北市中和區員山路36巷16-2號","121.485208333333","24.99141","6500300","中和區"
"235052","805-TS","2018/09/29 18:08:39","新北市中和區中正路275-3號","121.495508333333","24.9934466666667","6500300","中和區"
"235048","896-TW","2018/09/29 18:08:33","新北市中和區員山路36巷16-2號","121.485063333333","24.9917683333333","6500300","中和區"
"235053","900-TW","2018/09/29 18:08:39","新北市中和區員山路36巷16-3號","121.485011666667","24.9917583333333","6500300","中和區"
"235051","157-BY","2018/09/29 18:08:44","新北市中和區中興街163號","121.499878333333","24.9908033333333","6500300","中和區"
"235037","AAC-213","2018/09/29 18:08:26","新北市中和區景平路149號","121.513835","24.9921266666667","6500300","中和區"
"247002","893-R6","2018/09/29 18:08:37","新北市蘆洲區永平街32巷69弄31號","121.458786666667","25.0938733333333","6501400","蘆洲區"
"226004","312-R5","2018/09/29 18:08:40","新北市平溪區菁桐里菁桐街165號","121.722993333333","25.023165","6502400","平溪區"
"235043","251-BX","2018/09/29 18:08:24","新北市中和區員山路36巷16-2號","121.48534","24.991615","6500300","中和區"
"228003","097-TW","2018/09/29 18:08:38","新北市貢寮區真理里美艷山街6-2號","121.928858333333","25.0607583333333","6502600","貢寮區"
"228001","212-TW","2018/09/29 18:08:34","新北市貢寮區真理里新港街26巷55弄2-1號","121.92739","25.05288","6502600","貢寮區"
"228002","663-BX","2018/09/29 18:08:26","新北市貢寮區福連里福連街15號","121.98794","25.0136516666667","6502600","貢寮區"
"224006","676-BX","2018/09/29 18:08:31","新北市瑞芳區中山路46號","121.803386666667","25.1063816666667","6501200","瑞芳區"
"224002","639-TC","2018/09/29 18:08:21","新北市瑞芳區三爪子坑路111巷30號","121.811056666667","25.10579","6501200","瑞芳區"
"224008","285-BY","2018/09/29 18:08:44","新北市瑞芳區員山子路23號","121.821013333333","25.1033616666667","6501200","瑞芳區"
"224007","275-VK","2018/09/29 18:08:31","新北市瑞芳區四腳亭坑路3-1號","121.776873333333","25.1093233333333","6501200","瑞芳區"
"224009","273-VK","2018/09/29 18:08:33","新北市瑞芳區金光路262號","121.853413333333","25.1069916666667","6501200","瑞芳區"
"224005","271-BY","2018/09/29 18:08:32","新北市瑞芳區深澳路59號","121.817678333333","25.1294966666667","6501200","瑞芳區"
"227010","642-TC","2018/09/29 18:08:32","新北市雙溪區三貂里定福路1-2號","121.8507","25.0633766666667","6502500","雙溪區"
"253006","032-BX","2018/09/29 18:08:28","新北市石門區大丘田7號","121.547643333333","25.28429","6502200","石門區"
"253005","295-VK","2018/09/29 18:08:37","新北市石門區福安街53號","121.568381666667","25.2917116666667","6502200","石門區"
"222001","KEA-2212","2018/09/29 18:08:39","新北市深坑區北深路二段186號","121.61398","25.002405","6501800","深坑區"
"208002","KEA-2872","2018/09/29 18:08:40","新北市金山區三界壇路99巷2號","121.622155","25.2289166666667","6502700","金山區"
"208003","665-BX","2018/09/29 18:08:30","新北市金山區磺港里磺港路11號","121.649686666667","25.2306016666667","6502700","金山區"
"208001","761-BX","2018/09/29 18:08:38","新北市金山區磺港里磺港路116號","121.646025","25.2264116666667","6502700","金山區"
"251009","008-UM","2018/09/29 18:08:42","新北市淡水區大忠街34巷19號","121.444015","25.1757733333333","6501000","淡水區"
"251005","010-UM","2018/09/29 18:08:34","新北市淡水區水源街一段160號","121.448686666667","25.1712733333333","6501000","淡水區"
"251002","012-UM","2018/09/29 18:08:35","新北市淡水區中正東路一段127巷2號","121.455411666667","25.159265","6501000","淡水區"
"251013","KEA-2871","2018/09/29 18:08:27","新北市淡水區口湖子8號","121.477083333333","25.19149","6501000","淡水區"
"251008","179-VK","2018/09/29 18:08:25","新北市淡水區淡金路16巷80號","121.460373333333","25.1605266666667","6501000","淡水區"
"251015","180-VK","2018/09/29 18:08:34","新北市淡水區興福寮88巷1號","121.485426666667","25.16495","6501000","淡水區"
"251010","413-VK","2018/09/29 18:08:24","新北市淡水區淡海路111號","121.42183","25.1827316666667","6501000","淡水區"
"251012","441-VK","2018/09/29 18:08:39","新北市淡水區北新路三段173號","121.492506666667","25.1922833333333","6501000","淡水區"
"251004","443-VK","2018/09/29 18:08:28","新北市淡水區民族路110巷36弄2號","121.461516666667","25.1352716666667","6501000","淡水區"
"251001","559-UM","2018/09/29 18:08:34","新北市淡水區自立路10號","121.463035","25.1297533333333","6501000","淡水區"
"251006","561-UM","2018/09/29 18:08:26","新北市淡水區真理街3巷21-1號","121.437781666667","25.1763366666667","6501000","淡水區"
"251016","575-R6","2018/09/29 18:08:36","新北市淡水區下圭柔山15-5號","121.452211666667","25.2015616666667","6501000","淡水區"
"251011","650-BX","2018/09/29 18:08:23","新北市淡水區三空泉9-2號","121.474148333333","25.1634333333333","6501000","淡水區"
"251003","673-BX","2018/09/29 18:08:35","新北市淡水區大忠街113巷18號","121.44717","25.1774366666667","6501000","淡水區"
"207003","550-UM","2018/09/29 18:08:44","新北市萬里區野柳里港西路65-2號","121.685168333333","25.204185","6502800","萬里區"
"207004","225-TW","2018/09/29 18:08:27","新北市萬里區中幅里中福路84號","121.676055","25.1706783333333","6502800","萬里區"
"252002","178-VK","2018/09/29 18:08:30","新北市三芝區中山路二段39號","121.502913333333","25.2551483333333","6502100","三芝區"
"252003","249-BX","2018/09/29 18:08:30","新北市三芝區埔坪里埔頭坑33號","121.501436666667","25.2616066666667","6502100","三芝區"
"252001","292-VK","2018/09/29 18:08:23","新北市三芝區中興街二段2號","121.498343333333","25.2566533333333","6502100","三芝區"
"237004","KEA-2597","2018/09/29 18:08:39","新北市三峽區大埔路150-2號","121.36489","24.8978083333333","6500900","三峽區"
"237007","153-BY","2018/09/29 18:08:37","新北市三峽區中正路二段393號","121.36481","24.907805","6500900","三峽區"
"237009","210-TH","2018/09/29 18:08:22","新北市三峽區大仁路50巷12號","121.365401666667","24.937975","6500900","三峽區"
"237013","252-BX","2018/09/29 18:08:30","新北市三峽區長泰街52號","121.37787","24.93248","6500900","三峽區"
"237012","275-BY","2018/09/29 18:08:36","新北市三峽區民生街19巷7弄47號","121.377608333333","24.9354966666667","6500900","三峽區"
"237008","302-VK","2018/09/29 18:08:34","新北市三峽區白雞58-16號","121.385228333333","24.910045","6500900","三峽區"
"237014","433-BY","2018/09/29 18:08:34","新北市三峽區復興路80巷20號","121.373663333333","24.9378183333333","6500900","三峽區"
"237011","280-TH","2018/09/29 18:08:30","新北市三峽區介壽路二段87-1號","121.39142","24.9354216666667","6500900","三峽區"
"237006","5529-G3","2018/09/29 18:08:40","新北市三峽區溪東路1號","121.399178333333","24.9352733333333","6500900","三峽區"
"237016","649-BX","2018/09/29 18:08:33","新北市三峽區紫新路23巷2號","121.422901666667","24.921125","6500900","三峽區"
"237010","706-TV","2018/09/29 18:08:28","新北市三峽區民權街193號","121.367728333333","24.92913","6500900","三峽區"
"237005","AKY-6261","2018/09/29 18:08:30","新北市三峽區民生街152-3號","121.37195","24.9353083333333","6500900","三峽區"
"236070","105-UM","2018/09/29 18:08:24","新北市土城區青雲路454號","121.45939","24.970065","6501300","土城區"
"236079","166-UM","2018/09/29 18:08:31","新北市土城區永寧路30-1號","121.429391666667","24.9608383333333","6501300","土城區"
"236030","253-BX","2018/09/29 18:08:41","新北市土城區城林路6巷80號","121.438531666667","24.9795916666667","6501300","土城區"
"236026","269-VK","2018/09/29 18:08:32","新北市土城區承天路67號","121.43956","24.96345","6501300","土城區"
"236014","270-VK","2018/09/29 18:08:37","新北市土城區學府路二段23-1號","121.448995","24.9815433333333","6501300","土城區"
"236038","271-VK","2018/09/29 18:08:39","新北市土城區明德路一段369號","121.45537","24.97797","6501300","土城區"
"236021","401-BY","2018/09/29 18:08:41","新北市土城區城林路6巷80號","121.438483333333","24.9797616666667","6501300","土城區"
"236042","752-BX","2018/09/29 18:08:40","新北市土城區城林路6巷80號","121.438546666667","24.97958","6501300","土城區"
"236059","912-UM","2018/09/29 18:08:35","新北市土城區中央路四段162號","121.416958333333","24.9581616666667","6501300","土城區"
"236049","913-UM","2018/09/29 18:08:41","新北市土城區金城路一段112號","121.446856666667","24.9757983333333","6501300","土城區"
"236063","915-UM","2018/09/29 18:08:31","新北市土城區中華路二段48號","121.439223333333","24.9779033333333","6501300","土城區"
"236055","AAC-216","2018/09/29 18:08:29","新北市土城區中華路二段92號","121.438265","24.9747483333333","6501300","土城區"
"242036","AAC-296","2018/09/29 18:08:37","新北市新莊區建福路48巷11號","121.425778333333","25.0274533333333","6500500","新莊區"
"242058","986-R7","2018/09/29 18:08:43","新北市新莊區新北大道七段225號","121.413585","25.029905","6500500","新莊區"
"242056","751-BX","2018/09/29 18:08:37","新北市新莊區豐年街豐1巷14號","121.447105","25.03113","6500500","新莊區"
"242029","705-TV","2018/09/29 18:08:38","新北市新莊區中平路127號","121.44478","25.0469083333333","6500500","新莊區"
"242027","615-BX","2018/09/29 18:08:41","新北市新莊區自信街45巷17號","121.454381666667","25.0490183333333","6500500","新莊區"
"242025","613-BX","2018/09/29 18:08:42","新北市新莊區五工一路97巷1號","121.460538333333","25.0677083333333","6500500","新莊區"
"242044","566-BX","2018/09/29 18:08:23","新北市新莊區中正路力行巷5號","121.416725","25.0264016666667","6500500","新莊區"
"242048","497-BY","2018/09/29 18:08:36","新北市新莊區民安路98巷29號","121.42324","25.02507","6500500","新莊區"
"242053","441-UM","2018/09/29 18:08:42","新北市新莊區光華街60巷1號","121.428311666667","25.0118133333333","6500500","新莊區"
"242002","440-UM","2018/09/29 18:08:35","新北市新莊區新莊路107號","121.45747","25.03653","6500500","新莊區"
"242039","415-TV","2018/09/29 18:08:27","新北市新莊區民安西路38巷14號","121.426751666667","25.0206483333333","6500500","新莊區"
"242009","413-TV","2018/09/29 18:08:38","新北市新莊區昌平街71巷7號","121.453943333333","25.053605","6500500","新莊區"
"242046","400-BY","2018/09/29 18:08:33","新北市新莊區福營路227巷33號","121.43029","25.0289866666667","6500500","新莊區"
"242023","362-BY","2018/09/29 18:08:41","新北市新莊區幸福路858號","121.443866666667","25.048875","6500500","新莊區"
"242061","353-BY","2018/09/29 18:08:43","新北市新莊區新樹路79號","121.437785","25.027525","6500500","新莊區"
"242011","132-UY","2018/09/29 18:08:34","新北市新莊區中港路中慶巷39號","121.449183333333","25.0537033333333","6500500","新莊區"
"242042","133-UY","2018/09/29 18:08:33","新北市新莊區雙鳳路116巷13弄2號","121.413456666667","25.0289066666667","6500500","新莊區"
"242051","172-VK","2018/09/29 18:07:11","新北市新莊區民本街27巷20號","121.429003333333","25.0191216666667","6500500","新莊區"
"242019","175-VK","2018/09/29 18:08:43","新北市新莊區中港路132巷12號","121.455863333333","25.0406683333333","6500500","新莊區"
"242031","348-TH","2018/09/29 18:08:31","新北市新莊區新泰路277巷69號","121.44304","25.040035","6500500","新莊區"
"242004","349-TH","2018/09/29 18:08:44","新北市新莊區自由街50號","121.455875","25.0459466666667","6500500","新莊區"
"242021","350-TH","2018/09/29 18:08:35","新北市新莊區建興街79號","121.449915","25.0384266666667","6500500","新莊區"
"242015","351-TH","2018/09/29 18:08:26","新北市新莊區中平路132巷12號","121.445535","25.0466933333333","6500500","新莊區"
"238015","755-BX","2018/09/29 18:08:41","新北市樹林區大安路299號","121.418103333333","24.99236","6500700","樹林區"
"238023","601-UM","2018/09/29 18:08:31","新北市樹林區龍興街31巷17號","121.40363","25.01612","6500700","樹林區"
"238019","599-UM","2018/09/29 18:08:31","新北市樹林區忠孝街101巷1號","121.424608333333","24.981005","6500700","樹林區"
"238018","571-TV","2018/09/29 18:08:22","新北市板橋區大觀路三段240號","121.42942","24.9926966666667","6500700","樹林區"
"238022","KEA-2213","2018/09/29 18:08:27","新北市樹林區太平路150巷34號","121.41758","24.977625","6500700","樹林區"
"238021","KEA-2539","2018/09/29 18:08:26","新北市樹林區柑園街二段88-1號","121.386496666667","24.9550783333333","6500700","樹林區"
"238025","303-VK","2018/09/29 18:08:38","新北市樹林區保安街二段2-5號","121.416245","25.0002166666667","6500700","樹林區"
"238017","283-BY","2018/09/29 18:08:27","新北市樹林區中正路767號","121.41022","25.0155783333333","6500700","樹林區"
"238014","282-BY","2018/09/29 18:08:38","新北市樹林區潭興街107巷21弄12號","121.423985","24.9989383333333","6500700","樹林區"
"238020","268-VK","2018/09/29 18:08:32","新北市樹林區俊興街286號","121.41871","25.01712","6500700","樹林區"
"238026","172-UY","2018/09/29 18:08:36","新北市樹林區佳園路一段46號","121.392915","24.9709866666667","6500700","樹林區"
"238016","169-UY","2018/09/29 18:08:20","新北市樹林區育英街135巷14號","121.419503333333","24.9888066666667","6500700","樹林區"
"239007","AAC-297","2018/09/29 18:08:36","新北市鶯歌區文昌街27-4號","121.350063333333","24.9515266666667","6500800","鶯歌區"
"239006","891-R6","2018/09/29 18:08:33","新北市鶯歌區鶯桃路365巷14號","121.33305","24.9628483333333","6500800","鶯歌區"
"239008","527-UM","2018/09/29 18:08:35","新北市鶯歌區朝陽街53巷1號","121.337805","24.9780333333333","6500800","鶯歌區"
"239005","526-UM","2018/09/29 18:08:24","新北市鶯歌區鶯桃路668巷73號","121.3299","24.9718016666667","6500800","鶯歌區"
"239001","417-VK","2018/09/29 18:08:27","新北市鶯歌區國中街70巷16號","121.34135","24.9425633333333","6500800","鶯歌區"
"239003","360-BY","2018/09/29 18:08:35","新北市鶯歌區福安街58號","121.335613333333","24.9651666666667","6500800","鶯歌區"
"239002","359-BY","2018/09/29 18:08:37","新北市鶯歌區中山路162號","121.349223333333","24.9570783333333","6500800","鶯歌區"
"239004","193-VK","2018/09/29 18:08:28","新北市鶯歌區中正二路161號","121.344856666667","24.949305","6500800","鶯歌區"
"221008","489-VK","2018/09/29 18:08:27","新北市汐止區康寧街467號","121.631676666667","25.06835","6501100","汐止區"
"221036","130-UY","2018/09/29 18:08:32","新北市汐止區大同路三段109號","121.66853","25.0775583333333","6501100","汐止區"
"221015","131-UY","2018/09/29 18:05:49","新北市汐止區鄉長路二段116號","121.664745","25.0860083333333","6501100","汐止區"
"221010","269-BY","2018/09/29 18:08:32","新北市汐止區汐萬路二段258號","121.645891666667","25.0892416666667","6501100","汐止區"
"221012","278-VK","2018/09/29 18:08:25","新北市汐止區保一街39號","121.674298333333","25.0799933333333","6501100","汐止區"
"221023","279-VK","2018/09/29 18:08:33","新北市汐止區中興路293號","121.628","25.07008","6501100","汐止區"
"221032","280-BY","2018/09/29 18:08:34","新北市汐止區力行街23號","121.616945","25.050605","6501100","汐止區"
"221027","281-BY","2018/09/29 18:08:38","新北市汐止區大同路二段537號","121.661966666667","25.0692233333333","6501100","汐止區"
"221029","298-VK","2018/09/29 18:08:42","新北市汐止區樟樹二路132號","121.639973333333","25.0655816666667","6501100","汐止區"
"221021","299-VK","2018/09/29 18:08:40","新北市汐止區龍安路179號","121.653223333333","25.063135","6501100","汐止區"
"221031","353-TW","2018/09/29 18:08:33","新北市汐止區大同路一段215-1號","121.633723333333","25.0573133333333","6501100","汐止區"
"221035","622-UM","2018/09/29 18:08:26","新北市汐止區大同路二段292-2號","121.653271666667","25.0644916666667","6501100","汐止區"
"221025","623-UM","2018/09/29 18:08:42","新北市汐止區勤進路1號","121.660433333333","25.0621216666667","6501100","汐止區"
"221038","646-BX","2018/09/29 18:08:38","新北市汐止區環山路18號","121.657418333333","25.0601916666667","6501100","汐止區"
"221002","707-TV","2018/09/29 18:08:40","新北市汐止區福德一路201巷32號","121.635833333333","25.065035","6501100","汐止區"
"221018","753-BX","2018/09/29 18:08:28","新北市汐止區忠孝東路384號","121.665483333333","25.0698616666667","6501100","汐止區"
"242007","281-VK","2018/09/29 18:08:28","新北市新莊區自強街37巷14弄5號","121.453818333333","25.04678","6500500","新莊區"
"242034","280-VK","2018/09/29 18:08:42","新北市新莊區中正路377巷6號","121.446135","25.0343216666667","6500500","新莊區"
"220054","741-BX","2018/09/29 18:08:23","新北市板橋區華東街1-9號","121.448125","24.9949116666667","6500100","板橋區"
"220073","985-R7","2018/09/29 18:00:24","新北市板橋區華東街1-10號","121.448321666667","24.9949366666667","6500100","板橋區"
"235068","KEA-2873","2018/09/29 18:08:17","新北市中和區員山路36巷16-3號","121.485081666667","24.9911566666667","6500300","中和區"
"235061","KEA-2875","2018/09/29 18:08:24","新北市中和區連城路607號","121.478203333333","24.9931166666667","6500300","中和區"
