"lineid","car","time","location","longitude","latitude","cityid","cityname"
"234042","862-TW","2018/09/29 18:18:38","新北市永和區福和路1號","121.525543333333","25.0095266666667","6500400","永和區"
"234026","9371-KE","2018/09/29 18:18:31","新北市永和區豫溪街28巷9號","121.515226666667","25.0094483333333","6500400","永和區"
"249005","172-UM","2018/09/29 18:18:35","新北市八里區荖阡坑路15-40號","121.401658333333","25.1398233333333","6502300","八里區"
"249001","173-UM","2018/09/29 18:18:39","新北市八里區龍米路一段197號","121.451461666667","25.13123","6502300","八里區"
"249004","303-UY","2018/09/29 18:18:30","新北市八里區觀海大道21號","121.429521666667","25.1599133333333","6502300","八里區"
"249002","305-UY","2018/09/29 18:17:59","新北市八里區龍形二街20號","121.450573333333","25.1328233333333","6502300","八里區"
"249003","593-UM","2018/09/29 18:18:38","新北市八里區商港路10號","121.397023333333","25.1445433333333","6502300","八里區"
"248014","025-BX","2018/09/29 18:18:31","新北市五股區自強路21號","121.43443","25.0740966666667","6501500","五股區"
"248016","026-BX","2018/09/29 18:18:40","新北市五股區成泰路三段477巷18號","121.449901666667","25.0989","6501500","五股區"
"248006","077-UY","2018/09/29 18:18:31","新北市五股區中興路一段152號","121.464441666667","25.073915","6501500","五股區"
"248008","095-VK","2018/09/29 18:18:29","新北市五股區更洲路32巷8弄14號","121.459251666667","25.079645","6501500","五股區"
"248020","225-UY","2018/09/29 18:18:35","新北市五股區孝義路47巷11號","121.45348","25.1100366666667","6501500","五股區"
"248012","247-BX","2018/09/29 18:18:42","新北市五股區御成路35號","121.441018333333","25.09125","6501500","五股區"
"248010","272-BY","2018/09/29 18:18:43","新北市五股區成泰路一段135號","121.435295","25.07278","6501500","五股區"
"248002","678-BX","2018/09/29 18:18:39","新北市五股區西雲路66號","121.443605","25.0913083333333","6501500","五股區"
"248004","682-TV","2018/09/29 18:18:33","新北市五股區成泰路二段151號","121.439255","25.085665","6501500","五股區"
"244023","069-UM","2018/09/29 18:18:34","新北市林口區東湖路153巷153號","121.382273333333","25.0735466666667","6501700","林口區"
"244007","080-UY","2018/09/29 18:18:40","新北市林口區中山路202-1號","121.387756666667","25.07915","6501700","林口區"
"244019","403-UM","2018/09/29 18:18:23","新北市林口區忠孝路608號","121.376626666667","25.0683716666667","6501700","林口區"
"244013","KEA-2802","2018/09/29 18:18:30","新北市林口區中山路158號","121.39061","25.078795","6501700","林口區"
"244017","485-VK","2018/09/29 18:18:31","新北市林口區八德路48巷76號","121.367248333333","25.0674516666667","6501700","林口區"
"244009","656-BX","2018/09/29 18:18:31","新北市林口區中山路490號","121.38018","25.0824316666667","6501700","林口區"
"244011","701-TV","2018/09/29 18:18:40","新北市林口區中正路32號","121.395716666667","25.0775666666667","6501700","林口區"
"244025","837-TS","2018/09/29 18:18:31","新北市林口區文化北路一段135號","121.35671","25.0695466666667","6501700","林口區"
"244021","838-TS","2018/09/29 18:18:34","新北市林口區自強一街65號","121.399718333333","25.0772333333333","6501700","林口區"
"243013","AAD-798","2018/09/29 18:18:10","新北市泰山區南林路103號","121.414433333333","25.0433116666667","6501600","泰山區"
"222003","436-BY","2018/09/29 18:18:37","新北市深坑區旺耽路67號","121.626258333333","25.0030083333333","6501800","深坑區"
"222002","659-BX","2018/09/29 18:18:44","新北市深坑區雲鄉路3-1號","121.621326666667","24.999805","6501800","深坑區"
"231041","002-UM","2018/09/29 18:18:41","新北市新店區安華路28-1號","121.519858333333","24.9607766666667","6500600","新店區"
"231059","046-UY","2018/09/29 18:18:41","新北市新店區安華路28-1號","121.519546666667","24.9607583333333","6500600","新店區"
"231040","047-UY","2018/09/29 18:18:38","新北市新店區安華路28-1號","121.519291666667","24.960855","6500600","新店區"
"231044","106-UY","2018/09/29 18:18:34","新北市新店區安華路28-1號","121.519605","24.96084","6500600","新店區"
"231046","107-UY","2018/09/29 18:18:32","新北市新店區直潭七街60號","121.53229","24.939805","6500600","新店區"
"231052","110-UY","2018/09/29 18:18:31","新北市新店區安康路一段107-2號","121.52871","24.9616583333333","6500600","新店區"
"231048","187-VK","2018/09/29 18:18:23","新北市新店區安一路一段1-1號","121.51966","24.9611666666667","6500600","新店區"
"231062","188-VK","2018/09/29 18:18:34","新北市新店區安一路一段1-1號","121.519245","24.9613783333333","6500600","新店區"
"231057","256-BX","2018/09/29 18:18:34","新北市新店區安一路一段1-1號","121.519661666667","24.9611366666667","6500600","新店區"
"231042","268-BY","2018/09/29 18:18:37","新北市新店區安華路28-1號","121.519346666667","24.96063","6500600","新店區"
"231051","278-BY","2018/09/29 18:18:39","新北市新店區安一路一段1-1號","121.519715","24.9611816666667","6500600","新店區"
"231058","3713-VJ","2018/09/29 18:18:31","新北市新店區安康路一段164-1號","121.525931666667","24.9630416666667","6500600","新店區"
"231066","4716-K9","2018/09/29 18:18:25","新北市新店區安一路一段1-1號","121.519346666667","24.96111","6500600","新店區"
"231056","4715-K9","2018/09/29 18:18:33","新北市新店區中央路91號","121.531866666667","24.9759366666667","6500600","新店區"
"231067","4772-VM","2018/09/29 18:18:27","新北市新店區安華路3號","121.519056666667","24.9603416666667","6500600","新店區"
"231065","512-UM","2018/09/29 18:17:39","新北市新店區安一路一段1-1號","121.51934","24.9612883333333","6500600","新店區"
"231049","513-UM","2018/09/29 18:18:23","新北市新店區安一路一段1-1號","121.519661666667","24.9610716666667","6500600","新店區"
"231063","616-UM","2018/09/29 18:18:23","新北市新店區安華路1-1號","121.519443333333","24.960405","6500600","新店區"
"231045","617-UM","2018/09/29 18:18:28","新北市新店區安華路28-1號","121.519456666667","24.9609566666667","6500600","新店區"
"231061","619-UM","2018/09/29 18:18:25","新北市新店區安華路28-1號","121.519538333333","24.96097","6500600","新店區"
"231064","719-UM","2018/09/29 18:18:26","新北市新店區安一路一段1-1號","121.519503333333","24.9611416666667","6500600","新店區"
"231054","719-UY","2018/09/29 18:18:40","新北市新店區安華路28-1號","121.519631666667","24.9607416666667","6500600","新店區"
"231060","897-TW","2018/09/29 18:18:37","新北市新店區安華路28-1號","121.519568333333","24.96071","6500600","新店區"
"231043","899-TW","2018/09/29 18:18:40","新北市新店區安華路28-1號","121.519315","24.96084","6500600","新店區"
"231055","AKT-0513","2018/09/29 18:18:34","新北市新店區北新路一段130號","121.542428333333","24.9703316666667","6500600","新店區"
"251014","742-BX","2018/09/29 18:18:35","新北市淡水區崙頂10-1號","121.492348333333","25.2198866666667","6501000","淡水區"
"235066","003-UY","2018/09/29 18:18:24","新北市中和區中山路二段120號","121.50283","25.0038383333333","6500300","中和區"
"235064","005-UY","2018/09/29 18:18:33","新北市中和區中正路154號","121.498733333333","24.9938166666667","6500300","中和區"
"235063","006-UY","2018/09/29 18:18:29","新北市中和區中正路571巷2弄7號","121.486226666667","24.9935116666667","6500300","中和區"
"235056","096-UM","2018/09/29 18:18:25","新北市中和區中山路二段479號","121.483095","25.0048716666667","6500300","中和區"
"235039","097-UM","2018/09/29 18:18:36","新北市中和區景平路434號","121.507126666667","24.993245","6500300","中和區"
"235065","098-UM","2018/09/29 18:18:32","新北市中和區莊敬路49巷18號","121.501631666667","25.0061066666667","6500300","中和區"
"235040","150-BY","2018/09/29 18:18:34","新北市中和區景平路480號","121.505073333333","24.9935983333333","6500300","中和區"
"235058","151-BY","2018/09/29 18:18:11","新北市中和區圓通路367巷21-1號","121.492583333333","24.9863766666667","6500300","中和區"
"235055","183-VK","2018/09/29 18:18:30","新北市中和區連城路469巷79弄22號","121.484016666667","24.99366","6500300","中和區"
"235038","185-VK","2018/09/29 18:18:25","新北市中和區大智街42巷36-2號","121.522908333333","24.9920966666667","6500300","中和區"
"235049","186-VK","2018/09/29 18:18:41","新北市中和區中正路571巷2弄3號","121.48642","24.9935083333333","6500300","中和區"
"235067","255-BX","2018/09/29 18:18:35","新北市中和區和城路一段271巷1號","121.48582","24.9918","6500300","中和區"
"235072","301-VK","2018/09/29 18:18:33","新北市中和區連城路277號","121.490551666667","24.9963883333333","6500300","中和區"
"235042","KEA-2878","2018/09/29 18:18:24","新北市中和區景平路149號","121.513886666667","24.9922533333333","6500300","中和區"
"247012","KEA-2869","2018/09/29 18:18:43","新北市五股區中興路三段2巷10號","121.448935","25.081495","6501400","蘆洲區"
"235050","4979-A6","2018/09/29 18:18:38","新北市中和區捷運路67號","121.508838333333","24.9898966666667","6500300","中和區"
"235069","4980-A6","2018/09/29 18:18:31","新北市中和區錦和路216號","121.490221666667","24.99414","6500300","中和區"
"235070","558-UM","2018/09/29 18:18:29","新北市中和區圓通路118號","121.499198333333","24.99622","6500300","中和區"
"235045","565-BX","2018/09/29 18:18:27","新北市中和區景安路200巷1弄2號","121.503813333333","24.99144","6500300","中和區"
"235054","640-BX","2018/09/29 18:18:29","新北市中和區莒光路185號","121.472631666667","24.9990666666667","6500300","中和區"
"235047","732-UM","2018/09/29 18:18:23","新北市中和區南山路250巷1號","121.507693333333","24.98908","6500300","中和區"
"235062","800-TS","2018/09/29 18:18:26","新北市中和區景平路999巷1號","121.495441666667","25.0059683333333","6500300","中和區"
"235057","801-TS","2018/09/29 18:18:40","新北市中和區民享街97巷15號","121.475481666667","24.9999433333333","6500300","中和區"
"235041","802-TS","2018/09/29 18:18:27","新北市中和區和城路一段271巷1號","121.485363333333","24.9919266666667","6500300","中和區"
"235052","805-TS","2018/09/29 18:18:39","新北市中和區興南路一段71號","121.510066666667","24.9893666666667","6500300","中和區"
"235048","896-TW","2018/09/29 18:18:33","新北市中和區中正路571巷2弄11號","121.486108333333","24.9934983333333","6500300","中和區"
"235053","900-TW","2018/09/29 18:18:39","新北市中和區員山路36巷16-2號","121.485066666667","24.9917133333333","6500300","中和區"
"235051","157-BY","2018/09/29 18:18:23","新北市中和區興南路二段132號","121.504255","24.983365","6500300","中和區"
"235037","AAC-213","2018/09/29 18:18:26","新北市中和區景德街83號","121.516413333333","24.99131","6500300","中和區"
"226004","312-R5","2018/09/29 18:16:49","新北市平溪區靜安路二段3巷61號","121.706441666667","25.0184716666667","6502400","平溪區"
"235043","251-BX","2018/09/29 18:18:25","新北市中和區景平路377號","121.504088333333","24.993415","6500300","中和區"
"228003","097-TW","2018/09/29 18:18:38","新北市貢寮區真理里美艷山街61-3號","121.923146666667","25.0697483333333","6502600","貢寮區"
"228001","212-TW","2018/09/29 18:18:34","新北市貢寮區真理里新港街26巷55弄2-1號","121.92739","25.0528766666667","6502600","貢寮區"
"228002","663-BX","2018/09/29 18:18:26","新北市貢寮區福連里馬崗街2-2號","122.00098","25.0142966666667","6502600","貢寮區"
"224006","676-BX","2018/09/29 18:18:31","新北市瑞芳區三爪子坑路106巷1-11號","121.807935","25.1049083333333","6501200","瑞芳區"
"224002","639-TC","2018/09/29 18:18:41","新北市瑞芳區三爪子坑路91巷12號","121.811635","25.1070383333333","6501200","瑞芳區"
"224008","285-BY","2018/09/29 18:18:44","新北市瑞芳區逢甲路15號","121.809811666667","25.1086966666667","6501200","瑞芳區"
"224007","275-VK","2018/09/29 18:18:31","新北市瑞芳區大埔路有勝新村1號","121.764898333333","25.1014316666667","6501200","瑞芳區"
"224009","273-VK","2018/09/29 18:18:25","新北市瑞芳區五號路58號","121.85576","25.1093183333333","6501200","瑞芳區"
"224005","271-BY","2018/09/29 18:18:32","新北市瑞芳區建基新村5-1號","121.812031666667","25.1314083333333","6501200","瑞芳區"
"227010","642-TC","2018/09/29 18:18:32","新北市雙溪區牡丹里牡丹73號","121.851723333333","25.0593366666667","6502500","雙溪區"
"253006","032-BX","2018/09/29 18:18:28","新北市石門區老梅路78號","121.54703","25.289205","6502200","石門區"
"253005","295-VK","2018/09/29 18:18:37","新北市石門區中央路37-1號","121.568078333333","25.2949816666667","6502200","石門區"
"222001","KEA-2212","2018/09/29 18:18:39","新北市深坑區北深路二段58號","121.618955","25.00448","6501800","深坑區"
"208002","KEA-2872","2018/09/29 18:18:39","新北市金山區清泉里清水路16巷12號","121.633841666667","25.2301916666667","6502700","金山區"
"208003","665-BX","2018/09/29 18:18:30","新北市金山區民生路62號","121.648773333333","25.22389","6502700","金山區"
"208001","761-BX","2018/09/29 18:18:38","新北市金山區中山路16號","121.64163","25.2178133333333","6502700","金山區"
"251005","010-UM","2018/09/29 18:18:34","新北市淡水區仁愛街20巷2號","121.447293333333","25.1706","6501000","淡水區"
"251002","012-UM","2018/09/29 18:18:35","新北市淡水區中正東路一段87-2號","121.452866666667","25.161905","6501000","淡水區"
"251013","KEA-2871","2018/09/29 18:18:27","新北市淡水區行忠路592號","121.469158333333","25.1992633333333","6501000","淡水區"
"251008","179-VK","2018/09/29 18:18:25","新北市淡水區水源街二段346巷1弄1號","121.464228333333","25.1755","6501000","淡水區"
"251015","180-VK","2018/09/29 18:18:34","新北市淡水區興福寮88巷1號","121.485438333333","25.1649266666667","6501000","淡水區"
"251010","413-VK","2018/09/29 18:18:24","新北市淡水區淡海路204號","121.420188333333","25.185525","6501000","淡水區"
"251012","441-VK","2018/09/29 18:18:25","新北市淡水區北新路二段77-5號","121.480526666667","25.1855283333333","6501000","淡水區"
"251004","443-VK","2018/09/29 18:18:08","新北市淡水區民族路73號","121.46294","25.1343633333333","6501000","淡水區"
"251001","559-UM","2018/09/29 18:18:34","新北市淡水區自強路299號","121.46161","25.1314066666667","6501000","淡水區"
"251006","561-UM","2018/09/29 18:18:26","新北市淡水區新民街76巷36弄1號","121.439368333333","25.1779383333333","6501000","淡水區"
"251016","575-R6","2018/09/29 18:18:36","新北市淡水區淡金路三段228巷20號","121.449578333333","25.2049116666667","6501000","淡水區"
"251011","650-BX","2018/09/29 18:18:42","新北市淡水區淡金路33-8號","121.45716","25.1621733333333","6501000","淡水區"
"251003","673-BX","2018/09/29 18:18:35","新北市淡水區北新路137號","121.449451666667","25.17881","6501000","淡水區"
"207003","550-UM","2018/09/29 18:18:24","新北市萬里區野柳里港東路6號","121.686416666667","25.2031266666667","6502800","萬里區"
"207004","225-TW","2018/09/29 18:18:23","新北市萬里區中幅里中福路183號","121.674006666667","25.1655966666667","6502800","萬里區"
"252002","178-VK","2018/09/29 18:18:30","新北市三芝區中山路二段39號","121.502936666667","25.2551466666667","6502100","三芝區"
"252003","249-BX","2018/09/29 18:18:30","新北市三芝區古庄里四棧橋42號","121.481655","25.2636883333333","6502100","三芝區"
"252001","292-VK","2018/09/29 18:18:43","新北市三芝區中興街二段2號","121.498393333333","25.2566633333333","6502100","三芝區"
"237004","KEA-2597","2018/09/29 18:18:39","新北市三峽區大埔路421號","121.373681666667","24.892045","6500900","三峽區"
"237007","153-BY","2018/09/29 18:18:37","新北市三峽區中正路三段32號","121.357538333333","24.905035","6500900","三峽區"
"237009","210-TH","2018/09/29 18:18:22","新北市三峽區大勇路36巷27號","121.365488333333","24.93698","6500900","三峽區"
"237013","252-BX","2018/09/29 18:18:30","新北市三峽區永安街35號","121.37674","24.9304433333333","6500900","三峽區"
"237012","275-BY","2018/09/29 18:18:36","新北市三峽區三樹路7號","121.377188333333","24.9371916666667","6500900","三峽區"
"237008","302-VK","2018/09/29 18:18:34","新北市三峽區白雞68-85號","121.392628333333","24.9086133333333","6500900","三峽區"
"237014","433-BY","2018/09/29 18:18:34","新北市三峽區復興路78號","121.373183333333","24.93727","6500900","三峽區"
"237011","280-TH","2018/09/29 18:18:30","新北市三峽區溪東路281號","121.408995","24.931345","6500900","三峽區"
"237006","5529-G3","2018/09/29 18:18:40","新北市三峽區溪東路235號","121.406651666667","24.93264","6500900","三峽區"
"237016","649-BX","2018/09/29 18:18:33","新北市三峽區紫微路42-1號","121.422221666667","24.9199816666667","6500900","三峽區"
"237010","706-TV","2018/09/29 18:18:28","新北市三峽區民族街17-1號","121.369488333333","24.930625","6500900","三峽區"
"237005","AKY-6261","2018/09/29 18:18:10","新北市三峽區秀川街82號","121.370811666667","24.93359","6500900","三峽區"
"236070","105-UM","2018/09/29 18:18:24","新北市土城區永豐路153巷1號","121.467143333333","24.98181","6501300","土城區"
"236079","166-UM","2018/09/29 18:18:31","新北市土城區永平街29號","121.428448333333","24.96235","6501300","土城區"
"236030","253-BX","2018/09/29 18:18:43","新北市土城區順風路31號","121.4408","24.9766483333333","6501300","土城區"
"236026","269-VK","2018/09/29 18:18:32","新北市土城區承天路73號","121.440038333333","24.9630516666667","6501300","土城區"
"236014","270-VK","2018/09/29 18:18:37","新北市土城區青雲路39巷7號","121.460353333333","24.9875733333333","6501300","土城區"
"236038","271-VK","2018/09/29 18:18:39","新北市土城區青雲路451巷8弄12號","121.459498333333","24.9741916666667","6501300","土城區"
"236021","401-BY","2018/09/29 18:18:41","新北市土城區明德路一段315號","121.45934","24.97709","6501300","土城區"
"236042","752-BX","2018/09/29 18:18:40","新北市土城區裕生路21巷6弄10號","121.448668333333","24.9868366666667","6501300","土城區"
"236059","912-UM","2018/09/29 18:18:35","新北市土城區中央路四段400號","121.412558333333","24.953955","6501300","土城區"
"236049","913-UM","2018/09/29 18:18:41","新北市土城區明德路一段375-1號","121.454743333333","24.978215","6501300","土城區"
"236063","915-UM","2018/09/29 18:18:31","新北市土城區中正路78號","121.444661666667","24.9755833333333","6501300","土城區"
"236055","AAC-216","2018/09/29 18:18:29","新北市土城區中華路二段96號","121.438196666667","24.9744733333333","6501300","土城區"
"242036","AAC-296","2018/09/29 18:18:28","新北市新莊區後港一路49巷3弄9號","121.425278333333","25.0266633333333","6500500","新莊區"
"242058","986-R7","2018/09/29 18:18:43","新北市新莊區新北大道七段722號","121.412603333333","25.0259916666667","6500500","新莊區"
"242056","751-BX","2018/09/29 18:18:37","新北市新莊區豐年街豐2巷18號","121.44725","25.0307833333333","6500500","新莊區"
"242029","705-TV","2018/09/29 18:18:38","新北市新莊區幸福路914號","121.442325","25.0489616666667","6500500","新莊區"
"242027","615-BX","2018/09/29 18:18:41","新北市新莊區幸福路856號","121.44395","25.0489116666667","6500500","新莊區"
"242025","613-BX","2018/09/29 18:18:42","新北市新莊區五權一路12巷16號","121.457325","25.064535","6500500","新莊區"
"242044","566-BX","2018/09/29 18:18:43","新北市新莊區鳳山街56巷27號","121.413815","25.0264783333333","6500500","新莊區"
"242053","441-UM","2018/09/29 18:18:22","新北市新莊區新樹路597號","121.432975","25.0063116666667","6500500","新莊區"
"242002","440-UM","2018/09/29 18:18:37","新北市新莊區碧江街31號","121.452263333333","25.0330666666667","6500500","新莊區"
"242009","413-TV","2018/09/29 18:18:38","新北市新莊區自治街2號","121.453255","25.04786","6500500","新莊區"
"242046","400-BY","2018/09/29 18:18:42","新北市新莊區福營路334號","121.421701666667","25.0267916666667","6500500","新莊區"
"242061","353-BY","2018/09/29 18:18:23","新北市新莊區後港一路30號","121.42542","25.0260366666667","6500500","新莊區"
"242011","132-UY","2018/09/29 18:18:34","新北市新莊區中榮街47號","121.449496666667","25.05274","6500500","新莊區"
"242042","133-UY","2018/09/29 18:18:33","新北市新莊區天祥街71巷13號","121.415688333333","25.0286533333333","6500500","新莊區"
"242051","172-VK","2018/09/29 18:18:31","新北市新莊區民安西路47號","121.427443333333","25.020615","6500500","新莊區"
"242031","348-TH","2018/09/29 18:18:38","新北市新莊區新泰路255巷13號","121.445523333333","25.0396166666667","6500500","新莊區"
"242004","349-TH","2018/09/29 18:18:44","新北市新莊區中平路82巷3號","121.445096666667","25.0448966666667","6500500","新莊區"
"242021","350-TH","2018/09/29 18:18:35","新北市新莊區新興街23號","121.450693333333","25.0372783333333","6500500","新莊區"
"242015","351-TH","2018/09/29 18:18:26","新北市新莊區中平路184巷10弄3號","121.445448333333","25.0481633333333","6500500","新莊區"
"238015","755-BX","2018/09/29 18:18:21","新北市樹林區文德街21號","121.418578333333","24.9918266666667","6500700","樹林區"
"238023","601-UM","2018/09/29 18:18:31","新北市樹林區忠愛街15號","121.407976666667","25.0155816666667","6500700","樹林區"
"238019","599-UM","2018/09/29 18:18:30","新北市樹林區國凱街136巷3號","121.42344","24.98021","6500700","樹林區"
"238018","571-TV","2018/09/29 18:18:42","新北市樹林區保安街一段20巷21號","121.42794","24.9941883333333","6500700","樹林區"
"238024","5061-A6","2018/09/29 18:18:35","新北市樹林區中山路一段276號","121.420488333333","24.9870233333333","6500700","樹林區"
"238022","KEA-2213","2018/09/29 18:18:27","新北市樹林區太平路150巷7號","121.41808","24.9777383333333","6500700","樹林區"
"238025","303-VK","2018/09/29 18:18:37","新北市樹林區保安二街55號","121.424583333333","24.9945233333333","6500700","樹林區"
"238017","283-BY","2018/09/29 18:18:27","新北市樹林區保安街二段337巷4號","121.411838333333","25.0079783333333","6500700","樹林區"
"238014","282-BY","2018/09/29 18:18:35","新北市樹林區大安路109號","121.422506666667","24.99789","6500700","樹林區"
"238020","268-VK","2018/09/29 18:18:32","新北市樹林區三龍街92號","121.41449","25.0186516666667","6500700","樹林區"
"238026","172-UY","2018/09/29 18:18:36","新北市樹林區育德街69號","121.391141666667","24.9701283333333","6500700","樹林區"
"238016","169-UY","2018/09/29 18:18:40","新北市樹林區文化街23號","121.419326666667","24.9876533333333","6500700","樹林區"
"239007","AAC-297","2018/09/29 18:18:36","新北市鶯歌區中山路129號","121.349636666667","24.956865","6500800","鶯歌區"
"239006","891-R6","2018/09/29 18:18:33","新北市鶯歌區德昌二街51號","121.333358333333","24.95849","6500800","鶯歌區"
"239008","527-UM","2018/09/29 18:18:35","新北市鶯歌區國際一路179號","121.336271666667","24.97656","6500800","鶯歌區"
"239005","526-UM","2018/09/29 18:18:24","新北市鶯歌區鶯桃路668巷73號","121.329953333333","24.9718","6500800","鶯歌區"
"239001","417-VK","2018/09/29 18:18:27","新北市鶯歌區國中街178號","121.338246666667","24.939185","6500800","鶯歌區"
"239003","360-BY","2018/09/29 18:18:35","新北市鶯歌區福安街58號","121.335593333333","24.96519","6500800","鶯歌區"
"239002","359-BY","2018/09/29 18:18:37","新北市鶯歌區中正一路109號","121.352125","24.955385","6500800","鶯歌區"
"239004","193-VK","2018/09/29 18:18:28","新北市鶯歌區尖山路216號","121.343516666667","24.9468533333333","6500800","鶯歌區"
"221008","489-VK","2018/09/29 18:18:27","新北市汐止區康寧街901號","121.651401666667","25.075025","6501100","汐止區"
"221036","130-UY","2018/09/29 18:18:43","新北市汐止區長興街一段42號","121.670365","25.0791166666667","6501100","汐止區"
"221015","131-UY","2018/09/29 18:18:29","新北市汐止區鄉長路二段23巷18號","121.667725","25.0830733333333","6501100","汐止區"
"221010","269-BY","2018/09/29 18:18:32","新北市汐止區祥雲街16號","121.646328333333","25.0899816666667","6501100","汐止區"
"221012","278-VK","2018/09/29 18:18:25","新北市汐止區長興街二段4巷18號","121.673356666667","25.0804716666667","6501100","汐止區"
"221023","279-VK","2018/09/29 18:18:33","新北市汐止區康寧街430號","121.63129","25.06755","6501100","汐止區"
"221032","280-BY","2018/09/29 18:18:34","新北市汐止區民權街二段43號","121.619436666667","25.04931","6501100","汐止區"
"221027","281-BY","2018/09/29 18:18:38","新北市汐止區和平街32號","121.662845","25.0707916666667","6501100","汐止區"
"221029","298-VK","2018/09/29 18:18:22","新北市汐止區樟樹二路330巷72-1號","121.643006666667","25.0698783333333","6501100","汐止區"
"221021","299-VK","2018/09/29 18:18:40","新北市汐止區連興街120號","121.65364","25.0624733333333","6501100","汐止區"
"221031","353-TW","2018/09/29 18:18:33","新北市汐止區大同路一段403巷1號","121.641448333333","25.0601933333333","6501100","汐止區"
"221035","622-UM","2018/09/29 18:18:35","新北市汐止區大同路二段175號","121.651531666667","25.0640916666667","6501100","汐止區"
"221025","623-UM","2018/09/29 18:18:42","新北市汐止區勤進路12巷29號","121.659208333333","25.0623666666667","6501100","汐止區"
"221038","646-BX","2018/09/29 18:18:37","新北市汐止區仁愛路321-1號","121.664361666667","25.0676616666667","6501100","汐止區"
"221002","707-TV","2018/09/29 18:18:40","新北市汐止區福德一路201巷27號","121.635888333333","25.06472","6501100","汐止區"
"221018","753-BX","2018/09/29 18:18:28","新北市汐止區茄苳路88巷6弄8號","121.666568333333","25.0702116666667","6501100","汐止區"
"242007","281-VK","2018/09/29 18:18:34","新北市新莊區自信街24號","121.454001666667","25.04823","6500500","新莊區"
"242034","280-VK","2018/09/29 18:18:42","新北市新莊區瓊林路9-1號","121.449726666667","25.031765","6500500","新莊區"
"220054","741-BX","2018/09/29 18:18:43","新北市板橋區華東街1-9號","121.44811","24.9948983333333","6500100","板橋區"
"220073","985-R7","2018/09/29 18:18:33","新北市板橋區華東街1-10號","121.448308333333","24.9949316666667","6500100","板橋區"
"235068","KEA-2873","2018/09/29 18:18:16","新北市中和區員山路36巷16-3號","121.485181666667","24.99113","6500300","中和區"
"235061","KEA-2875","2018/09/29 18:18:24","新北市中和區國光街215巷22號","121.466968333333","25.0004983333333","6500300","中和區"
"235060","KEA-2876","2018/09/29 18:18:15","新北市中和區員山路72-2號","121.481168333333","24.993595","6500300","中和區"
