"lineid","car","time","location","longitude","latitude","cityid","cityname"
"234046","148-BY","2018/09/29 19:48:43","新北市永和區永利路175號","121.525521666667","25.00342","6500400","永和區"
"234007","207-UY","2018/09/29 19:48:37","新北市中和區光華街59-1號","121.506298333333","25.003265","6500400","永和區"
"234081","298-R6","2018/09/29 19:48:35","新北市永和區林森路20巷1號","121.526073333333","25.00536","6500400","永和區"
"234038","336-UY","2018/09/29 19:48:42","新北市永和區成功路二段76號","121.526643333333","24.9990616666667","6500400","永和區"
"234064","337-UY","2018/09/29 19:48:30","新北市永和區中正路368巷2號","121.517888333333","25.00079","6500400","永和區"
"234086","338-UY","2018/09/29 19:48:32","新北市永和區中正路505號","121.516805","25.0069366666667","6500400","永和區"
"234070","552-UM","2018/09/29 19:48:43","新北市永和區竹林路108號","121.519741666667","25.0118833333333","6500400","永和區"
"234067","553-UM","2018/09/29 19:48:32","新北市永和區中山路一段168號","121.509375","25.0092316666667","6500400","永和區"
"234017","745-BX","2018/09/29 19:48:38","新北市永和區永和路二段299號","121.516021666667","25.01609","6500400","永和區"
"234030","746-BX","2018/09/29 19:48:31","新北市永和區民生路67巷29號","121.524265","24.997355","6500400","永和區"
"234054","KEA-2590","2018/09/29 19:48:36","新北市永和區竹林路75巷25弄8號","121.520125","25.0144133333333","6500400","永和區"
"234013","KEA-2591","2018/09/29 19:48:29","新北市永和區仁愛路190號","121.509725","25.01248","6500400","永和區"
"234061","AAD-866","2018/09/29 19:48:32","新北市永和區民有街1號","121.515845","24.9974916666667","6500400","永和區"
"234042","862-TW","2018/09/29 19:48:41","新北市永和區中和路305巷16弄2號","121.507406666667","25.0013833333333","6500400","永和區"
"234050","863-TW","2018/09/29 19:48:16","新北市永和區保安路79號","121.508596666667","25.0148283333333","6500400","永和區"
"234026","9371-KE","2018/09/29 19:48:31","新北市永和區雙和街25巷5號","121.508951666667","25.0019316666667","6500400","永和區"
"234011","9373-KE","2018/09/29 19:48:39","新北市永和區仁愛路352巷94號","121.501198333333","25.0080133333333","6500400","永和區"
"249004","303-UY","2018/09/29 19:48:38","新北市八里區仁愛路65號","121.412058333333","25.1600866666667","6502300","八里區"
"249002","305-UY","2018/09/29 19:48:34","新北市八里區頂寮五街17號","121.451423333333","25.12604","6502300","八里區"
"249003","593-UM","2018/09/29 19:48:32","新北市八里區中華路二段560巷9號","121.398348333333","25.1449316666667","6502300","八里區"
"248014","025-BX","2018/09/29 19:48:43","新北市五股區五福路34號","121.433986666667","25.0891683333333","6501500","五股區"
"248016","026-BX","2018/09/29 19:48:40","新北市五股區成泰路四段22巷29-2號","121.455208333333","25.10852","6501500","五股區"
"248008","095-VK","2018/09/29 19:48:29","新北市五股區國道路三段7號","121.469576666667","25.0751816666667","6501500","五股區"
"248012","247-BX","2018/09/29 19:48:41","新北市五股區蓬萊路24號","121.433888333333","25.0799266666667","6501500","五股區"
"248010","272-BY","2018/09/29 19:48:37","新北市五股區登林路貿商巷3弄15號","121.429668333333","25.06993","6501500","五股區"
"248002","678-BX","2018/09/29 19:48:35","新北市五股區成泰路四段8號","121.453121666667","25.1065233333333","6501500","五股區"
"248004","682-TV","2018/09/29 19:48:36","新北市五股區成泰路一段135號","121.435576666667","25.0727783333333","6501500","五股區"
"234077","969-R7","2018/09/29 19:48:32","新北市永和區民治街76號","121.517575","24.9981716666667","6500400","永和區"
"234074","AAC-211","2018/09/29 19:48:28","新北市永和區豫溪街136巷5號","121.52132","25.0099683333333","6500400","永和區"
"234003","AAC-295","2018/09/29 19:48:24","新北市永和區永和路一段136號","121.513975","25.0079633333333","6500400","永和區"
"244023","069-UM","2018/09/29 19:48:33","新北市林口區文化北路二段232號","121.372741666667","25.08533","6501700","林口區"
"243013","AAD-798","2018/09/29 19:47:38","新北市泰山區應化街7號","121.42387","25.0437866666667","6501600","泰山區"
"243009","297-R6","2018/09/29 19:48:28","新北市泰山區美寧街71號","121.431045","25.0647083333333","6501600","泰山區"
"243016","KEA-2801","2018/09/29 19:48:38","新北市泰山區新北大道七段31號","121.419935","25.03204","6501600","泰山區"
"243015","421-VK","2018/09/29 19:48:40","新北市泰山區明志路二段214巷11號","121.426616666667","25.04879","6501600","泰山區"
"243011","KEA-2215","2018/09/29 19:48:27","新北市泰山區明志路三段204巷10弄11號","121.42299","25.038705","6501600","泰山區"
"243010","KEA-2216","2018/09/29 19:48:33","新北市泰山區明志路二段7巷2號","121.430293333333","25.0534316666667","6501600","泰山區"
"243012","646-TV","2018/09/29 19:48:34","新北市泰山區全興路18巷22號","121.431831666667","25.0582733333333","6501600","泰山區"
"243014","680-BX","2018/09/29 19:48:28","新北市泰山區泰林路二段33-7號","121.435201666667","25.0564833333333","6501600","泰山區"
"222003","436-BY","2018/09/29 19:48:37","新北市深坑區深南路51-1號","121.621113333333","25.009795","6501800","深坑區"
"222002","659-BX","2018/09/29 19:48:24","新北市深坑區翠谷街1號","121.626308333333","25.0073516666667","6501800","深坑區"
"231041","002-UM","2018/09/29 19:48:42","新北市新店區中央路155號","121.529676666667","24.9727983333333","6500600","新店區"
"231059","046-UY","2018/09/29 19:48:41","新北市新店區安和路二段195號","121.518015","24.9750416666667","6500600","新店區"
"231040","047-UY","2018/09/29 19:48:38","新北市新店區中正路75巷71號","121.543126666667","24.9686483333333","6500600","新店區"
"231044","106-UY","2018/09/29 19:48:34","新北市新店區復興路121號","121.534101666667","24.9879933333333","6500600","新店區"
"231046","107-UY","2018/09/29 19:48:32","新北市新店區三民路159巷19弄48號","121.532171666667","24.9732016666667","6500600","新店區"
"231052","110-UY","2018/09/29 19:48:31","新北市新店區新烏路三段334號","121.546735","24.8961533333333","6500600","新店區"
"231048","187-VK","2018/09/29 19:48:42","新北市新店區五峰路61巷6號","121.548018333333","24.96982","6500600","新店區"
"231062","188-VK","2018/09/29 19:48:34","新北市新店區永業路31巷1號","121.532906666667","24.95553","6500600","新店區"
"231057","256-BX","2018/09/29 19:48:45","新北市新店區梅崗三路1號","121.558323333333","24.93124","6500600","新店區"
"231042","268-BY","2018/09/29 19:48:37","新北市新店區中興路一段263號","121.544703333333","24.9673083333333","6500600","新店區"
"231051","278-BY","2018/09/29 19:48:39","新北市新店區中央路216-1號","121.529783333333","24.9732883333333","6500600","新店區"
"231050","AAD-862","2018/09/29 19:48:28","新北市新店區北宜路二段148號","121.557596666667","24.9537416666667","6500600","新店區"
"231066","4716-K9","2018/09/29 19:48:45","新北市新店區安康路二段341巷14號","121.49638","24.9546833333333","6500600","新店區"
"231056","4715-K9","2018/09/29 19:48:33","新北市新店區民權路42巷28號","121.539276666667","24.983765","6500600","新店區"
"231067","4772-VM","2018/09/29 19:48:33","新北市新店區安康路一段35-1號","121.532025","24.9605683333333","6500600","新店區"
"231065","512-UM","2018/09/29 19:48:39","新北市新店區安祥路109巷114號","121.47696","24.958595","6500600","新店區"
"231049","513-UM","2018/09/29 19:48:43","新北市新店區民權路116號","121.535661666667","24.9828683333333","6500600","新店區"
"231063","616-UM","2018/09/29 19:48:43","新北市新店區車子路11號","121.503021666667","24.9519833333333","6500600","新店區"
"231045","617-UM","2018/09/29 19:48:28","新北市新店區北宜路二段360-1號","121.564611666667","24.9527216666667","6500600","新店區"
"231061","619-UM","2018/09/29 19:48:45","新北市新店區安民街179號","121.516711666667","24.9706383333333","6500600","新店區"
"231068","718-UY","2018/09/29 19:48:33","新北市新店區安一路一段1-1號","121.51948","24.9612666666667","6500600","新店區"
"231064","719-UM","2018/09/29 19:48:34","新北市新店區安和路二段113巷3弄5號","121.518046666667","24.969945","6500600","新店區"
"231054","719-UY","2018/09/29 19:48:23","新北市新店區光明街107號","121.53923","24.9612716666667","6500600","新店區"
"231060","897-TW","2018/09/29 19:48:37","新北市新店區安康路二段209號","121.508988333333","24.9588933333333","6500600","新店區"
"231043","899-TW","2018/09/29 19:48:40","新北市新店區中正路263-2號","121.538433333333","24.9738133333333","6500600","新店區"
"231055","AKT-0513","2018/09/29 19:48:33","新北市新店區中華路83巷67號","121.53825","24.967125","6500600","新店區"
"241011","013-R5","2018/09/29 19:48:33","新北市三重區介壽路41號","121.49857","25.07016","6500200","三重區"
"241028","022-UY","2018/09/29 19:48:35","新北市三重區中正南路157號","121.49376","25.056245","6500200","三重區"
"241008","059-VK","2018/09/29 19:48:32","新北市三重區永福街101號","121.479391666667","25.0773683333333","6500200","三重區"
"241022","060-VK","2018/09/29 19:48:34","新北市三重區新北大道一段7號","121.489706666667","25.0617016666667","6500200","三重區"
"241031","061-VK","2018/09/29 19:48:29","新北市三重區重新路四段248號","121.48614","25.0534566666667","6500200","三重區"
"241017","063-VK","2018/09/29 19:48:38","新北市三重區重陽路三段5巷8弄20號","121.48956","25.0664933333333","6500200","三重區"
"241024","065-VK","2018/09/29 19:48:25","新北市三重區中正北路193巷35弄18號","121.476578333333","25.07097","6500200","三重區"
"241026","066-VK","2018/09/29 19:48:27","新北市三重區文化南路42號","121.500383333333","25.0602633333333","6500200","三重區"
"251014","742-BX","2018/09/29 19:48:35","新北市淡水區番社前4-7號","121.473493333333","25.2364783333333","6501000","淡水區"
"241033","265-UM","2018/09/29 19:48:25","新北市三重區中興南街31-3號","121.470768333333","25.0438216666667","6500200","三重區"
"241016","266-UM","2018/09/29 19:48:34","新北市三重區正德街41巷9號","121.496181666667","25.0627533333333","6500200","三重區"
"241009","267-UM","2018/09/29 19:48:33","新北市三重區三和路四段398-1號","121.481436666667","25.0792566666667","6500200","三重區"
"241018","268-UM","2018/09/29 19:48:30","新北市三重區雙園街57巷34弄3號","121.494273333333","25.0684283333333","6500200","三重區"
"241032","269-UM","2018/09/29 19:48:29","新北市三重區重陽路一段20巷10-1號","121.486201666667","25.057505","6500200","三重區"
"241013","270-UM","2018/09/29 19:48:31","新北市三重區仁愛街112巷12號","121.494803333333","25.0740216666667","6500200","三重區"
"241025","271-UM","2018/09/29 19:48:38","新北市三重區忠孝路三段52號","121.480668333333","25.06565","6500200","三重區"
"241007","398-BY","2018/09/29 19:48:43","新北市三重區三和路四段137號","121.484515","25.0779716666667","6500200","三重區"
"241035","462-BY","2018/09/29 19:48:32","新北市三重區文化北路25號","121.499551666667","25.0638066666667","6500200","三重區"
"241004","475-VK","2018/09/29 19:48:43","新北市三重區五華街74號","121.493408333333","25.0820266666667","6500200","三重區"
"241020","478-VK","2018/09/29 19:48:32","新北市三重區後竹圍街56號","121.49072","25.0732466666667","6500200","三重區"
"241030","480-VK","2018/09/29 19:48:31","新北市三重區環河南路254巷10號","121.490618333333","25.05074","6500200","三重區"
"241014","543-UM","2018/09/29 19:48:25","新北市三重區長元街98巷18弄21號","121.501948333333","25.0675416666667","6500200","三重區"
"241023","545-UM","2018/09/29 19:48:34","新北市三重區大有街1-9號","121.477521666667","25.0660433333333","6500200","三重區"
"241019","KEA-2593","2018/09/29 19:48:32","新北市三重區自強路二段67巷16號","121.489188333333","25.0703533333333","6500200","三重區"
"241006","AAD-863","2018/09/29 19:48:28","新北市三重區力行路二段76巷25號","121.48073","25.07359","6500200","三重區"
"241015","743-BX","2018/09/29 19:48:23","新北市三重區三和路一段3號","121.504068333333","25.0643533333333","6500200","三重區"
"241001","887-TS","2018/09/29 19:48:41","新北市三重區仁愛街325號","121.492445","25.0795933333333","6500200","三重區"
"241012","941-UM","2018/09/29 19:48:09","新北市三重區仁福街64巷18號","121.497658333333","25.0751683333333","6500200","三重區"
"241029","942-UM","2018/09/29 19:48:36","新北市三重區光明路25號","121.49128","25.05857","6500200","三重區"
"235066","003-UY","2018/09/29 19:48:44","新北市中和區南工路58號","121.506093333333","25.001625","6500300","中和區"
"235064","005-UY","2018/09/29 19:48:32","新北市中和區南山路68號","121.502315","24.9960966666667","6500300","中和區"
"235063","006-UY","2018/09/29 19:48:28","新北市中和區連城路263巷10號","121.492428333333","24.9952116666667","6500300","中和區"
"235056","096-UM","2018/09/29 19:48:25","新北市中和區民富街25-1號","121.476445","25.0076866666667","6500300","中和區"
"235039","097-UM","2018/09/29 19:48:38","新北市中和區大勇街27巷8號","121.517063333333","24.9937616666667","6500300","中和區"
"235065","098-UM","2018/09/29 19:48:32","新北市中和區永和路52號","121.49916","25.0040433333333","6500300","中和區"
"235040","150-BY","2018/09/29 19:48:34","新北市中和區安平路59號","121.509675","24.99497","6500300","中和區"
"235058","151-BY","2018/09/29 19:48:31","新北市中和區員山路132巷3號","121.481631666667","24.9962933333333","6500300","中和區"
"235055","183-VK","2018/09/29 19:48:30","新北市中和區中山路三段181巷18弄11號","121.472678333333","25.0049083333333","6500300","中和區"
"235038","185-VK","2018/09/29 19:48:44","新北市中和區自立路15巷1號","121.522521666667","24.9962533333333","6500300","中和區"
"235049","186-VK","2018/09/29 19:48:41","新北市中和區中興街55號","121.500548333333","24.9938066666667","6500300","中和區"
"235067","255-BX","2018/09/29 19:48:35","新北市中和區新生街277號","121.483816666667","24.9978166666667","6500300","中和區"
"235044","293-VK","2018/09/29 19:48:32","新北市中和區南山路399巷1號","121.50689","24.9902266666667","6500300","中和區"
"235072","301-VK","2018/09/29 19:48:33","新北市中和區錦和路117號","121.49053","24.9943933333333","6500300","中和區"
"235050","4979-A6","2018/09/29 19:48:31","新北市中和區景平路241巷84弄57號","121.506015","24.9922766666667","6500300","中和區"
"235069","4980-A6","2018/09/29 19:48:31","新北市中和區中正路637巷60弄61號","121.48542","24.9932933333333","6500300","中和區"
"235070","558-UM","2018/09/29 19:48:29","新北市中和區連城路139巷66號","121.496691666667","24.9967283333333","6500300","中和區"
"235045","565-BX","2018/09/29 19:48:26","新北市中和區景新街469號","121.513553333333","24.988025","6500300","中和區"
"235054","640-BX","2018/09/29 19:48:29","新北市中和區民德路74號","121.468786666667","25.001675","6500300","中和區"
"235047","732-UM","2018/09/29 19:48:23","新北市中和區捷運路119號","121.507738333333","24.99036","6500300","中和區"
"235046","733-UM","2018/09/29 19:48:40","新北市中和區仁愛街92號","121.511473333333","24.9873033333333","6500300","中和區"
"235057","801-TS","2018/09/29 19:48:40","新北市中和區連城路376-1號","121.481023333333","24.9953116666667","6500300","中和區"
"235041","802-TS","2018/09/29 19:48:27","新北市中和區永貞路239巷18號","121.512603333333","25.003215","6500300","中和區"
"235052","805-TS","2018/09/29 19:48:39","新北市中和區華新街30巷17號","121.507026666667","24.9841633333333","6500300","中和區"
"235048","896-TW","2018/09/29 19:48:32","新北市中和區興南路一段162號","121.508138333333","24.98674","6500300","中和區"
"235053","900-TW","2018/09/29 19:48:39","新北市中和區國光街215巷8弄6-4號","121.466623333333","25.0010566666667","6500300","中和區"
"235051","157-BY","2018/09/29 19:48:38","新北市中和區中興街119號","121.499931666667","24.991915","6500300","中和區"
"235037","AAC-213","2018/09/29 19:48:26","新北市中和區秀朗路三段173-2號","121.524396666667","24.9914116666667","6500300","中和區"
"235059","AAC-215","2018/09/29 19:48:43","新北市中和區圓通路305巷18號","121.494936666667","24.9891066666667","6500300","中和區"
"220068","013-TV","2018/09/29 19:48:41","新北市板橋區中山路二段412巷15號","121.48332","25.0204333333333","6500100","板橋區"
"220065","072-UY","2018/09/29 19:48:37","新北市板橋區國泰街39巷9弄7號","121.468786666667","25.0053866666667","6500100","板橋區"
"220086","073-UY","2018/09/29 19:48:42","新北市板橋區南雅西路二段7巷25號","121.451928333333","25.0094616666667","6500100","板橋區"
"220106","075-UY","2018/09/29 19:48:37","新北市板橋區仁化街221號","121.4788","25.0346483333333","6500100","板橋區"
"220069","AAD-861","2018/09/29 19:48:37","新北市板橋區貴興路117號","121.45556","25.002395","6500100","板橋區"
"247002","893-R6","2018/09/29 19:48:26","新北市蘆洲區永樂街38巷71號","121.458595","25.0906683333333","6501400","蘆洲區"
"247014","339-TH","2018/09/29 19:48:33","新北市蘆洲區中央路91號","121.472661666667","25.0842166666667","6501400","蘆洲區"
"247008","336-TH","2018/09/29 19:48:44","新北市蘆洲區中山一路72號","121.478891666667","25.08102","6501400","蘆洲區"
"226004","312-R5","2018/09/29 19:48:29","新北市平溪區靜安路三段392巷3號","121.784406666667","25.0495516666667","6502400","平溪區"
"235043","251-BX","2018/09/29 19:48:24","新北市中和區興南路二段75號","121.506695","24.98508","6500300","中和區"
"228003","097-TW","2018/09/29 19:48:37","新北市貢寮區真理里美艷山街8-3號","121.92936","25.06273","6502600","貢寮區"
"228001","212-TW","2018/09/29 19:48:34","新北市貢寮區真理里新港街91號","121.926463333333","25.0567","6502600","貢寮區"
"224010","AGQ-8101","2018/09/29 19:45:25","新北市瑞芳區金光路334號","121.848566666667","25.1098233333333","6501200","瑞芳區"
"224002","639-TC","2018/09/29 19:48:41","新北市瑞芳區民享新村26號","121.817106666667","25.1057883333333","6501200","瑞芳區"
"227010","642-TC","2018/09/29 19:48:32","新北市雙溪區新基里中華路61號","121.865771666667","25.038005","6502500","雙溪區"
"227002","400-TW","2018/09/29 19:48:25","新北市雙溪區雙溪里內挖路47號","121.863225","25.0367433333333","6502500","雙溪區"
"222001","KEA-2212","2018/09/29 19:48:38","新北市深坑區北深路三段83號","121.606628333333","25.0014216666667","6501800","深坑區"
"208002","KEA-2872","2018/09/29 19:48:39","新北市金山區中華路366-1號","121.633188333333","25.2244566666667","6502700","金山區"
"208003","665-BX","2018/09/29 19:48:30","新北市金山區清泉里清水路41巷2號","121.62977","25.2327233333333","6502700","金山區"
"208001","761-BX","2018/09/29 19:48:38","新北市金山區重和里茅埔頭11-1號","121.603431666667","25.21576","6502700","金山區"
"251009","008-UM","2018/09/29 19:48:42","新北市淡水區中正路38-1號","121.443738333333","25.1693016666667","6501000","淡水區"
"251005","010-UM","2018/09/29 19:48:35","新北市淡水區中山路42號","121.4442","25.169985","6501000","淡水區"
"251013","KEA-2871","2018/09/29 19:48:27","新北市淡水區頂田寮1-3號","121.457685","25.2145983333333","6501000","淡水區"
"251008","179-VK","2018/09/29 19:48:27","新北市淡水區中正路一段24巷2-4號","121.426801666667","25.176995","6501000","淡水區"
"251015","180-VK","2018/09/29 19:48:34","新北市淡水區北新路二段93號","121.481816666667","25.185305","6501000","淡水區"
"251010","413-VK","2018/09/29 19:48:44","新北市淡水區下圭柔山91-3號","121.430895","25.209595","6501000","淡水區"
"251012","441-VK","2018/09/29 19:48:30","新北市淡水區淡金路三段66號","121.44822","25.199935","6501000","淡水區"
"251001","559-UM","2018/09/29 19:48:37","新北市淡水區淡金路42-1號","121.456498333333","25.1610766666667","6501000","淡水區"
"251006","561-UM","2018/09/29 19:48:26","新北市淡水區水碓街15號","121.44348","25.176985","6501000","淡水區"
"251016","575-R6","2018/09/29 19:48:36","新北市淡水區三塊厝3-3號","121.456653333333","25.2097383333333","6501000","淡水區"
"251007","577-R6","2018/09/29 19:48:30","新北市淡水區竿蓁一街102巷1號","121.45357","25.1662716666667","6501000","淡水區"
"251011","650-BX","2018/09/29 19:48:38","新北市淡水區淡金路二段62號","121.450891666667","25.18213","6501000","淡水區"
"251003","673-BX","2018/09/29 19:48:35","新北市淡水區崁頂116號","121.43249","25.2047416666667","6501000","淡水區"
"207003","550-UM","2018/09/29 19:48:44","新北市萬里區大鵬里萬里加投239號","121.64246","25.2166766666667","6502800","萬里區"
"207004","225-TW","2018/09/29 19:48:43","新北市萬里區萬里里瑪鋉路170號","121.689956666667","25.1797283333333","6502800","萬里區"
"252002","178-VK","2018/09/29 19:48:29","新北市三芝區三民街24號","121.504673333333","25.2586466666667","6502100","三芝區"
"252001","292-VK","2018/09/29 19:48:43","新北市三芝區公正街9號","121.499763333333","25.2574783333333","6502100","三芝區"
"237004","KEA-2597","2018/09/29 19:48:39","新北市三峽區添福295號","121.377533333333","24.8850583333333","6500900","三峽區"
"237007","153-BY","2018/09/29 19:48:37","新北市三峽區二鬮路136巷22弄49號","121.357576666667","24.9102183333333","6500900","三峽區"
"237009","210-TH","2018/09/29 19:48:42","新北市三峽區清水街428號","121.368711666667","24.9259466666667","6500900","三峽區"
"237013","252-BX","2018/09/29 19:48:30","新北市三峽區溪北街95號","121.397875","24.93557","6500900","三峽區"
"237012","275-BY","2018/09/29 19:48:36","新北市三峽區中華路5-1號","121.374476666667","24.9326966666667","6500900","三峽區"
"237008","302-VK","2018/09/29 19:48:34","新北市三峽區安溪路345號","121.370018333333","24.9263816666667","6500900","三峽區"
"237014","433-BY","2018/09/29 19:48:33","新北市三峽區添福2-8號","121.371738333333","24.906595","6500900","三峽區"
"237006","5529-G3","2018/09/29 19:48:40","新北市三峽區中正路一段336巷15弄2號","121.369943333333","24.92494","6500900","三峽區"
"237016","649-BX","2018/09/29 19:48:32","新北市三峽區介壽路二段167號","121.394666666667","24.9360333333333","6500900","三峽區"
"237005","AKY-6261","2018/09/29 19:48:30","新北市三峽區長泰街79-2號","121.375556666667","24.9331116666667","6500900","三峽區"
"236070","105-UM","2018/09/29 19:48:44","新北市土城區中央路二段192巷3號","121.441286666667","24.97591","6501300","土城區"
"236079","166-UM","2018/09/29 19:48:31","新北市土城區中央路四段410巷3號","121.411321666667","24.9537633333333","6501300","土城區"
"236030","253-BX","2018/09/29 19:48:41","新北市土城區中央路一段290號","121.443323333333","24.982405","6501300","土城區"
"236026","269-VK","2018/09/29 19:48:32","新北市土城區中央路二段61巷40號","121.443866666667","24.978515","6501300","土城區"
"236038","271-VK","2018/09/29 19:48:39","新北市土城區國際路158巷57號","121.468098333333","24.9751233333333","6501300","土城區"
"236021","401-BY","2018/09/29 19:48:41","新北市土城區延吉街137巷12弄4號","121.470718333333","24.9855083333333","6501300","土城區"
"236042","752-BX","2018/09/29 19:48:40","新北市土城區裕民路195巷16號","121.45477","24.9838566666667","6501300","土城區"
"236059","912-UM","2018/09/29 19:48:35","新北市土城區中央路一段174號","121.445703333333","24.986625","6501300","土城區"
"236049","913-UM","2018/09/29 19:48:41","新北市土城區青雲路311號","121.459048333333","24.9791033333333","6501300","土城區"
"236063","915-UM","2018/09/29 19:48:31","新北市土城區延和路146巷8號","121.467976666667","24.989605","6501300","土城區"
"236055","AAC-216","2018/09/29 19:48:37","新北市土城區延和路154號","121.46794","24.99031","6501300","土城區"
"242036","AAC-296","2018/09/29 19:48:42","新北市新莊區民安路207巷30弄7號","121.42801","25.0240783333333","6500500","新莊區"
"242058","986-R7","2018/09/29 19:48:32","新北市新莊區中正路400號","121.441953333333","25.0341733333333","6500500","新莊區"
"242056","751-BX","2018/09/29 19:48:37","新北市新莊區新泰路87號","121.448743333333","25.0344383333333","6500500","新莊區"
"242029","705-TV","2018/09/29 19:48:29","新北市新莊區中平路183號","121.44486","25.0493866666667","6500500","新莊區"
"242048","497-BY","2018/09/29 19:48:35","新北市新莊區建安街76巷1弄15號","121.425915","25.0242233333333","6500500","新莊區"
"242002","440-UM","2018/09/29 19:48:25","新北市新莊區新泰路2-11號","121.450148333333","25.03254","6500500","新莊區"
"242039","415-TV","2018/09/29 19:48:27","新北市新莊區民安路299巷33號","121.42933","25.0232233333333","6500500","新莊區"
"242009","413-TV","2018/09/29 19:48:37","新北市新莊區瓊林路51-3號","121.445188333333","25.0275","6500500","新莊區"
"242023","362-BY","2018/09/29 19:48:32","新北市新莊區化成路254號","121.465648333333","25.04711","6500500","新莊區"
"242017","346-TH","2018/09/29 19:48:30","新北市新莊區中華路一段226號","121.452695","25.0430166666667","6500500","新莊區"
"242013","347-TH","2018/09/29 19:48:30","新北市新莊區中泰街38巷10號","121.450798333333","25.0473466666667","6500500","新莊區"
"242031","348-TH","2018/09/29 19:48:31","新北市新莊區新泰路209號","121.445751666667","25.0386833333333","6500500","新莊區"
"242004","349-TH","2018/09/29 19:48:29","新北市新莊區化成路63巷105號","121.461605","25.04591","6500500","新莊區"
"242021","350-TH","2018/09/29 19:48:28","新北市新莊區中正路400號","121.442015","25.0342466666667","6500500","新莊區"
"238015","755-BX","2018/09/29 19:48:40","新北市樹林區中山路一段108巷43號","121.421658333333","24.9915016666667","6500700","樹林區"
"238019","599-UM","2018/09/29 19:48:30","新北市樹林區東陽街43號","121.413345","24.9811766666667","6500700","樹林區"
"238021","KEA-2539","2018/09/29 19:48:42","新北市樹林區佳園路三段117號","121.386443333333","24.95062","6500700","樹林區"
"238025","303-VK","2018/09/29 19:48:37","新北市樹林區中山路一段402號","121.418256666667","24.9854416666667","6500700","樹林區"
"238017","283-BY","2018/09/29 19:48:27","新北市樹林區保安街二段45巷13弄5號","121.415465","24.9997266666667","6500700","樹林區"
"238014","282-BY","2018/09/29 19:48:35","新北市樹林區千歲街70巷1弄2號","121.4268","24.9971283333333","6500700","樹林區"
"238026","172-UY","2018/09/29 19:48:36","新北市樹林區佳園路二段23號","121.392511666667","24.9636883333333","6500700","樹林區"
"238016","169-UY","2018/09/29 19:48:40","新北市樹林區東和街20號","121.403931666667","24.9811883333333","6500700","樹林區"
"221008","489-VK","2018/09/29 19:48:33","新北市汐止區康寧街83巷24號","121.620188333333","25.066975","6501100","汐止區"
"221036","130-UY","2018/09/29 19:48:45","新北市汐止區汐萬路一段39-3號","121.654916666667","25.0694266666667","6501100","汐止區"
"221015","131-UY","2018/09/29 19:48:29","新北市汐止區忠孝東路488號","121.666563333333","25.074885","6501100","汐止區"
"221010","269-BY","2018/09/29 19:48:32","新北市汐止區汐萬路一段333巷2號","121.649983333333","25.0762233333333","6501100","汐止區"
"221012","278-VK","2018/09/29 19:48:25","新北市汐止區大同路三段456號","121.68329","25.0730233333333","6501100","汐止區"
"221023","279-VK","2018/09/29 19:48:33","新北市汐止區民族三街42號","121.629638333333","25.0701383333333","6501100","汐止區"
"221032","280-BY","2018/09/29 19:48:34","新北市汐止區橫科路403巷18號","121.624926666667","25.04762","6501100","汐止區"
"221027","281-BY","2018/09/29 19:48:38","新北市汐止區南昌街14巷13號","121.66211","25.068475","6501100","汐止區"
"221029","298-VK","2018/09/29 19:48:42","新北市汐止區康寧街901號","121.651483333333","25.07499","6501100","汐止區"
"221021","299-VK","2018/09/29 19:48:40","新北市汐止區新興路78號","121.657653333333","25.0618766666667","6501100","汐止區"
"221031","353-TW","2018/09/29 19:48:33","新北市汐止區福德二路52號","121.634031666667","25.0672216666667","6501100","汐止區"
"221035","622-UM","2018/09/29 19:48:27","新北市汐止區長江街13巷8號","121.654628333333","25.0718666666667","6501100","汐止區"
"221025","623-UM","2018/09/29 19:48:42","新北市汐止區秀峰路81巷33號","121.661366666667","25.0647166666667","6501100","汐止區"
"221038","646-BX","2018/09/29 19:48:37","新北市汐止區忠孝東路428-2號","121.666011666667","25.0720116666667","6501100","汐止區"
"221002","707-TV","2018/09/29 19:48:40","新北市汐止區工建路504號","121.633176666667","25.0583183333333","6501100","汐止區"
"220079","145-BY","2018/09/29 19:48:28","新北市板橋區中正路183巷20-3號","121.455741666667","25.0164866666667","6500100","板橋區"
"220080","200-UY","2018/09/29 19:48:39","新北市板橋區大觀路二段37巷28號","121.447666666667","25.0026833333333","6500100","板橋區"
"220082","610-BX","2018/09/29 19:48:39","新北市板橋區溪北路65號","121.428078333333","24.9898066666667","6500100","板橋區"
"220101","245-BX","2018/09/29 19:48:43","新北市板橋區縣民大道三段103巷16號","121.47549","25.0228116666667","6500100","板橋區"
"220056","276-BY","2018/09/29 19:48:30","新北市板橋區四川路二段99-2號","121.452516666667","24.9947266666667","6500100","板橋區"
"220072","277-BY","2018/09/29 19:48:31","新北市板橋區篤行路二段1巷2-2號","121.432173333333","24.99312","6500100","板橋區"
"220071","283-VK","2018/09/29 19:48:38","新北市板橋區五權街61-4號","121.464808333333","24.9934283333333","6500100","板橋區"
"220094","285-UM","2018/09/29 19:48:38","新北市板橋區長江路一段357號","121.461476666667","25.030505","6500100","板橋區"
"220053","285-VK","2018/09/29 19:48:40","新北市板橋區中山路二段60巷1弄21號","121.474993333333","25.015755","6500100","板橋區"
"220083","286-VK","2018/09/29 19:48:37","新北市板橋區僑中二街8巷33號","121.445548333333","25.0113716666667","6500100","板橋區"
"220081","287-VK","2018/09/29 19:48:43","新北市板橋區大觀路一段29巷95-1號","121.450528333333","25.006055","6500100","板橋區"
"220090","288-VK","2018/09/29 19:48:27","新北市板橋區龍泉街54巷7弄1號","121.456795","25.0265366666667","6500100","板橋區"
"220061","293-UM","2018/09/29 19:48:44","新北市板橋區觀光街2-5號","121.472171666667","25.01554","6500100","板橋區"
"220103","295-UM","2018/09/29 19:48:30","新北市板橋區陽明街46-3號","121.465641666667","25.0220516666667","6500100","板橋區"
"220084","296-UM","2018/09/29 19:48:36","新北市板橋區溪崑二街96巷22號","121.425971666667","24.9897466666667","6500100","板橋區"
"220097","299-UM","2018/09/29 19:48:37","新北市板橋區文化路一段285巷1弄15號","121.464151666667","25.0186966666667","6500100","板橋區"
"242007","281-VK","2018/09/29 19:48:26","新北市新莊區中央路112號","121.457043333333","25.0594916666667","6500500","新莊區"
"220075","303-R5","2018/09/29 19:48:35","新北市板橋區金華街10巷48弄7號","121.457293333333","25.0199066666667","6500100","板橋區"
"220062","305-R5","2018/09/29 19:48:41","新北市板橋區中山路二段416巷66弄4號","121.48275","25.0185266666667","6500100","板橋區"
"220092","307-R5","2018/09/29 19:48:32","新北市板橋區四維路137巷1弄6號","121.464856666667","25.024955","6500100","板橋區"
"220098","317-R6","2018/09/29 19:48:23","新北市板橋區四維路269巷79號","121.460148333333","25.0268666666667","6500100","板橋區"
"220064","486-VK","2018/09/29 19:48:25","新北市板橋區實踐路195號","121.464455","25.0031016666667","6500100","板橋區"
"220089","487-VK","2018/09/29 19:48:36","新北市板橋區龍泉街82巷7號","121.455998333333","25.0255033333333","6500100","板橋區"
"242034","280-VK","2018/09/29 19:48:42","新北市新莊區仁愛街69號","121.444231666667","25.0376666666667","6500500","新莊區"
"220088","491-VK","2018/09/29 19:48:37","新北市板橋區文聖街72-5號","121.477156666667","25.0304966666667","6500100","板橋區"
"220035","560-BX","2018/09/29 19:48:30","新北市板橋區新生街23巷1弄1號","121.456078333333","25.0214583333333","6500100","板橋區"
"220063","609-BX","2018/09/29 19:48:24","新北市板橋區三民路一段3巷1號","121.478815","25.02368","6500100","板橋區"
"220091","637-BX","2018/09/29 19:48:40","新北市板橋區懷德街174巷18弄4號","121.478856666667","25.0298466666667","6500100","板橋區"
"220057","686-BX","2018/09/29 19:48:30","新北市板橋區廣權路2號","121.460193333333","24.9908333333333","6500100","板橋區"
"220077","687-BX","2018/09/29 19:48:39","新北市板橋區僑中一街144號","121.445118333333","25.0119016666667","6500100","板橋區"
"220093","689-BX","2018/09/29 19:48:44","新北市板橋區長江路二段289號","121.47038","25.03322","6500100","板橋區"
"220054","741-BX","2018/09/29 19:48:23","新北市板橋區實踐路93巷36號","121.465456666667","25.0050683333333","6500100","板橋區"
"220102","KEA-2699","2018/09/29 19:48:30","新北市板橋區松柏街57-4號","121.475675","25.0302916666667","6500100","板橋區"
"220055","827-TW","2018/09/29 19:48:41","新北市板橋區國慶路149巷29弄3號","121.460768333333","24.9976416666667","6500100","板橋區"
"220067","830-TW","2018/09/29 19:48:40","新北市板橋區民生路一段21號","121.474931666667","25.0114383333333","6500100","板橋區"
"220096","831-TW","2018/09/29 19:48:44","新北市板橋區莊敬路96號","121.471263333333","25.0245283333333","6500100","板橋區"
"220074","895-R6","2018/09/29 19:48:26","新北市板橋區府中路29-2號","121.458516666667","25.008145","6500100","板橋區"
"220073","985-R7","2018/09/29 19:48:40","新北市板橋區大仁街117號","121.452288333333","25.01554","6500100","板橋區"
"220070","AAC-253","2018/09/29 19:48:33","新北市板橋區民族路216號","121.468481666667","25.0074666666667","6500100","板橋區"
"235068","KEA-2873","2018/09/29 19:48:16","新北市中和區中山路二段136巷3弄4號","121.50146","25.0036666666667","6500300","中和區"
"235061","KEA-2875","2018/09/29 19:48:24","新北市中和區員山路174巷1號","121.481605","24.9999616666667","6500300","中和區"
"235060","KEA-2876","2018/09/29 19:48:39","新北市中和區新生街16巷3號","121.482905","25.0042816666667","6500300","中和區"
