"lineid","car","time","location","longitude","latitude","cityid","cityname"
"234046","148-BY","2018/09/29 19:58:30","新北市永和區成功路一段16巷4號","121.526731666667","25.0054966666667","6500400","永和區"
"234007","207-UY","2018/09/29 19:58:37","新北市永和區保生路22巷8號","121.507318333333","25.0079383333333","6500400","永和區"
"234081","298-R6","2018/09/29 19:58:35","新北市永和區永利路81巷24號","121.52227","25.0037733333333","6500400","永和區"
"234038","336-UY","2018/09/29 19:58:43","新北市永和區成功路二段76號","121.52656","24.99915","6500400","永和區"
"234064","337-UY","2018/09/29 19:58:24","新北市永和區中正路412巷20弄27號","121.519176666667","25.0013133333333","6500400","永和區"
"234086","338-UY","2018/09/29 19:58:43","新北市永和區福和路82-1號","121.522823333333","25.00809","6500400","永和區"
"234070","552-UM","2018/09/29 19:58:43","新北市永和區福和路224號","121.519075","25.007945","6500400","永和區"
"234067","553-UM","2018/09/29 19:58:32","新北市永和區中山路一段149號","121.510055","25.00951","6500400","永和區"
"234017","745-BX","2018/09/29 19:58:38","新北市永和區文化路75號","121.513758333333","25.01514","6500400","永和區"
"234030","746-BX","2018/09/29 19:58:31","新北市永和區民生路24號","121.522385","24.9973516666667","6500400","永和區"
"234054","KEA-2590","2018/09/29 19:58:36","新北市永和區博愛街57巷1號","121.519885","25.016035","6500400","永和區"
"234013","KEA-2591","2018/09/29 19:58:29","新北市永和區保生路55-1號","121.50481","25.01162","6500400","永和區"
"234061","AAD-866","2018/09/29 19:58:33","新北市永和區得和路45巷2號","121.516581666667","25.0002466666667","6500400","永和區"
"234042","862-TW","2018/09/29 19:58:38","新北市永和區中和路389巷10號","121.508095","25.0009733333333","6500400","永和區"
"234050","863-TW","2018/09/29 19:58:36","新北市永和區保安路145號","121.50705","25.0132116666667","6500400","永和區"
"234026","9371-KE","2018/09/29 19:58:31","新北市永和區水源街21巷14弄3號","121.511383333333","25.0037783333333","6500400","永和區"
"234011","9373-KE","2018/09/29 19:58:44","新北市永和區仁愛路352巷122弄3號","121.500436666667","25.0087033333333","6500400","永和區"
"249005","172-UM","2018/09/29 19:58:35","新北市八里區楓林路2-3號","121.38338","25.1304433333333","6502300","八里區"
"249001","173-UM","2018/09/29 19:58:32","新北市八里區中華路二段312號","121.403773333333","25.14832","6502300","八里區"
"249004","303-UY","2018/09/29 19:58:38","新北市八里區仁一街2-1號","121.410708333333","25.157525","6502300","八里區"
"249002","305-UY","2018/09/29 19:58:34","新北市八里區頂寮二街1號","121.450846666667","25.1237483333333","6502300","八里區"
"249003","593-UM","2018/09/29 19:58:32","新北市八里區訊塘路5號","121.398035","25.1447","6502300","八里區"
"248014","025-BX","2018/09/29 19:58:35","新北市五股區五福路14巷21號","121.435216666667","25.088935","6501500","五股區"
"248016","026-BX","2018/09/29 19:58:40","新北市五股區成泰路三段603號","121.452328333333","25.1032166666667","6501500","五股區"
"248008","095-VK","2018/09/29 19:58:29","新北市五股區四維路90號","121.467428333333","25.07306","6501500","五股區"
"248012","247-BX","2018/09/29 19:58:41","新北市五股區民義路一段128號","121.43463","25.0859883333333","6501500","五股區"
"248010","272-BY","2018/09/29 19:58:37","新北市五股區登林路36-2號","121.432313333333","25.0687133333333","6501500","五股區"
"248002","678-BX","2018/09/29 19:58:35","新北市五股區成泰路三段487號","121.450721666667","25.0991883333333","6501500","五股區"
"248004","682-TV","2018/09/29 19:58:33","新北市五股區成泰路一段8巷2-3號","121.43493","25.0668933333333","6501500","五股區"
"234077","969-R7","2018/09/29 19:58:31","新北市永和區民有街23巷1號","121.51682","24.9963883333333","6500400","永和區"
"234074","AAC-211","2018/09/29 19:58:28","新北市永和區豫溪街191巷2號","121.52366","25.0103716666667","6500400","永和區"
"234003","AAC-295","2018/09/29 19:58:44","新北市永和區永和路二段5號","121.514458333333","25.0100116666667","6500400","永和區"
"243013","AAD-798","2018/09/29 19:47:38","新北市泰山區應化街7號","121.42387","25.0437866666667","6501600","泰山區"
"243009","297-R6","2018/09/29 19:58:32","新北市泰山區楓江路14號","121.433658333333","25.06243","6501600","泰山區"
"243016","KEA-2801","2018/09/29 19:58:38","新北市泰山區中山路二段845號","121.424981666667","25.0348533333333","6501600","泰山區"
"243015","421-VK","2018/09/29 19:58:40","新北市泰山區明志路二段194號","121.427288333333","25.0496966666667","6501600","泰山區"
"243011","KEA-2215","2018/09/29 19:58:27","新北市泰山區明志路三段196巷37號","121.42194","25.0397866666667","6501600","泰山區"
"243010","KEA-2216","2018/09/29 19:58:33","新北市泰山區明志路二段51號","121.42947","25.05275","6501600","泰山區"
"243012","646-TV","2018/09/29 19:58:34","新北市泰山區全興路83號","121.433046666667","25.0578516666667","6501600","泰山區"
"243014","680-BX","2018/09/29 19:58:28","新北市泰山區泰林路二段208號","121.433246666667","25.0614233333333","6501600","泰山區"
"222003","436-BY","2018/09/29 19:58:40","新北市深坑區埔新街14號","121.620701666667","25.0039516666667","6501800","深坑區"
"222002","659-BX","2018/09/29 19:58:24","新北市深坑區北深路二段81巷8弄3號","121.618283333333","25.003065","6501800","深坑區"
"231041","002-UM","2018/09/29 19:58:41","新北市新店區民族路192號","121.535971666667","24.9754866666667","6500600","新店區"
"231059","046-UY","2018/09/29 19:58:41","新北市新店區安和路一段55號","121.517533333333","24.9662583333333","6500600","新店區"
"231040","047-UY","2018/09/29 19:58:38","新北市新店區大新街7巷1號","121.543223333333","24.96856","6500600","新店區"
"231044","106-UY","2018/09/29 19:58:34","新北市新店區復興路27號","121.539158333333","24.986695","6500600","新店區"
"231052","110-UY","2018/09/29 19:58:31","新北市新店區新烏路三段寶島巷2弄2號","121.551901666667","24.89852","6500600","新店區"
"231048","187-VK","2018/09/29 19:58:42","新北市新店區中興路二段226號","121.548036666667","24.975195","6500600","新店區"
"231062","188-VK","2018/09/29 19:58:34","新北市新店區華潭街20號","121.52936","24.9524633333333","6500600","新店區"
"231057","256-BX","2018/09/29 19:58:25","新北市新店區花園二路一段11號","121.555486666667","24.9324433333333","6500600","新店區"
"231042","268-BY","2018/09/29 19:58:37","新北市新店區中興路一段278號","121.545491666667","24.9683416666667","6500600","新店區"
"231051","278-BY","2018/09/29 19:58:39","新北市新店區中央一街2-1號","121.529071666667","24.9726483333333","6500600","新店區"
"231050","AAD-862","2018/09/29 19:58:28","新北市新店區北宜路二段341號","121.55774","24.9540133333333","6500600","新店區"
"231066","4716-K9","2018/09/29 19:58:25","新北市新店區薏仁坑路自強巷1號","121.497815","24.957845","6500600","新店區"
"231056","4715-K9","2018/09/29 19:58:33","新北市新店區北新路二段71號","121.542876666667","24.9735683333333","6500600","新店區"
"231067","4772-VM","2018/09/29 19:58:28","新北市新店區秀山路11巷22號","121.531505","24.95872","6500600","新店區"
"231065","512-UM","2018/09/29 19:58:39","新北市新店區安祥路109巷8號","121.475443333333","24.958825","6500600","新店區"
"231049","513-UM","2018/09/29 19:58:23","新北市新店區明德路42號","121.541445","24.9782033333333","6500600","新店區"
"231063","616-UM","2018/09/29 19:58:43","新北市新店區車子路11號","121.503035","24.9520116666667","6500600","新店區"
"231045","617-UM","2018/09/29 19:58:30","新北市新店區北宜路二段349號","121.558106666667","24.9541633333333","6500600","新店區"
"231061","619-UM","2018/09/29 19:58:25","新北市新店區安民街307號","121.517565","24.9738933333333","6500600","新店區"
"231068","718-UY","2018/09/29 19:58:33","新北市新店區安一路一段1-1號","121.519393333333","24.9611966666667","6500600","新店區"
"231064","719-UM","2018/09/29 19:58:25","新北市新店區安和路二段43號","121.518141666667","24.9679583333333","6500600","新店區"
"231054","719-UY","2018/09/29 19:58:32","新北市新店區光明街151號","121.539616666667","24.962265","6500600","新店區"
"231060","897-TW","2018/09/29 19:58:37","新北市新店區安康路二段458號","121.494335","24.954195","6500600","新店區"
"231043","899-TW","2018/09/29 19:58:40","新北市新店區中正路263-4號","121.53828","24.973785","6500600","新店區"
"231055","AKT-0513","2018/09/29 19:58:33","新北市新店區中華路48巷11號","121.540188333333","24.9688366666667","6500600","新店區"
"241011","013-R5","2018/09/29 19:58:33","新北市三重區三和路二段165號","121.497978333333","25.0695866666667","6500200","三重區"
"241028","022-UY","2018/09/29 19:58:34","新北市三重區重新路三段94號","121.492588333333","25.0609083333333","6500200","三重區"
"241008","059-VK","2018/09/29 19:58:32","新北市三重區永福街181號","121.478966666667","25.074995","6500200","三重區"
"241022","060-VK","2018/09/29 19:58:34","新北市三重區新北大道一段11號","121.488435","25.0606366666667","6500200","三重區"
"241031","061-VK","2018/09/29 19:58:29","新北市三重區重新路四段144巷32號","121.487155","25.0550583333333","6500200","三重區"
"241017","063-VK","2018/09/29 19:58:38","新北市三重區重陽路三段182號","121.490091666667","25.0681566666667","6500200","三重區"
"241024","065-VK","2018/09/29 19:58:25","新北市三重區力行路二段3號","121.48201","25.0718783333333","6500200","三重區"
"241026","066-VK","2018/09/29 19:58:38","新北市三重區中央南路9號","121.501256666667","25.0628433333333","6500200","三重區"
"241002","090-VK","2018/09/29 19:58:25","新北市三重區仁忠街101號","121.492263333333","25.0799616666667","6500200","三重區"
"251014","742-BX","2018/09/29 19:58:44","新北市淡水區石頭厝14-18號","121.463926666667","25.2366733333333","6501000","淡水區"
"241005","262-UM","2018/09/29 19:58:32","新北市三重區分子尾街111號","121.488646666667","25.0832266666667","6500200","三重區"
"241033","265-UM","2018/09/29 19:58:25","新北市三重區中興北街6號","121.469511666667","25.0467683333333","6500200","三重區"
"241016","266-UM","2018/09/29 19:58:34","新北市三重區正義北路37號","121.497411666667","25.0638233333333","6500200","三重區"
"241009","267-UM","2018/09/29 19:58:33","新北市三重區三和路四段390巷21號","121.480945","25.0787683333333","6500200","三重區"
"241018","268-UM","2018/09/29 19:58:30","新北市三重區正義北路244巷63號","121.494133333333","25.06781","6500200","三重區"
"241032","269-UM","2018/09/29 19:58:29","新北市三重區朝陽街28號","121.483396666667","25.0565133333333","6500200","三重區"
"241013","270-UM","2018/09/29 19:58:32","新北市三重區三和路三段125巷40號","121.493946666667","25.07375","6500200","三重區"
"241025","271-UM","2018/09/29 19:58:38","新北市三重區頂崁街210巷16號","121.47645","25.0677433333333","6500200","三重區"
"241007","398-BY","2018/09/29 19:58:23","新北市三重區慈愛街51號","121.486136666667","25.0791666666667","6500200","三重區"
"241035","462-BY","2018/09/29 19:58:32","新北市三重區大榮街7號","121.498206666667","25.063115","6500200","三重區"
"241004","475-VK","2018/09/29 19:58:43","新北市三重區仁愛街425巷91-1號","121.49228","25.0826766666667","6500200","三重區"
"241020","478-VK","2018/09/29 19:58:32","新北市三重區忠孝路一段101號","121.489478333333","25.0720966666667","6500200","三重區"
"241030","480-VK","2018/09/29 19:58:37","新北市三重區成功路187號","121.485796666667","25.05291","6500200","三重區"
"241014","543-UM","2018/09/29 19:58:45","新北市三重區三和路二段42號","121.499956666667","25.0678983333333","6500200","三重區"
"241023","545-UM","2018/09/29 19:58:34","新北市三重區頂崁街172號","121.47752","25.06592","6500200","三重區"
"241019","KEA-2593","2018/09/29 19:58:32","新北市三重區重陽路四段14號","121.490586666667","25.0692","6500200","三重區"
"241006","AAD-863","2018/09/29 19:58:28","新北市三重區力行路二段123巷14號","121.483703333333","25.0763916666667","6500200","三重區"
"241015","743-BX","2018/09/29 19:58:23","新北市三重區三和路二段6-1號","121.501363333333","25.0666916666667","6500200","三重區"
"241001","887-TS","2018/09/29 19:58:41","新北市三重區溪尾街58號","121.490343333333","25.077475","6500200","三重區"
"241012","941-UM","2018/09/29 19:58:29","新北市三重區仁厚街63號","121.500746666667","25.0767116666667","6500200","三重區"
"241029","942-UM","2018/09/29 19:58:36","新北市三重區重新路三段204號","121.490111666667","25.0584016666667","6500200","三重區"
"235066","003-UY","2018/09/29 19:58:24","新北市中和區中山路二段22號","121.504698333333","25.00534","6500300","中和區"
"235056","096-UM","2018/09/29 19:58:25","新北市板橋區漢生東路338號","121.471876666667","25.0075916666667","6500300","中和區"
"235039","097-UM","2018/09/29 19:58:36","新北市中和區景平路278巷12號","121.513965","24.9930033333333","6500300","中和區"
"235065","098-UM","2018/09/29 19:58:32","新北市中和區福美路267號","121.498306666667","25.0050283333333","6500300","中和區"
"235040","150-BY","2018/09/29 19:58:34","新北市中和區景安路79巷37弄26號","121.507733333333","24.9964766666667","6500300","中和區"
"235058","151-BY","2018/09/29 19:58:31","新北市中和區員山路225號","121.481218333333","24.9981083333333","6500300","中和區"
"235055","183-VK","2018/09/29 19:58:30","新北市中和區民生街23巷3弄3號","121.471106666667","25.005115","6500300","中和區"
"235049","186-VK","2018/09/29 19:58:41","新北市中和區景平路401號","121.50239","24.9946216666667","6500300","中和區"
"235067","255-BX","2018/09/29 19:58:40","新北市中和區中正路751巷3弄9號","121.484456666667","24.9993283333333","6500300","中和區"
"235044","293-VK","2018/09/29 19:58:32","新北市中和區中興街116號","121.49996","24.993055","6500300","中和區"
"247012","KEA-2869","2018/09/29 19:58:40","新北市蘆洲區民族路151號","121.479551666667","25.088005","6501400","蘆洲區"
"235050","4979-A6","2018/09/29 19:58:31","新北市中和區景平路241巷48號","121.508188333333","24.9923383333333","6500300","中和區"
"235069","4980-A6","2018/09/29 19:58:31","新北市中和區南華路16號","121.50263","24.9954716666667","6500300","中和區"
"235070","558-UM","2018/09/29 19:58:29","新北市中和區圓通路144號","121.498205","24.9957433333333","6500300","中和區"
"235054","640-BX","2018/09/29 19:58:35","新北市中和區民享街86巷31號","121.472731666667","25.0003183333333","6500300","中和區"
"235047","732-UM","2018/09/29 19:58:43","新北市中和區和平街134號","121.506508333333","24.9916733333333","6500300","中和區"
"235046","733-UM","2018/09/29 19:58:40","新北市中和區興南路一段93巷55號","121.510245","24.9873583333333","6500300","中和區"
"235041","802-TS","2018/09/29 19:58:27","新北市中和區保健路60號","121.510836666667","24.996505","6500300","中和區"
"235052","805-TS","2018/09/29 19:58:39","新北市中和區華新街30巷12-3號","121.507035","24.9842766666667","6500300","中和區"
"235048","896-TW","2018/09/29 19:58:32","新北市中和區景新街345-1號","121.511905","24.9911483333333","6500300","中和區"
"235053","900-TW","2018/09/29 19:58:39","新北市中和區國光街140巷2號","121.468478333333","25.0013666666667","6500300","中和區"
"235051","157-BY","2018/09/29 19:58:43","新北市中和區復興路301巷16號","121.501506666667","24.9895583333333","6500300","中和區"
"235037","AAC-213","2018/09/29 19:58:26","新北市中和區自立路26號","121.522493333333","24.9930316666667","6500300","中和區"
"235059","AAC-215","2018/09/29 19:58:43","新北市中和區圓通路367巷7號","121.492331666667","24.9881266666667","6500300","中和區"
"220068","013-TV","2018/09/29 19:58:41","新北市板橋區光復街172巷31弄5號","121.486015","25.0189533333333","6500100","板橋區"
"220065","072-UY","2018/09/29 19:58:39","新北市板橋區海山路29號","121.467588333333","25.0090783333333","6500100","板橋區"
"220086","073-UY","2018/09/29 19:58:42","新北市五股區新五路二段68號","121.43701","25.073665","6500100","板橋區"
"220106","075-UY","2018/09/29 19:58:37","新北市板橋區民治街96巷28號","121.478515","25.0323883333333","6500100","板橋區"
"220069","AAD-861","2018/09/29 19:58:37","新北市板橋區大明街25巷2弄23號","121.457498333333","25.002525","6500100","板橋區"
"247002","893-R6","2018/09/29 19:58:26","新北市蘆洲區長安街276-1號","121.457468333333","25.0870883333333","6501400","蘆洲區"
"247016","546-UM","2018/09/29 19:58:35","新北市蘆洲區光華路20號","121.469513333333","25.0833666666667","6501400","蘆洲區"
"247024","500-BY","2018/09/29 19:58:46","新北市蘆洲區光榮路120巷31號","121.465776666667","25.0881583333333","6501400","蘆洲區"
"247014","339-TH","2018/09/29 19:58:33","新北市蘆洲區成功路114號","121.472345","25.082375","6501400","蘆洲區"
"247006","337-TH","2018/09/29 19:58:43","新北市蘆洲區九芎街143號","121.46563","25.079295","6501400","蘆洲區"
"247008","336-TH","2018/09/29 19:58:43","新北市蘆洲區信義路119巷1號","121.478385","25.080315","6501400","蘆洲區"
"247020","057-VK","2018/09/29 19:58:26","新北市蘆洲區民義街39號","121.472133333333","25.089225","6501400","蘆洲區"
"247018","007-UY","2018/09/29 19:58:36","新北市蘆洲區民族路290巷9號","121.478366666667","25.089865","6501400","蘆洲區"
"226004","312-R5","2018/09/29 19:58:30","新北市平溪區十分里十分街163號","121.777218333333","25.0440166666667","6502400","平溪區"
"235043","251-BX","2018/09/29 19:58:44","新北市中和區興南路二段159巷12號","121.505185","24.9830566666667","6500300","中和區"
"228003","097-TW","2018/09/29 19:58:37","新北市貢寮區仁理村仁和路262號","121.924173333333","25.0542766666667","6502600","貢寮區"
"224010","AGQ-8101","2018/09/29 19:58:05","新北市瑞芳區街頂巷74號","121.844553333333","25.1083683333333","6501200","瑞芳區"
"224002","639-TC","2018/09/29 19:58:41","新北市瑞芳區員山子路員山巷39-1號","121.816728333333","25.104015","6501200","瑞芳區"
"227010","642-TC","2018/09/29 19:58:32","新北市雙溪區新基里新基南街25號","121.866236666667","25.0381733333333","6502500","雙溪區"
"227002","400-TW","2018/09/29 19:58:45","新北市雙溪區雙溪里長安街16號","121.865001666667","25.0347066666667","6502500","雙溪區"
"222001","KEA-2212","2018/09/29 19:58:38","新北市深坑區北深路三段71號","121.606761666667","25.0014083333333","6501800","深坑區"
"208002","KEA-2872","2018/09/29 19:58:39","新北市金山區環金路19號","121.640543333333","25.2176116666667","6502700","金山區"
"208003","665-BX","2018/09/29 19:58:29","新北市金山區香園14號","121.634131666667","25.25345","6502700","金山區"
"208001","761-BX","2018/09/29 19:58:38","新北市金山區南勢105號","121.623885","25.219745","6502700","金山區"
"251009","008-UM","2018/09/29 19:58:42","新北市淡水區英專路28巷2弄2號","121.445813333333","25.1699483333333","6501000","淡水區"
"251005","010-UM","2018/09/29 19:58:34","新北市淡水區學府路136巷19號","121.45133","25.1728133333333","6501000","淡水區"
"251013","KEA-2871","2018/09/29 19:58:27","新北市淡水區下圭柔山63-7號","121.451735","25.2061766666667","6501000","淡水區"
"251008","179-VK","2018/09/29 19:58:27","新北市淡水區淡海路63巷22號","121.422275","25.1805316666667","6501000","淡水區"
"251015","180-VK","2018/09/29 19:58:34","新北市淡水區淡金路二段270-1號","121.44715","25.1884816666667","6501000","淡水區"
"251010","413-VK","2018/09/29 19:58:44","新北市淡水區崁頂130號","121.431743333333","25.2052183333333","6501000","淡水區"
"251012","441-VK","2018/09/29 19:58:25","新北市淡水區下圭柔山93號","121.435976666667","25.20908","6501000","淡水區"
"251004","443-VK","2018/09/29 19:58:41","新北市淡水區民族路50巷11號","121.461313333333","25.135815","6501000","淡水區"
"251001","559-UM","2018/09/29 19:58:34","新北市淡水區淡金路二段138號","121.446903333333","25.1879783333333","6501000","淡水區"
"251006","561-UM","2018/09/29 19:58:26","新北市淡水區北新路6號","121.444421666667","25.177375","6501000","淡水區"
"251016","575-R6","2018/09/29 19:58:36","新北市淡水區番子田16-13號","121.453716666667","25.2317233333333","6501000","淡水區"
"251011","650-BX","2018/09/29 19:58:38","新北市淡水區崁頂55-3號","121.44215","25.1966833333333","6501000","淡水區"
"251003","673-BX","2018/09/29 19:58:35","新北市淡水區中山北路二段189巷15弄29號","121.443406666667","25.1841716666667","6501000","淡水區"
"207003","550-UM","2018/09/29 19:58:44","新北市萬里區大鵬里萬里加投45-2號","121.641591666667","25.2102333333333","6502800","萬里區"
"207004","225-TW","2018/09/29 19:58:43","新北市萬里區北基里忠二街35號","121.685646666667","25.1757716666667","6502800","萬里區"
"252002","178-VK","2018/09/29 19:58:29","新北市三芝區忠孝街116-3號","121.505471666667","25.257555","6502100","三芝區"
"252001","292-VK","2018/09/29 19:58:23","新北市三芝區公正街9號","121.499735","25.25747","6502100","三芝區"
"237004","KEA-2597","2018/09/29 19:58:39","新北市三峽區添福107-15號","121.373391666667","24.9027933333333","6500900","三峽區"
"237007","153-BY","2018/09/29 19:58:37","新北市三峽區麻園9-1號","121.361016666667","24.917865","6500900","三峽區"
"237009","210-TH","2018/09/29 19:58:42","新北市三峽區民族街78巷3號","121.368845","24.9298683333333","6500900","三峽區"
"237012","275-BY","2018/09/29 19:58:36","新北市三峽區中華路115號","121.37123","24.92806","6500900","三峽區"
"237008","302-VK","2018/09/29 19:58:34","新北市三峽區中華路75巷21號","121.372928333333","24.9293783333333","6500900","三峽區"
"237014","433-BY","2018/09/29 19:58:34","新北市三峽區介壽路一段15號","121.375448333333","24.9335816666667","6500900","三峽區"
"237006","5529-G3","2018/09/29 19:58:40","新北市三峽區中正路二段6號","121.36793","24.920005","6500900","三峽區"
"237016","649-BX","2018/09/29 19:58:33","新北市三峽區介壽路二段138巷16號","121.395746666667","24.9348666666667","6500900","三峽區"
"237005","AKY-6261","2018/09/29 19:58:30","新北市三峽區民生街1巷17號","121.380445","24.9356883333333","6500900","三峽區"
"236070","105-UM","2018/09/29 19:58:44","新北市土城區忠義路86號","121.443555","24.9638066666667","6501300","土城區"
"236079","166-UM","2018/09/29 19:58:31","新北市土城區中山路6號","121.412876666667","24.9608516666667","6501300","土城區"
"236030","253-BX","2018/09/29 19:58:41","新北市土城區中央路一段242巷8弄1號","121.443751666667","24.9853383333333","6501300","土城區"
"236026","269-VK","2018/09/29 19:58:32","新北市土城區中央路二段89號","121.442361666667","24.97813","6501300","土城區"
"236014","270-VK","2018/09/29 19:58:37","新北市土城區廣福街123號","121.456265","24.9928983333333","6501300","土城區"
"236038","271-VK","2018/09/29 19:58:39","新北市土城區國際路70號","121.466461666667","24.9780516666667","6501300","土城區"
"236021","401-BY","2018/09/29 19:58:40","新北市土城區延吉街111巷15號","121.471823333333","24.9860583333333","6501300","土城區"
"236042","752-BX","2018/09/29 19:57:59","新北市土城區學府路一段112-1號","121.455643333333","24.9875933333333","6501300","土城區"
"236059","912-UM","2018/09/29 19:58:35","新北市土城區中央路一段289號","121.444351666667","24.9842916666667","6501300","土城區"
"236049","913-UM","2018/09/29 19:58:41","新北市土城區金城路三段64號","121.466256666667","24.98691","6501300","土城區"
"236063","915-UM","2018/09/29 19:58:45","新北市土城區金城路三段73巷11弄1號","121.466236666667","24.9878816666667","6501300","土城區"
"236055","AAC-216","2018/09/29 19:58:29","新北市土城區學府路一段12號","121.459273333333","24.9884866666667","6501300","土城區"
"242036","AAC-296","2018/09/29 19:58:28","新北市新莊區建安街17巷2號","121.429043333333","25.026175","6500500","新莊區"
"242058","986-R7","2018/09/29 19:58:32","新北市新莊區八德街4號","121.425543333333","25.0227916666667","6500500","新莊區"
"242056","751-BX","2018/09/29 19:58:37","新北市新莊區中正路347巷17弄6號","121.447386666667","25.0342933333333","6500500","新莊區"
"242029","705-TV","2018/09/29 19:58:29","新北市新莊區中榮街152巷38號","121.445588333333","25.0538166666667","6500500","新莊區"
"242025","613-BX","2018/09/29 19:58:42","新北市新莊區五工一路86號","121.461346666667","25.067735","6500500","新莊區"
"242048","497-BY","2018/09/29 19:58:35","新北市新莊區後港二路9號","121.423161666667","25.02448","6500500","新莊區"
"242002","440-UM","2018/09/29 19:58:45","新北市新莊區中正路170號","121.450975","25.0358583333333","6500500","新莊區"
"242039","415-TV","2018/09/29 19:58:27","新北市新莊區民安路289-1號","121.429128333333","25.0224083333333","6500500","新莊區"
"242009","413-TV","2018/09/29 19:58:37","新北市新莊區中華路一段240號","121.452646666667","25.043485","6500500","新莊區"
"242023","362-BY","2018/09/29 19:58:32","新北市新莊區化成路424號","121.465986666667","25.0510716666667","6500500","新莊區"
"242061","353-BY","2018/09/29 19:58:46","新北市新莊區瓊泰路1號","121.445113333333","25.02852","6500500","新莊區"
"242011","132-UY","2018/09/29 19:58:34","新北市新莊區中港路531巷70號","121.450428333333","25.051715","6500500","新莊區"
"242051","172-VK","2018/09/29 19:58:32","新北市新莊區西盛街158巷5號","121.427745","25.0189833333333","6500500","新莊區"
"242019","175-VK","2018/09/29 19:58:23","新北市新莊區民生街13號","121.455838333333","25.0421616666667","6500500","新莊區"
"242017","346-TH","2018/09/29 19:58:30","新北市新莊區中安街38號","121.45289","25.0464233333333","6500500","新莊區"
"242013","347-TH","2018/09/29 19:58:30","新北市新莊區幸福路670巷2弄1號","121.450966666667","25.0495066666667","6500500","新莊區"
"242031","348-TH","2018/09/29 19:58:43","新北市新莊區忠孝街75號","121.443916666667","25.0366133333333","6500500","新莊區"
"242004","349-TH","2018/09/29 19:58:44","新北市新莊區頭前路96號","121.463653333333","25.0525316666667","6500500","新莊區"
"242021","350-TH","2018/09/29 19:58:28","新北市新莊區建中街26號","121.449098333333","25.0374683333333","6500500","新莊區"
"242015","351-TH","2018/09/29 19:58:35","新北市新莊區復興路一段47巷9號","121.446803333333","25.0426533333333","6500500","新莊區"
"238015","755-BX","2018/09/29 19:58:40","新北市樹林區中山路二段185-3號","121.405136666667","24.978155","6500700","樹林區"
"238021","KEA-2539","2018/09/29 19:58:35","新北市樹林區田尾街186號","121.400083333333","24.9503466666667","6500700","樹林區"
"238017","283-BY","2018/09/29 19:58:27","新北市樹林區大安路295號","121.418035","24.9926566666667","6500700","樹林區"
"221008","489-VK","2018/09/29 19:58:33","新北市汐止區康寧街39號","121.618573333333","25.0667866666667","6501100","汐止區"
"221036","130-UY","2018/09/29 19:58:25","新北市汐止區忠孝東路258巷11弄7號","121.663951666667","25.0675383333333","6501100","汐止區"
"221015","131-UY","2018/09/29 19:58:29","新北市汐止區大同路二段713號","121.66523","25.0732083333333","6501100","汐止區"
"221010","269-BY","2018/09/29 19:58:40","新北市汐止區連峰街227號","121.645106666667","25.08108","6501100","汐止區"
"221012","278-VK","2018/09/29 19:58:25","新北市汐止區祥雲街三段196號","121.674585","25.074025","6501100","汐止區"
"221023","279-VK","2018/09/29 19:58:37","新北市汐止區明峰街210號","121.627446666667","25.0690966666667","6501100","汐止區"
"221032","280-BY","2018/09/29 19:58:34","新北市汐止區橫科路18巷9弄2號","121.617836666667","25.05059","6501100","汐止區"
"221027","281-BY","2018/09/29 19:58:38","新北市汐止區中正路96號","121.661265","25.069555","6501100","汐止區"
"221029","298-VK","2018/09/29 19:58:42","新北市汐止區樟樹一路137巷26號","121.641058333333","25.065995","6501100","汐止區"
"221021","299-VK","2018/09/29 19:58:41","新北市汐止區水源路一段162號","121.655486666667","25.0620916666667","6501100","汐止區"
"221031","353-TW","2018/09/29 19:58:33","新北市汐止區福德一路180號","121.635658333333","25.0658766666667","6501100","汐止區"
"221035","622-UM","2018/09/29 19:58:26","新北市汐止區長江街57巷2號","121.656285","25.0717066666667","6501100","汐止區"
"221025","623-UM","2018/09/29 19:58:42","新北市汐止區秀峰路118號","121.660018333333","25.06348","6501100","汐止區"
"221038","646-BX","2018/09/29 19:58:37","新北市汐止區忠孝東路515號","121.666825","25.0755483333333","6501100","汐止區"
"221002","707-TV","2018/09/29 19:58:40","新北市汐止區工建路504號","121.633188333333","25.0583716666667","6501100","汐止區"
"221018","753-BX","2018/09/29 19:58:28","新北市汐止區茄苳路31號","121.665408333333","25.0708866666667","6501100","汐止區"
"220079","145-BY","2018/09/29 19:58:35","新北市板橋區南雅西路二段175巷7號","121.4516","25.012175","6500100","板橋區"
"220080","200-UY","2018/09/29 19:58:40","新北市板橋區大觀路二段169巷17號","121.446151666667","24.999965","6500100","板橋區"
"220082","610-BX","2018/09/29 19:58:39","新北市板橋區篤行路二段129號","121.43119","24.9904783333333","6500100","板橋區"
"220101","245-BX","2018/09/29 19:58:26","新北市板橋區雙十路一段44巷36號","121.477255","25.02487","6500100","板橋區"
"220072","277-BY","2018/09/29 19:58:30","新北市板橋區金門街141號","121.432798333333","24.9909283333333","6500100","板橋區"
"220071","283-VK","2018/09/29 19:58:36","新北市板橋區和平路174巷33號","121.465071666667","24.99434","6500100","板橋區"
"220094","285-UM","2018/09/29 19:58:40","新北市板橋區雨農路18巷1號","121.461766666667","25.0245716666667","6500100","板橋區"
"220053","285-VK","2018/09/29 19:58:40","新北市板橋區永豐街155號","121.475405","25.020225","6500100","板橋區"
"220083","286-VK","2018/09/29 19:58:37","新北市板橋區僑中二街48巷7號","121.44627","25.0104466666667","6500100","板橋區"
"220081","287-VK","2018/09/29 19:58:43","新北市板橋區大觀路一段28巷75號","121.450095","25.0112683333333","6500100","板橋區"
"220090","288-VK","2018/09/29 19:58:27","新北市板橋區幸福路32巷2弄31號","121.460915","25.0219016666667","6500100","板橋區"
"220061","293-UM","2018/09/29 19:58:33","新北市板橋區縣民大道二段196號","121.469376666667","25.017005","6500100","板橋區"
"220103","295-UM","2018/09/29 19:58:28","新北市板橋區陽明街29-1號","121.46542","25.02189","6500100","板橋區"
"220084","296-UM","2018/09/29 19:58:27","新北市板橋區溪崑二街112巷18號","121.425986666667","24.988955","6500100","板橋區"
"220097","299-UM","2018/09/29 19:58:37","新北市板橋區光正街16巷5號","121.463071666667","25.0174166666667","6500100","板橋區"
"242007","281-VK","2018/09/29 19:58:26","新北市新莊區福壽街315號","121.457916666667","25.0561566666667","6500500","新莊區"
"220075","303-R5","2018/09/29 19:58:35","新北市板橋區金華街10巷85號","121.458318333333","25.0204283333333","6500100","板橋區"
"220062","305-R5","2018/09/29 19:58:41","新北市板橋區萬安街140-3號","121.484185","25.0260316666667","6500100","板橋區"
"220092","307-R5","2018/09/29 19:58:32","新北市板橋區四維路259巷69號","121.460621666667","25.0267583333333","6500100","板橋區"
"220098","317-R6","2018/09/29 19:58:43","新北市板橋區新海路186號","121.460813333333","25.02344","6500100","板橋區"
"220064","486-VK","2018/09/29 19:58:24","新北市板橋區漢生東路195號","121.469991666667","25.0114016666667","6500100","板橋區"
"220089","487-VK","2018/09/29 19:58:40","新北市板橋區新海路403巷28號","121.457301666667","25.0261716666667","6500100","板橋區"
"242034","280-VK","2018/09/29 19:58:42","新北市新莊區建中街94號","121.44673","25.036605","6500500","新莊區"
"220088","491-VK","2018/09/29 19:58:37","新北市板橋區大同街75號","121.479563333333","25.028095","6500100","板橋區"
"220091","637-BX","2018/09/29 19:58:28","新北市板橋區文聖街155號","121.478726666667","25.0278016666667","6500100","板橋區"
"220057","686-BX","2018/09/29 19:58:30","新北市板橋區四川路二段130巷47號","121.449666666667","24.9947416666667","6500100","板橋區"
"220093","689-BX","2018/09/29 19:58:24","新北市板橋區長江路三段118號","121.47511","25.0344483333333","6500100","板橋區"
"220054","741-BX","2018/09/29 19:58:43","新北市板橋區實踐路93巷10號","121.464496666667","25.00544","6500100","板橋區"
"220102","KEA-2699","2018/09/29 19:58:42","新北市板橋區仁化街76號","121.47606","25.0318266666667","6500100","板橋區"
"220055","827-TW","2018/09/29 19:58:41","新北市板橋區國慶路149巷37弄13號","121.460398333333","24.9979416666667","6500100","板橋區"
"220067","830-TW","2018/09/29 19:58:40","新北市板橋區長安街331巷91-2號","121.472055","25.0126183333333","6500100","板橋區"
"220096","831-TW","2018/09/29 19:58:23","新北市板橋區莊敬路173號","121.471088333333","25.0237333333333","6500100","板橋區"
"220074","895-R6","2018/09/29 19:58:46","新北市板橋區文化路一段46巷54號","121.4608","25.0108383333333","6500100","板橋區"
"220073","985-R7","2018/09/29 19:58:33","新北市板橋區南雅西路二段2-4號","121.453053333333","25.0091216666667","6500100","板橋區"
"220070","AAC-253","2018/09/29 19:58:33","新北市板橋區成都街89號","121.462953333333","25.0052","6500100","板橋區"
"235068","KEA-2873","2018/09/29 19:58:16","新北市中和區福美路301巷9號","121.497381666667","25.0044666666667","6500300","中和區"
"235060","KEA-2876","2018/09/29 19:58:15","新北市中和區新生街30巷2號","121.48302","25.0039733333333","6500300","中和區"
