"lineid","car","time","location","longitude","latitude","cityid","cityname"
"234046","148-BY","2018/09/29 20:18:30","新北市永和區永元路120號","121.522756666667","25.0026483333333","6500400","永和區"
"234007","207-UY","2018/09/29 20:18:37","新北市永和區環河西路二段217巷3號","121.501528333333","25.0099733333333","6500400","永和區"
"234081","298-R6","2018/09/29 20:18:35","新北市永和區國中路102號","121.524256666667","25.0064783333333","6500400","永和區"
"234038","336-UY","2018/09/29 20:18:42","新北市永和區成功路一段34號","121.526985","25.004575","6500400","永和區"
"234064","337-UY","2018/09/29 20:18:24","新北市永和區得和路106號","121.518038333333","25.0001833333333","6500400","永和區"
"234086","338-UY","2018/09/29 20:18:38","新北市永和區永和路二段251號","121.515871666667","25.0151333333333","6500400","永和區"
"234070","552-UM","2018/09/29 20:18:43","新北市永和區永寧街113號","121.518163333333","25.0061566666667","6500400","永和區"
"234067","553-UM","2018/09/29 20:18:32","新北市永和區永貞路358號","121.510186666667","25.0065316666667","6500400","永和區"
"234017","745-BX","2018/09/29 20:18:42","新北市永和區仁愛路85號","121.513161666667","25.01319","6500400","永和區"
"234030","746-BX","2018/09/29 20:18:31","新北市永和區民有街25巷10號","121.517431666667","24.9965366666667","6500400","永和區"
"234054","KEA-2590","2018/09/29 20:18:36","新北市永和區光復街2巷24號","121.517595","25.016585","6500400","永和區"
"234013","KEA-2591","2018/09/29 20:18:36","新北市永和區保生路46號","121.505706666667","25.0085166666667","6500400","永和區"
"234061","AAD-866","2018/09/29 20:18:31","新北市永和區安樂路152號","121.514311666667","25.0006666666667","6500400","永和區"
"234042","862-TW","2018/09/29 20:18:38","新北市中和區中和路350巷6-1號","121.510678333333","25.0005183333333","6500400","永和區"
"234050","863-TW","2018/09/29 20:18:36","新北市永和區環河西路二段19號","121.507775","25.0159433333333","6500400","永和區"
"249005","172-UM","2018/09/29 20:18:35","新北市八里區下罟子2-2號","121.388225","25.1418633333333","6502300","八里區"
"249001","173-UM","2018/09/29 20:18:32","新北市八里區中華路二段506號","121.399796666667","25.1455116666667","6502300","八里區"
"249004","303-UY","2018/09/29 20:18:37","新北市八里區中山路一段129巷19-1號","121.41402","25.15868","6502300","八里區"
"249002","305-UY","2018/09/29 20:18:34","新北市八里區龍米路一段100巷20號","121.454186666667","25.125045","6502300","八里區"
"249003","593-UM","2018/09/29 20:18:32","新北市八里區中山路二段447巷21號","121.397443333333","25.1453466666667","6502300","八里區"
"248014","025-BX","2018/09/29 20:18:35","新北市八里區商港路46號","121.396265","25.1451233333333","6501500","五股區"
"248016","026-BX","2018/09/29 20:18:40","新北市五股區凌雲路一段158巷50弄2號","121.447138333333","25.10446","6501500","五股區"
"248012","247-BX","2018/09/29 20:18:41","新北市五股區民義路一段212號","121.43061","25.08935","6501500","五股區"
"248002","678-BX","2018/09/29 20:18:35","新北市五股區成泰路三段165號","121.445208333333","25.0918566666667","6501500","五股區"
"234023","9380-KE","2018/09/29 20:18:42","新北市永和區中正路662巷27號","121.517783333333","25.0088133333333","6500400","永和區"
"234077","969-R7","2018/09/29 20:18:32","新北市永和區民享街2巷2號","121.514716666667","24.9958316666667","6500400","永和區"
"234074","AAC-211","2018/09/29 20:18:30","新北市永和區竹林路201巷24弄4號","121.52222","25.0095933333333","6500400","永和區"
"234003","AAC-295","2018/09/29 20:18:33","新北市永和區永和路一段168號","121.514268333333","25.0086266666667","6500400","永和區"
"243013","AAD-798","2018/09/29 20:18:35","新北市泰山區新民路14巷2弄2號","121.426305","25.0444983333333","6501600","泰山區"
"243009","297-R6","2018/09/29 20:18:28","新北市泰山區泰林路二段123號","121.434086666667","25.0595633333333","6501600","泰山區"
"243016","KEA-2801","2018/09/29 20:18:38","新北市泰山區貴子路2號","121.425006666667","25.042115","6501600","泰山區"
"243015","421-VK","2018/09/29 20:18:40","新北市泰山區仁愛路88號","121.433028333333","25.0551483333333","6501600","泰山區"
"243011","KEA-2215","2018/09/29 20:18:27","新北市泰山區壽山路160巷2號","121.416906666667","25.0310333333333","6501600","泰山區"
"243010","KEA-2216","2018/09/29 20:18:33","新北市泰山區明志路二段214巷16弄41號","121.426658333333","25.0503866666667","6501600","泰山區"
"243012","646-TV","2018/09/29 20:18:34","新北市泰山區楓江路121號","121.439061666667","25.0645766666667","6501600","泰山區"
"243014","680-BX","2018/09/29 20:18:28","新北市泰山區泰林路二段395號","121.427101666667","25.0641883333333","6501600","泰山區"
"222003","436-BY","2018/09/29 20:18:43","新北市深坑區文化街82號","121.617898333333","25.0019466666667","6501800","深坑區"
"222002","659-BX","2018/09/29 20:18:44","新北市深坑區萬福路75巷48號","121.598253333333","25.0099016666667","6501800","深坑區"
"231041","002-UM","2018/09/29 20:18:41","新北市新店區民權路44號","121.540243333333","24.9830033333333","6500600","新店區"
"231059","046-UY","2018/09/29 20:18:40","新北市新店區安德街60巷1號","121.510471666667","24.962395","6500600","新店區"
"231040","047-UY","2018/09/29 20:18:38","新北市新店區北新路二段2號","121.542618333333","24.9707716666667","6500600","新店區"
"231044","106-UY","2018/09/29 20:18:34","新北市新店區北新路三段147-1號","121.541235","24.983285","6500600","新店區"
"231052","110-UY","2018/09/29 20:18:31","新北市新店區新烏路二段300號","121.548135","24.9128016666667","6500600","新店區"
"231048","187-VK","2018/09/29 20:18:42","新北市新店區寶橋路85巷21號","121.545448333333","24.976205","6500600","新店區"
"231062","188-VK","2018/09/29 20:18:34","新北市新店區安康路二段300號","121.507231666667","24.9583583333333","6500600","新店區"
"231057","256-BX","2018/09/29 20:18:45","新北市新店區花園十路二段7-6號","121.554108333333","24.9344516666667","6500600","新店區"
"231042","268-BY","2018/09/29 20:18:37","新北市新店區中興路二段22-1號","121.54684","24.9706083333333","6500600","新店區"
"231051","278-BY","2018/09/29 20:18:39","新北市新店區中央六街84號","121.526646666667","24.976645","6500600","新店區"
"231050","AAD-862","2018/09/29 20:18:28","新北市新店區博愛街11巷1號","121.540855","24.9730733333333","6500600","新店區"
"231058","3713-VJ","2018/09/29 20:18:31","新北市新店區中正路347號","121.535428333333","24.975835","6500600","新店區"
"231066","4716-K9","2018/09/29 20:18:45","新北市新店區安德街60巷21號","121.510378333333","24.9633866666667","6500600","新店區"
"231056","4715-K9","2018/09/29 20:18:33","新北市新店區中正路328巷40號","121.53801","24.9763166666667","6500600","新店區"
"231067","4772-VM","2018/09/29 20:18:28","新北市新店區安康路一段258號","121.520301666667","24.9639583333333","6500600","新店區"
"231065","512-UM","2018/09/29 20:18:39","新北市新店區安祥路106巷42號","121.476998333333","24.9617333333333","6500600","新店區"
"231049","513-UM","2018/09/29 20:18:43","新北市新店區北新路一段351號","121.541988333333","24.9692533333333","6500600","新店區"
"231063","616-UM","2018/09/29 20:18:43","新北市新店區黎明路3號","121.503338333333","24.9522133333333","6500600","新店區"
"231045","617-UM","2018/09/29 20:18:35","新北市新店區中興路一段212號","121.543781666667","24.9656233333333","6500600","新店區"
"231061","619-UM","2018/09/29 20:18:45","新北市新店區安興路33-1號","121.516001666667","24.97059","6500600","新店區"
"231068","718-UY","2018/09/29 20:18:33","新北市新店區寶安街31號","121.541975","24.9823666666667","6500600","新店區"
"231064","719-UM","2018/09/29 20:18:25","新北市新店區安和路二段156號","121.519788333333","24.9733266666667","6500600","新店區"
"231054","719-UY","2018/09/29 20:18:23","新北市新店區檳榔路109號","121.544463333333","24.9616733333333","6500600","新店區"
"231060","897-TW","2018/09/29 20:18:37","新北市新店區錦秀路11巷96弄2號","121.480135","24.94216","6500600","新店區"
"231043","899-TW","2018/09/29 20:18:40","新北市新店區建國路131號","121.53941","24.9782083333333","6500600","新店區"
"231055","AKT-0513","2018/09/29 20:18:34","新北市新店區光明街231號","121.540225","24.9644116666667","6500600","新店區"
"241011","013-R5","2018/09/29 20:18:33","新北市三重區龍門路183號","121.49937","25.07321","6500200","三重區"
"241028","022-UY","2018/09/29 20:18:34","新北市三重區大同南路162號","121.496605","25.0575416666667","6500200","三重區"
"241008","059-VK","2018/09/29 20:18:32","新北市三重區永福街211巷28號","121.479026666667","25.0739933333333","6500200","三重區"
"241022","060-VK","2018/09/29 20:18:34","新北市三重區新北大道一段32號","121.488271666667","25.0614683333333","6500200","三重區"
"241031","061-VK","2018/09/29 20:18:38","新北市三重區三寧街18號","121.489325","25.0600116666667","6500200","三重區"
"241017","063-VK","2018/09/29 20:18:38","新北市三重區大同北路223號","121.491453333333","25.0661883333333","6500200","三重區"
"241024","065-VK","2018/09/29 20:18:25","新北市三重區中正北路244號","121.481691666667","25.06801","6500200","三重區"
"241026","066-VK","2018/09/29 20:18:27","新北市三重區中央南路63-1號","121.501365","25.061255","6500200","三重區"
"241002","090-VK","2018/09/29 20:18:45","新北市三重區五華街7巷36號","121.496866666667","25.080955","6500200","三重區"
"251014","742-BX","2018/09/29 20:18:35","新北市淡水區石頭厝1號","121.458731666667","25.2355166666667","6501000","淡水區"
"241005","262-UM","2018/09/29 20:18:32","新北市三重區碧華街211號","121.488468333333","25.0827116666667","6500200","三重區"
"241033","265-UM","2018/09/29 20:18:25","新北市三重區五谷王北街77號","121.475736666667","25.0502083333333","6500200","三重區"
"241016","266-UM","2018/09/29 20:18:34","新北市三重區大同北路91號","121.49465","25.0636766666667","6500200","三重區"
"241009","267-UM","2018/09/29 20:18:33","新北市三重區三和路四段382巷44號","121.481186666667","25.078475","6500200","三重區"
"241018","268-UM","2018/09/29 20:18:44","新北市三重區正義北路250號","121.496086666667","25.0682183333333","6500200","三重區"
"241032","269-UM","2018/09/29 20:18:29","新北市三重區捷運路19巷6弄15號","121.484503333333","25.0568983333333","6500200","三重區"
"241013","270-UM","2018/09/29 20:18:31","新北市三重區三和路三段167巷36號","121.493106666667","25.0745383333333","6500200","三重區"
"241025","271-UM","2018/09/29 20:18:38","新北市三重區三民街270號","121.478943333333","25.06812","6500200","三重區"
"241007","398-BY","2018/09/29 20:18:43","新北市三重區溪尾街108巷51號","121.487641666667","25.0783766666667","6500200","三重區"
"241035","462-BY","2018/09/29 20:18:32","新北市三重區正義北路33巷48號","121.499026666667","25.06391","6500200","三重區"
"241004","475-VK","2018/09/29 20:18:43","新北市三重區仁政街205號","121.490608333333","25.0804883333333","6500200","三重區"
"241020","478-VK","2018/09/29 20:18:34","新北市三重區三和路三段180號","121.492413333333","25.0733216666667","6500200","三重區"
"241030","480-VK","2018/09/29 20:18:31","新北市三重區集美街89巷22號","121.488336666667","25.0525966666667","6500200","三重區"
"241014","543-UM","2018/09/29 20:18:25","新北市三重區長樂街160號","121.502911666667","25.06981","6500200","三重區"
"241023","545-UM","2018/09/29 20:18:34","新北市三重區忠孝路三段99巷11號","121.480003333333","25.0646333333333","6500200","三重區"
"241019","KEA-2593","2018/09/29 20:18:32","新北市三重區大智街157號","121.49029","25.0715866666667","6500200","三重區"
"241006","AAD-863","2018/09/29 20:18:28","新北市三重區車路頭街139巷14號","121.48431","25.0762766666667","6500200","三重區"
"241015","743-BX","2018/09/29 20:18:43","新北市三重區重新路一段118號","121.500503333333","25.0631266666667","6500200","三重區"
"241001","887-TS","2018/09/29 20:18:41","新北市三重區自強路四段31巷3號","121.489443333333","25.0766383333333","6500200","三重區"
"241012","941-UM","2018/09/29 20:18:29","新北市三重區河邊北街379-1號","121.501671666667","25.0765166666667","6500200","三重區"
"241029","942-UM","2018/09/29 20:18:36","新北市三重區光明路108號","121.492636666667","25.05627","6500200","三重區"
"235066","003-UY","2018/09/29 20:18:44","新北市中和區保平路328號","121.507028333333","25.004325","6500300","中和區"
"235039","097-UM","2018/09/29 20:18:36","新北市中和區大勇街27巷10號","121.517001666667","24.9938633333333","6500300","中和區"
"235065","098-UM","2018/09/29 20:18:32","新北市中和區橋和路284號","121.496501666667","25.0066116666667","6500300","中和區"
"235040","150-BY","2018/09/29 20:18:34","新北市中和區保健路60號","121.510846666667","24.996665","6500300","中和區"
"247012","KEA-2869","2018/09/29 20:18:44","新北市蘆洲區中興街15巷10號","121.480456666667","25.0873316666667","6501400","蘆洲區"
"235050","4979-A6","2018/09/29 20:18:31","新北市中和區景平路428號","121.507226666667","24.9933733333333","6500300","中和區"
"235069","4980-A6","2018/09/29 20:18:31","新北市中和區圓通路217號","121.496645","24.9943316666667","6500300","中和區"
"235054","640-BX","2018/09/29 20:18:29","新北市中和區民樂路81號","121.484796666667","25.0013116666667","6500300","中和區"
"235037","AAC-213","2018/09/29 20:18:26","新北市中和區秀朗路三段52號","121.526481666667","24.9954716666667","6500300","中和區"
"235059","AAC-215","2018/09/29 20:18:43","新北市中和區圓通路320號","121.487231666667","24.9883633333333","6500300","中和區"
"247002","893-R6","2018/09/29 20:18:26","新北市蘆洲區長安街313巷16號","121.456306666667","25.08654","6501400","蘆洲區"
"247016","546-UM","2018/09/29 20:18:36","新北市蘆洲區光華路132巷41號","121.465753333333","25.0839516666667","6501400","蘆洲區"
"247024","500-BY","2018/09/29 20:18:26","新北市蘆洲區光榮路120巷8弄39號","121.46467","25.0878933333333","6501400","蘆洲區"
"247014","339-TH","2018/09/29 20:18:40","新北市蘆洲區中山一路240號","121.47239","25.0800733333333","6501400","蘆洲區"
"247006","337-TH","2018/09/29 20:18:43","新北市蘆洲區九芎街153巷5號","121.46539","25.0788983333333","6501400","蘆洲區"
"247008","336-TH","2018/09/29 20:18:43","新北市蘆洲區集賢路240號","121.481983333333","25.08574","6501400","蘆洲區"
"247020","057-VK","2018/09/29 20:18:26","新北市蘆洲區仁愛街65號","121.471688333333","25.09354","6501400","蘆洲區"
"247010","056-VK","2018/09/29 20:18:28","新北市蘆洲區信義路188巷18弄1號","121.48043","25.0845533333333","6501400","蘆洲區"
"247018","007-UY","2018/09/29 20:18:36","新北市蘆洲區民族路402號","121.474795","25.09137","6501400","蘆洲區"
"247004","002-UY","2018/09/29 20:18:36","新北市蘆洲區長安街220巷32號","121.459545","25.085135","6501400","蘆洲區"
"247022","001-UY","2018/09/29 20:18:32","新北市蘆洲區民族路425號","121.468143333333","25.089165","6501400","蘆洲區"
"224010","AGQ-8101","2018/09/29 20:18:45","新北市瑞芳區汽車路34號","121.845875","25.110315","6501200","瑞芳區"
"222001","KEA-2212","2018/09/29 20:18:46","新北市深坑區北深路三段241號","121.599496666667","25.0041266666667","6501800","深坑區"
"208002","KEA-2872","2018/09/29 20:18:39","新北市金山區仁愛路7號","121.638105","25.2196333333333","6502700","金山區"
"251002","012-UM","2018/09/29 20:18:35","新北市淡水區中正路218號","121.43943","25.170395","6501000","淡水區"
"251013","KEA-2871","2018/09/29 20:18:27","新北市淡水區相公山1-1號","121.47436","25.2066583333333","6501000","淡水區"
"251008","179-VK","2018/09/29 20:18:28","新北市淡水區淡海路150巷1號","121.421735","25.1836566666667","6501000","淡水區"
"251015","180-VK","2018/09/29 20:18:34","新北市淡水區興仁路103巷37號","121.449991666667","25.2161433333333","6501000","淡水區"
"251010","413-VK","2018/09/29 20:18:44","新北市淡水區新民街一段134號","121.427636666667","25.1889766666667","6501000","淡水區"
"251012","441-VK","2018/09/29 20:18:45","新北市淡水區下圭柔山431-1號","121.449851666667","25.2102383333333","6501000","淡水區"
"251001","559-UM","2018/09/29 20:18:34","新北市淡水區新市二路四段265號","121.445738333333","25.1924733333333","6501000","淡水區"
"251006","561-UM","2018/09/29 20:18:26","新北市淡水區北新路171號","121.450505","25.1794416666667","6501000","淡水區"
"251016","575-R6","2018/09/29 20:18:36","新北市淡水區番子田16-12號","121.453861666667","25.2312666666667","6501000","淡水區"
"251007","577-R6","2018/09/29 20:18:30","新北市淡水區下圭柔山91-3號","121.430971666667","25.2096916666667","6501000","淡水區"
"251003","673-BX","2018/09/29 20:18:35","新北市淡水區中山北路一段229號","121.444466666667","25.1795033333333","6501000","淡水區"
"207004","225-TW","2018/09/29 20:18:43","新北市萬里區北基里仁四街2號","121.682088333333","25.1753333333333","6502800","萬里區"
"252002","178-VK","2018/09/29 20:18:29","新北市三芝區中正路一段16-1號","121.502958333333","25.2586533333333","6502100","三芝區"
"252001","292-VK","2018/09/29 20:18:43","新北市三芝區中山路一段14號","121.50067","25.2581566666667","6502100","三芝區"
"237006","5529-G3","2018/09/29 20:18:40","新北市三峽區嘉添9號","121.368693333333","24.9120216666667","6500900","三峽區"
"236070","105-UM","2018/09/29 20:18:44","新北市土城區中山路28號","121.423246666667","24.9633766666667","6501300","土城區"
"236079","166-UM","2018/09/29 20:18:31","新北市土城區金安街14號","121.421118333333","24.9645633333333","6501300","土城區"
"236030","253-BX","2018/09/29 20:18:41","新北市土城區學成路128巷11號","121.449511666667","24.990075","6501300","土城區"
"236026","269-VK","2018/09/29 20:18:43","新北市土城區裕生路86巷8號","121.446766666667","24.9852966666667","6501300","土城區"
"236014","270-VK","2018/09/29 20:18:37","新北市土城區廣明街90巷23號","121.455461666667","24.994545","6501300","土城區"
"242036","AAC-296","2018/09/29 20:18:47","新北市新莊區後港一路56巷24弄12號","121.426166666667","25.0252983333333","6500500","新莊區"
"242058","986-R7","2018/09/29 20:18:32","新北市新莊區八德街169號","121.42333","25.0190583333333","6500500","新莊區"
"242056","751-BX","2018/09/29 20:18:37","新北市新莊區豐年街28巷21號","121.445508333333","25.032305","6500500","新莊區"
"242029","705-TV","2018/09/29 20:18:29","新北市新莊區中原路110號","121.450523333333","25.054415","6500500","新莊區"
"242027","615-BX","2018/09/29 20:18:44","新北市新莊區幸福路589號","121.45362","25.0492816666667","6500500","新莊區"
"242025","613-BX","2018/09/29 20:18:42","新北市新莊區五工二路70巷21號","121.460896666667","25.0664766666667","6500500","新莊區"
"242044","566-BX","2018/09/29 20:18:27","新北市新莊區中正路895-2號","121.412466666667","25.0219133333333","6500500","新莊區"
"242048","497-BY","2018/09/29 20:18:35","新北市新莊區龍安路228號","121.420421666667","25.0198183333333","6500500","新莊區"
"242053","441-UM","2018/09/29 20:18:42","新北市新莊區民安西路261巷18號","121.426813333333","25.0130066666667","6500500","新莊區"
"242002","440-UM","2018/09/29 20:18:45","新北市新莊區化成路31號","121.465163333333","25.0439266666667","6500500","新莊區"
"242039","415-TV","2018/09/29 20:18:27","新北市新莊區龍安路435號","121.42408","25.0188","6500500","新莊區"
"242009","413-TV","2018/09/29 20:18:39","新北市新莊區昌隆街31號","121.454898333333","25.0509833333333","6500500","新莊區"
"242046","400-BY","2018/09/29 20:18:42","新北市新莊區中正路新生巷10號","121.416808333333","25.0239316666667","6500500","新莊區"
"242023","362-BY","2018/09/29 20:18:32","新北市新莊區化成路854號","121.464735","25.0605766666667","6500500","新莊區"
"242061","353-BY","2018/09/29 20:18:43","新北市新莊區新樹路172-13號","121.434626666667","25.0217516666667","6500500","新莊區"
"242011","132-UY","2018/09/29 20:18:34","新北市新莊區中信街35號","121.450356666667","25.0507933333333","6500500","新莊區"
"242042","133-UY","2018/09/29 20:18:33","新北市新莊區壽山路61號","121.410565","25.032685","6500500","新莊區"
"242051","172-VK","2018/09/29 20:18:44","新北市新莊區民安西路215號","121.425985","25.014535","6500500","新莊區"
"242019","175-VK","2018/09/29 20:18:43","新北市新莊區復興路二段184號","121.458956666667","25.0444066666667","6500500","新莊區"
"242017","346-TH","2018/09/29 20:18:30","新北市新莊區中港一街74號","121.449798333333","25.0453833333333","6500500","新莊區"
"242013","347-TH","2018/09/29 20:18:39","新北市新莊區中和街155巷24弄23號","121.446678333333","25.0505816666667","6500500","新莊區"
"242031","348-TH","2018/09/29 20:18:31","新北市新莊區中正路372號","121.44355","25.0343566666667","6500500","新莊區"
"242004","349-TH","2018/09/29 20:18:44","新北市新莊區化成路746巷41號","121.466741666667","25.0582116666667","6500500","新莊區"
"242021","350-TH","2018/09/29 20:18:28","新北市新莊區中正路281號","121.4491","25.03539","6500500","新莊區"
"242015","351-TH","2018/09/29 20:18:36","新北市新莊區中和街49號","121.448033333333","25.04451","6500500","新莊區"
"221008","489-VK","2018/09/29 20:18:33","台北市內湖區康樂街12號","121.61777","25.067975","6501100","汐止區"
"221036","130-UY","2018/09/29 20:18:25","新北市汐止區福安街37巷5號","121.663036666667","25.06506","6501100","汐止區"
"221015","131-UY","2018/09/29 20:18:29","新北市汐止區建成路142巷19弄11號","121.661945","25.0737366666667","6501100","汐止區"
"221010","269-BY","2018/09/29 20:18:32","新北市汐止區八連路二段36巷10號","121.637431666667","25.0943","6501100","汐止區"
"221012","278-VK","2018/09/29 20:18:25","新北市汐止區保新街275號","121.692426666667","25.068545","6501100","汐止區"
"221023","279-VK","2018/09/29 20:18:41","新北市汐止區湖東街8號","121.633338333333","25.072005","6501100","汐止區"
"221032","280-BY","2018/09/29 20:18:44","新北市汐止區橫科路52巷9弄5號","121.619518333333","25.0501466666667","6501100","汐止區"
"221027","281-BY","2018/09/29 20:18:38","新北市汐止區大同路二段457號","121.659955","25.0678366666667","6501100","汐止區"
"221029","298-VK","2018/09/29 20:18:42","新北市汐止區樟樹一路99巷7弄1號","121.64122","25.0636716666667","6501100","汐止區"
"221021","299-VK","2018/09/29 20:18:40","新北市汐止區水源路一段284號","121.654275","25.0582533333333","6501100","汐止區"
"221031","353-TW","2018/09/29 20:18:33","新北市汐止區中興路150巷15-1號","121.633026666667","25.065095","6501100","汐止區"
"221035","622-UM","2018/09/29 20:18:26","新北市汐止區長江街101-5號","121.658666666667","25.07323","6501100","汐止區"
"221025","623-UM","2018/09/29 20:18:42","新北市汐止區水源路二段34號","121.654913333333","25.0573133333333","6501100","汐止區"
"221038","646-BX","2018/09/29 20:18:37","新北市汐止區忠孝東路408號","121.665925","25.0711666666667","6501100","汐止區"
"221002","707-TV","2018/09/29 20:18:40","新北市汐止區福德一路86巷12號","121.637651666667","25.0689266666667","6501100","汐止區"
"221018","753-BX","2018/09/29 20:18:28","新北市汐止區茄興街3號","121.6734","25.0675766666667","6501100","汐止區"
"220083","286-VK","2018/09/29 20:18:37","新北市板橋區僑中二街102巷22-4號","121.445193333333","25.0083833333333","6500100","板橋區"
"220081","287-VK","2018/09/29 20:18:43","新北市板橋區僑中一街80巷5弄7號","121.447436666667","25.0124966666667","6500100","板橋區"
"220061","293-UM","2018/09/29 20:18:45","新北市板橋區四川路一段274巷9號","121.457748333333","25.0012866666667","6500100","板橋區"
"220103","295-UM","2018/09/29 20:18:28","新北市板橋區陽明街277-1號","121.462116666667","25.0262133333333","6500100","板橋區"
"242007","281-VK","2018/09/29 20:18:26","新北市新莊區福壽街112巷24號","121.459263333333","25.0505916666667","6500500","新莊區"
"220098","317-R6","2018/09/29 20:18:23","新北市板橋區長江路一段105巷1弄1號","121.459041666667","25.0307783333333","6500100","板橋區"
"220089","487-VK","2018/09/29 20:18:35","新北市板橋區四維路139號","121.465031666667","25.0252983333333","6500100","板橋區"
"242034","280-VK","2018/09/29 20:18:42","新北市新莊區建中街90巷3弄10號","121.446328333333","25.0371516666667","6500500","新莊區"
"220102","KEA-2699","2018/09/29 20:18:30","新北市板橋區文化路一段413號","121.467471666667","25.0221516666667","6500100","板橋區"
"220055","827-TW","2018/09/29 20:18:41","新北市板橋區仁愛路23號","121.458953333333","24.9994733333333","6500100","板橋區"
"220070","AAC-253","2018/09/29 20:18:33","新北市板橋區四川路二段245巷36號","121.451593333333","24.992705","6500100","板橋區"
"235068","KEA-2873","2018/09/29 20:18:16","新北市中和區勝利路35巷1弄25號","121.499838333333","25.0077933333333","6500300","中和區"
