"lineid","car","time","location","longitude","latitude","cityid","cityname"
"234081","298-R6","2018/09/29 20:38:35","新北市永和區永貞路78號","121.520256666667","25.0050416666667","6500400","永和區"
"234064","337-UY","2018/09/29 20:38:24","新北市中和區橋和路281巷1號","121.496246666667","25.00794","6500400","永和區"
"234067","553-UM","2018/09/29 20:38:38","新北市永和區保平路292巷13弄6號","121.507128333333","25.0054316666667","6500400","永和區"
"234030","746-BX","2018/09/29 20:38:31","新北市中和區景平路466號","121.505631666667","24.9935183333333","6500400","永和區"
"234061","AAD-866","2018/09/29 20:38:27","新北市永和區秀朗路一段108巷6號","121.516348333333","25.0037666666667","6500400","永和區"
"234042","862-TW","2018/09/29 20:38:18","新北市永和區安樂路348號","121.51447","25.00642","6500400","永和區"
"234050","863-TW","2018/09/29 20:38:36","新北市永和區環河西路二段97號","121.506488333333","25.0148066666667","6500400","永和區"
"249001","173-UM","2018/09/29 20:38:32","新北市八里區中山路三段372號","121.368821666667","25.1359666666667","6502300","八里區"
"249004","303-UY","2018/09/29 20:38:37","新北市八里區中山路一段157巷13號","121.413008333333","25.1583516666667","6502300","八里區"
"249002","305-UY","2018/09/29 20:38:34","新北市八里區龍米路二段150號","121.436171666667","25.1565583333333","6502300","八里區"
"249003","593-UM","2018/09/29 20:38:32","新北市八里區商港路105巷15號","121.389031666667","25.147505","6502300","八里區"
"234023","9380-KE","2018/09/29 20:38:28","新北市永和區光復街4號","121.516406666667","25.01671","6500400","永和區"
"234074","AAC-211","2018/09/29 20:38:28","新北市永和區竹林路119巷22弄4號","121.521358333333","25.0115116666667","6500400","永和區"
"243015","421-VK","2018/09/29 20:38:40","新北市泰山區泰林路三段778號","121.40077","25.0711066666667","6501600","泰山區"
"243011","KEA-2215","2018/09/29 20:38:27","新北市泰山區明志路二段123號","121.427981666667","25.0514833333333","6501600","泰山區"
"243012","646-TV","2018/09/29 20:38:34","新北市泰山區泰林路三段616巷8號","121.407555","25.0724516666667","6501600","泰山區"
"243014","680-BX","2018/09/29 20:38:28","新北市泰山區泰林路三段745巷145號","121.405481666667","25.0676383333333","6501600","泰山區"
"222003","436-BY","2018/09/29 20:38:39","新北市深坑區深坑街164號","121.61263","25.001185","6501800","深坑區"
"222002","659-BX","2018/09/29 20:38:44","新北市深坑區萬福路47號","121.599556666667","25.006855","6501800","深坑區"
"231041","002-UM","2018/09/29 20:38:41","新北市新店區中正路696號","121.534028333333","24.9905633333333","6500600","新店區"
"231059","046-UY","2018/09/29 20:38:40","新北市新店區僑信路104號","121.500018333333","24.9472916666667","6500600","新店區"
"231040","047-UY","2018/09/29 20:38:38","新北市新店區中正路247巷4弄10號","121.538541666667","24.973285","6500600","新店區"
"231044","106-UY","2018/09/29 20:38:34","新北市新店區建國路293巷1號","121.536651666667","24.9861216666667","6500600","新店區"
"231052","110-UY","2018/09/29 20:38:31","新北市新店區松林路1號","121.546866666667","24.9120733333333","6500600","新店區"
"231048","187-VK","2018/09/29 20:38:42","新北市新店區順安街86號","121.541006666667","24.9866383333333","6500600","新店區"
"231062","188-VK","2018/09/29 20:38:34","新北市新店區安泰路60巷134弄66號","121.483475","24.9434633333333","6500600","新店區"
"231057","256-BX","2018/09/29 20:38:45","新北市新店區花園六路二段9號","121.55567","24.932935","6500600","新店區"
"231042","268-BY","2018/09/29 20:38:37","新北市新店區寶橋路238號","121.551545","24.9790266666667","6500600","新店區"
"231051","278-BY","2018/09/29 20:38:39","新北市新店區中央八街128號","121.52503","24.9784066666667","6500600","新店區"
"231050","AAD-862","2018/09/29 20:38:30","新北市新店區建安街9號","121.539985","24.97541","6500600","新店區"
"231058","3713-VJ","2018/09/29 20:38:31","新北市新店區平等街35號","121.536575","24.973445","6500600","新店區"
"231066","4716-K9","2018/09/29 20:38:45","新北市新店區安興路105-1號","121.514663333333","24.9777133333333","6500600","新店區"
"231056","4715-K9","2018/09/29 20:38:33","新北市新店區中央七街61巷30號","121.529585","24.9757333333333","6500600","新店區"
"231067","4772-VM","2018/09/29 20:38:28","新北市新店區安一路一段1-1號","121.519966666667","24.961085","6500600","新店區"
"231065","512-UM","2018/09/29 20:38:39","新北市新店區安祥路102巷46弄52號","121.486511666667","24.9634166666667","6500600","新店區"
"231049","513-UM","2018/09/29 20:38:43","新北市新店區永業路81巷5弄22號","121.53087","24.9494916666667","6500600","新店區"
"231063","616-UM","2018/09/29 20:38:43","新北市新店區玫瑰路4-1號","121.493623333333","24.9513916666667","6500600","新店區"
"231045","617-UM","2018/09/29 20:38:28","新北市新店區長春路83號","121.5512","24.9581566666667","6500600","新店區"
"231061","619-UM","2018/09/29 20:38:45","新北市新店區新和街36號","121.519275","24.9849233333333","6500600","新店區"
"231068","718-UY","2018/09/29 20:38:33","新北市新店區寶慶街35巷1弄2號","121.543156666667","24.986335","6500600","新店區"
"231064","719-UM","2018/09/29 20:38:25","新北市新店區安和路三段151號","121.516683333333","24.9856316666667","6500600","新店區"
"231054","719-UY","2018/09/29 20:38:43","新北市新店區北新路一段64巷39弄16號","121.542595","24.9658866666667","6500600","新店區"
"231060","897-TW","2018/09/29 20:38:37","新北市新店區安康路三段738號","121.473856666667","24.942025","6500600","新店區"
"231043","899-TW","2018/09/29 20:38:40","新北市新店區建國路21號","121.540088333333","24.9738433333333","6500600","新店區"
"241011","013-R5","2018/09/29 20:38:33","新北市三重區龍濱路285號","121.501121666667","25.0733433333333","6500200","三重區"
"241028","022-UY","2018/09/29 20:38:35","新北市三重區光興街93號","121.497336666667","25.0599183333333","6500200","三重區"
"241008","059-VK","2018/09/29 20:38:32","新北市三重區下竹圍街36號","121.481068333333","25.074965","6500200","三重區"
"241022","060-VK","2018/09/29 20:38:34","新北市三重區新北大道一段46巷18弄7號","121.48827","25.0620066666667","6500200","三重區"
"241031","061-VK","2018/09/29 20:38:29","新北市三重區重陽路一段113巷1弄49號","121.48814","25.0586116666667","6500200","三重區"
"241017","063-VK","2018/09/29 20:38:38","新北市三重區安慶街270號","121.490705","25.06764","6500200","三重區"
"241024","065-VK","2018/09/29 20:38:46","新北市三重區忠孝路三段51號","121.480843333333","25.0666533333333","6500200","三重區"
"241026","066-VK","2018/09/29 20:38:33","新北市三重區中央南路20號","121.501323333333","25.0626016666667","6500200","三重區"
"241002","090-VK","2018/09/29 20:38:45","新北市三重區仁義街161-4號","121.496921666667","25.0813766666667","6500200","三重區"
"251014","742-BX","2018/09/29 20:38:35","新北市淡水區公埔子28號","121.466155","25.23293","6501000","淡水區"
"241005","262-UM","2018/09/29 20:38:32","新北市三重區碧華街371號","121.492523333333","25.0852716666667","6500200","三重區"
"241033","265-UM","2018/09/29 20:38:41","新北市三重區光復路二段87巷45號","121.474903333333","25.0579733333333","6500200","三重區"
"241016","266-UM","2018/09/29 20:38:34","新北市三重區長壽西街143-3號","121.494391666667","25.0667433333333","6500200","三重區"
"241009","267-UM","2018/09/29 20:38:33","新北市三重區碧華街55號","121.48471","25.081295","6500200","三重區"
"241018","268-UM","2018/09/29 20:38:30","新北市三重區自強路一段288號","121.4917","25.0681966666667","6500200","三重區"
"241032","269-UM","2018/09/29 20:38:29","新北市三重區重陽路一段120巷48號","121.485015","25.0601733333333","6500200","三重區"
"241013","270-UM","2018/09/29 20:38:31","新北市三重區三和路三段71號","121.494708333333","25.071815","6500200","三重區"
"241025","271-UM","2018/09/29 20:38:38","新北市三重區頂崁街192巷23號","121.475911666667","25.0658216666667","6500200","三重區"
"241007","398-BY","2018/09/29 20:38:43","新北市三重區自強路四段4號","121.488345","25.076105","6500200","三重區"
"241035","462-BY","2018/09/29 20:38:32","新北市三重區正義北路281-1號","121.495058333333","25.0702483333333","6500200","三重區"
"241004","475-VK","2018/09/29 20:38:44","新北市三重區仁愛街423-3號","121.490196666667","25.0815683333333","6500200","三重區"
"241020","478-VK","2018/09/29 20:38:32","新北市三重區忠孝路一段63號","121.490816666667","25.0719816666667","6500200","三重區"
"241030","480-VK","2018/09/29 20:38:31","新北市三重區成功路73巷11號","121.489461666667","25.0518833333333","6500200","三重區"
"241014","543-UM","2018/09/29 20:38:25","新北市三重區長榮路6號","121.500016666667","25.068685","6500200","三重區"
"241023","545-UM","2018/09/29 20:38:34","新北市三重區自由街35巷1號","121.479101666667","25.066855","6500200","三重區"
"241019","KEA-2593","2018/09/29 20:38:32","新北市三重區大智街125號","121.491276666667","25.0703633333333","6500200","三重區"
"241006","AAD-863","2018/09/29 20:38:28","新北市三重區車路頭街139巷12號","121.48426","25.0762033333333","6500200","三重區"
"241015","743-BX","2018/09/29 20:38:43","新北市三重區文化北路101號","121.49789","25.0682833333333","6500200","三重區"
"241001","887-TS","2018/09/29 20:38:41","新北市三重區自強路三段110巷5號","121.48651","25.0746433333333","6500200","三重區"
"241012","941-UM","2018/09/29 20:38:29","新北市三重區秀江街26號","121.502486666667","25.0730333333333","6500200","三重區"
"241029","942-UM","2018/09/29 20:38:36","新北市三重區集美街126巷25號","121.489948333333","25.0537583333333","6500200","三重區"
"247012","KEA-2869","2018/09/29 20:38:43","新北市蘆洲區中興街130號","121.482211666667","25.0892666666667","6501400","蘆洲區"
"235069","4980-A6","2018/09/29 20:38:31","新北市中和區中正路616號","121.485475","24.995735","6500300","中和區"
"235054","640-BX","2018/09/29 20:38:29","新北市樹林區中山路三段214號","121.380113333333","24.9679316666667","6500300","中和區"
"247002","893-R6","2018/09/29 20:38:26","新北市蘆洲區長安街375巷35號","121.455616666667","25.0879166666667","6501400","蘆洲區"
"247016","546-UM","2018/09/29 20:38:35","新北市蘆洲區中山二路273號","121.469698333333","25.0795133333333","6501400","蘆洲區"
"247024","500-BY","2018/09/29 20:38:46","新北市蘆洲區長樂路37號","121.463335","25.085725","6501400","蘆洲區"
"247014","339-TH","2018/09/29 20:38:33","新北市蘆洲區中山一路225號","121.473836666667","25.0808116666667","6501400","蘆洲區"
"247006","337-TH","2018/09/29 20:38:43","新北市蘆洲區和平路124號","121.467405","25.0802383333333","6501400","蘆洲區"
"247008","336-TH","2018/09/29 20:38:43","新北市蘆洲區重陽街46號","121.481326666667","25.0829283333333","6501400","蘆洲區"
"247020","057-VK","2018/09/29 20:38:26","新北市蘆洲區民族路424-1號","121.473806666667","25.09188","6501400","蘆洲區"
"247010","056-VK","2018/09/29 20:38:28","新北市蘆洲區中興街50號","121.481583333333","25.0872783333333","6501400","蘆洲區"
"247004","002-UY","2018/09/29 20:38:36","新北市蘆洲區長安街303號","121.458038333333","25.0849566666667","6501400","蘆洲區"
"247022","001-UY","2018/09/29 20:38:32","新北市蘆洲區中正路243巷18弄4號","121.467068333333","25.0865533333333","6501400","蘆洲區"
"224010","AGQ-8101","2018/09/29 20:38:45","新北市瑞芳區民權街3-1號","121.809413333333","25.1082833333333","6501200","瑞芳區"
"222001","KEA-2212","2018/09/29 20:38:38","新北市深坑區北深路三段230號","121.60074","25.0039983333333","6501800","深坑區"
"251002","012-UM","2018/09/29 20:38:35","新北市淡水區中正路38-1號","121.443743333333","25.1692466666667","6501000","淡水區"
"251013","KEA-2871","2018/09/29 20:38:27","新北市淡水區下圭柔山28巷10號","121.457488333333","25.2041016666667","6501000","淡水區"
"251008","179-VK","2018/09/29 20:38:28","新北市淡水區沙崙路183巷10號","121.424191666667","25.1849383333333","6501000","淡水區"
"251015","180-VK","2018/09/29 20:38:34","新北市淡水區淡金路四段542巷17號","121.452726666667","25.2270933333333","6501000","淡水區"
"251010","413-VK","2018/09/29 20:38:44","新北市淡水區沙崙路181巷15號","121.424003333333","25.1844383333333","6501000","淡水區"
"251012","441-VK","2018/09/29 20:38:45","新北市淡水區興仁路108號","121.451663333333","25.2182116666667","6501000","淡水區"
"251001","559-UM","2018/09/29 20:38:34","新北市淡水區淡金路一段69號","121.458853333333","25.1729916666667","6501000","淡水區"
"251006","561-UM","2018/09/29 20:38:26","新北市淡水區商工路184號","121.449965","25.188505","6501000","淡水區"
"251016","575-R6","2018/09/29 20:38:36","新北市淡水區後洲子8-2號","121.449653333333","25.224005","6501000","淡水區"
"251007","577-R6","2018/09/29 20:38:29","新北市淡水區忠愛街4號","121.45953","25.171545","6501000","淡水區"
"251003","673-BX","2018/09/29 20:38:35","新北市淡水區新民街120巷3號","121.438128333333","25.1779083333333","6501000","淡水區"
"252002","178-VK","2018/09/29 20:38:29","新北市三芝區淡金路二段47-2號","121.503665","25.2605416666667","6502100","三芝區"
"252001","292-VK","2018/09/29 20:38:43","新北市三芝區長安街55號","121.501155","25.2565516666667","6502100","三芝區"
"242036","AAC-296","2018/09/29 20:38:27","新北市新莊區建安街2號","121.428463333333","25.0267566666667","6500500","新莊區"
"242058","986-R7","2018/09/29 20:38:32","新北市新莊區四維路149號","121.422611666667","25.0221083333333","6500500","新莊區"
"242056","751-BX","2018/09/29 20:38:37","新北市新莊區瓊泰路73號","121.44321","25.0289116666667","6500500","新莊區"
"242029","705-TV","2018/09/29 20:38:29","新北市新莊區中華路二段101號","121.45266","25.0496483333333","6500500","新莊區"
"242027","615-BX","2018/09/29 20:38:44","新北市新莊區思源路59號","121.459895","25.04034","6500500","新莊區"
"242025","613-BX","2018/09/29 20:38:36","新北市新莊區化成路579巷1號","121.4643","25.065995","6500500","新莊區"
"242044","566-BX","2018/09/29 20:38:47","新北市新莊區龍安路70號","121.415406666667","25.02157","6500500","新莊區"
"242048","497-BY","2018/09/29 20:38:35","新北市新莊區中正路715號","121.42501","25.029635","6500500","新莊區"
"242053","441-UM","2018/09/29 20:38:41","新北市新莊區西盛街324巷9號","121.427498333333","25.0147083333333","6500500","新莊區"
"242002","440-UM","2018/09/29 20:38:45","新北市新莊區中正路80號","121.457735","25.0373716666667","6500500","新莊區"
"242039","415-TV","2018/09/29 20:38:35","新北市新莊區民安路421號","121.433386666667","25.0227883333333","6500500","新莊區"
"242009","413-TV","2018/09/29 20:38:38","新北市新莊區福壽街99巷11弄1號","121.457425","25.05039","6500500","新莊區"
"242046","400-BY","2018/09/29 20:38:42","新北市新莊區富國路22巷19號","121.418401666667","25.02577","6500500","新莊區"
"242023","362-BY","2018/09/29 20:38:32","新北市新莊區復興路三段60號","121.463535","25.0445166666667","6500500","新莊區"
"242061","353-BY","2018/09/29 20:38:43","新北市新莊區新樹路262號","121.432633333333","25.0148383333333","6500500","新莊區"
"242011","132-UY","2018/09/29 20:38:34","新北市新莊區中原路323號","121.446773333333","25.0538166666667","6500500","新莊區"
"242042","133-UY","2018/09/29 20:38:33","新北市新莊區天祥街21-1號","121.417426666667","25.02784","6500500","新莊區"
"242051","172-VK","2018/09/29 20:38:32","新北市新莊區民安西路146號","121.426131666667","25.016625","6500500","新莊區"
"242019","175-VK","2018/09/29 20:38:43","新北市新莊區銘德街138號","121.454696666667","25.0428516666667","6500500","新莊區"
"242017","346-TH","2018/09/29 20:38:30","新北市新莊區中港三街106號","121.448431666667","25.0460833333333","6500500","新莊區"
"242013","347-TH","2018/09/29 20:38:30","新北市新莊區中和街175巷13號","121.447165","25.0505983333333","6500500","新莊區"
"242031","348-TH","2018/09/29 20:38:31","新北市新莊區三和路60-3號","121.437146666667","25.038545","6500500","新莊區"
"242004","349-TH","2018/09/29 20:38:44","新北市新莊區化成路583號","121.463805","25.0666483333333","6500500","新莊區"
"242021","350-TH","2018/09/29 20:38:47","新北市新莊區公園路78號","121.450106666667","25.0396283333333","6500500","新莊區"
"242015","351-TH","2018/09/29 20:38:35","新北市新莊區中和街6號","121.448423333333","25.042975","6500500","新莊區"
"221008","489-VK","2018/09/29 20:38:33","新北市汐止區康寧街861巷3號","121.645336666667","25.07612","6501100","汐止區"
"221036","130-UY","2018/09/29 20:38:45","新北市汐止區忠孝東路280號","121.663676666667","25.068215","6501100","汐止區"
"221015","131-UY","2018/09/29 20:38:29","新北市汐止區建成路21號","121.664373333333","25.07258","6501100","汐止區"
"221010","269-BY","2018/09/29 20:38:32","新北市汐止區八連路一段530巷4號","121.639253333333","25.0923883333333","6501100","汐止區"
"221012","278-VK","2018/09/29 20:38:45","新北市汐止區大同路三段241號","121.672651666667","25.0767033333333","6501100","汐止區"
"221023","279-VK","2018/09/29 20:38:33","新北市汐止區明峰街11號","121.635133333333","25.071345","6501100","汐止區"
"221032","280-BY","2018/09/29 20:38:34","新北市汐止區橫科路322巷24弄6-1號","121.620328333333","25.05014","6501100","汐止區"
"221027","281-BY","2018/09/29 20:38:38","新北市汐止區大同路二段567號","121.662856666667","25.069955","6501100","汐止區"
"221029","298-VK","2018/09/29 20:38:42","新北市汐止區大同路一段513號","121.645455","25.06233","6501100","汐止區"
"221021","299-VK","2018/09/29 20:38:40","新北市汐止區水源路一段282巷5號","121.653946666667","25.0582566666667","6501100","汐止區"
"221031","353-TW","2018/09/29 20:38:33","新北市汐止區工建路216號","121.636506666667","25.0622966666667","6501100","汐止區"
"221035","622-UM","2018/09/29 20:38:26","新北市汐止區長江街101-5號","121.658726666667","25.0731866666667","6501100","汐止區"
"221025","623-UM","2018/09/29 20:38:42","新北市汐止區水源路二段183號","121.657756666667","25.053635","6501100","汐止區"
"221038","646-BX","2018/09/29 20:38:37","新北市汐止區康寧街901號","121.651331666667","25.0750716666667","6501100","汐止區"
"221002","707-TV","2018/09/29 20:38:40","新北市汐止區福德二路134號","121.630896666667","25.06536","6501100","汐止區"
"221018","753-BX","2018/09/29 20:38:28","新北市汐止區茄苳路66號","121.666515","25.0706216666667","6501100","汐止區"
"220083","286-VK","2018/09/29 20:38:37","新北市板橋區僑中二街116巷41號","121.444","25.0066233333333","6500100","板橋區"
"220103","295-UM","2018/09/29 20:38:45","新北市板橋區漢生東路63巷28號","121.46698","25.01718","6500100","板橋區"
"242007","281-VK","2018/09/29 20:38:26","新北市新莊區思源路287巷1弄1號","121.459368333333","25.0483133333333","6500500","新莊區"
"242034","280-VK","2018/09/29 20:38:41","新北市新莊區中正路318巷9號","121.446265","25.0355283333333","6500500","新莊區"
"220070","AAC-253","2018/09/29 20:38:33","新北市五股區新城三路61號","121.449513333333","25.09443","6500100","板橋區"
