"lineid","car","time","location","longitude","latitude","cityid","cityname"
"247012","KEA-2869","2018/09/29 21:49:43","新北市八里區中山路三段386號","121.368406666667","25.1360133333333","6501400","蘆洲區"
"251009","008-UM","2018/09/29 21:49:36","新北市淡水區民族路35巷13號","121.46467","25.136675","6501000","淡水區"
"251005","010-UM","2018/09/29 21:49:33","新北市淡水區鄧公路30巷14號","121.453103333333","25.169795","6501000","淡水區"
"251002","012-UM","2018/09/29 21:49:35","新北市淡水區大忠街157號","121.448156666667","25.1766666666667","6501000","淡水區"
"251008","179-VK","2018/09/29 21:49:48","新北市淡水區學府路104號","121.449883333333","25.1717766666667","6501000","淡水區"
"251010","413-VK","2018/09/29 21:49:44","新北市淡水區中正路二段215號","121.426266666667","25.189315","6501000","淡水區"
"251012","441-VK","2018/09/29 21:49:45","新北市淡水區淡金路三段305號","121.448998333333","25.2055066666667","6501000","淡水區"
"251004","443-VK","2018/09/29 21:49:40","新北市淡水區民權路14號","121.463033333333","25.12454","6501000","淡水區"
"251006","561-UM","2018/09/29 21:49:46","新北市淡水區中正路11巷3號","121.437845","25.1707616666667","6501000","淡水區"
"251007","577-R6","2018/09/29 21:49:29","新北市淡水區水源街二段177巷70號","121.452411666667","25.177535","6501000","淡水區"
"251011","650-BX","2018/09/29 21:49:38","新北市淡水區新民街322巷5弄1-1號","121.436348333333","25.1829266666667","6501000","淡水區"
"251003","673-BX","2018/09/29 21:49:35","新北市淡水區新春街90號","121.43887","25.1823","6501000","淡水區"
