"lineid","car","time","location","longitude","latitude","cityid","cityname"
"247012","KEA-2869","2018/09/29 21:59:43","新北市八里區中山路三段409號","121.368678333333","25.1347583333333","6501400","蘆洲區"
"251005","010-UM","2018/09/29 21:59:33","新北市淡水區鄧公路30巷2弄20號","121.453055","25.1691666666667","6501000","淡水區"
"251008","179-VK","2018/09/29 21:59:27","新北市淡水區學府路104號","121.44988","25.1717866666667","6501000","淡水區"
"251010","413-VK","2018/09/29 21:59:44","新北市淡水區中正路二段215號","121.426266666667","25.189325","6501000","淡水區"
"251004","443-VK","2018/09/29 21:59:40","新北市淡水區民族路31-8號","121.461215","25.1365566666667","6501000","淡水區"
"251006","561-UM","2018/09/29 21:59:26","新北市淡水區中正路11巷3號","121.437846666667","25.1707583333333","6501000","淡水區"
"251007","577-R6","2018/09/29 21:59:29","新北市淡水區北新路184巷19號","121.450263333333","25.1780566666667","6501000","淡水區"
"251011","650-BX","2018/09/29 21:59:38","新北市淡水區水碓街7號","121.443151666667","25.177105","6501000","淡水區"
"251003","673-BX","2018/09/29 21:59:35","新北市淡水區新春街81號","121.438696666667","25.1824483333333","6501000","淡水區"
