"lineid","car","time","location","longitude","latitude","cityid","cityname"
"247012","KEA-2869","2018/09/29 22:29:23","新北市五股區中興路二段182巷3號","121.45623","25.0780766666667","6501400","蘆洲區"
"247007","336-TH","2018/09/29 22:24:50","新北市五股區中興路三段2巷10號","121.449075","25.0809266666667","6501400","蘆洲區"
"251008","179-VK","2018/09/29 22:29:47","新北市淡水區學府路104號","121.449853333333","25.1717883333333","6501000","淡水區"
"251010","413-VK","2018/09/29 22:29:43","新北市淡水區沙崙路200號","121.424761666667","25.1839433333333","6501000","淡水區"
"251004","443-VK","2018/09/29 22:29:40","新北市淡水區民族路33號","121.462265","25.135815","6501000","淡水區"
"251007","577-R6","2018/09/29 22:29:29","新北市淡水區北新路180號","121.44947","25.1787783333333","6501000","淡水區"
"251011","650-BX","2018/09/29 22:29:38","新北市淡水區水碓街7號","121.443185","25.1771766666667","6501000","淡水區"
