"lineid","car","time","location","longitude","latitude","cityid","cityname"
"248005","653-BX","2018/06/16 09:09:29","新北市五股區水碓路26號","121.433271666667","25.0727083333333","6501500","五股區"
"222004","289-BY","2018/06/16 09:09:17","新北市深坑區王軍寮7號","121.616908333333","24.98335","6501800","深坑區"
"231007","189-VK","2018/06/16 09:09:29","新北市新店區新潭路三段215巷25號","121.508128333333","24.9040783333333","6500600","新店區"
"231008","192-VK","2018/06/16 09:09:20","新北市新店區廣興路60巷6-2號","121.539663333333","24.9142316666667","6500600","新店區"
"235001","611-BX","2018/06/16 09:09:20","新北市中和區莒光路207號","121.469971666667","24.9956416666667","6500300","中和區"
"226007","7418-A5","2018/06/16 09:09:20","新北市平溪區東勢里芊蓁坑30號","121.727581666667","24.9791083333333","6502400","平溪區"
"226003","AGD-0702","2018/06/16 09:09:18","新北市平溪區南山里南山坪5號","121.762813333333","25.03326","6502400","平溪區"
"223003","205-TH","2018/06/16 09:09:27","新北市石碇區北宜路四段26號","121.623168333333","24.95791","6501900","石碇區"
"223001","592-UM","2018/06/16 09:09:34","新北市石碇區北宜路四段2號","121.610345","24.9573666666667","6501900","石碇區"
"223004","660-BX","2018/06/16 09:09:30","新北市石碇區碇坪路二段35號","121.684775","24.976715","6501900","石碇區"
"223007","661-BX","2018/06/16 09:09:21","新北市石碇區靜安路一段342號","121.698578333333","25.00822","6501900","石碇區"
"227006","030-BX","2018/06/16 09:09:26","新北市雙溪區長源里赤皮崙5-2號","121.794275","25.0156683333333","6502500","雙溪區"
"252004","249-BX","2018/06/16 09:09:28","新北市淡水區大埤頭1-2號","121.49304","25.1945566666667","6502100","三芝區"
"252007","AAC-283","2018/06/16 09:09:34","新北市三芝區古庄里四棧橋20號","121.488775","25.261245","6502100","三芝區"
"237001","159-UY","2018/06/16 09:09:16","新北市三峽區國際二街3號","121.373888333333","24.9439466666667","6500900","三峽區"
"236011","165-UM","2018/06/16 09:09:25","新北市土城區中央路四段321巷32-2號","121.4118","24.9512616666667","6501300","土城區"
"236002","339-SR","2018/06/16 09:09:23","新北市土城區光明街5號","121.442043333333","24.9747616666667","6501300","土城區"
"236006","498-BY","2018/06/16 09:09:15","新北市土城區中央路三段112號","121.435378333333","24.96632","6501300","土城區"
