"lineid","car","time","location","longitude","latitude","cityid","cityname"
"248005","653-BX","2018/06/16 10:09:29","新北市五股區中興路二段37巷24號","121.460678333333","25.0749866666667","6501500","五股區"
"222004","289-BY","2018/06/16 10:09:17","新北市深坑區風格街31巷9號","121.627626666667","25.0172883333333","6501800","深坑區"
"231007","189-VK","2018/06/16 10:09:29","新北市新店區新潭路三段215巷25號","121.508173333333","24.904025","6500600","新店區"
"231008","192-VK","2018/06/16 10:09:20","新北市新店區平廣路一段92巷7號","121.53005","24.89832","6500600","新店區"
"227006","030-BX","2018/06/16 10:09:26","新北市雙溪區長源里柑腳19號","121.804618333333","25.0141466666667","6502500","雙溪區"
"252004","249-BX","2018/06/16 10:09:28","新北市三芝區埔頭里埔頭11號","121.502003333333","25.2521366666667","6502100","三芝區"
"252007","AAC-283","2018/06/16 10:09:34","新北市三芝區新庄里番社后13-1號","121.497993333333","25.268055","6502100","三芝區"
