"lineid","car","time","location","longitude","latitude","cityid","cityname"
"231008","192-VK","2018/06/16 12:09:40","新北市新店區屈尺路6號","121.549448333333","24.9231433333333","6500600","新店區"
"235029","098-UM","2018/06/16 12:09:28","新北市中和區員山路36巷16-3號","121.485","24.9912966666667","6500300","中和區"
"228005","097-TW","2018/06/16 12:09:38","新北市貢寮區福隆里興隆街36號","121.94203","25.0167666666667","6502600","貢寮區"
"228004","212-TW","2018/06/16 12:09:05","新北市貢寮區貢寮里貢寮街2號","121.907631666667","25.0188933333333","6502600","貢寮區"
"224011","420-VK","2018/06/16 12:09:32","新北市瑞芳區明燈路二段66號","121.809496666667","25.107605","6501200","瑞芳區"
