"lineid","car","time","location","longitude","latitude","cityid","cityname"
"234044","148-BY","2018/06/16 12:29:34","新北市永和區福和路1號","121.52628","25.00997","6500400","永和區"
"234078","298-R6","2018/06/16 12:29:31","新北市永和區福和路8巷1號","121.525005","25.0090266666667","6500400","永和區"
"234036","336-UY","2018/06/16 12:29:35","新北市永和區福和路1號","121.526535","25.0101183333333","6500400","永和區"
"234084","338-UY","2018/06/16 12:29:23","新北市永和區福和路1號","121.526366666667","25.0098066666667","6500400","永和區"
"234028","746-BX","2018/06/16 12:29:37","新北市永和區福和路1號","121.526546666667","25.0099683333333","6500400","永和區"
"234012","KEA-2591","2018/06/16 12:29:31","新北市永和區信義路113號","121.512298333333","25.014745","6500400","永和區"
"234040","862-TW","2018/06/16 12:29:38","新北市永和區福和路1號","121.526213333333","25.0095266666667","6500400","永和區"
"234076","969-R7","2018/06/16 12:29:31","新北市永和區福和路1號","121.526436666667","25.0097883333333","6500400","永和區"
"235029","098-UM","2018/06/16 12:29:28","新北市中和區員山路36巷16-3號","121.48502","24.991275","6500300","中和區"
"235001","611-BX","2018/06/16 12:29:31","新北市中和區連城路525-8號","121.480858333333","24.9949833333333","6500300","中和區"
"228005","097-TW","2018/06/16 12:29:18","新北市貢寮區福連里蓬萊街16號","121.983271666667","24.99351","6502600","貢寮區"
"228004","212-TW","2018/06/16 12:29:05","新北市貢寮區龍崗里嵩陽街33號","121.904","25.017935","6502600","貢寮區"
"224011","420-VK","2018/06/16 12:29:32","新北市瑞芳區明燈路二段66號","121.809453333333","25.107605","6501200","瑞芳區"
"207002","749-BX","2018/06/16 12:29:28","新北市萬里區雙興里太和路7-2號","121.65861","25.17397","6502800","萬里區"
"235025","KEA-2875","2018/06/16 12:25:11","新北市中和區員山路36巷13號","121.484375","24.9911016666667","6500300","中和區"
