"lineid","car","time","location","longitude","latitude","cityid","cityname"
"234028","746-BX","2018/06/16 14:49:36","新北市中和區中正路849巷1號","121.484838333333","25.0028283333333","6500400","永和區"
"234048","863-TW","2018/06/16 14:49:38","新北市永和區保安路130巷1號","121.508713333333","25.01553","6500400","永和區"
"234025","9371-KE","2018/06/16 14:49:40","新北市永和區雙和街23號","121.509165","25.0021566666667","6500400","永和區"
"248017","225-UY","2018/06/16 14:47:17","新北市五股區外寮路13-1號","121.424951666667","25.0812416666667","6501500","五股區"
"231002","002-UM","2018/06/16 14:49:34","新北市新店區二十張路3號","121.540335","24.9827816666667","6500600","新店區"
"231038","0291-UT","2018/06/16 14:49:41","新北市新店區安華路28-1號","121.519608333333","24.96096","6500600","新店區"
"231027","0293-UT","2018/06/16 14:49:27","新北市新店區中央路133巷15弄29號","121.531835","24.97483","6500600","新店區"
"231028","046-UY","2018/06/16 14:49:36","新北市新店區安德街85號","121.509503333333","24.9608216666667","6500600","新店區"
"231001","047-UY","2018/06/16 14:49:22","新北市新店區三民路191號","121.5354","24.97545","6500600","新店區"
"231005","106-UY","2018/06/16 14:49:36","新北市新店區復興路2號","121.532435","24.98825","6500600","新店區"
"231020","108-UY","2018/06/16 14:49:25","新北市新店區桂山路37號","121.56318","24.9044016666667","6500600","新店區"
"231012","187-VK","2018/06/16 14:49:31","新北市新店區永華街36號","121.544698333333","24.97542","6500600","新店區"
"231023","KEA-2219","2018/06/16 14:49:37","新北市新店區檳榔路109號","121.544411666667","24.961665","6500600","新店區"
"231026","256-BX","2018/06/16 14:49:31","新北市新店區安康路一段355號","121.519778333333","24.962955","6500600","新店區"
"231003","268-BY","2018/06/16 14:49:41","新北市新店區寶興路42巷37號","121.547591666667","24.9719816666667","6500600","新店區"
"231018","278-BY","2018/06/16 14:49:41","新北市新店區中央五街1號","121.53017","24.9741333333333","6500600","新店區"
"231017","AAD-862","2018/06/16 14:49:26","新北市新店區北宜路二段458號","121.570735","24.9564516666667","6500600","新店區"
"231037","4716-K9","2018/06/16 14:49:43","新北市新店區安德街148巷31號","121.506678333333","24.9609816666667","6500600","新店區"
"231036","512-UM","2018/06/16 14:49:29","新北市新店區安祥路106巷210號","121.474056666667","24.9604783333333","6500600","新店區"
"231013","513-UM","2018/06/16 14:49:23","新北市新店區北新路二段59巷11號","121.542455","24.9734383333333","6500600","新店區"
"231006","617-UM","2018/06/16 14:49:27","新北市新店區北宜路一段144-2號","121.540135","24.9541233333333","6500600","新店區"
"231030","619-UM","2018/06/16 14:49:30","新北市新店區安民街325號","121.517385","24.97448","6500600","新店區"
"231034","641-BX","2018/06/16 14:49:25","新北市新店區安康路二段357號","121.495706666667","24.9548316666667","6500600","新店區"
"231039","718-UY","2018/06/16 14:49:26","新北市新店區安一路一段1-1號","121.519633333333","24.961145","6500600","新店區"
"231035","719-UM","2018/06/16 14:49:32","新北市新店區安利街26號","121.519206666667","24.9745833333333","6500600","新店區"
"231033","720-UM","2018/06/16 14:49:35","新北市新店區安康路三段130號","121.491033333333","24.95178","6500600","新店區"
"231029","897-TW","2018/06/16 14:49:42","新北市新店區錦秀路11巷11號","121.479881666667","24.9447166666667","6500600","新店區"
"231004","899-TW","2018/06/16 14:49:32","新北市新店區民族路91號","121.538661666667","24.977695","6500600","新店區"
"231024","AKT-0513","2018/06/16 14:49:43","新北市新店區力行路5號","121.539381666667","24.96461","6500600","新店區"
"235020","096-UM","2018/06/16 14:49:40","新北市中和區中山路三段114巷14號","121.475926666667","25.0067333333333","6500300","中和區"
"235003","097-UM","2018/06/16 14:49:24","新北市中和區安樂路139號","121.514513333333","24.996695","6500300","中和區"
"235029","098-UM","2018/06/16 14:49:27","新北市中和區永和路39巷20號","121.49723","25.0053583333333","6500300","中和區"
"235004","150-BY","2018/06/16 14:49:41","新北市中和區安和路43號","121.509641666667","24.994835","6500300","中和區"
"235022","151-BY","2018/06/16 14:49:41","新北市中和區員山路150巷2弄4號","121.481583333333","24.9982183333333","6500300","中和區"
"235019","183-VK","2018/06/16 14:49:37","新北市中和區民德路19號","121.46887","25.002825","6500300","中和區"
"235002","185-VK","2018/06/16 14:49:24","新北市永和區民生路46巷56號","121.52082","24.9962483333333","6500300","中和區"
"235013","186-VK","2018/06/16 14:49:42","新北市中和區景平路552號","121.502278333333","24.9948133333333","6500300","中和區"
"235031","255-BX","2018/06/16 14:49:36","新北市中和區新生街188號","121.483775","24.9996233333333","6500300","中和區"
"235008","293-VK","2018/06/16 14:49:39","新北市中和區南山路249號","121.503746666667","24.992895","6500300","中和區"
"235007","352-BY","2018/06/16 14:49:25","新北市中和區安樂路48號","121.512031666667","24.9930583333333","6500300","中和區"
"235006","KEA-2878","2018/06/16 14:49:42","新北市中和區保健路2巷30號","121.506998333333","24.9974283333333","6500300","中和區"
"235014","4979-A6","2018/06/16 14:49:27","新北市中和區景平路241巷84弄54號","121.506158333333","24.9923966666667","6500300","中和區"
"235034","558-UM","2018/06/16 14:49:29","新北市中和區連城路171巷41弄1號","121.49611","24.9965583333333","6500300","中和區"
"235018","640-BX","2018/06/16 14:49:31","新北市中和區莒光路191-1號","121.471318333333","24.9975466666667","6500300","中和區"
"235024","647-TV","2018/06/16 14:49:36","新北市中和區新生街16巷9號","121.482751666667","25.004305","6500300","中和區"
"235011","732-UM","2018/06/16 14:49:28","新北市中和區和平街134號","121.506485","24.9917233333333","6500300","中和區"
"235010","733-UM","2018/06/16 14:49:42","新北市中和區仁愛街50號","121.51115","24.988115","6500300","中和區"
"235026","800-TS","2018/06/16 14:49:34","新北市中和區永和路204號","121.492185","25.00736","6500300","中和區"
"235021","801-TS","2018/06/16 14:49:25","新北市中和區員山路130號","121.481168333333","24.9962383333333","6500300","中和區"
"235016","805-TS","2018/06/16 14:49:31","新北市中和區華新街30巷15號","121.507138333333","24.9842366666667","6500300","中和區"
"235012","896-TW","2018/06/16 14:49:24","新北市中和區忠孝街99-3號","121.512096666667","24.9862066666667","6500300","中和區"
"235017","900-TW","2018/06/16 14:49:35","新北市中和區國光街215巷8弄1號","121.46663","25.0011733333333","6500300","中和區"
"235030","911-UM","2018/06/16 14:49:26","新北市中和區南工路40號","121.505691666667","25.0012416666667","6500300","中和區"
"235015","157-BY","2018/06/16 14:49:36","新北市中和區景安路247巷22號","121.504465","24.990535","6500300","中和區"
"235001","AAC-213","2018/06/16 14:49:40","新北市中和區自立路36-8號","121.522625","24.992635","6500300","中和區"
"235023","AAC-215","2018/06/16 14:49:23","新北市中和區圓通路305巷5弄55號","121.494948333333","24.9902966666667","6500300","中和區"
"220017","015-TV","2018/06/16 14:49:37","新北市板橋區貴興路117號","121.455683333333","25.0024783333333","6500100","板橋區"
"220013","072-UY","2018/06/16 14:49:40","新北市板橋區海山路41號","121.467273333333","25.0098233333333","6500100","板橋區"
"220034","073-UY","2018/06/16 14:49:36","新北市板橋區中正路170號","121.456443333333","25.0172133333333","6500100","板橋區"
"220105","075-UY","2018/06/16 14:49:37","新北市板橋區民治街57巷32-1號","121.480151666667","25.0340983333333","6500100","板橋區"
"220039","120-SR","2018/06/16 14:49:36","新北市板橋區龍泉街54巷7弄5號","121.456616666667","25.0264533333333","6500100","板橋區"
"247023","893-R6","2018/06/16 14:49:35","新北市五股區四維路185巷30-11號","121.464891666667","25.0762066666667","6501400","蘆洲區"
"247013","546-UM","2018/06/16 14:49:30","新北市蘆洲區中山二路72號","121.473353333333","25.0822633333333","6501400","蘆洲區"
"247015","007-UY","2018/06/16 14:49:36","新北市蘆洲區和平路209號","121.465861666667","25.08176","6501400","蘆洲區"
"247001","002-UY","2018/06/16 14:49:41","新北市蘆洲區永康街2巷25號","121.459076666667","25.086285","6501400","蘆洲區"
"228005","097-TW","2018/06/16 14:49:38","新北市貢寮區美豐里丹裡街65號","121.909426666667","25.0589183333333","6502600","貢寮區"
"228004","212-TW","2018/06/16 14:49:25","新北市貢寮區福隆里裕隆街5號","121.946145","25.0159616666667","6502600","貢寮區"
"253003","6232-TK","2018/06/16 14:49:39","新北市石門區尖子鹿116-6號","121.575261666667","25.29609","6502200","石門區"
"253001","6251-TK","2018/06/16 14:49:22","新北市石門區崁子腳36-1號","121.53744","25.270165","6502200","石門區"
"253002","637-UY","2018/06/16 14:49:34","新北市石門區楓林43號","121.541035","25.2828716666667","6502200","石門區"
"253004","8270-PC","2018/06/16 14:48:21","新北市石門區茂林社區86-1號","121.592778333333","25.26934","6502200","石門區"
"207002","749-BX","2018/06/16 14:49:27","新北市萬里區崁腳里崁腳路73號","121.647563333333","25.159585","6502800","萬里區"
"252005","073-UM","2018/06/16 14:49:29","新北市三芝區埔坪里埔頭坑82號","121.510843333333","25.2533566666667","6502100","三芝區"
"207001","662-BX","2018/06/16 14:49:38","新北市萬里區雙興里二坪路5號","121.6491","25.1751833333333","6502800","萬里區"
"236068","105-UM","2018/06/16 14:49:21","新北市土城區永豐路183號","121.470028333333","24.978405","6501300","土城區"
"236040","107-UM","2018/06/16 14:49:35","新北市土城區裕民路59號","121.449093333333","24.9878783333333","6501300","土城區"
"236074","166-UM","2018/06/16 14:49:31","新北市土城區中央路四段67巷60號","121.418018333333","24.9565633333333","6501300","土城區"
"236029","253-BX","2018/06/16 14:49:33","新北市土城區忠義路26巷10號","121.439831666667","24.9699016666667","6501300","土城區"
"236024","269-VK","2018/06/16 14:49:37","新北市土城區慶安街72號","121.44075","24.9729166666667","6501300","土城區"
"236013","270-VK","2018/06/16 14:49:39","新北市土城區金城路二段354巷20號","121.460775","24.9840883333333","6501300","土城區"
"236032","271-VK","2018/06/16 14:49:26","新北市土城區明德路一段221巷13號","121.463781666667","24.9781216666667","6501300","土城區"
"236017","401-BY","2018/06/16 14:49:39","新北市土城區延安街9號","121.467393333333","24.985915","6501300","土城區"
"236057","752-BX","2018/06/16 14:49:23","新北市土城區忠義路45巷2號","121.440988333333","24.9694883333333","6501300","土城區"
"236045","913-UM","2018/06/16 14:49:39","新北市土城區青雲路147號","121.458811666667","24.9839183333333","6501300","土城區"
"236060","915-UM","2018/06/16 14:49:32","新北市土城區延和路201號","121.469485","24.9902533333333","6501300","土城區"
"236054","AAC-216","2018/06/16 14:49:31","新北市土城區裕民路172號","121.452608333333","24.9855","6501300","土城區"
"221002","707-TV","2018/06/16 14:49:39","新北市汐止區莊敬街21號","121.657306666667","25.061455","6501100","汐止區"
"220027","145-BY","2018/06/16 14:49:42","新北市板橋區中正路216巷131號","121.460631666667","25.01985","6500100","板橋區"
"220028","200-UY","2018/06/16 14:49:37","新北市板橋區大觀路二段163巷23號","121.446808333333","25.0000866666667","6500100","板橋區"
"220030","610-BX","2018/06/16 14:49:25","新北市板橋區溪北路101號","121.428761666667","24.9892416666667","6500100","板橋區"
"220050","245-BX","2018/06/16 14:49:31","新北市板橋區縣民大道三段79巷15號","121.475125","25.0221366666667","6500100","板橋區"
"220003","256-TC","2018/06/16 14:49:36","新北市板橋區仁愛路64號","121.459903333333","24.9994333333333","6500100","板橋區"
"220052","257-TC","2018/06/16 14:49:34","新北市板橋區陽明街29巷24號","121.464231666667","25.0224033333333","6500100","板橋區"
"220040","267-BY","2018/06/16 14:49:41","新北市板橋區民治街81巷15號","121.480338333333","25.03228","6500100","板橋區"
"220004","276-BY","2018/06/16 14:49:31","新北市板橋區四川路二段99巷2弄2-3號","121.452721666667","24.9944483333333","6500100","板橋區"
"220020","277-BY","2018/06/16 14:49:29","新北市板橋區金門街151巷3弄1號","121.43304","24.99047","6500100","板橋區"
"220019","283-VK","2018/06/16 14:49:43","新北市板橋區五權街30巷12弄3號","121.464148333333","24.9935083333333","6500100","板橋區"
"220043","285-UM","2018/06/16 14:49:31","新北市板橋區溪頭街4-1號","121.457611666667","25.0289816666667","6500100","板橋區"
"220001","285-VK","2018/06/16 14:49:37","新北市板橋區中山路二段60巷1弄7-2號","121.474601666667","25.0155183333333","6500100","板橋區"
"220031","286-VK","2018/06/16 14:49:26","新北市板橋區僑中二街50號","121.446578333333","25.0105866666667","6500100","板橋區"
"220029","287-VK","2018/06/16 14:49:32","新北市板橋區僑中一街124巷20弄2號","121.446186666667","25.0138966666667","6500100","板橋區"
"220009","293-UM","2018/06/16 14:49:39","新北市板橋區板新路146號","121.470503333333","25.01565","6500100","板橋區"
"220010","295-UM","2018/06/16 14:49:33","新北市板橋區三民路二段29巷15號","121.482028333333","25.0181166666667","6500100","板橋區"
"220041","299-UM","2018/06/16 14:49:30","新北市板橋區四維路259巷51號","121.461381666667","25.0270916666667","6500100","板橋區"
"220023","303-R5","2018/06/16 14:49:32","新北市板橋區金華街10巷21號","121.456583333333","25.0201366666667","6500100","板橋區"
"220047","317-R6","2018/06/16 14:49:28","新北市板橋區新海路404號","121.4586","25.0268766666667","6500100","板橋區"
"220012","486-VK","2018/06/16 14:49:25","新北市板橋區實踐路82號","121.463868333333","25.0053483333333","6500100","板橋區"
"220037","491-VK","2018/06/16 14:49:27","新北市板橋區仁化街76號","121.476135","25.031815","6500100","板橋區"
"220035","560-BX","2018/06/16 14:49:36","新北市板橋區新生街87巷22號","121.457131666667","25.0220833333333","6500100","板橋區"
"220032","568-UM","2018/06/16 14:49:31","新北市樹林區博愛街198號","121.424981666667","24.98936","6500100","板橋區"
"220011","609-BX","2018/06/16 14:49:22","新北市板橋區三民路一段31巷2-4號","121.481935","25.02309","6500100","板橋區"
"220005","686-BX","2018/06/16 14:49:41","新北市板橋區信義路28-6號","121.45712","24.9950816666667","6500100","板橋區"
"220025","687-BX","2018/06/16 14:49:40","新北市板橋區僑中一街125巷1號","121.445698333333","25.0116966666667","6500100","板橋區"
"220042","689-BX","2018/06/16 14:49:34","新北市板橋區長江路一段204號","121.462485","25.0307333333333","6500100","板橋區"
"220002","741-BX","2018/06/16 14:49:33","新北市板橋區忠孝路忠義巷18弄1號","121.466348333333","25.0038166666667","6500100","板橋區"
"220051","KEA-2699","2018/06/16 14:49:39","新北市板橋區文化路二段410巷23號","121.474781666667","25.030795","6500100","板橋區"
"220014","829-TW","2018/06/16 14:49:35","新北市板橋區漢生東路193巷77號","121.472573333333","25.0117166666667","6500100","板橋區"
"220016","830-TW","2018/06/16 14:49:38","新北市板橋區光復街186號","121.48544","25.019855","6500100","板橋區"
"220045","831-TW","2018/06/16 14:49:40","新北市板橋區莒光路39巷19號","121.470773333333","25.02545","6500100","板橋區"
"220038","833-TW","2018/06/16 14:49:43","新北市板橋區龍泉街131號","121.457508333333","25.0239483333333","6500100","板橋區"
"220022","895-R6","2018/06/16 14:49:41","新北市板橋區明德街2-2號","121.459818333333","25.00992","6500100","板橋區"
"220021","985-R7","2018/06/16 14:49:35","新北市板橋區南雅西路二段16號","121.453046666667","25.0093616666667","6500100","板橋區"
"220046","AAC-210","2018/06/16 14:49:27","新北市板橋區文化路一段285巷2弄12號","121.464618333333","25.019335","6500100","板橋區"
"220018","AAC-253","2018/06/16 14:49:27","新北市板橋區民族路115號","121.466978333333","25.00814","6500100","板橋區"
"235032","KEA-2873","2018/06/16 14:49:30","新北市中和區福祥路85巷1號","121.498818333333","25.005715","6500300","中和區"
