"lineid","car","time","location","longitude","latitude","cityid","cityname"
"231002","002-UM","2018/06/16 15:19:34","新北市新店區中正路700巷1號","121.533931666667","24.991225","6500600","新店區"
"231038","0291-UT","2018/06/16 15:19:41","新北市新店區安華路28-1號","121.51971","24.9608666666667","6500600","新店區"
"231028","046-UY","2018/06/16 15:19:34","新北市新店區僑信路120巷21號","121.499438333333","24.945795","6500600","新店區"
"231001","047-UY","2018/06/16 15:19:22","新北市新店區北新路一段235號","121.540713333333","24.965615","6500600","新店區"
"231005","106-UY","2018/06/16 15:19:37","新北市新店區建國路217號","121.537611666667","24.9807683333333","6500600","新店區"
"231020","108-UY","2018/06/16 15:19:25","新北市新店區永福路38-1號","121.553455","24.929275","6500600","新店區"
"231012","187-VK","2018/06/16 15:19:31","新北市新店區寶慶街76號","121.541585","24.9867566666667","6500600","新店區"
"231023","KEA-2219","2018/06/16 15:19:37","新北市新店區北新路一段64巷43號","121.542303333333","24.96568","6500600","新店區"
"231026","256-BX","2018/06/16 15:19:31","新北市新店區中正路263號","121.538541666667","24.9734816666667","6500600","新店區"
"231003","268-BY","2018/06/16 15:19:40","新北市新店區寶橋路226號","121.551301666667","24.9787383333333","6500600","新店區"
"231018","278-BY","2018/06/16 15:19:41","新北市新店區中央八街82號","121.527206666667","24.9772483333333","6500600","新店區"
"231017","AAD-862","2018/06/16 15:19:26","新北市新店區明山路45號","121.56382","24.95589","6500600","新店區"
"231037","4716-K9","2018/06/16 15:19:43","新北市新店區安興路81號","121.515306666667","24.97529","6500600","新店區"
"231025","4715-K9","2018/06/16 15:19:25","新北市新店區環河路103-6號","121.531298333333","24.9709183333333","6500600","新店區"
"231036","512-UM","2018/06/16 15:19:29","新北市新店區安祥路104巷6弄31號","121.48249","24.9629333333333","6500600","新店區"
"231006","617-UM","2018/06/16 15:19:27","新北市新店區力行路11巷57號","121.538585","24.961755","6500600","新店區"
"231030","619-UM","2018/06/16 15:19:30","新北市新店區安民街341-1號","121.516808333333","24.9749","6500600","新店區"
"231034","641-BX","2018/06/16 15:19:26","新北市新店區如意街3巷2號","121.495576666667","24.9491816666667","6500600","新店區"
"231039","718-UY","2018/06/16 15:19:27","新北市新店區中興路三段324號","121.54211","24.9861883333333","6500600","新店區"
"231035","719-UM","2018/06/16 15:19:12","新北市新店區永平街23巷1號","121.516885","24.9832483333333","6500600","新店區"
"231033","720-UM","2018/06/16 15:19:35","新北市新店區裕合街29號","121.489123333333","24.9499616666667","6500600","新店區"
"231029","897-TW","2018/06/16 15:19:22","新北市新店區安康路三段561巷2弄12號","121.475798333333","24.944","6500600","新店區"
"231004","899-TW","2018/06/16 15:19:26","新北市新店區建國路29號","121.540241666667","24.9741116666667","6500600","新店區"
"231024","AKT-0513","2018/06/16 15:19:43","新北市新店區環河路6號","121.53833","24.9616883333333","6500600","新店區"
"241011","013-R5","2018/06/16 15:19:27","新北市三重區重新路四段121號","121.485105","25.0519216666667","6500200","三重區"
"241013","270-UM","2018/06/16 15:19:31","新北市三重區重新路四段121號","121.484835","25.052355","6500200","三重區"
"235003","097-UM","2018/06/16 15:19:24","新北市中和區景新街469號","121.513431666667","24.9880116666667","6500300","中和區"
"235004","150-BY","2018/06/16 15:19:41","新北市中和區景安路79巷21號","121.507081666667","24.9968466666667","6500300","中和區"
"235014","4979-A6","2018/06/16 15:19:27","新北市中和區景平路466號","121.50572","24.993755","6500300","中和區"
"235033","4980-A6","2018/06/16 15:19:36","新北市中和區中正路218-6號","121.496445","24.9941233333333","6500300","中和區"
"235034","558-UM","2018/06/16 15:19:29","新北市中和區中正路446號","121.49101","24.9941933333333","6500300","中和區"
"235012","896-TW","2018/06/16 15:19:24","新北市中和區興南路一段18號","121.511355","24.99125","6500300","中和區"
"235030","911-UM","2018/06/16 15:19:26","新北市中和區保平路336號","121.506708333333","25.0042516666667","6500300","中和區"
"235023","AAC-215","2018/06/16 15:19:23","新北市中和區圓通路391-5號","121.489786666667","24.9891266666667","6500300","中和區"
"220034","073-UY","2018/06/16 15:19:35","新北市樹林區八德街491-8號","121.402245","24.9693383333333","6500100","板橋區"
"247014","546-UM","2018/06/16 15:06:48","新北市五股區中興路三段2巷10號","121.449195","25.080955","6501400","蘆洲區"
"247006","336-TH","2018/06/16 14:52:51","新北市五股區中興路三段163號","121.449156666667","25.0807666666667","6501400","蘆洲區"
"253003","6232-TK","2018/06/16 15:19:39","新北市石門區小坑9號","121.594383333333","25.2884133333333","6502200","石門區"
"253001","6251-TK","2018/06/16 15:19:41","新北市石門區小坑12-8號","121.59545","25.2854283333333","6502200","石門區"
"253002","637-UY","2018/06/16 15:19:34","新北市石門區小坑12-8號","121.595393333333","25.28494","6502200","石門區"
"253004","8270-PC","2018/06/16 15:19:26","新北市石門區小坑9號","121.594476666667","25.2891716666667","6502200","石門區"
"207002","749-BX","2018/06/16 15:19:27","新北市萬里區雙興里太和路10-3號","121.66465","25.163975","6502800","萬里區"
"207001","662-BX","2018/06/16 15:19:38","新北市萬里區大鵬里萬里加投10號","121.650645","25.2071733333333","6502800","萬里區"
"236068","105-UM","2018/06/16 15:19:42","新北市土城區學成路89號","121.451181666667","24.9882583333333","6501300","土城區"
"236040","107-UM","2018/06/16 15:19:35","新北市土城區裕民路259號","121.454888333333","24.9828366666667","6501300","土城區"
"236074","166-UM","2018/06/16 15:19:44","新北市土城區中州路27巷78號","121.412605","24.9563533333333","6501300","土城區"
"236029","253-BX","2018/06/16 15:19:36","新北市土城區中央路一段262巷12號","121.443585","24.9841116666667","6501300","土城區"
"236024","269-VK","2018/06/16 15:19:36","新北市土城區中央路二段61巷28號","121.443391666667","24.9786233333333","6501300","土城區"
"236013","270-VK","2018/06/16 15:19:43","新北市土城區廣福街9號","121.457185","24.9888683333333","6501300","土城區"
"236032","271-VK","2018/06/16 15:19:26","新北市土城區國際路158巷54號","121.467973333333","24.9748866666667","6501300","土城區"
"236017","401-BY","2018/06/16 15:19:39","新北市土城區峰廷街3號","121.469063333333","24.98733","6501300","土城區"
"236057","752-BX","2018/06/16 15:19:43","新北市土城區中央路三段4-5號","121.439055","24.969905","6501300","土城區"
"236045","913-UM","2018/06/16 15:19:39","新北市土城區明德路一段161號","121.464703333333","24.9795983333333","6501300","土城區"
"236060","915-UM","2018/06/16 15:19:32","新北市土城區金城路三段149巷4弄10號","121.468676666667","24.9892366666667","6501300","土城區"
"236054","AAC-216","2018/06/16 15:19:37","新北市土城區學府路一段6號","121.459686666667","24.988425","6501300","土城區"
"220050","245-BX","2018/06/16 15:19:31","新北市板橋區縣民大道三段32號","121.471408333333","25.0188433333333","6500100","板橋區"
"220052","257-TC","2018/06/16 15:19:30","新北市板橋區漢生西路34號","121.463438333333","25.0182833333333","6500100","板橋區"
"220031","286-VK","2018/06/16 15:19:41","新北市板橋區大觀路一段38巷156弄110-7號","121.444591666667","25.007515","6500100","板橋區"
"220042","689-BX","2018/06/16 15:19:32","新北市板橋區民生路三段252號","121.464366666667","25.0311366666667","6500100","板橋區"
"220051","KEA-2699","2018/06/16 15:19:39","新北市板橋區漢生東路83巷4-1號","121.467243333333","25.015865","6500100","板橋區"
"220014","829-TW","2018/06/16 15:19:28","新北市板橋區中山路二段403號","121.480511666667","25.0195583333333","6500100","板橋區"
"220038","833-TW","2018/06/16 15:19:37","新北市板橋區四維路141號","121.465011666667","25.0255433333333","6500100","板橋區"
"220018","AAC-253","2018/06/16 15:19:27","新北市板橋區四川路二段245巷35號","121.451715","24.9928066666667","6500100","板橋區"
