"lineid","car","time","location","longitude","latitude","cityid","cityname"
"234042","862-TW","2018/06/16 17:29:33","新北市永和區福和路1號","121.526216666667","25.0095283333333","6500400","永和區"
"249005","172-UM","2018/06/16 17:29:33","新北市八里區荖阡坑路69號","121.406345","25.126745","6502300","八里區"
"249001","173-UM","2018/06/16 17:29:32","新北市八里區大崁腳47-3號","121.424531666667","25.1589766666667","6502300","八里區"
"249004","303-UY","2018/06/16 17:29:47","新北市八里區賢三街162號","121.414653333333","25.15682","6502300","八里區"
"249002","305-UY","2018/06/16 17:29:44","新北市八里區龍米路二段36-1號","121.448566666667","25.140375","6502300","八里區"
"249003","593-UM","2018/06/16 17:29:35","新北市八里區中山路二段315號","121.400591666667","25.14777","6502300","八里區"
"244007","080-UY","2018/06/16 17:29:37","新北市林口區湖子8-2號","121.391971666667","25.0922183333333","6501700","林口區"
"244019","403-UM","2018/06/16 17:29:40","新北市林口區公園路165號","121.371001666667","25.07148","6501700","林口區"
"244013","742-UY","2018/06/16 17:29:35","新北市林口區粉寮69號","121.404818333333","25.0908566666667","6501700","林口區"
"244023","483-VK","2018/06/16 17:29:28","新北市林口區東明一街15巷10號","121.393071666667","25.0721016666667","6501700","林口區"
"244017","485-VK","2018/06/16 17:29:46","新北市林口區工四路45號","121.400565","25.0835083333333","6501700","林口區"
"244009","656-BX","2018/06/16 17:29:33","新北市林口區中北三街124號","121.383915","25.08421","6501700","林口區"
"244011","657-BX","2018/06/16 17:29:37","新北市林口區仁愛路一段398號","121.3871","25.0767083333333","6501700","林口區"
"244025","837-TS","2018/06/16 17:29:31","新北市林口區忠孝一路78巷2號","121.362835","25.073905","6501700","林口區"
"244021","838-TS","2018/06/16 17:29:42","新北市林口區粉寮路60-17號","121.404295","25.0902233333333","6501700","林口區"
"231046","188-VK","2018/06/16 17:29:39","新北市新店區直潭路92號","121.530933333333","24.9376166666667","6500600","新店區"
"241011","013-R5","2018/06/16 17:29:47","新北市三重區河邊北街110巷45號","121.50294","25.0706983333333","6500200","三重區"
"241009","060-VK","2018/06/16 17:29:45","新北市三重區力行路二段162巷53號","121.481183333333","25.076415","6500200","三重區"
"241015","062-VK","2018/06/16 17:29:36","新北市三重區長元街65巷22弄20號","121.503766666667","25.0659766666667","6500200","三重區"
"241017","063-VK","2018/06/16 17:29:27","新北市三重區重新路三段47巷3弄2號","121.492926666667","25.0617216666667","6500200","三重區"
"241024","065-VK","2018/06/16 17:29:33","新北市三重區國道路一段58巷15號","121.481321666667","25.0720183333333","6500200","三重區"
"241005","262-UM","2018/06/16 17:29:35","新北市三重區永安北路二段33號","121.482316666667","25.08222","6500200","三重區"
"241003","265-UM","2018/06/16 17:29:33","新北市三重區五華街141巷60號","121.493435","25.0866116666667","6500200","三重區"
"241016","266-UM","2018/06/16 17:29:45","新北市三重區大同北路71號","121.49517","25.063745","6500200","三重區"
"241032","269-UM","2018/06/16 17:29:29","新北市三重區名源街61巷1號","121.48198","25.05935","6500200","三重區"
"241013","270-UM","2018/06/16 17:29:31","新北市三重區仁福街64巷39號","121.497395","25.07605","6500200","三重區"
"241025","271-UM","2018/06/16 17:29:45","新北市三重區中正北路438號","121.474255","25.0711766666667","6500200","三重區"
"241007","398-BY","2018/06/16 17:29:44","新北市三重區三和路四段145巷100號","121.486886666667","25.0790166666667","6500200","三重區"
"241023","413-TH","2018/06/16 17:29:43","新北市三重區忠孝路三段84巷32號","121.481656666667","25.0641716666667","6500200","三重區"
"241020","478-VK","2018/06/16 17:29:37","新北市三重區忠孝路一段133號","121.488498333333","25.0718983333333","6500200","三重區"
"241030","480-VK","2018/06/16 17:29:27","新北市三重區中正南路260-1號","121.493081666667","25.0529383333333","6500200","三重區"
"241014","543-UM","2018/06/16 17:29:40","新北市三重區長壽街63號","121.501498333333","25.0684533333333","6500200","三重區"
"241019","KEA-2593","2018/06/16 17:29:40","新北市三重區自強路二段40巷15號","121.48864","25.0692366666667","6500200","三重區"
"241018","743-BX","2018/06/16 17:29:34","新北市三重區安慶街178號","121.493718333333","25.068485","6500200","三重區"
"241026","887-TS","2018/06/16 17:29:34","新北市三重區大同南路56號","121.496141666667","25.059785","6500200","三重區"
"241012","941-UM","2018/06/16 17:29:27","新北市三重區仁興街24巷5號","121.499143333333","25.0751783333333","6500200","三重區"
"241033","AAC-255","2018/06/16 17:29:40","新北市三重區光復路一段138-8號","121.470233333333","25.052655","6500200","三重區"
"247024","893-R6","2018/06/16 17:29:29","新北市蘆洲區長興路349號","121.460835","25.09101","6501400","蘆洲區"
"247014","546-UM","2018/06/16 17:29:25","新北市蘆洲區三民路33號","121.475421666667","25.0829883333333","6501400","蘆洲區"
"247022","500-BY","2018/06/16 17:29:40","新北市蘆洲區三民路224號","121.468675","25.089365","6501400","蘆洲區"
"247010","341-TH","2018/06/16 17:29:34","新北市蘆洲區鷺江街39號","121.478506666667","25.0821883333333","6501400","蘆洲區"
"247012","339-TH","2018/06/16 17:29:37","新北市蘆洲區民族路42號","121.476685","25.08454","6501400","蘆洲區"
"247004","337-TH","2018/06/16 17:29:35","新北市蘆洲區長安街233巷22號","121.458503333333","25.0825933333333","6501400","蘆洲區"
"247006","336-TH","2018/06/16 17:29:32","新北市蘆洲區長安街68巷20號","121.463848333333","25.0808366666667","6501400","蘆洲區"
"247018","057-VK","2018/06/16 17:29:36","新北市蘆洲區民權路101巷4號","121.472453333333","25.0890366666667","6501400","蘆洲區"
"247008","056-VK","2018/06/16 17:29:45","新北市蘆洲區民生街95號","121.47377","25.0787133333333","6501400","蘆洲區"
"247016","007-UY","2018/06/16 17:29:32","新北市蘆洲區光華路22巷50號","121.468123333333","25.085235","6501400","蘆洲區"
"247002","002-UY","2018/06/16 17:29:47","新北市蘆洲區永樂街38巷67弄1號","121.458268333333","25.0904333333333","6501400","蘆洲區"
"247020","001-UY","2018/06/16 17:29:30","新北市蘆洲區水湳街281號","121.469471666667","25.09289","6501400","蘆洲區"
"228003","097-TW","2018/06/16 17:29:26","新北市貢寮區仁理村仁和路2-1號","121.923113333333","25.0487083333333","6502600","貢寮區"
"228001","212-TW","2018/06/16 17:29:28","新北市貢寮區仁理村仁愛路39號","121.925051666667","25.0533883333333","6502600","貢寮區"
"228002","585-TW","2018/06/16 17:29:42","新北市貢寮區福隆里福隆街12號","121.944918333333","25.016265","6502600","貢寮區"
"224010","AGQ-8101","2018/06/16 17:28:35","新北市瑞芳區逢甲路93號","121.807383333333","25.1098066666667","6501200","瑞芳區"
"224006","676-BX","2018/06/16 17:29:31","新北市瑞芳區靜安路四段94號","121.79323","25.11033","6501200","瑞芳區"
"224008","285-BY","2018/06/16 17:29:09","新北市瑞芳區侯硐路214號","121.830516666667","25.0881783333333","6501200","瑞芳區"
"224009","273-VK","2018/06/16 17:29:45","新北市瑞芳區汽車路10號","121.846453333333","25.1107183333333","6501200","瑞芳區"
"224005","271-BY","2018/06/16 17:29:29","新北市瑞芳區海濱路8-6號","121.831696666667","25.1261883333333","6501200","瑞芳區"
"227002","642-TC","2018/06/16 17:29:43","新北市雙溪區平林里外平林32號","121.855213333333","25.0354783333333","6502500","雙溪區"
"251009","008-UM","2018/06/16 17:29:43","新北市淡水區新生街30巷34號","121.43945","25.17316","6501000","淡水區"
"251004","009-UM","2018/06/16 17:20:39","新北市淡水區中正東路二段88巷15號","121.459251666667","25.1506683333333","6501000","淡水區"
"251002","012-UM","2018/06/16 17:29:34","新北市淡水區中正路437號","121.432108333333","25.17473","6501000","淡水區"
"251013","KEA-2871","2018/06/16 17:29:36","新北市淡水區大竹圍5-1號","121.466101666667","25.1945483333333","6501000","淡水區"
"251016","179-VK","2018/06/16 17:29:33","新北市淡水區社厝坑5-1號","121.470553333333","25.1901916666667","6501000","淡水區"
"251014","180-VK","2018/06/16 17:29:09","新北市淡水區北勢子16號","121.473901666667","25.22773","6501000","淡水區"
"251008","181-VK","2018/06/16 17:29:36","新北市淡水區大同路105巷1號","121.462976666667","25.1403866666667","6501000","淡水區"
"251015","182-VK","2018/06/16 17:29:02","新北市淡水區樹林口7-1號","121.479516666667","25.1672233333333","6501000","淡水區"
"251010","413-VK","2018/06/16 17:29:42","新北市淡水區中正路二段211號","121.426213333333","25.1891116666667","6501000","淡水區"
"251012","441-VK","2018/06/16 17:29:31","新北市淡水區北新路111號","121.448163333333","25.1783933333333","6501000","淡水區"
"251007","442-VK","2018/06/16 17:29:43","新北市淡水區民生路47-5號","121.462158333333","25.1381116666667","6501000","淡水區"
"251005","443-VK","2018/06/16 17:29:26","新北市淡水區鄧公路31巷14號","121.451843333333","25.1705233333333","6501000","淡水區"
"251006","561-UM","2018/06/16 17:29:42","新北市淡水區大仁街13號","121.442358333333","25.1749716666667","6501000","淡水區"
"251011","650-BX","2018/06/16 17:29:32","新北市淡水區坪頂路718號","121.482595","25.1585166666667","6501000","淡水區"
"251003","766-UM","2018/06/16 17:29:38","新北市淡水區中山路151-7號","121.440238333333","25.17245","6501000","淡水區"
"207003","550-UM","2018/06/16 17:29:44","新北市萬里區龜吼里亭路3號","121.683253333333","25.189595","6502800","萬里區"
"207004","225-TW","2018/06/16 17:29:32","新北市萬里區萬里里景美路8-3號","121.684376666667","25.1728233333333","6502800","萬里區"
"252002","178-VK","2018/06/16 17:29:32","新北市三芝區忠孝街1-15號","121.505621666667","25.2539416666667","6502100","三芝區"
"252001","292-VK","2018/06/16 17:29:39","新北市三芝區淡金路一段3號","121.498148333333","25.2596733333333","6502100","三芝區"
"237012","275-BY","2018/06/16 17:29:26","新北市三峽區中山路459巷137號","121.349968333333","24.9339466666667","6500900","三峽區"
"237016","649-BX","2018/06/16 17:29:30","新北市三峽區大仁路69號","121.364713333333","24.9373166666667","6500900","三峽區"
"242034","AAC-296","2018/06/16 17:29:44","新北市新莊區新莊路473號","121.449116666667","25.0333616666667","6500500","新莊區"
"242058","986-R7","2018/06/16 17:29:39","新北市新莊區中正路498號","121.436031666667","25.03288","6500500","新莊區"
"242053","751-BX","2018/06/16 17:29:29","新北市新莊區瓊林南路305巷3號","121.434806666667","25.0054216666667","6500500","新莊區"
"242027","615-BX","2018/06/16 17:29:43","新北市新莊區思源路32號","121.460171666667","25.04094","6500500","新莊區"
"242025","613-BX","2018/06/16 17:29:43","新北市新莊區復興路二段31號","121.45439","25.04412","6500500","新莊區"
"242029","612-BX","2018/06/16 17:29:35","新北市新莊區復興路二段194號","121.459286666667","25.04443","6500500","新莊區"
"242042","566-BX","2018/06/16 17:29:36","新北市新莊區新樹路113巷19號","121.439171666667","25.026395","6500500","新莊區"
"242046","497-BY","2018/06/16 17:29:44","新北市新莊區新樹路51號","121.44014","25.031965","6500500","新莊區"
"242051","441-UM","2018/06/16 17:29:44","新北市新莊區新樹路260-2號","121.432353333333","25.01523","6500500","新莊區"
"242056","440-UM","2018/06/16 17:29:46","新北市新莊區新泰路31號","121.449631666667","25.03301","6500500","新莊區"
"242036","415-TV","2018/06/16 17:29:41","新北市新莊區新樹路132-3號","121.435078333333","25.02385","6500500","新莊區"
"242007","413-TV","2018/06/16 17:29:43","新北市新莊區自強街38號","121.454741666667","25.0463733333333","6500500","新莊區"
"242044","400-BY","2018/06/16 17:29:41","新北市新莊區富國路74號","121.419948333333","25.0259016666667","6500500","新莊區"
"242023","362-BY","2018/06/16 17:29:40","新北市新莊區公園路152號","121.453183333333","25.04013","6500500","新莊區"
"242061","353-BY","2018/06/16 17:29:47","新北市新莊區瓊林南路42巷2-2號","121.436053333333","25.0181416666667","6500500","新莊區"
"242009","132-UY","2018/06/16 17:29:40","新北市新莊區中華路二段258巷25號","121.453161666667","25.0544416666667","6500500","新莊區"
"242039","133-UY","2018/06/16 17:29:31","新北市新莊區民安路312號","121.428383333333","25.02206","6500500","新莊區"
"242048","172-VK","2018/06/16 17:29:31","新北市新莊區四維路210號","121.421585","25.0200683333333","6500500","新莊區"
"242017","175-VK","2018/06/16 17:29:39","新北市新莊區德豐街4號","121.451645","25.043935","6500500","新莊區"
"242004","176-VK","2018/06/16 17:29:46","新北市新莊區中港路288巷14號","121.453443333333","25.0445233333333","6500500","新莊區"
"242015","346-TH","2018/06/16 17:29:45","新北市新莊區建中街124號","121.445326666667","25.0365616666667","6500500","新莊區"
"242031","347-TH","2018/06/16 17:29:36","新北市新莊區新泰路401巷27號","121.442611666667","25.043975","6500500","新莊區"
"242021","348-TH","2018/06/16 17:29:37","新北市新莊區中華路一段29號","121.451843333333","25.0371866666667","6500500","新莊區"
"242002","349-TH","2018/06/16 17:29:27","新北市新莊區碧江街13-2號","121.455528333333","25.0346333333333","6500500","新莊區"
"242019","350-TH","2018/06/16 17:29:45","新北市新莊區中港路76號","121.455478333333","25.0389633333333","6500500","新莊區"
"242013","351-TH","2018/06/16 17:29:38","新北市新莊區中誠街16巷4號","121.451966666667","25.0483816666667","6500500","新莊區"
"238015","755-BX","2018/06/16 17:29:30","新北市樹林區大安路267號","121.418998333333","24.9936766666667","6500700","樹林區"
"238023","601-UM","2018/06/16 17:29:41","新北市樹林區三福街24號","121.408425","25.0167466666667","6500700","樹林區"
"238019","599-UM","2018/06/16 17:29:42","新北市樹林區太平路117號","121.419221666667","24.98083","6500700","樹林區"
"238018","571-TV","2018/06/16 17:29:30","新北市樹林區鎮前街168號","121.424216666667","24.9897933333333","6500700","樹林區"
"238024","5061-A6","2018/06/16 17:29:36","新北市樹林區博愛一街40號","121.42595","24.990725","6500700","樹林區"
"238022","KEA-2213","2018/06/16 17:29:29","新北市樹林區仁愛街61號","121.422761666667","24.98237","6500700","樹林區"
"238021","KEA-2539","2018/06/16 17:29:40","新北市樹林區西圳街一段203巷35號","121.395038333333","24.9578116666667","6500700","樹林區"
"238025","303-VK","2018/06/16 17:29:42","新北市樹林區保安街一段195號","121.420983333333","24.9960466666667","6500700","樹林區"
"238014","282-BY","2018/06/16 17:29:28","新北市樹林區保安街一段245號","121.41974","24.9963616666667","6500700","樹林區"
"238026","172-UY","2018/06/16 17:29:33","新北市樹林區新興街11號","121.400088333333","24.9730283333333","6500700","樹林區"
"238016","169-UY","2018/06/16 17:29:31","新北市樹林區長壽街2巷1號","121.423986666667","24.9934433333333","6500700","樹林區"
"239006","891-R6","2018/06/16 17:29:34","新北市鶯歌區鶯桃路472巷55號","121.333233333333","24.9660166666667","6500800","鶯歌區"
"239008","527-UM","2018/06/16 17:29:45","新北市鶯歌區大湖路387號","121.331021666667","24.9787316666667","6500800","鶯歌區"
"239005","526-UM","2018/06/16 17:29:32","新北市鶯歌區福隆一街44號","121.325053333333","24.9713366666667","6500800","鶯歌區"
"239001","417-VK","2018/06/16 17:29:38","新北市鶯歌區中正三路101號","121.338243333333","24.9409166666667","6500800","鶯歌區"
"239003","360-BY","2018/06/16 17:29:34","新北市鶯歌區德昌街201號","121.330038333333","24.9602683333333","6500800","鶯歌區"
"239002","359-BY","2018/06/16 17:29:33","新北市鶯歌區國慶街69號","121.350016666667","24.9551866666667","6500800","鶯歌區"
"239004","193-VK","2018/06/16 17:29:32","新北市鶯歌區三鶯路12號","121.356545","24.9413233333333","6500800","鶯歌區"
"221010","269-BY","2018/06/16 17:29:42","新北市汐止區汐萬路一段256巷3號","121.652088333333","25.0746916666667","6501100","汐止區"
"221033","647-BX","2018/06/16 17:29:30","新北市汐止區汐萬路一段310號","121.650446666667","25.0748583333333","6501100","汐止區"
"235061","KEA-2875","2018/06/16 17:11:26","新北市中和區員山路36巷16-2號","121.48531","24.9916466666667","6500300","中和區"
