"lineid","car","time","location","longitude","latitude","cityid","cityname"
"234046","148-BY","2018/06/16 19:09:42","新北市永和區永元路18巷35號","121.523973333333","25.000305","6500400","永和區"
"234007","207-UY","2018/06/16 19:09:40","新北市永和區中山路一段193號","121.509218333333","25.0089016666667","6500400","永和區"
"234081","298-R6","2018/06/16 19:09:35","新北市永和區福和路57巷14弄1號","121.522761666667","25.0069366666667","6500400","永和區"
"234038","336-UY","2018/06/16 19:09:42","新北市永和區民樂街71巷1號","121.52735","24.997505","6500400","永和區"
"234064","337-UY","2018/06/16 19:09:45","新北市永和區秀朗路二段17號","121.520988333333","25.0026616666667","6500400","永和區"
"234086","338-UY","2018/06/16 19:09:42","新北市永和區永貞路94號","121.519318333333","25.00459","6500400","永和區"
"234070","552-UM","2018/06/16 19:09:47","新北市永和區豫溪街95巷7號","121.51837","25.0103583333333","6500400","永和區"
"234017","745-BX","2018/06/16 19:09:48","新北市永和區文化路90巷15弄1號","121.51381","25.01586","6500400","永和區"
"234030","746-BX","2018/06/16 19:09:45","新北市永和區民生路29號","121.522788333333","24.9984466666667","6500400","永和區"
"234054","KEA-2590","2018/06/16 19:09:41","新北市永和區竹林路78號","121.519335","25.0127366666667","6500400","永和區"
"234013","KEA-2591","2018/06/16 19:09:36","新北市永和區保福路二段6號","121.510975","25.01103","6500400","永和區"
"234061","AAD-866","2018/06/16 19:09:46","新北市永和區安樂路304巷7號","121.514533333333","25.00511","6500400","永和區"
"234042","862-TW","2018/06/16 19:09:46","新北市永和區保平路131號","121.510525","25.0060983333333","6500400","永和區"
"234050","863-TW","2018/06/16 19:09:47","新北市永和區文化路135巷32弄1號","121.510928333333","25.0140266666667","6500400","永和區"
"234026","9371-KE","2018/06/16 19:09:47","新北市永和區安樂路451號","121.514315","25.0049566666667","6500400","永和區"
"234011","9373-KE","2018/06/16 19:09:48","新北市永和區仁愛路141巷3弄7號","121.511933333333","25.0124616666667","6500400","永和區"
"249005","172-UM","2018/06/16 19:09:42","新北市八里區中華路三段55號","121.395048333333","25.14133","6502300","八里區"
"249001","173-UM","2018/06/16 19:09:32","新北市八里區龍米路三段12號","121.429121666667","25.1590716666667","6502300","八里區"
"249003","593-UM","2018/06/16 19:09:39","新北市八里區仁愛路10號","121.413283333333","25.1623416666667","6502300","八里區"
"248016","026-BX","2018/06/16 19:09:31","新北市五股區成泰路三段543巷50號","121.450118333333","25.10281","6501500","五股區"
"248006","077-UY","2018/06/16 19:09:35","新北市五股區四維路112號","121.467633333333","25.0737733333333","6501500","五股區"
"248008","095-VK","2018/06/16 19:09:37","新北市五股區中興路一段118巷18號","121.466006666667","25.0743133333333","6501500","五股區"
"248020","225-UY","2018/06/16 19:00:20","新北市五股區凌雲路三段57號","121.42521","25.12504","6501500","五股區"
"248012","247-BX","2018/06/16 19:09:34","新北市五股區中興路四段48巷16號","121.438601666667","25.0834383333333","6501500","五股區"
"248010","272-BY","2018/06/16 19:09:27","新北市五股區自強路90巷72號","121.430681666667","25.071275","6501500","五股區"
"248002","655-BX","2018/06/16 19:09:38","新北市五股區凌雲路一段158巷6號","121.44779","25.1029566666667","6501500","五股區"
"248004","677-BX","2018/06/16 19:09:29","新北市五股區民義路一段185-4號","121.431741666667","25.0884883333333","6501500","五股區"
"234023","9380-KE","2018/06/16 19:09:49","新北市永和區中興街10巷17號","121.515813333333","25.011185","6500400","永和區"
"234077","969-R7","2018/06/16 19:09:45","新北市永和區民族街44號","121.518473333333","24.9986516666667","6500400","永和區"
"234074","AAC-211","2018/06/16 19:09:49","新北市永和區竹林路206號","121.520703333333","25.00836","6500400","永和區"
"234067","AAC-212","2018/06/16 19:09:34","新北市永和區永和路一段65巷2號","121.512775","25.0072483333333","6500400","永和區"
"234003","AAC-295","2018/06/16 19:09:35","新北市永和區保福路一段75號","121.512045","25.0103433333333","6500400","永和區"
"244019","403-UM","2018/06/16 19:09:40","新北市林口區麗園二街12巷2-2號","121.378335","25.0690433333333","6501700","林口區"
"244013","742-UY","2018/06/16 19:09:34","新北市林口區麗園二街23巷15-9號","121.379328333333","25.070255","6501700","林口區"
"244023","483-VK","2018/06/16 19:09:48","新北市林口區文林六街60號","121.370766666667","25.0818066666667","6501700","林口區"
"244017","485-VK","2018/06/16 19:09:46","新北市林口區文化二路一段68巷11號","121.366413333333","25.0688083333333","6501700","林口區"
"244011","657-BX","2018/06/16 19:09:37","新北市林口區中正路321號","121.388616666667","25.077635","6501700","林口區"
"244025","837-TS","2018/06/16 19:09:31","新北市林口區文化北路一段542巷13弄65號","121.369506666667","25.079635","6501700","林口區"
"243013","AAD-798","2018/06/16 19:09:44","新北市泰山區明志路三段275號","121.423088333333","25.0369366666667","6501600","泰山區"
"243009","297-R6","2018/06/16 19:09:42","新北市泰山區明志路一段111號","121.43344","25.0636283333333","6501600","泰山區"
"243016","380-SR","2018/06/16 19:09:49","新北市泰山區明志路二段325號","121.425861666667","25.0451516666667","6501600","泰山區"
"243015","421-VK","2018/06/16 19:09:27","新北市泰山區明志路一段431號","121.430716666667","25.0564733333333","6501600","泰山區"
"243011","KEA-2215","2018/06/16 19:09:40","新北市泰山區明志路二段320巷1弄1號","121.425945","25.0460916666667","6501600","泰山區"
"243010","KEA-2216","2018/06/16 19:09:48","新北市泰山區明志路一段352巷11弄2號","121.43033","25.0586083333333","6501600","泰山區"
"243012","646-TV","2018/06/16 19:09:39","新北市泰山區吳厝窠1號","121.427933333333","25.0585233333333","6501600","泰山區"
"243014","680-BX","2018/06/16 19:09:36","新北市泰山區泰林路二段442巷2號","121.426455","25.06436","6501600","泰山區"
"222003","436-BY","2018/06/16 19:09:34","新北市深坑區深南路156號","121.624721666667","25.0146166666667","6501800","深坑區"
"222002","659-BX","2018/06/16 19:09:50","新北市深坑區紅葉街8巷3號","121.63315","25.0116466666667","6501800","深坑區"
"231041","002-UM","2018/06/16 19:09:29","新北市新店區溪園路389-6號","121.523905","24.9790466666667","6500600","新店區"
"231059","046-UY","2018/06/16 19:09:49","新北市新店區安和路一段16號","121.51729","24.9652783333333","6500600","新店區"
"231040","047-UY","2018/06/16 19:09:30","新北市新店區三民路98-3號","121.533933333333","24.9734166666667","6500600","新店區"
"231044","106-UY","2018/06/16 19:09:32","新北市新店區中興路三段178號","121.544136666667","24.98116","6500600","新店區"
"231052","108-UY","2018/06/16 19:09:42","新北市新店區屈尺路168號","121.545138333333","24.9236333333333","6500600","新店區"
"231048","187-VK","2018/06/16 19:09:30","新北市新店區德正街27巷29弄68號","121.545775","24.973125","6500600","新店區"
"231046","188-VK","2018/06/16 19:09:38","新北市新店區永業路96-1號","121.53002","24.9513316666667","6500600","新店區"
"231054","KEA-2219","2018/06/16 19:09:36","新北市新店區新店路143號","121.537078333333","24.9547983333333","6500600","新店區"
"231042","268-BY","2018/06/16 19:09:40","新北市新店區中興路一段172巷1號","121.542886666667","24.9644816666667","6500600","新店區"
"231051","278-BY","2018/06/16 19:09:35","新北市新店區中正路400巷9號","121.534926666667","24.978005","6500600","新店區"
"231050","AAD-862","2018/06/16 19:09:35","新北市新店區竹林路26巷18號","121.551616666667","24.9506383333333","6500600","新店區"
"231058","3713-VJ","2018/06/16 19:09:45","新北市新店區光明街168巷5弄2-2號","121.54042","24.9618","6500600","新店區"
"231066","4716-K9","2018/06/16 19:09:31","新北市新店區安康路三段352號","121.486148333333","24.9517483333333","6500600","新店區"
"231056","4715-K9","2018/06/16 19:09:39","新北市新店區中央八街127號","121.525045","24.9789766666667","6500600","新店區"
"231067","4772-VM","2018/06/16 19:09:33","新北市新店區薏仁坑路5號","121.498913333333","24.9591266666667","6500600","新店區"
"231065","512-UM","2018/06/16 19:09:46","新北市新店區安祥路111號","121.475595","24.9568266666667","6500600","新店區"
"231049","513-UM","2018/06/16 19:09:30","新北市新店區二十張路25巷3號","121.538958333333","24.9820966666667","6500600","新店區"
"231045","617-UM","2018/06/16 19:09:50","新北市新店區北宜路一段202號","121.543275","24.9529716666667","6500600","新店區"
"231061","619-UM","2018/06/16 19:09:38","新北市新店區安康路一段222-2號","121.523008333333","24.9637416666667","6500600","新店區"
"231063","641-BX","2018/06/16 19:09:45","新北市新店區車子路121號","121.505243333333","24.9505383333333","6500600","新店區"
"231064","719-UM","2018/06/16 19:09:45","新北市新店區安忠路56巷6號","121.512933333333","24.9594133333333","6500600","新店區"
"231062","720-UM","2018/06/16 19:09:32","新北市新店區安和路二段70-1號","121.519283333333","24.9685083333333","6500600","新店區"
"231060","897-TW","2018/06/16 19:09:41","新北市新店區安康路二段295-3號","121.503668333333","24.9577366666667","6500600","新店區"
"231043","899-TW","2018/06/16 19:09:39","新北市新店區寶橋路132號","121.547483333333","24.9759933333333","6500600","新店區"
"231055","AKT-0513","2018/06/16 19:09:43","新北市新店區柴埕路116號","121.504695","24.95989","6500600","新店區"
"241035","KEA-2210","2018/06/16 19:09:33","新北市三重區新北大道一段7號","121.489586666667","25.061305","6500200","三重區"
"241026","887-TS","2018/06/16 19:09:33","新北市三重區泉州街59號","121.494673333333","25.0547","6500200","三重區"
"241029","942-UM","2018/06/16 19:09:30","新北市三重區集美街241號","121.492285","25.05543","6500200","三重區"
"235064","005-UY","2018/06/16 19:09:34","新北市中和區泰和街38巷19號","121.49883","25.00075","6500300","中和區"
"235063","006-UY","2018/06/16 19:09:30","新北市中和區建一路198號","121.487711666667","24.996285","6500300","中和區"
"235056","096-UM","2018/06/16 19:09:30","新北市中和區員山路524號","121.479068333333","25.0097483333333","6500300","中和區"
"235039","097-UM","2018/06/16 19:09:42","新北市中和區景平路64巷14弄15號","121.522665","24.9912766666667","6500300","中和區"
"235065","098-UM","2018/06/16 19:09:27","新北市中和區中山路二段136巷40號","121.501208333333","25.0044633333333","6500300","中和區"
"235040","150-BY","2018/06/16 19:09:36","新北市中和區宜安路116號","121.510283333333","24.9979766666667","6500300","中和區"
"235058","151-BY","2018/06/16 19:09:33","新北市中和區員山路143巷24號","121.479926666667","24.995895","6500300","中和區"
"235055","183-VK","2018/06/16 19:09:32","新北市中和區德光路26號","121.47081","25.004385","6500300","中和區"
"235038","185-VK","2018/06/16 19:09:40","新北市中和區大仁街20巷32號","121.519106666667","24.9931566666667","6500300","中和區"
"235049","186-VK","2018/06/16 19:09:42","新北市中和區南華路49號","121.503978333333","24.99681","6500300","中和區"
"235067","255-BX","2018/06/16 19:09:33","新北市中和區新生街176巷16號","121.482896666667","25.0000033333333","6500300","中和區"
"235044","293-VK","2018/06/16 19:09:38","新北市中和區中興街235巷1號","121.500833333333","24.98964","6500300","中和區"
"235043","352-BY","2018/06/16 19:09:33","新北市中和區景平路75號","121.518245","24.9918333333333","6500300","中和區"
"235042","KEA-2878","2018/06/16 19:09:31","新北市中和區自立路117巷2弄2號","121.522241666667","24.9944216666667","6500300","中和區"
"235050","4979-A6","2018/06/16 19:09:32","新北市中和區復興路263巷9弄11-4號","121.503385","24.98976","6500300","中和區"
"235069","4980-A6","2018/06/16 19:09:30","新北市中和區中和路139號","121.502008333333","24.9996216666667","6500300","中和區"
"235070","558-UM","2018/06/16 19:09:38","新北市中和區中和路25號","121.499781666667","25.002005","6500300","中和區"
"235045","565-BX","2018/06/16 19:09:38","新北市中和區景新街449號","121.513436666667","24.98867","6500300","中和區"
"235054","640-BX","2018/06/16 19:09:30","新北市中和區民德路105號","121.468936666667","25.0007166666667","6500300","中和區"
"235060","647-TV","2018/06/16 19:09:40","新北市中和區民治街27巷2號","121.475403333333","25.0010333333333","6500300","中和區"
"235047","732-UM","2018/06/16 19:09:50","新北市中和區興南路一段106-1號","121.509463333333","24.9884383333333","6500300","中和區"
"235046","733-UM","2018/06/16 19:09:38","新北市中和區忠孝街1巷68號","121.508328333333","24.984525","6500300","中和區"
"235071","783-BX","2018/06/16 19:09:38","新北市中和區連城路318號","121.483443333333","24.9960483333333","6500300","中和區"
"235057","801-TS","2018/06/16 19:09:45","新北市中和區民利街80號","121.478173333333","24.9981466666667","6500300","中和區"
"235041","802-TS","2018/06/16 19:09:39","新北市永和區中和路307號","121.506633333333","24.9997083333333","6500300","中和區"
"235052","805-TS","2018/06/16 19:09:42","新北市中和區興南路二段142巷31弄54號","121.501853333333","24.9835133333333","6500300","中和區"
"235048","896-TW","2018/06/16 19:09:38","新北市中和區忠孝街5巷7號","121.509251666667","24.9830733333333","6500300","中和區"
"235053","900-TW","2018/06/16 19:09:32","新北市中和區華福街59號","121.466763333333","24.9966116666667","6500300","中和區"
"235066","911-UM","2018/06/16 19:09:33","新北市中和區廣福路24號","121.504951666667","25.0025816666667","6500300","中和區"
"235051","157-BY","2018/06/16 19:09:30","新北市中和區仁愛街36巷4號","121.510535","24.988145","6500300","中和區"
"235037","AAC-213","2018/06/16 19:09:41","新北市中和區秀朗路三段58-1號","121.526035","24.9951666666667","6500300","中和區"
"235059","AAC-215","2018/06/16 19:09:38","新北市中和區圓通路294巷17-5號","121.488688333333","24.99042","6500300","中和區"
"220065","072-UY","2018/06/16 19:09:46","新北市板橋區民族路219巷77號","121.46886","25.009005","6500100","板橋區"
"220086","073-UY","2018/06/16 19:09:34","新北市板橋區中正路250巷91號","121.459416666667","25.0200366666667","6500100","板橋區"
"220106","075-UY","2018/06/16 19:09:44","新北市板橋區雙十路三段12號","121.471855","25.0305216666667","6500100","板橋區"
"220069","AAD-861","2018/06/16 19:09:38","新北市板橋區四川路一段147號","121.459831666667","25.0042333333333","6500100","板橋區"
"220090","120-SR","2018/06/16 19:09:46","新北市板橋區裕民街52號","121.461488333333","25.0287033333333","6500100","板橋區"
"247020","001-UY","2018/06/16 19:09:31","新北市五股區中興路三段2巷10號","121.449016666667","25.0808833333333","6501400","蘆洲區"
"226004","312-R5","2018/06/16 19:09:35","新北市平溪區南山里南山坪21號","121.772595","25.0373516666667","6502400","平溪區"
"228003","097-TW","2018/06/16 19:09:46","新北市貢寮區和美里和美街37號","121.91228","25.0872283333333","6502600","貢寮區"
"228001","212-TW","2018/06/16 19:09:28","新北市貢寮區真理里新港街10號","121.925491666667","25.0543666666667","6502600","貢寮區"
"228002","585-TW","2018/06/16 19:09:42","新北市貢寮區福隆里福隆街26號","121.944973333333","25.017205","6502600","貢寮區"
"224010","AGQ-8101","2018/06/16 19:09:33","新北市瑞芳區基山街30-1號","121.845083333333","25.1086166666667","6501200","瑞芳區"
"224006","676-BX","2018/06/16 19:09:31","新北市瑞芳區中山路105號","121.803311666667","25.1062683333333","6501200","瑞芳區"
"224002","639-TC","2018/06/16 19:09:39","新北市平溪區新寮里五分寮10-2號","121.799908333333","25.0739683333333","6501200","瑞芳區"
"224011","420-VK","2018/06/16 19:09:28","新北市瑞芳區崙頂路3-1號","121.846995","25.1047233333333","6501200","瑞芳區"
"224008","285-BY","2018/06/16 19:09:28","新北市瑞芳區瑞芳街86號","121.802388333333","25.1101733333333","6501200","瑞芳區"
"224007","275-VK","2018/06/16 19:09:36","新北市瑞芳區瑞竹路86號","121.763001666667","25.10364","6501200","瑞芳區"
"224009","273-VK","2018/06/16 19:09:45","新北市瑞芳區洞頂路101巷10號","121.860741666667","25.1211216666667","6501200","瑞芳區"
"224005","271-BY","2018/06/16 19:09:29","新北市瑞芳區東和路31號","121.805008333333","25.10606","6501200","瑞芳區"
"227002","642-TC","2018/06/16 19:09:43","新北市雙溪區平林里外平林9-3號","121.859351666667","25.0380233333333","6502500","雙溪區"
"227010","400-TW","2018/06/16 19:09:50","新北市雙溪區牡丹里自強路20號","121.865136666667","25.0393","6502500","雙溪區"
"253005","032-BX","2018/06/16 19:09:48","新北市石門區阿里荖41-1號","121.60552","25.2805333333333","6502200","石門區"
"253006","295-VK","2018/06/16 19:09:27","新北市石門區崁子腳58-10號","121.530921666667","25.28701","6502200","石門區"
"222001","KEA-2212","2018/06/16 19:09:39","新北市深坑區北深路一段300號","121.624168333333","25.0057016666667","6501800","深坑區"
"208002","KEA-2872","2018/06/16 19:09:44","新北市金山區仁愛路67巷26號","121.634228333333","25.2209816666667","6502700","金山區"
"208003","665-BX","2018/06/16 19:09:42","新北市金山區中正路133號","121.632466666667","25.2215283333333","6502700","金山區"
"208001","761-BX","2018/06/16 19:09:33","新北市金山區溫泉路2巷2號","121.639765","25.221965","6502700","金山區"
"251009","008-UM","2018/06/16 19:09:43","新北市淡水區清水街214號","121.440321666667","25.1713183333333","6501000","淡水區"
"251001","011-UM","2018/06/16 19:09:38","新北市淡水區自強路201巷39號","121.462116666667","25.1268483333333","6501000","淡水區"
"251002","012-UM","2018/06/16 19:09:38","新北市淡水區中山路95巷2號","121.442068333333","25.1705283333333","6501000","淡水區"
"251013","KEA-2871","2018/06/16 19:09:36","新北市淡水區安子內12-1號","121.481545","25.21907","6501000","淡水區"
"251016","179-VK","2018/06/16 19:09:33","新北市淡水區淡金路三段36號","121.448075","25.1990333333333","6501000","淡水區"
"251014","180-VK","2018/06/16 19:09:29","新北市淡水區小中寮19-2號","121.48479","25.2293866666667","6501000","淡水區"
"251015","182-VK","2018/06/16 19:09:42","新北市淡水區南勢埔34號","121.484281666667","25.179985","6501000","淡水區"
"251010","413-VK","2018/06/16 19:09:42","新北市淡水區中正路一段156巷3號","121.421273333333","25.1801916666667","6501000","淡水區"
"251007","442-VK","2018/06/16 19:09:33","新北市淡水區民生路135巷32號","121.466675","25.1390866666667","6501000","淡水區"
"251005","443-VK","2018/06/16 19:09:47","新北市淡水區原德路25號","121.442203333333","25.1714533333333","6501000","淡水區"
"251003","766-UM","2018/06/16 19:09:38","新北市淡水區中山北路一段94號","121.442471666667","25.176315","6501000","淡水區"
"207003","550-UM","2018/06/16 19:09:49","新北市萬里區大鵬里萬里加投14號","121.650326666667","25.2091283333333","6502800","萬里區"
"207004","225-TW","2018/06/16 19:09:32","新北市萬里區萬里里瑪鋉下街46號","121.691488333333","25.17917","6502800","萬里區"
"252002","178-VK","2018/06/16 19:09:32","新北市三芝區埔坪里埔頭坑84號","121.508098333333","25.2542616666667","6502100","三芝區"
"252003","249-BX","2018/06/16 19:09:38","新北市三芝區錫板里南勢崗7號","121.479388333333","25.26175","6502100","三芝區"
"252001","292-VK","2018/06/16 19:09:39","新北市三芝區長勤街45巷2號","121.500323333333","25.2550966666667","6502100","三芝區"
"237004","KEA-2597","2018/06/16 19:09:42","新北市三峽區有木188號","121.448736666667","24.8400183333333","6500900","三峽區"
"237007","153-BY","2018/06/16 19:09:39","新北市三峽區大埔路23號","121.366005","24.9095733333333","6500900","三峽區"
"237009","210-TH","2018/06/16 19:09:42","新北市三峽區文化路153號","121.368341666667","24.9358766666667","6500900","三峽區"
"237013","252-BX","2018/06/16 19:09:37","新北市三峽區光明路69巷27號","121.37684","24.9292416666667","6500900","三峽區"
"237012","275-BY","2018/06/16 19:09:46","新北市三峽區三樹路222巷236弄8-3號","121.391361666667","24.9430316666667","6500900","三峽區"
"237008","302-VK","2018/06/16 19:09:36","新北市三峽區中正路一段193號","121.372408333333","24.9278783333333","6500900","三峽區"
"237014","433-BY","2018/06/16 19:09:30","新北市三峽區中山路257巷39號","121.362131666667","24.9364766666667","6500900","三峽區"
"237006","5529-G3","2018/06/16 19:09:45","新北市三峽區橫溪路99巷18-2號","121.400648333333","24.9359533333333","6500900","三峽區"
"237016","649-BX","2018/06/16 19:09:30","新北市三峽區安坑46-6號","121.457388333333","24.9322266666667","6500900","三峽區"
"237010","706-TV","2018/06/16 19:09:40","新北市三峽區復興路162號","121.371308333333","24.9382683333333","6500900","三峽區"
"237005","AKY-6261","2018/06/16 19:09:48","新北市三峽區中山路459巷163-3號","121.34866","24.9329133333333","6500900","三峽區"
"236070","105-UM","2018/06/16 19:09:47","新北市土城區裕生路84巷3號","121.447073333333","24.985405","6501300","土城區"
"236079","166-UM","2018/06/16 19:09:41","新北市土城區龍泉路52號","121.413286666667","24.9442466666667","6501300","土城區"
"236026","269-VK","2018/06/16 19:09:42","新北市土城區中正路54號","121.443766666667","24.9753566666667","6501300","土城區"
"236014","270-VK","2018/06/16 19:09:29","新北市土城區學府路一段73號","121.456968333333","24.9881083333333","6501300","土城區"
"236038","271-VK","2018/06/16 19:09:39","新北市土城區清水路98巷3弄1號","121.457523333333","24.9813183333333","6501300","土城區"
"236021","401-BY","2018/06/16 19:09:34","新北市土城區延峰街34巷2號","121.469543333333","24.9849","6501300","土城區"
"236059","752-BX","2018/06/16 19:09:40","新北市土城區金城路一段131號","121.444793333333","24.973725","6501300","土城區"
"236049","913-UM","2018/06/16 19:09:29","新北市土城區明德路一段365-1號","121.453665","24.9790733333333","6501300","土城區"
"236055","AAC-216","2018/06/16 19:09:43","新北市土城區學府路一段202號","121.452648333333","24.985545","6501300","土城區"
"238015","755-BX","2018/06/16 19:09:50","新北市樹林區備內街142號","121.408886666667","24.9895216666667","6500700","樹林區"
"238023","601-UM","2018/06/16 19:09:32","新北市樹林區大慶街34號","121.396956666667","25.0143366666667","6500700","樹林區"
"238019","599-UM","2018/06/16 19:09:36","新北市樹林區東華街73號","121.415611666667","24.98082","6500700","樹林區"
"238018","571-TV","2018/06/16 19:09:50","新北市樹林區太平路59號","121.41904","24.9819716666667","6500700","樹林區"
"238024","5061-A6","2018/06/16 19:09:36","新北市樹林區味王街6號","121.402835","24.9762033333333","6500700","樹林區"
"238022","KEA-2213","2018/06/16 19:09:49","新北市樹林區中山路二段151巷8弄25號","121.406165","24.9776166666667","6500700","樹林區"
"238021","KEA-2539","2018/06/16 19:09:45","新北市樹林區柑園街二段453號","121.363338333333","24.9462616666667","6500700","樹林區"
"238025","303-VK","2018/06/16 19:09:42","新北市樹林區中山路三段116號","121.39251","24.9721416666667","6500700","樹林區"
"238014","282-BY","2018/06/16 19:09:48","新北市樹林區千歲街63-14號","121.427045","24.9986533333333","6500700","樹林區"
"238020","268-VK","2018/06/16 19:09:43","新北市樹林區俊英街133巷28號","121.42324","25.0110683333333","6500700","樹林區"
"238026","172-UY","2018/06/16 19:09:33","新北市樹林區佳園路一段66號","121.393143333333","24.9702466666667","6500700","樹林區"
"238016","169-UY","2018/06/16 19:09:50","新北市樹林區中山路一段306巷51弄3號","121.418426666667","24.98613","6500700","樹林區"
"239007","AAC-297","2018/06/16 19:09:39","新北市鶯歌區中山路138巷7號","121.350295","24.9587683333333","6500800","鶯歌區"
"239006","891-R6","2018/06/16 19:09:34","新北市鶯歌區鶯桃路296巷49號","121.335716666667","24.96138","6500800","鶯歌區"
"239008","527-UM","2018/06/16 19:09:37","新北市鶯歌區國際二路4巷4號","121.338811666667","24.972975","6500800","鶯歌區"
"239005","526-UM","2018/06/16 19:09:40","新北市鶯歌區中湖街2號","121.346323333333","24.9729133333333","6500800","鶯歌區"
"239001","417-VK","2018/06/16 19:09:38","新北市鶯歌區永智街43巷20號","121.33707","24.95381","6500800","鶯歌區"
"239003","360-BY","2018/06/16 19:09:34","新北市鶯歌區中正二路173號","121.341971666667","24.9481666666667","6500800","鶯歌區"
"239002","359-BY","2018/06/16 19:09:33","新北市鶯歌區鶯桃路182巷96弄13號","121.340473333333","24.9581933333333","6500800","鶯歌區"
"239004","193-VK","2018/06/16 19:09:39","新北市鶯歌區中正三路鄭厝巷12號","121.3327","24.93378","6500800","鶯歌區"
"221036","130-UY","2018/06/16 19:09:45","新北市汐止區汐萬路一段312號","121.650683333333","25.0753683333333","6501100","汐止區"
"221015","131-UY","2018/06/16 19:09:37","新北市汐止區康寧街901號","121.65167","25.074885","6501100","汐止區"
"221010","269-BY","2018/06/16 19:09:42","新北市汐止區康寧街901號","121.651463333333","25.0748716666667","6501100","汐止區"
"221012","278-VK","2018/06/16 19:09:29","新北市汐止區康寧街901號","121.65081","25.0752416666667","6501100","汐止區"
"221023","279-VK","2018/06/16 19:09:36","新北市汐止區康寧街901號","121.650978333333","25.0751966666667","6501100","汐止區"
"221027","281-BY","2018/06/16 19:09:43","新北市汐止區康寧街901號","121.651498333333","25.0749133333333","6501100","汐止區"
"221029","298-VK","2018/06/16 19:09:42","新北市汐止區汐萬路一段256巷3號","121.652526666667","25.0746633333333","6501100","汐止區"
"221008","129-UY","2018/06/16 19:09:38","新北市汐止區康寧街460號","121.631708333333","25.0682283333333","6501100","汐止區"
"221025","623-UM","2018/06/16 19:09:43","新北市汐止區康寧街901號","121.651588333333","25.0749533333333","6501100","汐止區"
"221038","646-BX","2018/06/16 19:09:29","新北市汐止區康寧街901號","121.650713333333","25.075335","6501100","汐止區"
"221033","647-BX","2018/06/16 19:09:30","新北市汐止區南勢街3號","121.627095","25.0373716666667","6501100","汐止區"
"221002","707-TV","2018/06/16 19:09:38","新北市汐止區環河街189巷5號","121.626976666667","25.05385","6501100","汐止區"
"220079","145-BY","2018/06/16 19:09:16","新北市板橋區民權路296號","121.457231666667","25.0160466666667","6500100","板橋區"
"220080","200-UY","2018/06/16 19:09:34","新北市板橋區大觀路二段7巷93號","121.450043333333","25.0030633333333","6500100","板橋區"
"220082","610-BX","2018/06/16 19:09:37","新北市板橋區溪崑二街89號","121.42728","24.9894883333333","6500100","板橋區"
"220101","245-BX","2018/06/16 19:09:43","新北市板橋區民生路二段89-6號","121.47047","25.0190133333333","6500100","板橋區"
"220055","256-TC","2018/06/16 19:09:31","新北市板橋區新民街7巷29號","121.463698333333","25.010565","6500100","板橋區"
"220103","257-TC","2018/06/16 19:09:26","新北市板橋區文化路一段188巷9弄21號","121.468505","25.019475","6500100","板橋區"
"220091","267-BY","2018/06/16 19:09:41","新北市板橋區縣民大道247巷41號","121.482105","25.0269566666667","6500100","板橋區"
"220056","276-BY","2018/06/16 19:09:34","新北市板橋區信義路74巷1弄3號","121.45731","24.9931033333333","6500100","板橋區"
"220072","277-BY","2018/06/16 19:09:34","新北市板橋區溪城路85號","121.426888333333","24.9835116666667","6500100","板橋區"
"220071","283-VK","2018/06/16 19:09:45","新北市板橋區重慶路269巷59號","121.465065","24.9989683333333","6500100","板橋區"
"220094","285-UM","2018/06/16 19:09:42","新北市板橋區光武街133號","121.465685","25.0291566666667","6500100","板橋區"
"220053","285-VK","2018/06/16 19:09:32","新北市板橋區懷仁街35巷4弄1號","121.47719","25.0198533333333","6500100","板橋區"
"220083","286-VK","2018/06/16 19:09:37","新北市板橋區大觀路二段174巷173弄6號","121.441661666667","25.003785","6500100","板橋區"
"220081","287-VK","2018/06/16 19:09:44","新北市板橋區南雅西路二段156巷5號","121.452153333333","25.0133783333333","6500100","板橋區"
"220061","293-UM","2018/06/16 19:09:47","新北市板橋區中山路二段273號","121.47767","25.0179766666667","6500100","板橋區"
"220062","295-UM","2018/06/16 19:09:35","新北市板橋區三民路二段245巷69弄1號","121.48105","25.0128583333333","6500100","板橋區"
"220084","296-UM","2018/06/16 19:09:38","新北市板橋區溪崑二街22巷18號","121.42828","24.9915783333333","6500100","板橋區"
"220075","303-R5","2018/06/16 19:09:43","新北市板橋區南雅南路一段3巷25-15號","121.4565","25.0056416666667","6500100","板橋區"
"220092","307-R5","2018/06/16 19:09:36","新北市板橋區文化路二段225巷60弄42號","121.469153333333","25.0293716666667","6500100","板橋區"
"220098","317-R6","2018/06/16 19:09:47","新北市板橋區自由路51巷14弄7號","121.464601666667","25.0237966666667","6500100","板橋區"
"220064","486-VK","2018/06/16 19:09:48","新北市板橋區板新路12號","121.47477","25.0132416666667","6500100","板橋區"
"220088","491-VK","2018/06/16 19:09:41","新北市板橋區文化路二段182巷3弄22號","121.471966666667","25.0279116666667","6500100","板橋區"
"220035","560-BX","2018/06/16 19:09:42","新北市板橋區瑞安街31巷2號","121.455648333333","25.0227883333333","6500100","板橋區"
"220063","609-BX","2018/06/16 19:09:48","新北市板橋區三民路二段111號","121.479481666667","25.0158966666667","6500100","板橋區"
"220057","686-BX","2018/06/16 19:09:32","新北市板橋區重慶路296號","121.463806666667","24.998595","6500100","板橋區"
"220077","687-BX","2018/06/16 19:09:42","新北市板橋區大觀路一段37巷2號","121.448931666667","25.008325","6500100","板橋區"
"220093","689-BX","2018/06/16 19:09:49","新北市板橋區民生路三段131號","121.466245","25.0261516666667","6500100","板橋區"
"220054","741-BX","2018/06/16 19:09:32","新北市板橋區重慶路71號","121.46192","25.0069","6500100","板橋區"
"220102","KEA-2699","2018/06/16 19:09:48","新北市板橋區萬板路818巷9號","121.482973333333","25.0266883333333","6500100","板橋區"
"220067","829-TW","2018/06/16 19:09:47","新北市板橋區中山路二段90巷43弄17號","121.476946666667","25.0152816666667","6500100","板橋區"
"220068","830-TW","2018/06/16 19:09:45","新北市板橋區中山路二段443巷79號","121.480695","25.022505","6500100","板橋區"
"220096","831-TW","2018/06/16 19:09:40","新北市板橋區雙十路二段4-6號","121.476908333333","25.0258133333333","6500100","板橋區"
"220089","833-TW","2018/06/16 19:09:34","新北市板橋區文化路二段347號","121.472741666667","25.030515","6500100","板橋區"
"220074","895-R6","2018/06/16 19:09:46","新北市板橋區中正路自強新村45-1號","121.454788333333","25.0138983333333","6500100","板橋區"
"220073","985-R7","2018/06/16 19:09:51","新北市板橋區中正路366號","121.454336666667","25.02403","6500100","板橋區"
"220097","AAC-210","2018/06/16 19:09:36","新北市板橋區英士路194號","121.458353333333","25.022585","6500100","板橋區"
"220070","AAC-253","2018/06/16 19:09:36","新北市板橋區忠孝路37號","121.460921666667","25.00218","6500100","板橋區"
"235068","KEA-2873","2018/06/16 19:09:45","新北市中和區圓通路158巷1弄9號","121.49724","24.9960666666667","6500300","中和區"
"235061","KEA-2875","2018/06/16 19:09:27","新北市中和區民有街65號","121.476515","25.0032416666667","6500300","中和區"
