"lineid","car","time","location","longitude","latitude","cityid","cityname"
"234046","148-BY","2018/06/16 19:39:42","新北市永和區永元路95巷1號","121.522496666667","25.0019266666667","6500400","永和區"
"234007","207-UY","2018/06/16 19:39:40","新北市永和區中和路515號","121.51093","25.0025183333333","6500400","永和區"
"234081","298-R6","2018/06/16 19:39:35","新北市永和區國中路104巷8弄10號","121.524986666667","25.006665","6500400","永和區"
"234038","336-UY","2018/06/16 19:39:33","新北市永和區民樂街29號","121.527723333333","25.001495","6500400","永和區"
"234064","337-UY","2018/06/16 19:39:45","新北市永和區秀朗路一段192巷6弄12號","121.51907","25.0023116666667","6500400","永和區"
"234086","338-UY","2018/06/16 19:39:50","新北市永和區永亨路137號","121.525043333333","25.00396","6500400","永和區"
"234070","552-UM","2018/06/16 19:39:47","新北市永和區永和路二段234號","121.51572","25.014335","6500400","永和區"
"234017","745-BX","2018/06/16 19:39:36","新北市永和區永和路二段425巷75弄5號","121.513521666667","25.01708","6500400","永和區"
"234030","746-BX","2018/06/16 19:39:45","新北市永和區民生路37巷9號","121.523805","24.998005","6500400","永和區"
"234054","KEA-2590","2018/06/16 19:39:41","新北市永和區竹林路39巷22號","121.519005","25.0147683333333","6500400","永和區"
"234013","KEA-2591","2018/06/16 19:39:36","新北市永和區永平路246號","121.508611666667","25.0109366666667","6500400","永和區"
"234061","AAD-866","2018/06/16 19:39:46","新北市永和區中正路456號","121.51741","25.002925","6500400","永和區"
"234042","862-TW","2018/06/16 19:39:36","新北市永和區中和路593號","121.512241666667","25.004065","6500400","永和區"
"234050","863-TW","2018/06/16 19:39:47","新北市永和區保安路62號","121.509963333333","25.01652","6500400","永和區"
"234026","9371-KE","2018/06/16 19:39:47","新北市中和區中安街92號","121.511866666667","25.0014016666667","6500400","永和區"
"234011","9373-KE","2018/06/16 19:39:47","新北市永和區仁愛路168號","121.510393333333","25.0127866666667","6500400","永和區"
"249004","303-UY","2018/06/16 19:39:36","新北市八里區中山路一段268巷5弄11號","121.41427","25.1603283333333","6502300","八里區"
"249002","305-UY","2018/06/16 19:39:44","新北市八里區頂寮二街33-1號","121.450338333333","25.125155","6502300","八里區"
"249003","593-UM","2018/06/16 19:39:38","新北市八里區華峰一街18號","121.399298333333","25.14668","6502300","八里區"
"248014","025-BX","2018/06/16 19:39:38","新北市五股區五福路85-1號","121.432278333333","25.0903816666667","6501500","五股區"
"248016","026-BX","2018/06/16 19:39:36","新北市五股區成泰路3段651-1號","121.452906666667","25.1051483333333","6501500","五股區"
"248008","095-VK","2018/06/16 19:39:37","新北市五股區四維路118巷13號","121.46922","25.0741583333333","6501500","五股區"
"248020","225-UY","2018/06/16 19:39:38","新北市五股區中直路17-5號","121.422685","25.1123083333333","6501500","五股區"
"248012","247-BX","2018/06/16 19:39:34","新北市五股區成泰路二段91巷9號","121.437626666667","25.08439","6501500","五股區"
"248010","272-BY","2018/06/16 19:39:47","新北市五股區自強路111號","121.43228","25.0705683333333","6501500","五股區"
"248002","655-BX","2018/06/16 19:39:38","新北市五股區成泰路三段577巷52號","121.450736666667","25.1032383333333","6501500","五股區"
"248004","677-BX","2018/06/16 19:39:29","新北市五股區工商路110號","121.43725","25.0855116666667","6501500","五股區"
"234077","969-R7","2018/06/16 19:39:31","新北市永和區民權路3號","121.520113333333","24.9984016666667","6500400","永和區"
"234074","AAC-211","2018/06/16 19:39:44","新北市永和區福和路74號","121.523026666667","25.00807","6500400","永和區"
"234067","AAC-212","2018/06/16 19:39:34","新北市永和區中山路一段197號","121.509041666667","25.0087916666667","6500400","永和區"
"234003","AAC-295","2018/06/16 19:39:35","新北市永和區福和路346號","121.515028333333","25.0072066666667","6500400","永和區"
"244019","403-UM","2018/06/16 19:39:40","新北市林口區寶斗厝坑79-1號","121.332213333333","25.11853","6501700","林口區"
"244023","483-VK","2018/06/16 19:39:48","新北市林口區文化三路二段181-1號","121.375768333333","25.0821783333333","6501700","林口區"
"243013","AAD-798","2018/06/16 19:39:44","新北市泰山區應化街7號","121.423896666667","25.0437066666667","6501600","泰山區"
"243009","297-R6","2018/06/16 19:39:42","新北市泰山區美寧街71號","121.431016666667","25.0647","6501600","泰山區"
"243016","380-SR","2018/06/16 19:39:29","新北市泰山區明志路三段206巷17號","121.422193333333","25.0371266666667","6501600","泰山區"
"243015","421-VK","2018/06/16 19:39:47","新北市泰山區文程路19-1號","121.428291666667","25.0493566666667","6501600","泰山區"
"243011","KEA-2215","2018/06/16 19:39:40","新北市泰山區貴子路67巷4弄2號","121.430918333333","25.0402616666667","6501600","泰山區"
"243010","KEA-2216","2018/06/16 19:39:48","新北市泰山區民生路17巷2號","121.429898333333","25.0525633333333","6501600","泰山區"
"243012","646-TV","2018/06/16 19:39:39","新北市泰山區全興路258號","121.435791666667","25.0531833333333","6501600","泰山區"
"243014","680-BX","2018/06/16 19:39:36","新北市泰山區仁愛路58號","121.43189","25.054805","6501600","泰山區"
"222003","436-BY","2018/06/16 19:39:34","新北市深坑區深南路51-1號","121.621293333333","25.0098083333333","6501800","深坑區"
"222002","659-BX","2018/06/16 19:39:32","新北市深坑區北深路一段177號","121.63252","25.0108933333333","6501800","深坑區"
"231041","002-UM","2018/06/16 19:39:49","新北市新店區中正路500號","121.534083333333","24.9820616666667","6500600","新店區"
"231059","046-UY","2018/06/16 19:39:36","新北市新店區安和路三段153號","121.516566666667","24.9856366666667","6500600","新店區"
"231040","047-UY","2018/06/16 19:39:30","新北市新店區中正路75巷71號","121.543131666667","24.968835","6500600","新店區"
"231044","106-UY","2018/06/16 19:39:32","新北市新店區北新路三段220號","121.541048333333","24.98445","6500600","新店區"
"231052","108-UY","2018/06/16 19:39:42","新北市新店區新烏路二段489號","121.552221666667","24.9086466666667","6500600","新店區"
"231048","187-VK","2018/06/16 19:39:48","新北市新店區五峰路63巷8弄20號","121.54739","24.9693","6500600","新店區"
"231046","188-VK","2018/06/16 19:39:38","新北市新店區中正路329巷7弄2號","121.535138333333","24.9741016666667","6500600","新店區"
"231054","KEA-2219","2018/06/16 19:39:36","新北市新店區文中路40號","121.539585","24.9565666666667","6500600","新店區"
"231057","256-BX","2018/06/16 19:39:39","新北市新店區橘園一路11號","121.54799","24.9340866666667","6500600","新店區"
"231042","268-BY","2018/06/16 19:39:40","新北市新店區中興路一段214號","121.543858333333","24.9656433333333","6500600","新店區"
"231051","278-BY","2018/06/16 19:39:35","新北市新店區中央五街30號","121.528886666667","24.9746266666667","6500600","新店區"
"231050","AAD-862","2018/06/16 19:39:35","新北市新店區秀水路50號","121.555381666667","24.956175","6500600","新店區"
"231058","3713-VJ","2018/06/16 19:39:45","新北市新店區中正路143號","121.541556666667","24.9715916666667","6500600","新店區"
"231066","4716-K9","2018/06/16 19:39:31","新北市新店區安康路二段341巷4號","121.49677","24.954965","6500600","新店區"
"231056","4715-K9","2018/06/16 19:39:39","新北市新店區中央路151號","121.529303333333","24.9723366666667","6500600","新店區"
"231065","512-UM","2018/06/16 19:39:46","新北市新店區安祥路109巷37號","121.476553333333","24.9595033333333","6500600","新店區"
"231049","513-UM","2018/06/16 19:39:30","新北市新店區大豐路50號","121.540033333333","24.9798516666667","6500600","新店區"
"231045","617-UM","2018/06/16 19:39:49","新北市新店區北宜路二段423-1號","121.560441666667","24.9545116666667","6500600","新店區"
"231061","619-UM","2018/06/16 19:39:38","新北市新店區安民街71號","121.516538333333","24.9670383333333","6500600","新店區"
"231063","641-BX","2018/06/16 19:39:45","新北市新店區達觀路32號","121.502185","24.94005","6500600","新店區"
"231064","719-UM","2018/06/16 19:39:45","新北市新店區安和路一段55號","121.517546666667","24.9662483333333","6500600","新店區"
"231062","720-UM","2018/06/16 19:39:31","新北市新店區精忠路10-1號","121.532581666667","24.9591166666667","6500600","新店區"
"231060","897-TW","2018/06/16 19:39:41","新北市新店區安康路二段174號","121.51178","24.9604583333333","6500600","新店區"
"231043","899-TW","2018/06/16 19:39:39","新北市新店區北新路二段6號","121.542725","24.9711133333333","6500600","新店區"
"231055","AKT-0513","2018/06/16 19:39:43","新北市新店區力行路14巷12號","121.539203333333","24.9652183333333","6500600","新店區"
"241011","013-R5","2018/06/16 19:39:44","新北市三重區秀江街197號","121.497856666667","25.071725","6500200","三重區"
"241028","022-UY","2018/06/16 19:39:33","新北市三重區中正南路190號","121.493936666667","25.056075","6500200","三重區"
"241008","059-VK","2018/06/16 19:39:40","新北市三重區永福街135巷2號","121.478561666667","25.0767866666667","6500200","三重區"
"241009","060-VK","2018/06/16 19:39:45","新北市三重區三和路四段400巷25號","121.480151666667","25.07918","6500200","三重區"
"241031","061-VK","2018/06/16 19:39:41","新北市三重區重新路四段248號","121.48606","25.05351","6500200","三重區"
"241015","062-VK","2018/06/16 19:39:37","新北市三重區福德北路55號","121.502163333333","25.0651883333333","6500200","三重區"
"241017","063-VK","2018/06/16 19:39:47","新北市三重區重陽路三段5巷30號","121.49127","25.0654116666667","6500200","三重區"
"241003","265-UM","2018/06/16 19:39:38","新北市三重區五華街93巷66號","121.49412","25.0851716666667","6500200","三重區"
"241022","267-UM","2018/06/16 19:39:47","新北市三重區中正北路154號","121.484783333333","25.065925","6500200","三重區"
"241013","270-UM","2018/06/16 19:39:31","新北市三重區仁愛街127號","121.4953","25.0746883333333","6500200","三重區"
"241025","271-UM","2018/06/16 19:39:45","新北市三重區頂崁街190號","121.477478333333","25.0663966666667","6500200","三重區"
"241007","398-BY","2018/06/16 19:39:43","新北市三重區三和路四段125巷74號","121.487246666667","25.0786066666667","6500200","三重區"
"241035","KEA-2210","2018/06/16 19:39:33","新北市三重區正義北路61-2號","121.497481666667","25.0645166666667","6500200","三重區"
"241023","413-TH","2018/06/16 19:39:47","新北市三重區忠孝路三段126號","121.480025","25.0636366666667","6500200","三重區"
"241020","478-VK","2018/06/16 19:39:45","新北市三重區自強路三段43巷6號","121.487316666667","25.0729133333333","6500200","三重區"
"241030","480-VK","2018/06/16 19:39:47","新北市三重區新興路28巷13號","121.491678333333","25.0528366666667","6500200","三重區"
"241014","543-UM","2018/06/16 19:39:40","新北市三重區長壽街196號","121.50423","25.0690666666667","6500200","三重區"
"241001","547-UM","2018/06/16 19:39:43","新北市三重區仁愛街315巷56號","121.493888333333","25.0800516666667","6500200","三重區"
"241006","AAD-863","2018/06/16 19:39:50","新北市三重區聯華街79號","121.485803333333","25.075405","6500200","三重區"
"241026","887-TS","2018/06/16 19:39:34","新北市三重區文化南路65巷48號","121.498675","25.06065","6500200","三重區"
"241012","941-UM","2018/06/16 19:39:36","新北市三重區仁興街33巷38-1號","121.500228333333","25.0758633333333","6500200","三重區"
"241029","942-UM","2018/06/16 19:39:30","新北市三重區光明路122號","121.492928333333","25.0559883333333","6500200","三重區"
"235064","005-UY","2018/06/16 19:39:34","新北市中和區南山路127巷5號","121.502671666667","24.9972766666667","6500300","中和區"
"235063","006-UY","2018/06/16 19:39:50","新北市中和區連勝街72號","121.495703333333","24.9963783333333","6500300","中和區"
"235056","096-UM","2018/06/16 19:39:49","新北市中和區員山路581巷2-10號","121.47725","25.0088316666667","6500300","中和區"
"235039","097-UM","2018/06/16 19:39:42","新北市中和區秀峰街127巷2號","121.519611666667","24.9908733333333","6500300","中和區"
"235065","098-UM","2018/06/16 19:39:47","新北市中和區永和路1-5號","121.499628333333","25.003295","6500300","中和區"
"235040","150-BY","2018/06/16 19:39:36","新北市中和區保健路60號","121.510868333333","24.9965","6500300","中和區"
"235058","151-BY","2018/06/16 19:39:33","新北市中和區連城路372-3號","121.481478333333","24.995305","6500300","中和區"
"235055","183-VK","2018/06/16 19:39:32","新北市中和區中山路三段181巷2號","121.472845","25.005955","6500300","中和區"
"235038","185-VK","2018/06/16 19:39:40","新北市中和區自立路141巷3號","121.52238","24.9935783333333","6500300","中和區"
"235049","186-VK","2018/06/16 19:39:42","新北市中和區明禮街3號","121.505226666667","24.9957283333333","6500300","中和區"
"235067","255-BX","2018/06/16 19:39:33","新北市中和區新生街211號","121.483831666667","24.99971","6500300","中和區"
"235044","293-VK","2018/06/16 19:39:38","新北市中和區興南路一段164號","121.508005","24.98662","6500300","中和區"
"235043","352-BY","2018/06/16 19:39:33","新北市中和區興南路一段103號","121.50948","24.988335","6500300","中和區"
"235042","KEA-2878","2018/06/16 19:39:37","新北市中和區保健路19巷4弄7號","121.509085","24.9983783333333","6500300","中和區"
"235050","4979-A6","2018/06/16 19:39:32","新北市中和區錦和路350-1號","121.490361666667","24.99356","6500300","中和區"
"235070","558-UM","2018/06/16 19:39:38","新北市中和區景平路585號","121.49753","25.0002816666667","6500300","中和區"
"235045","565-BX","2018/06/16 19:39:38","新北市中和區景新街491號","121.513698333333","24.9872266666667","6500300","中和區"
"235054","640-BX","2018/06/16 19:39:50","新北市中和區國光街107巷2弄32號","121.469266666667","24.998965","6500300","中和區"
"235060","647-TV","2018/06/16 19:39:40","新北市中和區新生街112巷14號","121.482871666667","25.0029883333333","6500300","中和區"
"235047","732-UM","2018/06/16 19:39:30","新北市中和區和平街196號","121.504766666667","24.9925583333333","6500300","中和區"
"235046","733-UM","2018/06/16 19:39:37","新北市中和區四維街22號","121.512855","24.98708","6500300","中和區"
"235071","783-BX","2018/06/16 19:39:38","新北市中和區中正路839巷29號","121.483666666667","25.00233","6500300","中和區"
"235026","800-TS","2018/06/16 19:39:34","新北市中和區員山路36巷16-3號","121.4847","24.991635","6500300","中和區"
"235057","801-TS","2018/06/16 19:39:45","新北市中和區員山路178號","121.481315","25.0001533333333","6500300","中和區"
"235041","802-TS","2018/06/16 19:39:38","新北市中和區中和路464號","121.512236666667","25.0040116666667","6500300","中和區"
"235052","805-TS","2018/06/16 19:39:47","新北市中和區華新街206巷16號","121.50627","24.9826233333333","6500300","中和區"
"235048","896-TW","2018/06/16 19:39:38","新北市中和區忠孝街2-7號","121.50917","24.9828933333333","6500300","中和區"
"235053","900-TW","2018/06/16 19:39:32","新北市中和區國光街184巷14號","121.467291666667","25.002055","6500300","中和區"
"235066","911-UM","2018/06/16 19:39:33","新北市中和區景新街129號","121.505735","24.9972683333333","6500300","中和區"
"235051","157-BY","2018/06/16 19:39:29","新北市中和區板南路132號","121.502445","24.9925416666667","6500300","中和區"
"235037","AAC-213","2018/06/16 19:39:41","新北市中和區成功路1巷4號","121.52647","24.9944116666667","6500300","中和區"
"235059","AAC-215","2018/06/16 19:39:38","新北市中和區圓通路282號","121.49153","24.99058","6500300","中和區"
"220065","072-UY","2018/06/16 19:39:48","新北市板橋區國泰街39巷5弄9號","121.468728333333","25.006075","6500100","板橋區"
"220086","073-UY","2018/06/16 19:39:34","新北市板橋區中正路236巷61號","121.458386666667","25.0196516666667","6500100","板橋區"
"220106","075-UY","2018/06/16 19:39:43","新北市板橋區文化路二段464號","121.474725","25.032475","6500100","板橋區"
"220069","AAD-861","2018/06/16 19:39:38","新北市板橋區稚暉街2巷50號","121.455253333333","25.0028633333333","6500100","板橋區"
"220090","120-SR","2018/06/16 19:39:46","新北市板橋區長江路一段48巷9號","121.459215","25.0284316666667","6500100","板橋區"
"247004","337-TH","2018/06/16 19:39:37","新北市蘆洲區長安街98巷16號","121.462905","25.0817116666667","6501400","蘆洲區"
"247008","056-VK","2018/06/16 19:39:47","新北市蘆洲區中山一路129號","121.475788333333","25.081605","6501400","蘆洲區"
"247020","001-UY","2018/06/16 19:39:30","新北市蘆洲區民族路406號","121.474633333333","25.0916583333333","6501400","蘆洲區"
"226004","312-R5","2018/06/16 19:39:35","新北市平溪區十分里十分街65號","121.775968333333","25.041845","6502400","平溪區"
"228003","097-TW","2018/06/16 19:39:45","新北市貢寮區真理里美艷山街27號","121.923301666667","25.0688716666667","6502600","貢寮區"
"228001","212-TW","2018/06/16 19:39:48","新北市貢寮區真理里延平街61號","121.924595","25.0556733333333","6502600","貢寮區"
"224010","AGQ-8101","2018/06/16 19:39:33","新北市瑞芳區豎崎路29號","121.843226666667","25.1085416666667","6501200","瑞芳區"
"224002","639-TC","2018/06/16 19:39:39","新北市瑞芳區三爪子坑路13巷153號","121.814995","25.106325","6501200","瑞芳區"
"224011","420-VK","2018/06/16 19:39:48","新北市瑞芳區崙頂路3-1號","121.847018333333","25.1046433333333","6501200","瑞芳區"
"227002","642-TC","2018/06/16 19:39:43","新北市雙溪區雙溪里太平路56號","121.864835","25.03561","6502500","雙溪區"
"227010","400-TW","2018/06/16 19:39:42","新北市雙溪區新基里新基北街18號","121.867171666667","25.0386466666667","6502500","雙溪區"
"222001","KEA-2212","2018/06/16 19:39:39","新北市深坑區北深路二段204號","121.612931666667","25.0015283333333","6501800","深坑區"
"208002","KEA-2872","2018/06/16 19:39:42","新北市金山區中山路313巷12號","121.635308333333","25.22333","6502700","金山區"
"208003","665-BX","2018/06/16 19:39:42","新北市金山區仁愛路15號","121.63772","25.2193183333333","6502700","金山區"
"208001","761-BX","2018/06/16 19:39:50","新北市金山區六股里下六股41號","121.619055","25.2216","6502700","金山區"
"251009","008-UM","2018/06/16 19:39:43","新北市淡水區中山北路一段198巷7號","121.44516","25.1793083333333","6501000","淡水區"
"251004","009-UM","2018/06/16 19:39:37","新北市淡水區民生路124巷25弄1號","121.464391666667","25.13767","6501000","淡水區"
"251001","011-UM","2018/06/16 19:39:50","新北市淡水區民權路39號","121.459745","25.1407333333333","6501000","淡水區"
"251013","KEA-2871","2018/06/16 19:39:36","新北市淡水區店子後9號","121.459875","25.2186833333333","6501000","淡水區"
"251016","179-VK","2018/06/16 19:39:33","新北市淡水區下圭柔山119-51號","121.450663333333","25.2084983333333","6501000","淡水區"
"251014","180-VK","2018/06/16 19:39:49","新北市淡水區北勢子12號","121.4792","25.2318183333333","6501000","淡水區"
"251008","181-VK","2018/06/16 19:39:35","新北市淡水區中正路一段8巷1弄11號","121.42821","25.17583","6501000","淡水區"
"251015","182-VK","2018/06/16 19:39:42","新北市淡水區大埤頭1號","121.492775","25.1945466666667","6501000","淡水區"
"251010","413-VK","2018/06/16 19:39:42","新北市淡水區濱海路二段202巷65弄37號","121.434063333333","25.1937116666667","6501000","淡水區"
"251012","441-VK","2018/06/16 19:39:51","新北市淡水區埤島6-10號","121.445791666667","25.1946266666667","6501000","淡水區"
"251007","442-VK","2018/06/16 19:39:33","新北市淡水區中正東路一段111巷33號","121.455581666667","25.161365","6501000","淡水區"
"251005","443-VK","2018/06/16 19:39:46","新北市淡水區原德路108巷2號","121.443321666667","25.1734766666667","6501000","淡水區"
"251006","561-UM","2018/06/16 19:39:41","新北市淡水區中山北路一段207巷30號","121.443338333333","25.1792316666667","6501000","淡水區"
"251011","650-BX","2018/06/16 19:39:46","新北市淡水區八勢一街40號","121.461466666667","25.155075","6501000","淡水區"
"207003","550-UM","2018/06/16 19:39:30","新北市萬里區大鵬里下社36號","121.64923","25.21655","6502800","萬里區"
"207004","225-TW","2018/06/16 19:39:32","新北市萬里區萬里里瑪鋉路5-1號","121.686878333333","25.175295","6502800","萬里區"
"252002","178-VK","2018/06/16 19:39:32","新北市三芝區三民街14號","121.50422","25.2586266666667","6502100","三芝區"
"252001","292-VK","2018/06/16 19:39:39","新北市三芝區公正街66號","121.499795","25.25744","6502100","三芝區"
"237004","KEA-2597","2018/06/16 19:39:42","新北市三峽區有木2-2號","121.419763333333","24.8662866666667","6500900","三峽區"
"237007","153-BY","2018/06/16 19:39:39","新北市三峽區二鬮路136巷20弄2號","121.35746","24.90992","6500900","三峽區"
"237009","210-TH","2018/06/16 19:39:42","新北市三峽區中園街20-1號","121.368245","24.926715","6500900","三峽區"
"237013","252-BX","2018/06/16 19:39:37","新北市三峽區介壽路二段167號","121.394445","24.9359433333333","6500900","三峽區"
"237012","275-BY","2018/06/16 19:39:25","新北市三峽區光明路39-1號","121.374631666667","24.92989","6500900","三峽區"
"237008","302-VK","2018/06/16 19:39:36","新北市三峽區永安街85號","121.374886666667","24.9291","6500900","三峽區"
"237014","433-BY","2018/06/16 19:39:30","新北市三峽區嘉添1號","121.368265","24.91181","6500900","三峽區"
"237006","5529-G3","2018/06/16 19:39:45","新北市三峽區中正路一段336巷15弄2號","121.369963333333","24.9249266666667","6500900","三峽區"
"237016","649-BX","2018/06/16 19:39:30","新北市三峽區溪東路132號","121.404665","24.933385","6500900","三峽區"
"237005","AKY-6261","2018/06/16 19:39:48","新北市三峽區中山路219巷1號","121.363225","24.9366016666667","6500900","三峽區"
"236070","105-UM","2018/06/16 19:39:37","新北市土城區金城路二段8-1號","121.448596666667","24.9769383333333","6501300","土城區"
"236042","107-UM","2018/06/16 19:39:46","新北市土城區裕民路253-2號","121.454666666667","24.9829616666667","6501300","土城區"
"236079","166-UM","2018/06/16 19:39:41","新北市土城區中州路27巷39-1號","121.413178333333","24.957025","6501300","土城區"
"236030","253-BX","2018/06/16 19:39:46","新北市土城區福祥街49號","121.44077","24.9799566666667","6501300","土城區"
"236026","269-VK","2018/06/16 19:39:42","新北市土城區中央路二段61巷26號","121.44337","24.97886","6501300","土城區"
"236038","271-VK","2018/06/16 19:39:39","新北市土城區青雲路281巷13弄6號","121.459788333333","24.9804266666667","6501300","土城區"
"236021","401-BY","2018/06/16 19:39:30","新北市土城區峰廷街8號","121.468658333333","24.9877616666667","6501300","土城區"
"236059","752-BX","2018/06/16 19:39:40","新北市土城區中央路二段63號","121.4427","24.9789283333333","6501300","土城區"
"236049","913-UM","2018/06/16 19:39:48","新北市土城區明德路一段137號","121.465195","24.9804016666667","6501300","土城區"
"236063","915-UM","2018/06/16 19:39:32","新北市土城區延平街35號","121.46806","24.9919283333333","6501300","土城區"
"236055","AAC-216","2018/06/16 19:39:34","新北市土城區學府路一段76號","121.456573333333","24.98817","6501300","土城區"
"242007","413-TV","2018/06/16 19:39:33","新北市新莊區中央路232號","121.454411666667","25.0588","6500500","新莊區"
"242039","133-UY","2018/06/16 19:39:48","新北市新莊區建國二路83號","121.43144","25.02565","6500500","新莊區"
"242048","172-VK","2018/06/16 19:39:40","新北市新莊區後港一路17巷22號","121.424306666667","25.0269266666667","6500500","新莊區"
"242011","173-VK","2018/06/16 19:39:42","新北市新莊區三和路12-21號","121.44205","25.0387133333333","6500500","新莊區"
"242004","176-VK","2018/06/16 19:39:49","新北市新莊區復興路三段26號","121.461021666667","25.0440666666667","6500500","新莊區"
"242031","347-TH","2018/06/16 19:39:36","新北市新莊區新泰路213巷39號","121.444468333333","25.0383983333333","6500500","新莊區"
"242019","350-TH","2018/06/16 19:39:45","新北市新莊區新泰路357巷3弄51號","121.442491666667","25.0400383333333","6500500","新莊區"
"242013","351-TH","2018/06/16 19:39:41","新北市新莊區中誠街121巷5號","121.449451666667","25.0473033333333","6500500","新莊區"
"238015","755-BX","2018/06/16 19:39:30","新北市樹林區中山路一段108巷25號","121.422111666667","24.9910383333333","6500700","樹林區"
"238023","601-UM","2018/06/16 19:39:33","新北市樹林區三福街122號","121.406058333333","25.0160583333333","6500700","樹林區"
"238019","599-UM","2018/06/16 19:39:36","新北市樹林區鎮前街347巷3弄38號","121.418028333333","24.98391","6500700","樹林區"
"238024","5061-A6","2018/06/16 19:39:46","新北市樹林區育德街40號","121.390088333333","24.96908","6500700","樹林區"
"238022","KEA-2213","2018/06/16 19:39:29","新北市樹林區名園街61號","121.42001","24.9780266666667","6500700","樹林區"
"238021","KEA-2539","2018/06/16 19:39:33","新北市樹林區佳園路三段143號","121.386283333333","24.9492716666667","6500700","樹林區"
"238025","303-VK","2018/06/16 19:39:42","新北市樹林區中山路一段276號","121.420708333333","24.986885","6500700","樹林區"
"238014","282-BY","2018/06/16 19:39:28","新北市樹林區千歲街30巷26弄12號","121.426106666667","24.995695","6500700","樹林區"
"239007","AAC-297","2018/06/16 19:39:39","新北市鶯歌區大湖路326巷46號","121.345971666667","24.9692966666667","6500800","鶯歌區"
"239006","891-R6","2018/06/16 19:39:34","新北市鶯歌區尖山埔路134號","121.34368","24.9497883333333","6500800","鶯歌區"
"239002","359-BY","2018/06/16 19:39:33","新北市鶯歌區大湖路18號","121.342928333333","24.9610016666667","6500800","鶯歌區"
"221036","130-UY","2018/06/16 19:39:45","新北市汐止區汐萬路一段312號","121.650643333333","25.0753833333333","6501100","汐止區"
"221015","131-UY","2018/06/16 19:39:23","新北市汐止區汐萬路一段39號","121.654955","25.069025","6501100","汐止區"
"221010","269-BY","2018/06/16 19:39:42","新北市汐止區汐萬路一段417號","121.649173333333","25.0795666666667","6501100","汐止區"
"221012","278-VK","2018/06/16 19:39:29","新北市汐止區汐平路一段5號","121.680733333333","25.071245","6501100","汐止區"
"221023","279-VK","2018/06/16 19:39:47","新北市汐止區中興路248-1號","121.629518333333","25.0685633333333","6501100","汐止區"
"221032","280-BY","2018/06/16 19:39:31","新北市汐止區大同路二段273號","121.65231","25.0675183333333","6501100","汐止區"
"221027","281-BY","2018/06/16 19:39:43","新北市汐止區忠孝東路9號","121.658301666667","25.066005","6501100","汐止區"
"221029","298-VK","2018/06/16 19:39:42","新北市汐止區康寧街901號","121.651541666667","25.0751183333333","6501100","汐止區"
"221021","299-VK","2018/06/16 19:39:32","新北市汐止區連興街144號","121.65407","25.0614883333333","6501100","汐止區"
"221008","129-UY","2018/06/16 19:39:38","新北市汐止區康寧街61巷31號","121.619495","25.0675783333333","6501100","汐止區"
"221025","623-UM","2018/06/16 19:39:43","新北市汐止區福安街20巷12號","121.662256666667","25.06479","6501100","汐止區"
"221038","646-BX","2018/06/16 19:39:49","新北市汐止區忠孝東路245號","121.662848333333","25.0674416666667","6501100","汐止區"
"221033","647-BX","2018/06/16 19:39:30","台北市南港區舊莊街二段10巷1號","121.626325","25.0376","6501100","汐止區"
"221002","707-TV","2018/06/16 19:39:38","新北市汐止區大同路一段219巷14號","121.633401666667","25.058165","6501100","汐止區"
"220079","145-BY","2018/06/16 19:39:43","新北市板橋區建國街84號","121.45948","25.0172366666667","6500100","板橋區"
"220080","200-UY","2018/06/16 19:39:34","新北市板橋區大觀路二段37巷144號","121.449188333333","25.001505","6500100","板橋區"
"220082","610-BX","2018/06/16 19:39:37","新北市板橋區篤行路一段37號","121.43205","24.9938483333333","6500100","板橋區"
"220101","245-BX","2018/06/16 19:39:46","新北市板橋區莒光路196巷30號","121.472886666667","25.0225766666667","6500100","板橋區"
"220055","256-TC","2018/06/16 19:39:31","新北市板橋區國慶路149巷13弄13號","121.460388333333","24.9970066666667","6500100","板橋區"
"220103","257-TC","2018/06/16 19:39:46","新北市板橋區文化路一段280-3號","121.467353333333","25.021405","6500100","板橋區"
"220091","267-BY","2018/06/16 19:39:33","新北市板橋區懷德街139巷20弄6-2號","121.480135","25.0306783333333","6500100","板橋區"
"220056","276-BY","2018/06/16 19:39:34","新北市板橋區四川路二段47巷4弄1號","121.454181666667","24.9945616666667","6500100","板橋區"
"220072","277-BY","2018/06/16 19:39:34","新北市板橋區金門街253巷12號","121.432898333333","24.9882583333333","6500100","板橋區"
"220071","283-VK","2018/06/16 19:39:45","新北市板橋區四川路一段353號","121.45827","24.9998383333333","6500100","板橋區"
"220094","285-UM","2018/06/16 19:39:50","新北市板橋區宏國路96號","121.470116666667","25.032085","6500100","板橋區"
"220053","285-VK","2018/06/16 19:39:32","新北市板橋區中山路二段148巷30號","121.47719","25.0161133333333","6500100","板橋區"
"220083","286-VK","2018/06/16 19:39:49","新北市板橋區大觀路二段174巷130號","121.441431666667","25.0020433333333","6500100","板橋區"
"220081","287-VK","2018/06/16 19:39:44","新北市板橋區大觀路一段29巷179弄20號","121.449038333333","25.0046916666667","6500100","板橋區"
"220061","293-UM","2018/06/16 19:39:46","新北市板橋區中山路一段265巷13號","121.468695","25.0147","6500100","板橋區"
"220062","295-UM","2018/06/16 19:39:35","新北市板橋區三民路二段81巷1號","121.479608333333","25.0167833333333","6500100","板橋區"
"220084","296-UM","2018/06/16 19:39:38","新北市板橋區滿平二街2巷1弄2號","121.425266666667","24.98613","6500100","板橋區"
"220075","303-R5","2018/06/16 19:39:47","新北市板橋區大勇街18號","121.454386666667","25.0172016666667","6500100","板橋區"
"220092","307-R5","2018/06/16 19:39:36","新北市板橋區文化路一段387巷15號","121.466331666667","25.022135","6500100","板橋區"
"220098","317-R6","2018/06/16 19:39:40","新北市板橋區四維路269巷30號","121.461918333333","25.0278533333333","6500100","板橋區"
"220064","486-VK","2018/06/16 19:39:45","新北市板橋區民權路33號","121.46226","25.0111866666667","6500100","板橋區"
"220088","491-VK","2018/06/16 19:39:41","新北市板橋區仁化街191號","121.47853","25.0341233333333","6500100","板橋區"
"220035","560-BX","2018/06/16 19:39:42","新北市板橋區金華街85巷19號","121.458296666667","25.021415","6500100","板橋區"
"220063","609-BX","2018/06/16 19:39:50","新北市板橋區中山路二段531巷30號","121.48302","25.0222766666667","6500100","板橋區"
"220057","686-BX","2018/06/16 19:39:32","新北市板橋區和平路安樂巷40號","121.46184","24.9932416666667","6500100","板橋區"
"220077","687-BX","2018/06/16 19:39:30","新北市板橋區僑中一街122號","121.445945","25.0117383333333","6500100","板橋區"
"220093","689-BX","2018/06/16 19:39:49","新北市板橋區長江路一段141號","121.460743333333","25.0302116666667","6500100","板橋區"
"220054","741-BX","2018/06/16 19:39:32","新北市板橋區忠孝路忠義巷15弄104號","121.465375","25.005915","6500100","板橋區"
"220102","KEA-2699","2018/06/16 19:39:48","新北市板橋區松柏街36巷8-1號","121.475321666667","25.0296983333333","6500100","板橋區"
"220067","829-TW","2018/06/16 19:39:43","新北市板橋區長安街168巷10弄21號","121.473601666667","25.0103516666667","6500100","板橋區"
"220068","830-TW","2018/06/16 19:39:39","新北市板橋區中山路二段418號","121.482976666667","25.02113","6500100","板橋區"
"220096","831-TW","2018/06/16 19:39:40","新北市板橋區民生路二段234巷24弄8號","121.470278333333","25.0223833333333","6500100","板橋區"
"220089","833-TW","2018/06/16 19:39:29","新北市板橋區英士路37號","121.461668333333","25.0250466666667","6500100","板橋區"
"220074","895-R6","2018/06/16 19:39:46","新北市板橋區館前西路150-4號","121.455578333333","25.0085583333333","6500100","板橋區"
"220073","985-R7","2018/06/16 19:39:30","新北市板橋區國光路49巷7號","121.45835","25.0185966666667","6500100","板橋區"
"220097","AAC-210","2018/06/16 19:39:46","新北市板橋區新海路53號","121.461915","25.0210333333333","6500100","板橋區"
"220070","AAC-253","2018/06/16 19:39:37","新北市板橋區民族路310號","121.470811666667","25.00664","6500100","板橋區"
"235068","KEA-2873","2018/06/16 19:39:45","新北市中和區中山路二段191號","121.500111666667","25.0025766666667","6500300","中和區"
"235061","KEA-2875","2018/06/16 19:39:27","新北市中和區民安街2巷21號","121.480211666667","25.001465","6500300","中和區"
