"lineid","car","time","location","longitude","latitude","cityid","cityname"
"234046","148-BY","2018/06/16 19:49:42","新北市永和區永利路147號","121.524378333333","25.0033733333333","6500400","永和區"
"234007","207-UY","2018/06/16 19:49:40","新北市中和區南工路20號","121.505561666667","25.0005716666667","6500400","永和區"
"234081","298-R6","2018/06/16 19:49:35","新北市永和區永亨路98號","121.523035","25.0048666666667","6500400","永和區"
"234038","336-UY","2018/06/16 19:49:36","新北市永和區成功路二段127號","121.52681","24.9982533333333","6500400","永和區"
"234064","337-UY","2018/06/16 19:49:45","新北市永和區中正路368巷16號","121.518293333333","25.0008116666667","6500400","永和區"
"234086","338-UY","2018/06/16 19:49:43","新北市永和區中正路562號","121.517256666667","25.00595","6500400","永和區"
"234070","552-UM","2018/06/16 19:49:27","新北市永和區竹林路88號","121.519461666667","25.0125633333333","6500400","永和區"
"234017","745-BX","2018/06/16 19:49:48","新北市永和區永和路二段297號","121.51601","25.01606","6500400","永和區"
"234030","746-BX","2018/06/16 19:49:45","新北市永和區民生路67巷40號","121.524773333333","24.9973866666667","6500400","永和區"
"234054","KEA-2590","2018/06/16 19:49:41","新北市永和區竹林路73-1號","121.518656666667","25.01328","6500400","永和區"
"234013","KEA-2591","2018/06/16 19:49:36","新北市永和區永平路286-1號","121.507665","25.0120533333333","6500400","永和區"
"234061","AAD-866","2018/06/16 19:49:48","新北市永和區中正路39-1號","121.514385","24.99596","6500400","永和區"
"234042","862-TW","2018/06/16 19:49:36","新北市永和區中和路389巷39號","121.50815","25.0016266666667","6500400","永和區"
"234050","863-TW","2018/06/16 19:49:47","新北市永和區保福路二段163巷12號","121.508866666667","25.014835","6500400","永和區"
"234026","9371-KE","2018/06/16 19:49:47","新北市永和區雙和街7巷6號","121.50946","25.00158","6500400","永和區"
"234011","9373-KE","2018/06/16 19:49:47","新北市永和區保福路二段163巷12號","121.508858333333","25.014685","6500400","永和區"
"249001","173-UM","2018/06/16 19:49:47","新北市八里區中華路二段252號","121.405381666667","25.14969","6502300","八里區"
"249004","303-UY","2018/06/16 19:49:36","新北市八里區仁愛路21號","121.413191666667","25.1609283333333","6502300","八里區"
"249002","305-UY","2018/06/16 19:49:44","新北市八里區頂寮五街20號","121.451331666667","25.12622","6502300","八里區"
"249003","593-UM","2018/06/16 19:49:38","新北市八里區華峰一街18號","121.399298333333","25.14668","6502300","八里區"
"248014","025-BX","2018/06/16 19:49:38","新北市五股區五福路42巷9號","121.434225","25.0896633333333","6501500","五股區"
"248016","026-BX","2018/06/16 19:49:36","新北市五股區成泰路四段22巷2-1號","121.453721666667","25.1066366666667","6501500","五股區"
"248008","095-VK","2018/06/16 19:49:37","新北市五股區四維路169號","121.467638333333","25.075075","6501500","五股區"
"248020","225-UY","2018/06/16 19:49:38","新北市五股區中直路65-1號","121.417935","25.1185733333333","6501500","五股區"
"248012","247-BX","2018/06/16 19:49:34","新北市五股區蓬萊路6巷1號","121.435526666667","25.0795583333333","6501500","五股區"
"248010","272-BY","2018/06/16 19:49:47","新北市五股區登林路76-5號","121.430511666667","25.0695883333333","6501500","五股區"
"248002","655-BX","2018/06/16 19:49:38","新北市五股區成泰路四段15-6號","121.453298333333","25.1070166666667","6501500","五股區"
"248004","677-BX","2018/06/16 19:49:50","新北市五股區成泰路一段198號","121.435796666667","25.0784066666667","6501500","五股區"
"234023","9380-KE","2018/06/16 19:49:29","新北市永和區保生路3號","121.506378333333","25.0074616666667","6500400","永和區"
"234077","969-R7","2018/06/16 19:49:49","新北市永和區民治街97巷7號","121.51694","24.9980033333333","6500400","永和區"
"234074","AAC-211","2018/06/16 19:49:44","新北市永和區竹林路179巷40號","121.522208333333","25.0101916666667","6500400","永和區"
"234067","AAC-212","2018/06/16 19:49:34","新北市永和區中山路一段171號","121.509631666667","25.0093083333333","6500400","永和區"
"234003","AAC-295","2018/06/16 19:49:48","新北市永和區福和路315號","121.516021666667","25.007225","6500400","永和區"
"244023","483-VK","2018/06/16 19:49:28","新北市林口區文化北路二段300號","121.374371666667","25.0876166666667","6501700","林口區"
"243013","AAD-798","2018/06/16 19:41:43","新北市泰山區應化街7號","121.423905","25.0437066666667","6501600","泰山區"
"243009","297-R6","2018/06/16 19:49:42","新北市泰山區美寧街69號","121.430983333333","25.0647083333333","6501600","泰山區"
"243016","380-SR","2018/06/16 19:49:29","新北市泰山區中山路三段114號","121.417731666667","25.0321633333333","6501600","泰山區"
"243015","421-VK","2018/06/16 19:49:47","新北市泰山區明志路二段214巷11號","121.42668","25.0487783333333","6501600","泰山區"
"243011","KEA-2215","2018/06/16 19:49:40","新北市泰山區明志路三段204巷10弄11號","121.422941666667","25.0386833333333","6501600","泰山區"
"243010","KEA-2216","2018/06/16 19:49:48","新北市泰山區民生路33號","121.430906666667","25.0521266666667","6501600","泰山區"
"243012","646-TV","2018/06/16 19:49:39","新北市泰山區全興路18巷29號","121.431941666667","25.05837","6501600","泰山區"
"243014","680-BX","2018/06/16 19:49:36","新北市泰山區泰林路二段33-8號","121.435155","25.05652","6501600","泰山區"
"222003","436-BY","2018/06/16 19:49:34","新北市深坑區深南路49號","121.621145","25.0097383333333","6501800","深坑區"
"222002","659-BX","2018/06/16 19:49:31","新北市深坑區北深路一段361號","121.622318333333","25.0049816666667","6501800","深坑區"
"231041","002-UM","2018/06/16 19:49:29","新北市新店區中央路210號","121.530111666667","24.97366","6500600","新店區"
"231059","046-UY","2018/06/16 19:49:36","新北市新店區安和路二段227號","121.517293333333","24.9760566666667","6500600","新店區"
"231040","047-UY","2018/06/16 19:49:30","新北市新店區中正路75巷71號","121.543096666667","24.96878","6500600","新店區"
"231044","106-UY","2018/06/16 19:49:32","新北市新店區復興路107號","121.534516666667","24.98787","6500600","新店區"
"231052","108-UY","2018/06/16 19:49:42","新北市新店區新烏路三段101號","121.552505","24.9031433333333","6500600","新店區"
"231048","187-VK","2018/06/16 19:49:48","新北市新店區寶興路49號","121.549125","24.9732516666667","6500600","新店區"
"231046","188-VK","2018/06/16 19:49:38","新北市新店區三民路159巷19弄48號","121.532155","24.973195","6500600","新店區"
"231054","KEA-2219","2018/06/16 19:49:36","新北市新店區光明街67號","121.53883","24.960485","6500600","新店區"
"231057","256-BX","2018/06/16 19:49:39","新北市新店區梅崗三路1號","121.557786666667","24.931155","6500600","新店區"
"231042","268-BY","2018/06/16 19:49:40","新北市新店區中興路一段269號","121.545066666667","24.9679916666667","6500600","新店區"
"231051","278-BY","2018/06/16 19:49:35","新北市新店區中央路149號","121.530103333333","24.973275","6500600","新店區"
"231050","AAD-862","2018/06/16 19:49:35","新北市新店區郵政路4巷5號","121.556891666667","24.9516033333333","6500600","新店區"
"231058","3713-VJ","2018/06/16 19:49:45","新北市新店區安德街60巷26號","121.511235","24.9641216666667","6500600","新店區"
"231056","4715-K9","2018/06/16 19:49:39","新北市新店區民權路42巷59弄1-2號","121.538341666667","24.9837383333333","6500600","新店區"
"231065","512-UM","2018/06/16 19:49:46","新北市新店區安祥路109巷92號","121.478238333333","24.9594566666667","6500600","新店區"
"231049","513-UM","2018/06/16 19:49:50","新北市新店區民權路127巷7號","121.535493333333","24.9818066666667","6500600","新店區"
"231045","617-UM","2018/06/16 19:49:49","新北市新店區中生路66號","121.5647","24.9524066666667","6500600","新店區"
"231061","619-UM","2018/06/16 19:49:38","新北市新店區安民街172號","121.516755","24.9707516666667","6500600","新店區"
"231063","641-BX","2018/06/16 19:49:45","新北市新店區車子路11號","121.502993333333","24.9519933333333","6500600","新店區"
"231064","719-UM","2018/06/16 19:49:45","新北市新店區安和路二段29號","121.518083333333","24.9676866666667","6500600","新店區"
"231062","720-UM","2018/06/16 19:49:31","新北市新店區永業路51巷2號","121.531871666667","24.9547533333333","6500600","新店區"
"231060","897-TW","2018/06/16 19:49:41","新北市新店區安德街173號","121.508843333333","24.9589016666667","6500600","新店區"
"231043","899-TW","2018/06/16 19:49:39","新北市新店區中正路263-2號","121.538468333333","24.9737966666667","6500600","新店區"
"231055","AKT-0513","2018/06/16 19:49:46","新北市新店區力行路30號","121.539156666667","24.9646483333333","6500600","新店區"
"241011","013-R5","2018/06/16 19:49:44","新北市三重區介壽路39巷6號","121.498886666667","25.070165","6500200","三重區"
"241028","022-UY","2018/06/16 19:49:33","新北市三重區中正南路157號","121.493881666667","25.0561116666667","6500200","三重區"
"241008","059-VK","2018/06/16 19:49:39","新北市三重區永福街143號","121.478736666667","25.0764866666667","6500200","三重區"
"241009","060-VK","2018/06/16 19:49:45","新北市三重區三和路四段390巷51號","121.479763333333","25.0786","6500200","三重區"
"241031","061-VK","2018/06/16 19:49:41","新北市三重區重新路四段246-2號","121.485916666667","25.053455","6500200","三重區"
"241015","062-VK","2018/06/16 19:49:37","新北市三重區三和路一段2號","121.503861666667","25.0642983333333","6500200","三重區"
"241017","063-VK","2018/06/16 19:49:47","新北市三重區重陽路三段5巷8弄20號","121.489605","25.06648","6500200","三重區"
"241024","065-VK","2018/06/16 19:49:38","新北市三重區國道路一段58巷20號","121.481248333333","25.072105","6500200","三重區"
"241003","265-UM","2018/06/16 19:49:38","新北市三重區五華街93巷2號","121.49201","25.0837583333333","6500200","三重區"
"241016","266-UM","2018/06/16 19:49:45","新北市三重區正德街56號","121.495641666667","25.0632866666667","6500200","三重區"
"241022","267-UM","2018/06/16 19:49:47","新北市三重區新北大道一段7號","121.489778333333","25.0616233333333","6500200","三重區"
"241013","270-UM","2018/06/16 19:49:31","新北市三重區仁愛街112巷14號","121.494758333333","25.0739916666667","6500200","三重區"
"241025","271-UM","2018/06/16 19:49:45","新北市三重區忠孝路三段52號","121.480666666667","25.0656033333333","6500200","三重區"
"241007","398-BY","2018/06/16 19:49:43","新北市三重區三和路四段133-1號","121.484743333333","25.07795","6500200","三重區"
"241035","KEA-2210","2018/06/16 19:49:33","新北市三重區文化北路6-1號","121.499411666667","25.063495","6500200","三重區"
"241023","413-TH","2018/06/16 19:49:47","新北市三重區頂崁街168號","121.477565","25.0658683333333","6500200","三重區"
"241004","475-VK","2018/06/16 19:49:46","新北市三重區五華街74號","121.49341","25.08199","6500200","三重區"
"241020","478-VK","2018/06/16 19:49:45","新北市三重區三和路四段20巷22-2號","121.49019","25.0733766666667","6500200","三重區"
"241030","480-VK","2018/06/16 19:49:27","新北市三重區環河南路254巷10號","121.49071","25.0507033333333","6500200","三重區"
"241014","543-UM","2018/06/16 19:49:40","新北市三重區長安街84號","121.5016","25.0674833333333","6500200","三重區"
"241001","547-UM","2018/06/16 19:49:43","新北市三重區仁愛街325號","121.492425","25.0795466666667","6500200","三重區"
"241019","KEA-2593","2018/06/16 19:49:43","新北市三重區自強路二段74巷23-1號","121.487785","25.0697083333333","6500200","三重區"
"241006","AAD-863","2018/06/16 19:49:46","新北市三重區力行路二段82號","121.481601666667","25.07393","6500200","三重區"
"241018","743-BX","2018/06/16 19:46:07","新北市三重區大智街59號","121.492805","25.06795","6500200","三重區"
"241026","887-TS","2018/06/16 19:49:33","新北市三重區文化南路46號","121.500245","25.059985","6500200","三重區"
"241012","941-UM","2018/06/16 19:49:36","新北市三重區仁興街42巷14號","121.498253333333","25.075425","6500200","三重區"
"241029","942-UM","2018/06/16 19:49:50","新北市三重區光明路11號","121.49099","25.058765","6500200","三重區"
"241033","AAC-255","2018/06/16 19:49:47","新北市三重區中興南街31-3號","121.470693333333","25.0439266666667","6500200","三重區"
"235064","005-UY","2018/06/16 19:49:34","新北市中和區圓通路15號","121.50152","24.9979166666667","6500300","中和區"
"235063","006-UY","2018/06/16 19:49:30","新北市中和區連城路263巷16號","121.492513333333","24.9948483333333","6500300","中和區"
"235056","096-UM","2018/06/16 19:49:30","新北市中和區中山路三段136巷10弄13號","121.474088333333","25.0075016666667","6500300","中和區"
"235039","097-UM","2018/06/16 19:49:42","新北市中和區大勇街27巷12號","121.51689","24.99374","6500300","中和區"
"235065","098-UM","2018/06/16 19:49:47","新北市中和區福祥路90巷7弄13號","121.499325","25.0063766666667","6500300","中和區"
"235040","150-BY","2018/06/16 19:49:36","新北市中和區安和路39號","121.509686666667","24.994865","6500300","中和區"
"235058","151-BY","2018/06/16 19:49:33","新北市中和區員山路132巷12號","121.481866666667","24.99621","6500300","中和區"
"235055","183-VK","2018/06/16 19:49:32","新北市中和區德光路27巷1弄2號","121.470861666667","25.0039","6500300","中和區"
"235038","185-VK","2018/06/16 19:49:41","新北市中和區自立路14號","121.522245","24.9962","6500300","中和區"
"235049","186-VK","2018/06/16 19:49:41","新北市中和區中興街37號","121.500838333333","24.9944183333333","6500300","中和區"
"235067","255-BX","2018/06/16 19:49:37","新北市中和區新生街186巷1弄6號","121.483336666667","24.9994216666667","6500300","中和區"
"235044","293-VK","2018/06/16 19:49:38","新北市中和區南山路233號","121.503636666667","24.993255","6500300","中和區"
"235043","352-BY","2018/06/16 19:49:33","新北市中和區興南路二段159巷18號","121.50525","24.9829666666667","6500300","中和區"
"235042","KEA-2878","2018/06/16 19:49:31","新北市中和區保健路2巷19號","121.507256666667","24.9976333333333","6500300","中和區"
"235050","4979-A6","2018/06/16 19:49:32","新北市中和區景平路241巷84弄54號","121.506095","24.9924316666667","6500300","中和區"
"235070","558-UM","2018/06/16 19:49:38","新北市中和區連勝街2號","121.499085","24.9986333333333","6500300","中和區"
"235045","565-BX","2018/06/16 19:49:38","新北市中和區景平路332號","121.512105","24.992855","6500300","中和區"
"235054","640-BX","2018/06/16 19:49:30","新北市中和區莒光路112號","121.472448333333","25.00203","6500300","中和區"
"235060","647-TV","2018/06/16 19:49:40","新北市中和區中山路二段521號","121.481753333333","25.0050566666667","6500300","中和區"
"235047","732-UM","2018/06/16 19:49:50","新北市中和區興南路一段63-6號","121.510281666667","24.9895666666667","6500300","中和區"
"235046","733-UM","2018/06/16 19:49:38","新北市中和區仁愛街36號","121.511005","24.9883916666667","6500300","中和區"
"235071","783-BX","2018/06/16 19:49:38","新北市中和區中板路7號","121.484933333333","25.0115083333333","6500300","中和區"
"235026","800-TS","2018/06/16 19:49:34","新北市中和區員山路36巷16-3號","121.4847","24.991635","6500300","中和區"
"235057","801-TS","2018/06/16 19:49:45","新北市中和區員山路303號","121.481233333333","25.0001483333333","6500300","中和區"
"235041","802-TS","2018/06/16 19:49:38","新北市中和區永貞路239巷17號","121.512606666667","25.00311","6500300","中和區"
"235052","805-TS","2018/06/16 19:49:47","新北市中和區興南路二段80號","121.505836666667","24.9845866666667","6500300","中和區"
"235048","896-TW","2018/06/16 19:49:38","新北市中和區興南路二段2號","121.507946666667","24.9863583333333","6500300","中和區"
"235053","900-TW","2018/06/16 19:49:32","新北市中和區國光街189巷18號","121.467746666667","25.001005","6500300","中和區"
"235066","911-UM","2018/06/16 19:49:33","新北市中和區南工路22巷1號","121.505626666667","25.0007933333333","6500300","中和區"
"235051","157-BY","2018/06/16 19:49:29","新北市中和區中興街180巷50弄1號","121.498908333333","24.988825","6500300","中和區"
"235037","AAC-213","2018/06/16 19:49:41","新北市中和區自立路52號","121.523155","24.9920833333333","6500300","中和區"
"235059","AAC-215","2018/06/16 19:49:38","新北市中和區圓通路305巷27弄1號","121.495023333333","24.9892183333333","6500300","中和區"
"220065","072-UY","2018/06/16 19:49:46","新北市板橋區海山路49號","121.466811666667","25.0100933333333","6500100","板橋區"
"220086","073-UY","2018/06/16 19:49:34","新北市板橋區中正路109號","121.456471666667","25.0149516666667","6500100","板橋區"
"220106","075-UY","2018/06/16 19:49:44","新北市板橋區民治街57巷32-1號","121.480231666667","25.0341533333333","6500100","板橋區"
"220069","AAD-861","2018/06/16 19:49:38","新北市板橋區貴興路119巷1弄1號","121.455703333333","25.0022166666667","6500100","板橋區"
"220090","120-SR","2018/06/16 19:49:46","新北市板橋區龍泉街54巷7弄2號","121.456858333333","25.0266433333333","6500100","板橋區"
"247014","546-UM","2018/06/16 19:49:48","新北市蘆洲區復興路11號","121.471971666667","25.085325","6501400","蘆洲區"
"247004","337-TH","2018/06/16 19:49:36","新北市蘆洲區中原路32號","121.459971666667","25.0827316666667","6501400","蘆洲區"
"247006","336-TH","2018/06/16 19:49:39","新北市蘆洲區永安南路二段26號","121.467303333333","25.0770666666667","6501400","蘆洲區"
"247008","056-VK","2018/06/16 19:49:47","新北市蘆洲區信義路129號","121.478833333333","25.0800716666667","6501400","蘆洲區"
"247002","002-UY","2018/06/16 19:49:36","新北市蘆洲區永樂街38巷71號","121.45859","25.0906583333333","6501400","蘆洲區"
"247020","001-UY","2018/06/16 19:49:30","新北市蘆洲區民義街17號","121.471628333333","25.088845","6501400","蘆洲區"
"226004","312-R5","2018/06/16 19:49:35","新北市平溪區南山里南山坪94號","121.776806666667","25.0410216666667","6502400","平溪區"
"228003","097-TW","2018/06/16 19:49:45","新北市貢寮區真理里美艷山街5-1號","121.926566666667","25.05967","6502600","貢寮區"
"228001","212-TW","2018/06/16 19:49:48","新北市貢寮區真理里新港街95號","121.926781666667","25.0567683333333","6502600","貢寮區"
"224010","AGQ-8101","2018/06/16 19:49:33","新北市瑞芳區汽車路9-1號","121.84563","25.109815","6501200","瑞芳區"
"224002","639-TC","2018/06/16 19:49:38","新北市瑞芳區民享新村26號","121.81714","25.10583","6501200","瑞芳區"
"224011","420-VK","2018/06/16 19:49:28","新北市瑞芳區崙頂路3-1號","121.846975","25.1047233333333","6501200","瑞芳區"
"227002","642-TC","2018/06/16 19:49:43","新北市雙溪區雙溪里內挖路47號","121.863265","25.03677","6502500","雙溪區"
"227010","400-TW","2018/06/16 19:49:50","新北市雙溪區新基里朝陽街18-1號","121.86589","25.0388233333333","6502500","雙溪區"
"222001","KEA-2212","2018/06/16 19:49:39","新北市深坑區北深路三段71號","121.606751666667","25.0014866666667","6501800","深坑區"
"208002","KEA-2872","2018/06/16 19:49:45","新北市金山區三民街28號","121.634861666667","25.2232866666667","6502700","金山區"
"208003","665-BX","2018/06/16 19:49:42","新北市金山區清泉里清水路49號","121.629596666667","25.2341766666667","6502700","金山區"
"208001","761-BX","2018/06/16 19:49:29","新北市金山區重和里六股林口20號","121.60303","25.21903","6502700","金山區"
"251009","008-UM","2018/06/16 19:49:43","新北市淡水區中正路38-1號","121.443748333333","25.169275","6501000","淡水區"
"251004","009-UM","2018/06/16 19:44:56","新北市淡水區民權路187巷38號","121.460855","25.133325","6501000","淡水區"
"251001","011-UM","2018/06/16 19:49:38","新北市淡水區淡金路101號","121.456805","25.1636233333333","6501000","淡水區"
"251013","KEA-2871","2018/06/16 19:49:36","新北市淡水區頂田寮2-1號","121.46033","25.2132516666667","6501000","淡水區"
"251016","179-VK","2018/06/16 19:49:33","新北市淡水區三塊厝4-1號","121.457353333333","25.2114866666667","6501000","淡水區"
"251014","180-VK","2018/06/16 19:49:29","新北市淡水區番社前1-7號","121.46828","25.23609","6501000","淡水區"
"251008","181-VK","2018/06/16 19:49:35","新北市淡水區中正路二段24巷2-1號","121.426775","25.17699","6501000","淡水區"
"251015","182-VK","2018/06/16 19:49:42","新北市淡水區泉洲厝7號","121.484953333333","25.1877","6501000","淡水區"
"251010","413-VK","2018/06/16 19:49:42","新北市淡水區崁頂133號","121.431105","25.20552","6501000","淡水區"
"251012","441-VK","2018/06/16 19:49:31","新北市淡水區淡金路三段70巷1號","121.448346666667","25.2010166666667","6501000","淡水區"
"251007","442-VK","2018/06/16 19:49:33","新北市淡水區中正東路一段3巷43號","121.452303333333","25.1656966666667","6501000","淡水區"
"251005","443-VK","2018/06/16 19:49:46","新北市淡水區中山路38號","121.444231666667","25.169865","6501000","淡水區"
"251006","561-UM","2018/06/16 19:49:41","新北市淡水區水碓街15號","121.443473333333","25.1769566666667","6501000","淡水區"
"251011","650-BX","2018/06/16 19:49:46","新北市淡水區埤島3-17號","121.447093333333","25.1902433333333","6501000","淡水區"
"251003","766-UM","2018/06/16 19:49:38","新北市淡水區崁頂78-5號","121.429385","25.2071583333333","6501000","淡水區"
"207003","550-UM","2018/06/16 19:49:50","新北市萬里區磺潭里公館崙5號","121.64196","25.2143533333333","6502800","萬里區"
"207004","225-TW","2018/06/16 19:49:32","新北市萬里區萬里里瑪鋉路238號","121.68923","25.18051","6502800","萬里區"
"252002","178-VK","2018/06/16 19:49:32","新北市三芝區三民街31號","121.504573333333","25.25855","6502100","三芝區"
"252001","292-VK","2018/06/16 19:49:39","新北市三芝區公正街9號","121.499775","25.2574883333333","6502100","三芝區"
"237004","KEA-2597","2018/06/16 19:49:42","新北市三峽區圳頭35號","121.376851666667","24.88746","6500900","三峽區"
"237007","153-BY","2018/06/16 19:49:39","新北市三峽區二鬮路136巷22弄51號","121.357573333333","24.91046","6500900","三峽區"
"237009","210-TH","2018/06/16 19:49:42","新北市三峽區中園街13-1號","121.368616666667","24.9270516666667","6500900","三峽區"
"237013","252-BX","2018/06/16 19:49:37","新北市三峽區溪北街26號","121.396538333333","24.9360733333333","6500900","三峽區"
"237012","275-BY","2018/06/16 19:49:45","新北市三峽區光明路1-8號","121.372761666667","24.9321366666667","6500900","三峽區"
"237008","302-VK","2018/06/16 19:49:36","新北市三峽區永安街165號","121.373255","24.9273233333333","6500900","三峽區"
"237014","433-BY","2018/06/16 19:49:30","新北市三峽區添福139號","121.375411666667","24.9009566666667","6500900","三峽區"
"237006","5529-G3","2018/06/16 19:49:45","新北市三峽區中正路一段336巷15弄2號","121.370008333333","24.9249866666667","6500900","三峽區"
"237016","649-BX","2018/06/16 19:49:30","新北市三峽區介壽路二段138巷1弄20號","121.396366666667","24.9337316666667","6500900","三峽區"
"237005","AKY-6261","2018/06/16 19:49:47","新北市三峽區民生街98號","121.373995","24.9355583333333","6500900","三峽區"
"236070","105-UM","2018/06/16 19:49:37","新北市土城區水源街23號","121.440993333333","24.9753183333333","6501300","土城區"
"236042","107-UM","2018/06/16 19:49:46","新北市土城區裕民路261號","121.454993333333","24.9826833333333","6501300","土城區"
"236079","166-UM","2018/06/16 19:49:41","新北市土城區溪頭路37號","121.412153333333","24.9551733333333","6501300","土城區"
"236030","253-BX","2018/06/16 19:49:46","新北市土城區中央路一段290號","121.443283333333","24.9824016666667","6501300","土城區"
"236026","269-VK","2018/06/16 19:49:42","新北市土城區中央路二段61巷28號","121.44342","24.97883","6501300","土城區"
"236038","271-VK","2018/06/16 19:49:39","新北市土城區國際路158巷24弄2號","121.468511666667","24.9758883333333","6501300","土城區"
"236021","401-BY","2018/06/16 19:49:30","新北市土城區延吉街137巷10號","121.47095","24.9857","6501300","土城區"
"236059","752-BX","2018/06/16 19:49:40","新北市土城區中央路一段210號","121.445011666667","24.9855166666667","6501300","土城區"
"236049","913-UM","2018/06/16 19:49:31","新北市土城區金城路二段316號","121.459153333333","24.9843733333333","6501300","土城區"
"236063","915-UM","2018/06/16 19:49:35","新北市土城區延和路105巷1弄2號","121.467443333333","24.99064","6501300","土城區"
"236055","AAC-216","2018/06/16 19:49:34","新北市土城區延和路89號","121.466926666667","24.9899","6501300","土城區"
"242034","AAC-296","2018/06/16 19:49:37","新北市新莊區仁愛街54巷1號","121.444925","25.0371383333333","6500500","新莊區"
"242029","612-BX","2018/06/16 19:49:36","新北市新莊區中平路288號","121.444815","25.0510533333333","6500500","新莊區"
"242056","440-UM","2018/06/16 19:49:38","新北市新莊區新泰路50號","121.449363333333","25.0344733333333","6500500","新莊區"
"242036","415-TV","2018/06/16 19:49:46","新北市新莊區民安路207巷27號","121.427215","25.0235383333333","6500500","新莊區"
"242007","413-TV","2018/06/16 19:49:33","新北市新莊區新北大道三段5號","121.458413333333","25.0600933333333","6500500","新莊區"
"242023","362-BY","2018/06/16 19:49:42","新北市新莊區化成路182號","121.465586666667","25.045835","6500500","新莊區"
"242061","353-BY","2018/06/16 19:49:39","新北市新莊區中環路一段10號","121.442753333333","25.0257916666667","6500500","新莊區"
"242039","133-UY","2018/06/16 19:49:31","新北市新莊區民安路299巷55弄2號","121.42943","25.0239216666667","6500500","新莊區"
"242048","172-VK","2018/06/16 19:49:30","新北市新莊區民安路137巷2弄5號","121.425601666667","25.0241083333333","6500500","新莊區"
"242011","173-VK","2018/06/16 19:49:42","新北市新莊區中信街74號","121.448281666667","25.0526833333333","6500500","新莊區"
"242017","175-VK","2018/06/16 19:49:37","新北市新莊區中安街1號","121.452801666667","25.045225","6500500","新莊區"
"242004","176-VK","2018/06/16 19:49:49","新北市新莊區化成路63巷24弄30號","121.461791666667","25.0459933333333","6500500","新莊區"
"242031","347-TH","2018/06/16 19:49:36","新北市新莊區仁愛街73號","121.444023333333","25.0379","6500500","新莊區"
"242021","348-TH","2018/06/16 19:49:43","新北市新莊區新泰路119號","121.448391666667","25.036005","6500500","新莊區"
"242019","350-TH","2018/06/16 19:49:46","新北市新莊區明智街6號","121.454668333333","25.0415533333333","6500500","新莊區"
"242013","351-TH","2018/06/16 19:49:41","新北市新莊區中泰街38巷7號","121.450685","25.0472583333333","6500500","新莊區"
"238015","755-BX","2018/06/16 19:49:30","新北市樹林區大安路593號","121.41187","24.9829266666667","6500700","樹林區"
"238023","601-UM","2018/06/16 19:49:32","新北市樹林區中正路415號","121.41724","25.0074583333333","6500700","樹林區"
"238024","5061-A6","2018/06/16 19:49:36","新北市樹林區中山路三段210-2號","121.381411666667","24.9656133333333","6500700","樹林區"
"238021","KEA-2539","2018/06/16 19:49:33","新北市樹林區佳園路三段181巷77號","121.391045","24.94835","6500700","樹林區"
"238025","303-VK","2018/06/16 19:49:42","新北市樹林區中山路二段162號","121.412015","24.98289","6500700","樹林區"
"238014","282-BY","2018/06/16 19:49:48","新北市樹林區千歲街63號","121.426683333333","24.9981533333333","6500700","樹林區"
"239006","891-R6","2018/06/16 19:49:34","新北市鶯歌區文化路72-1號","121.355103333333","24.9538633333333","6500800","鶯歌區"
"221036","130-UY","2018/06/16 19:49:45","新北市汐止區汐萬路一段312號","121.650436666667","25.0751016666667","6501100","汐止區"
"221015","131-UY","2018/06/16 19:49:31","新北市汐止區忠孝東路408號","121.665893333333","25.071185","6501100","汐止區"
"221010","269-BY","2018/06/16 19:49:42","新北市汐止區八連路一段72號","121.64664","25.0804233333333","6501100","汐止區"
"221012","278-VK","2018/06/16 19:49:29","新北市汐止區保長路273巷8號","121.681598333333","25.0740333333333","6501100","汐止區"
"221023","279-VK","2018/06/16 19:49:36","新北市汐止區民族六街4巷2號","121.62942","25.070275","6501100","汐止區"
"221032","280-BY","2018/06/16 19:49:51","新北市汐止區橫科路403巷13號","121.62486","25.047645","6501100","汐止區"
"221027","281-BY","2018/06/16 19:49:43","新北市汐止區中正路9號","121.663","25.07015","6501100","汐止區"
"221029","298-VK","2018/06/16 19:49:42","新北市汐止區康寧街901號","121.650716666667","25.0754","6501100","汐止區"
"221021","299-VK","2018/06/16 19:49:32","新北市汐止區青山路41-1號","121.656471666667","25.0612883333333","6501100","汐止區"
"221008","129-UY","2018/06/16 19:49:39","新北市汐止區康寧街67號","121.619156666667","25.0665416666667","6501100","汐止區"
"221035","622-UM","2018/06/16 19:49:42","新北市汐止區長江街13巷6弄1號","121.6547","25.07166","6501100","汐止區"
"221025","623-UM","2018/06/16 19:49:43","新北市汐止區秀峰路81巷36號","121.661298333333","25.0646266666667","6501100","汐止區"
"221038","646-BX","2018/06/16 19:49:49","新北市汐止區忠孝東路417號","121.665606666667","25.0714666666667","6501100","汐止區"
"221033","647-BX","2018/06/16 19:49:50","新北市汐止區東勢街76巷99號","121.63632","25.0390983333333","6501100","汐止區"
"221018","753-BX","2018/06/16 19:49:45","新北市汐止區大同路二段527號","121.66164","25.068925","6501100","汐止區"
"220079","145-BY","2018/06/16 19:49:36","新北市板橋區中正路183巷29號","121.454886666667","25.0158916666667","6500100","板橋區"
"220080","200-UY","2018/06/16 19:49:34","新北市板橋區大觀路二段153巷46弄10號","121.448916666667","24.9995516666667","6500100","板橋區"
"220082","610-BX","2018/06/16 19:49:46","新北市板橋區存德街81號","121.431908333333","24.9911583333333","6500100","板橋區"
"220101","245-BX","2018/06/16 19:49:44","新北市板橋區縣民大道三段103巷16號","121.475485","25.0228483333333","6500100","板橋區"
"220055","256-TC","2018/06/16 19:49:31","新北市板橋區國慶路149巷4弄16-4號","121.461845","24.99702","6500100","板橋區"
"220103","257-TC","2018/06/16 19:49:46","新北市板橋區陽明街29巷9號","121.464861666667","25.0217966666667","6500100","板橋區"
"220091","267-BY","2018/06/16 19:49:33","新北市板橋區民治街83號","121.479641666667","25.032235","6500100","板橋區"
"220056","276-BY","2018/06/16 19:49:34","新北市板橋區四川路二段99-2號","121.452573333333","24.99452","6500100","板橋區"
"220072","277-BY","2018/06/16 19:49:34","新北市板橋區金門街149號","121.432746666667","24.9905966666667","6500100","板橋區"
"220071","283-VK","2018/06/16 19:49:45","新北市板橋區五權街32巷32號","121.463768333333","24.9926583333333","6500100","板橋區"
"220094","285-UM","2018/06/16 19:49:41","新北市板橋區長江路一段133號","121.460488333333","25.0301566666667","6500100","板橋區"
"220053","285-VK","2018/06/16 19:49:52","新北市板橋區中山路二段60巷1弄22號","121.475035","25.0156816666667","6500100","板橋區"
"220083","286-VK","2018/06/16 19:49:49","新北市板橋區僑中二街8巷22號","121.446191666667","25.01136","6500100","板橋區"
"220081","287-VK","2018/06/16 19:49:45","新北市板橋區大觀路一段28巷107號","121.449918333333","25.0120716666667","6500100","板橋區"
"220061","293-UM","2018/06/16 19:49:46","新北市板橋區中山路一段283巷2弄24號","121.470648333333","25.0150666666667","6500100","板橋區"
"220062","295-UM","2018/06/16 19:49:35","新北市板橋區中山路二段416巷38弄36號","121.481755","25.0195","6500100","板橋區"
"220084","296-UM","2018/06/16 19:49:38","新北市板橋區滿平街2巷4號","121.425818333333","24.990095","6500100","板橋區"
"220075","303-R5","2018/06/16 19:49:46","新北市板橋區金華街10巷48弄5號","121.457255","25.0198833333333","6500100","板橋區"
"220092","307-R5","2018/06/16 19:49:36","新北市板橋區四維路131號","121.465146666667","25.0251266666667","6500100","板橋區"
"220098","317-R6","2018/06/16 19:49:45","新北市板橋區裕民街113號","121.459676666667","25.0276133333333","6500100","板橋區"
"220064","486-VK","2018/06/16 19:49:46","新北市板橋區實踐路108號","121.464143333333","25.004565","6500100","板橋區"
"220088","491-VK","2018/06/16 19:49:41","新北市板橋區文聖街63號","121.476881666667","25.03094","6500100","板橋區"
"220035","560-BX","2018/06/16 19:49:42","新北市板橋區金華街52號","121.456768333333","25.0204533333333","6500100","板橋區"
"220063","609-BX","2018/06/16 19:49:48","新北市板橋區三民路一段5巷1號","121.479026666667","25.0233483333333","6500100","板橋區"
"220057","686-BX","2018/06/16 19:49:32","新北市板橋區信義路152號","121.459093333333","24.9916466666667","6500100","板橋區"
"220077","687-BX","2018/06/16 19:49:49","新北市板橋區僑中一街102巷7弄20號","121.446028333333","25.0130616666667","6500100","板橋區"
"220093","689-BX","2018/06/16 19:49:49","新北市板橋區長江路二段299號","121.47063","25.033225","6500100","板橋區"
"220054","741-BX","2018/06/16 19:49:48","新北市板橋區實踐路93巷56號","121.466105","25.0050516666667","6500100","板橋區"
"220102","KEA-2699","2018/06/16 19:49:48","新北市板橋區松柏街31-3號","121.4752","25.0302566666667","6500100","板橋區"
"220067","829-TW","2018/06/16 19:49:43","新北市板橋區長安街138巷1弄342號","121.475035","25.011335","6500100","板橋區"
"220068","830-TW","2018/06/16 19:49:39","新北市板橋區中山路二段412巷12號","121.48329","25.0204316666667","6500100","板橋區"
"220096","831-TW","2018/06/16 19:49:39","新北市板橋區民生路二段226巷31弄4號","121.471218333333","25.0223033333333","6500100","板橋區"
"220089","833-TW","2018/06/16 19:49:49","新北市板橋區龍泉街94-4號","121.456613333333","25.0250816666667","6500100","板橋區"
"220074","895-R6","2018/06/16 19:49:46","新北市板橋區府中路29-2號","121.458543333333","25.008015","6500100","板橋區"
"220073","985-R7","2018/06/16 19:49:30","新北市板橋區大仁街104號","121.453245","25.0160283333333","6500100","板橋區"
"220097","AAC-210","2018/06/16 19:49:36","新北市板橋區漢生西路92號","121.462708333333","25.0195883333333","6500100","板橋區"
"220070","AAC-253","2018/06/16 19:49:29","新北市板橋區館前東路132號","121.46407","25.00783","6500100","板橋區"
"235068","KEA-2873","2018/06/16 19:49:45","新北市中和區莊敬路1-6號","121.499356666667","25.0043583333333","6500300","中和區"
"235061","KEA-2875","2018/06/16 19:49:48","新北市中和區員山路226巷3弄5號","121.481708333333","25.0011516666667","6500300","中和區"
