"lineid","car","time","location","longitude","latitude","cityid","cityname"
"234046","148-BY","2018/06/16 20:09:22","新北市永和區得和路415號","121.525793333333","24.9992","6500400","永和區"
"234007","207-UY","2018/06/16 20:09:20","新北市永和區保順路11號","121.504288333333","25.0097616666667","6500400","永和區"
"234081","298-R6","2018/06/16 20:09:15","新北市永和區國中路109巷1弄1號","121.524123333333","25.0060216666667","6500400","永和區"
"234038","336-UY","2018/06/16 20:09:34","新北市永和區成功路一段47巷15號","121.527576666667","25.0040266666667","6500400","永和區"
"234064","337-UY","2018/06/16 20:09:25","新北市永和區秀朗路二段35巷5號","121.521621666667","25.002605","6500400","永和區"
"234086","338-UY","2018/06/16 20:09:23","新北市永和區中正路660-1號","121.516801666667","25.008725","6500400","永和區"
"234070","552-UM","2018/06/16 20:09:27","新北市永和區福和路217號","121.519156666667","25.0075483333333","6500400","永和區"
"234017","745-BX","2018/06/16 20:09:29","新北市永和區文化路40號","121.514868333333","25.01515","6500400","永和區"
"234030","746-BX","2018/06/16 20:09:25","新北市永和區民權路49巷5弄30號","121.521923333333","24.9978616666667","6500400","永和區"
"234054","KEA-2590","2018/06/16 20:09:21","新北市永和區博愛街17號","121.517293333333","25.0158316666667","6500400","永和區"
"234013","KEA-2591","2018/06/16 20:09:16","新北市永和區永貞路435號","121.506935","25.0099166666667","6500400","永和區"
"234061","AAD-866","2018/06/16 20:09:25","新北市永和區中正路151巷8弄1號","121.515808333333","24.998735","6500400","永和區"
"234042","862-TW","2018/06/16 20:09:20","新北市永和區雙和街52巷2號","121.508961666667","25.0030933333333","6500400","永和區"
"234050","863-TW","2018/06/16 20:09:28","新北市永和區新生路210巷2號","121.505525","25.01311","6500400","永和區"
"234011","9373-KE","2018/06/16 20:09:28","新北市永和區仁愛路352巷120號","121.500233333333","25.008435","6500400","永和區"
"249005","172-UM","2018/06/16 20:09:32","新北市八里區下罟子47-5號","121.385135","25.136525","6502300","八里區"
"249001","173-UM","2018/06/16 20:09:27","新北市八里區中華路二段312號","121.403788333333","25.1483566666667","6502300","八里區"
"249004","303-UY","2018/06/16 20:09:16","新北市八里區中山路一段398巷51弄1號","121.411166666667","25.159015","6502300","八里區"
"249002","305-UY","2018/06/16 20:09:24","新北市八里區龍米路一段30巷16號","121.457923333333","25.116395","6502300","八里區"
"249003","593-UM","2018/06/16 20:09:19","新北市八里區中山路二段540巷9弄5號","121.396815","25.1469516666667","6502300","八里區"
"248014","025-BX","2018/06/16 20:09:17","新北市五股區成泰路二段224號","121.4394","25.0858916666667","6501500","五股區"
"248016","026-BX","2018/06/16 20:09:16","新北市五股區成泰路三段577巷80弄73號","121.448893333333","25.1045633333333","6501500","五股區"
"248008","095-VK","2018/06/16 20:09:17","新北市五股區中興路一段1巷12弄21號","121.469313333333","25.0707416666667","6501500","五股區"
"248020","225-UY","2018/06/16 20:09:18","新北市五股區凌雲路二段25號","121.440913333333","25.1021816666667","6501500","五股區"
"248012","247-BX","2018/06/16 20:09:34","新北市五股區民義路一段212號","121.43052","25.08943","6501500","五股區"
"248010","272-BY","2018/06/16 20:09:27","新北市五股區成泰路一段7巷17號","121.43253","25.0670533333333","6501500","五股區"
"248002","655-BX","2018/06/16 20:09:18","新北市五股區成泰路三段369-2號","121.448908333333","25.09593","6501500","五股區"
"248004","677-BX","2018/06/16 20:09:29","新北市五股區成泰路一段105號","121.435803333333","25.071135","6501500","五股區"
"234023","9380-KE","2018/06/16 20:09:29","新北市永和區中正路654巷43號","121.517981666667","25.00862","6500400","永和區"
"234077","969-R7","2018/06/16 20:09:31","新北市永和區民有街24巷19號","121.516203333333","24.9957083333333","6500400","永和區"
"234074","AAC-211","2018/06/16 20:09:24","新北市永和區豫溪街169巷2-1號","121.521911666667","25.0104233333333","6500400","永和區"
"234067","AAC-212","2018/06/16 20:09:34","新北市永和區永貞路313號","121.5101","25.0065916666667","6500400","永和區"
"234003","AAC-295","2018/06/16 20:09:35","新北市永和區中正路618-1號","121.516975","25.0077166666667","6500400","永和區"
"243013","AAD-798","2018/06/16 20:09:22","新北市泰山區明志路三段72號","121.424756666667","25.0417766666667","6501600","泰山區"
"243009","297-R6","2018/06/16 20:09:22","新北市泰山區泰林路二段116巷4弄1號","121.435166666667","25.05954","6501600","泰山區"
"243016","380-SR","2018/06/16 20:09:29","新北市泰山區中山路二段760號","121.424535","25.0345666666667","6501600","泰山區"
"243015","421-VK","2018/06/16 20:09:27","新北市泰山區明志路一段304號","121.431695","25.05966","6501600","泰山區"
"243011","KEA-2215","2018/06/16 20:09:20","新北市泰山區明志路三段182巷38號","121.423261666667","25.0395666666667","6501600","泰山區"
"243010","KEA-2216","2018/06/16 20:09:28","新北市泰山區明志路二段136巷21弄4號","121.426","25.05191","6501600","泰山區"
"243012","646-TV","2018/06/16 20:09:19","新北市泰山區楓江路110號","121.438218333333","25.063855","6501600","泰山區"
"243014","680-BX","2018/06/16 20:09:27","新北市泰山區明志路一段8號","121.433606666667","25.0659266666667","6501600","泰山區"
"222003","436-BY","2018/06/16 20:09:14","新北市深坑區埔新街60號","121.620281666667","25.0024516666667","6501800","深坑區"
"222002","659-BX","2018/06/16 20:09:31","新北市深坑區北深路三段22號","121.609328333333","25.001175","6501800","深坑區"
"231041","002-UM","2018/06/16 20:09:29","新北市新店區中正路460號","121.534028333333","24.979375","6500600","新店區"
"231059","046-UY","2018/06/16 20:09:36","新北市新店區安成街27號","121.510011666667","24.9608516666667","6500600","新店區"
"231040","047-UY","2018/06/16 20:09:30","新北市新店區中正路110號","121.542938333333","24.9706066666667","6500600","新店區"
"231044","106-UY","2018/06/16 20:09:32","新北市新店區寶慶街66號","121.54194","24.986805","6500600","新店區"
"231052","108-UY","2018/06/16 20:09:22","新北市新店區新烏路三段寶島巷2弄3號","121.551995","24.898665","6500600","新店區"
"231048","187-VK","2018/06/16 20:09:28","新北市新店區寶橋路59-1號","121.545108333333","24.97507","6500600","新店區"
"231054","KEA-2219","2018/06/16 20:09:27","新北市新店區檳榔路16號","121.541155","24.964435","6500600","新店區"
"231057","256-BX","2018/06/16 20:09:20","新北市新店區花園一路一段2號","121.553106666667","24.93242","6500600","新店區"
"231042","268-BY","2018/06/16 20:09:20","新北市新店區中興路二段89號","121.547023333333","24.9713433333333","6500600","新店區"
"231051","278-BY","2018/06/16 20:09:15","新北市新店區中央七街12號","121.530163333333","24.974805","6500600","新店區"
"231050","AAD-862","2018/06/16 20:09:35","新北市新店區北新路一段90號","121.541923333333","24.9683983333333","6500600","新店區"
"231066","4716-K9","2018/06/16 20:09:11","新北市新店區柴埕路60巷15-3號","121.508083333333","24.9655","6500600","新店區"
"231056","4715-K9","2018/06/16 20:09:19","新北市新店區中正路275巷31號","121.536863333333","24.9730083333333","6500600","新店區"
"231065","512-UM","2018/06/16 20:09:26","新北市新店區安祥路106巷274號","121.472883333333","24.9585633333333","6500600","新店區"
"231049","513-UM","2018/06/16 20:09:30","新北市新店區北新路二段139巷9-1號","121.542135","24.9754916666667","6500600","新店區"
"231045","617-UM","2018/06/16 20:09:29","新北市新店區北宜路一段178號","121.540803333333","24.9529783333333","6500600","新店區"
"231061","619-UM","2018/06/16 20:09:18","新北市新店區安興路94號","121.515215","24.9763366666667","6500600","新店區"
"231063","641-BX","2018/06/16 20:09:25","新北市新店區黎明路52巷11號","121.50198","24.94875","6500600","新店區"
"231068","718-UY","2018/06/16 20:09:29","新北市新店區中興路三段202號","121.54385","24.9819516666667","6500600","新店區"
"231064","719-UM","2018/06/16 20:09:25","新北市新店區安康路二段100巷5號","121.513143333333","24.9636233333333","6500600","新店區"
"231062","720-UM","2018/06/16 20:09:31","新北市新店區安康路二段82號","121.513958333333","24.9633283333333","6500600","新店區"
"231060","897-TW","2018/06/16 20:09:21","新北市新店區安康路三段312號","121.487266666667","24.95186","6500600","新店區"
"231043","899-TW","2018/06/16 20:09:19","新北市新店區民族路180號","121.536886666667","24.9763533333333","6500600","新店區"
"231055","AKT-0513","2018/06/16 20:09:23","新北市新店區北新路一段297巷20號","121.540793333333","24.9679333333333","6500600","新店區"
"241011","013-R5","2018/06/16 20:09:32","新北市三重區仁愛街32號","121.49632","25.0717633333333","6500200","三重區"
"241028","022-UY","2018/06/16 20:09:33","新北市三重區仁化街157號","121.494653333333","25.0571116666667","6500200","三重區"
"241008","059-VK","2018/06/16 20:09:20","新北市三重區永福街197巷37弄5號","121.478148333333","25.0742683333333","6500200","三重區"
"241009","060-VK","2018/06/16 20:09:25","新北市三重區三和路四段382巷96弄1號","121.479131666667","25.0780683333333","6500200","三重區"
"241031","061-VK","2018/06/16 20:09:22","新北市三重區新北大道一段7號","121.489793333333","25.06136","6500200","三重區"
"241015","062-VK","2018/06/16 20:09:17","新北市三重區福德北路24號","121.502261666667","25.06484","6500200","三重區"
"241017","063-VK","2018/06/16 20:09:27","新北市三重區大智街49號","121.492873333333","25.0675866666667","6500200","三重區"
"241024","065-VK","2018/06/16 20:09:18","新北市三重區後竹圍街279-4號","121.481028333333","25.07061","6500200","三重區"
"241002","090-VK","2018/06/16 20:09:26","新北市三重區五華街35巷40號","121.49529","25.0816383333333","6500200","三重區"
"241005","262-UM","2018/06/16 20:09:35","新北市三重區五華街180巷36號","121.487976666667","25.0851","6500200","三重區"
"241003","265-UM","2018/06/16 20:09:18","新北市三重區富華街14號","121.489571666667","25.0824283333333","6500200","三重區"
"241016","266-UM","2018/06/16 20:09:25","新北市三重區中正北路25巷2號","121.493266666667","25.0627166666667","6500200","三重區"
"241022","267-UM","2018/06/16 20:09:27","新北市三重區新北大道一段58號","121.487338333333","25.0614933333333","6500200","三重區"
"241013","270-UM","2018/06/16 20:09:31","新北市三重區三和路三段139巷27號","121.49372","25.0739866666667","6500200","三重區"
"241025","271-UM","2018/06/16 20:09:25","新北市三重區中正北路237號","121.475596666667","25.0707616666667","6500200","三重區"
"241007","398-BY","2018/06/16 20:09:23","新北市三重區三和路四段111-31號","121.48672","25.0775466666667","6500200","三重區"
"241035","KEA-2210","2018/06/16 20:09:33","新北市三重區平安街39號","121.498141666667","25.06424","6500200","三重區"
"241023","413-TH","2018/06/16 20:09:26","新北市三重區三民街315號","121.477818333333","25.069095","6500200","三重區"
"241004","475-VK","2018/06/16 20:09:26","新北市三重區自強路四段107號","121.491553333333","25.0799116666667","6500200","三重區"
"241020","478-VK","2018/06/16 20:09:25","新北市三重區後竹圍街2巷1弄37號","121.49111","25.073105","6500200","三重區"
"241030","480-VK","2018/06/16 20:09:28","新北市三重區成功路145巷18號","121.487331666667","25.052885","6500200","三重區"
"241014","543-UM","2018/06/16 20:09:20","新北市三重區安和路39號","121.501106666667","25.069385","6500200","三重區"
"241001","547-UM","2018/06/16 20:09:23","新北市三重區三和路四段89巷18號","121.4898","25.0760083333333","6500200","三重區"
"241019","KEA-2593","2018/06/16 20:09:23","新北市三重區自強路二段39號","121.489371666667","25.069445","6500200","三重區"
"241006","AAD-863","2018/06/16 20:09:30","新北市三重區力行路二段49-1號","121.48208","25.07422","6500200","三重區"
"241018","743-BX","2018/06/16 20:09:27","新北市三重區自強路一段236號","121.493185","25.0671283333333","6500200","三重區"
"241026","887-TS","2018/06/16 20:09:33","新北市三重區福德南路71號","121.502148333333","25.0601566666667","6500200","三重區"
"241012","941-UM","2018/06/16 20:09:16","新北市三重區仁福街64巷35號","121.49768","25.0758116666667","6500200","三重區"
"241029","942-UM","2018/06/16 20:09:30","新北市三重區光明路32巷23弄1號","121.492083333333","25.05873","6500200","三重區"
"241033","AAC-255","2018/06/16 20:09:27","新北市三重區光復路一段61巷27號","121.4737","25.0492116666667","6500200","三重區"
"235039","097-UM","2018/06/16 20:09:22","新北市中和區大勇街25巷38弄13號","121.516228333333","24.9941616666667","6500300","中和區"
"235065","098-UM","2018/06/16 20:09:27","新北市中和區永和路106號","121.496598333333","25.0056983333333","6500300","中和區"
"235040","150-BY","2018/06/16 20:09:28","新北市中和區保健路55號","121.509441666667","24.9974233333333","6500300","中和區"
"235058","151-BY","2018/06/16 20:09:33","新北市中和區員山路148巷3號","121.481553333333","24.9970983333333","6500300","中和區"
"235050","4979-A6","2018/06/16 20:09:32","新北市中和區景平路183號","121.511685","24.9924783333333","6500300","中和區"
"235069","4980-A6","2018/06/16 20:09:30","新北市中和區景新街132巷21號","121.504441666667","24.9976383333333","6500300","中和區"
"235070","558-UM","2018/06/16 20:09:18","新北市中和區建八路116號","121.4882","24.9983233333333","6500300","中和區"
"235026","800-TS","2018/06/16 20:04:14","新北市中和區員山路36巷16-3號","121.4847","24.991635","6500300","中和區"
"235052","805-TS","2018/06/16 20:09:27","新北市中和區忠孝街99-3號","121.512065","24.9861816666667","6500300","中和區"
"235048","896-TW","2018/06/16 20:09:17","新北市中和區景新街334號","121.51191","24.9908483333333","6500300","中和區"
"235066","911-UM","2018/06/16 20:09:13","新北市中和區水源路127巷2弄4號","121.508215","25.004085","6500300","中和區"
"235051","157-BY","2018/06/16 20:09:29","新北市中和區景安路220巷22號","121.502676666667","24.99144","6500300","中和區"
"235059","AAC-215","2018/06/16 20:09:18","新北市中和區圓通路335巷13號","121.493425","24.9895366666667","6500300","中和區"
"220065","072-UY","2018/06/16 20:09:26","新北市板橋區貴興路121號","121.455468333333","25.0023366666667","6500100","板橋區"
"220106","075-UY","2018/06/16 20:09:24","新北市板橋區文聖街11巷15號","121.475826666667","25.0327116666667","6500100","板橋區"
"220069","AAD-861","2018/06/16 20:09:19","新北市板橋區貴興路49號","121.45738","25.00328","6500100","板橋區"
"247024","893-R6","2018/06/16 20:09:28","新北市蘆洲區光明路139號","121.464116666667","25.08853","6501400","蘆洲區"
"247014","546-UM","2018/06/16 20:09:28","新北市蘆洲區中山二路263號","121.469795","25.0796016666667","6501400","蘆洲區"
"247022","500-BY","2018/06/16 20:09:24","新北市蘆洲區三民路130號","121.470898333333","25.0875683333333","6501400","蘆洲區"
"247012","339-TH","2018/06/16 20:09:37","新北市蘆洲區民族路250巷3號","121.479276666667","25.088845","6501400","蘆洲區"
"247004","337-TH","2018/06/16 20:09:36","新北市蘆洲區永安南路二段328巷15弄2號","121.456665","25.0838433333333","6501400","蘆洲區"
"247006","336-TH","2018/06/16 20:09:19","新北市蘆洲區中山二路288號","121.468983333333","25.0777316666667","6501400","蘆洲區"
"247018","057-VK","2018/06/16 20:09:18","新北市蘆洲區民族路290巷15號","121.478861666667","25.0899416666667","6501400","蘆洲區"
"247016","007-UY","2018/06/16 20:09:32","新北市蘆洲區光華路134號","121.466386666667","25.0823833333333","6501400","蘆洲區"
"247002","002-UY","2018/06/16 20:09:32","新北市蘆洲區永康街58號","121.459166666667","25.0860416666667","6501400","蘆洲區"
"247020","001-UY","2018/06/16 20:09:10","新北市蘆洲區民權路106巷5弄2-1號","121.474391666667","25.08904","6501400","蘆洲區"
"224010","AGQ-8101","2018/06/16 20:09:14","新北市瑞芳區基山街154號","121.843175","25.1078683333333","6501200","瑞芳區"
"224011","420-VK","2018/06/16 20:09:29","新北市瑞芳區崙頂路3-1號","121.84703","25.1046816666667","6501200","瑞芳區"
"222001","KEA-2212","2018/06/16 20:09:19","新北市深坑區北深路三段201號","121.600975","25.00382","6501800","深坑區"
"208002","KEA-2872","2018/06/16 20:09:31","新北市萬里區大鵬里萬里加投241號","121.64234","25.21669","6502700","金山區"
"208003","665-BX","2018/06/16 20:09:22","新北市金山區海興路1-3號","121.633878333333","25.2440066666667","6502700","金山區"
"251009","008-UM","2018/06/16 20:09:23","新北市淡水區清水街2號","121.445603333333","25.17039","6501000","淡水區"
"251004","009-UM","2018/06/16 19:44:56","新北市淡水區民權路187巷38號","121.460855","25.133325","6501000","淡水區"
"251001","011-UM","2018/06/16 20:09:18","新北市淡水區新市二路四段265號","121.445733333333","25.1924766666667","6501000","淡水區"
"251002","012-UM","2018/06/16 20:09:34","新北市淡水區中正路272號","121.43827","25.1714883333333","6501000","淡水區"
"251013","KEA-2871","2018/06/16 20:09:16","新北市淡水區奎柔山路307號","121.460726666667","25.2047666666667","6501000","淡水區"
"251016","179-VK","2018/06/16 20:09:33","新北市淡水區番子田25-7號","121.456106666667","25.2307866666667","6501000","淡水區"
"251014","180-VK","2018/06/16 20:09:29","新北市淡水區石頭厝3號","121.458703333333","25.2355516666667","6501000","淡水區"
"251008","181-VK","2018/06/16 20:09:15","新北市淡水區沙崙路131巷11號","121.422131666667","25.1830816666667","6501000","淡水區"
"251015","182-VK","2018/06/16 20:09:22","新北市淡水區埤島77-3號","121.451296666667","25.1922883333333","6501000","淡水區"
"251010","413-VK","2018/06/16 20:09:22","新北市淡水區新市五路一段162號","121.428313333333","25.2001633333333","6501000","淡水區"
"251012","441-VK","2018/06/16 20:09:31","新北市淡水區淡金路三段341號","121.448873333333","25.206585","6501000","淡水區"
"251005","443-VK","2018/06/16 20:09:26","新北市淡水區忠愛街2-5號","121.456556666667","25.17182","6501000","淡水區"
"251006","561-UM","2018/06/16 20:09:21","新北市淡水區北新路141巷60弄11號","121.448081666667","25.179705","6501000","淡水區"
"251003","766-UM","2018/06/16 20:09:18","新北市淡水區中山北路二段189巷15弄31號","121.443455","25.1841433333333","6501000","淡水區"
"207003","550-UM","2018/06/16 20:09:30","新北市萬里區大鵬里萬里加投182號","121.642913333333","25.2157416666667","6502800","萬里區"
"207004","225-TW","2018/06/16 20:09:32","新北市萬里區北基里愛三街11號","121.681813333333","25.17662","6502800","萬里區"
"252002","178-VK","2018/06/16 20:09:32","新北市三芝區三民街3號","121.504101666667","25.2578716666667","6502100","三芝區"
"252001","292-VK","2018/06/16 20:08:59","新北市三芝區公正街66號","121.499793333333","25.2574866666667","6502100","三芝區"
"237009","210-TH","2018/06/16 20:09:22","新北市三峽區民族街6號","121.369001666667","24.9313683333333","6500900","三峽區"
"237012","275-BY","2018/06/16 20:09:25","新北市三峽區中正路一段216巷1弄3號","121.371798333333","24.9278433333333","6500900","三峽區"
"237008","302-VK","2018/06/16 20:09:16","新北市三峽區中華路75巷18號","121.372608333333","24.9296383333333","6500900","三峽區"
"237006","5529-G3","2018/06/16 20:09:25","新北市三峽區嘉添227-24號","121.370091666667","24.9115766666667","6500900","三峽區"
"237005","AKY-6261","2018/06/16 20:09:28","新北市三峽區三樹路98巷121號","121.382743333333","24.93869","6500900","三峽區"
"236070","105-UM","2018/06/16 20:09:17","新北市土城區中央路三段147巷2弄13號","121.432055","24.9648433333333","6501300","土城區"
"236042","107-UM","2018/06/16 20:09:26","新北市土城區學成路22巷4號","121.453445","24.9873133333333","6501300","土城區"
"236079","166-UM","2018/06/16 20:09:20","新北市土城區民族街22巷4號","121.419325","24.9634033333333","6501300","土城區"
"236030","253-BX","2018/06/16 20:09:34","新北市土城區中央路一段145號","121.446745","24.9879416666667","6501300","土城區"
"236026","269-VK","2018/06/16 20:09:23","新北市土城區中央路一段240號","121.44464","24.9849316666667","6501300","土城區"
"236014","270-VK","2018/06/16 20:09:29","新北市土城區廣明街1號","121.45597","24.9918","6501300","土城區"
"236038","271-VK","2018/06/16 20:09:30","新北市土城區延吉街363巷9號","121.46437","24.98346","6501300","土城區"
"236021","401-BY","2018/06/16 20:09:30","新北市土城區延吉街57巷7號","121.47264","24.9874066666667","6501300","土城區"
"236059","752-BX","2018/06/16 20:09:20","新北市土城區中央路二段151號","121.442051666667","24.9766166666667","6501300","土城區"
"236049","913-UM","2018/06/16 20:09:28","新北市土城區明德路一段371號","121.452911666667","24.9797083333333","6501300","土城區"
"236063","915-UM","2018/06/16 20:09:32","新北市土城區立德路135巷5弄1號","121.464846666667","24.98699","6501300","土城區"
"236055","AAC-216","2018/06/16 20:09:26","新北市土城區中華路一段14號","121.447908333333","24.9905116666667","6501300","土城區"
"242034","AAC-296","2018/06/16 20:09:17","新北市新莊區建中街81巷8號","121.447246666667","25.0362133333333","6500500","新莊區"
"242058","986-R7","2018/06/16 20:09:29","新北市新莊區八德街164號","121.423456666667","25.0196533333333","6500500","新莊區"
"242053","751-BX","2018/06/16 20:09:28","新北市新莊區西盛街395巷9號","121.428216666667","25.0127366666667","6500500","新莊區"
"242027","615-BX","2018/06/16 20:09:02","新北市新莊區中和街145號","121.44731","25.0492083333333","6500500","新莊區"
"242025","613-BX","2018/06/16 20:09:32","新北市新莊區五工路68巷11號","121.458531666667","25.06403","6500500","新莊區"
"242029","612-BX","2018/06/16 20:09:35","新北市新莊區中原路512號","121.446806666667","25.0546483333333","6500500","新莊區"
"242042","566-BX","2018/06/16 20:09:15","新北市新莊區青山路一段224號","121.399086666667","25.03094","6500500","新莊區"
"242046","497-BY","2018/06/16 20:09:23","新北市新莊區裕民街85巷12號","121.419066666667","25.0234183333333","6500500","新莊區"
"242051","441-UM","2018/06/16 20:09:24","新北市新莊區民安西路172巷6號","121.425273333333","25.0161","6500500","新莊區"
"242056","440-UM","2018/06/16 20:09:17","新北市新莊區新莊路649巷15弄3號","121.445143333333","25.0314666666667","6500500","新莊區"
"242036","415-TV","2018/06/16 20:09:25","新北市新莊區後港一路130巷29號","121.429851666667","25.026225","6500500","新莊區"
"242007","413-TV","2018/06/16 20:09:33","新北市新莊區福壽街184巷20號","121.459255","25.0530233333333","6500500","新莊區"
"242044","400-BY","2018/06/16 20:09:17","桃園市龜山區萬壽路一段21巷12號","121.410646666667","25.02017","6500500","新莊區"
"242023","362-BY","2018/06/16 20:09:22","新北市新莊區化成路652號","121.466005","25.0556933333333","6500500","新莊區"
"242061","353-BY","2018/06/16 20:09:33","新北市新莊區瓊林路96-6號","121.443913333333","25.027055","6500500","新莊區"
"242009","132-UY","2018/06/16 20:09:26","新北市新莊區昌隆街30號","121.45413","25.0508366666667","6500500","新莊區"
"242039","133-UY","2018/06/16 20:09:31","新北市新莊區民安西路109號","121.426915","25.0183383333333","6500500","新莊區"
"242048","172-VK","2018/06/16 20:09:30","新北市新莊區四維路152巷33號","121.42202","25.02236","6500500","新莊區"
"242011","173-VK","2018/06/16 20:07:22","新北市新莊區中和街179號","121.447718333333","25.050605","6500500","新莊區"
"242017","175-VK","2018/06/16 20:09:17","新北市新莊區中港一街22號","121.451355","25.0456483333333","6500500","新莊區"
"242004","176-VK","2018/06/16 20:09:29","新北市新莊區頭興街10號","121.46538","25.0535966666667","6500500","新莊區"
"242015","346-TH","2018/06/16 20:09:14","新北市新莊區中平路26巷44號","121.446841666667","25.0433216666667","6500500","新莊區"
"242031","347-TH","2018/06/16 20:09:15","新北市新莊區忠孝街29巷26號","121.443605","25.0366816666667","6500500","新莊區"
"242021","348-TH","2018/06/16 20:09:17","新北市新莊區中興街59號","121.44905","25.0374333333333","6500500","新莊區"
"242002","349-TH","2018/06/16 20:09:26","新北市新莊區中正路145號","121.459458333333","25.0383116666667","6500500","新莊區"
"242019","350-TH","2018/06/16 20:09:25","新北市新莊區博愛路1巷2號","121.45653","25.04274","6500500","新莊區"
"242013","351-TH","2018/06/16 20:09:21","新北市新莊區幸福路678巷5號","121.450546666667","25.049705","6500500","新莊區"
"238021","KEA-2539","2018/06/16 20:09:33","新北市樹林區八德街1022號","121.391058333333","24.9684883333333","6500700","樹林區"
"221036","130-UY","2018/06/16 20:09:32","新北市汐止區新台五路二段41巷1號","121.6631","25.0665466666667","6501100","汐止區"
"221015","131-UY","2018/06/16 20:09:31","新北市汐止區建成路35號","121.66383","25.0726883333333","6501100","汐止區"
"221010","269-BY","2018/06/16 20:09:22","新北市汐止區八連路一段261號","121.640445","25.08391","6501100","汐止區"
"221012","278-VK","2018/06/16 20:09:29","新北市汐止區汐平路二段32號","121.694643333333","25.065515","6501100","汐止區"
"221023","279-VK","2018/06/16 20:09:15","新北市汐止區明峰街298巷7弄2號","121.624888333333","25.0690683333333","6501100","汐止區"
"221032","280-BY","2018/06/16 20:09:31","新北市汐止區弘道街9巷2弄2號","121.617038333333","25.0488066666667","6501100","汐止區"
"221027","281-BY","2018/06/16 20:09:23","新北市汐止區民生街4巷2號","121.66019","25.06875","6501100","汐止區"
"221029","298-VK","2018/06/16 20:09:22","新北市汐止區樟樹一路123巷19號","121.641375","25.0644816666667","6501100","汐止區"
"221021","299-VK","2018/06/16 20:09:32","新北市汐止區莊敬街86-5號","121.655791666667","25.0611333333333","6501100","汐止區"
"221008","129-UY","2018/06/16 20:09:18","台北市內湖區康樂街235號","121.62336","25.0783666666667","6501100","汐止區"
"221035","622-UM","2018/06/16 20:09:22","新北市汐止區長江街79巷19號","121.657728333333","25.0730016666667","6501100","汐止區"
"221025","623-UM","2018/06/16 20:09:22","新北市汐止區連興街126號","121.653888333333","25.061875","6501100","汐止區"
"221038","646-BX","2018/06/16 20:09:29","新北市汐止區大同路三段66-3號","121.668053333333","25.0772633333333","6501100","汐止區"
"221033","647-BX","2018/06/16 20:09:30","新北市汐止區東勢街201巷104號","121.633475","25.0429283333333","6501100","汐止區"
"221018","753-BX","2018/06/16 20:09:25","新北市汐止區茄福街35巷37號","121.673368333333","25.066205","6501100","汐止區"
"220080","200-UY","2018/06/16 20:09:34","新北市板橋區大觀路二段163巷16號","121.446018333333","25.0001666666667","6500100","板橋區"
"220101","245-BX","2018/06/16 20:09:23","新北市板橋區雙十路二段47巷2弄20號","121.475756666667","25.02677","6500100","板橋區"
"220055","256-TC","2018/06/16 20:09:31","新北市板橋區仁愛路84號","121.460928333333","24.9996266666667","6500100","板橋區"
"220103","257-TC","2018/06/16 20:09:26","新北市板橋區陽明街84號","121.464378333333","25.0227933333333","6500100","板橋區"
"220071","283-VK","2018/06/16 20:09:24","新北市板橋區廣權路101號","121.464558333333","24.9927366666667","6500100","板橋區"
"220053","285-VK","2018/06/16 20:09:32","新北市板橋區中山路二段265號","121.477683333333","25.017875","6500100","板橋區"
"220083","286-VK","2018/06/16 20:09:29","新北市板橋區僑中二街90巷14號","121.445673333333","25.0092566666667","6500100","板橋區"
"220081","287-VK","2018/06/16 20:09:24","新北市板橋區僑中一街80巷7弄8號","121.447445","25.012825","6500100","板橋區"
"220061","293-UM","2018/06/16 20:09:26","新北市板橋區中山路一段143號","121.464695","25.01167","6500100","板橋區"
"220092","307-R5","2018/06/16 20:09:30","新北市板橋區文化路一段45巷1弄4號","121.460503333333","25.0137866666667","6500100","板橋區"
"220098","317-R6","2018/06/16 20:09:30","新北市板橋區新海路72巷38號","121.462256666667","25.0227133333333","6500100","板橋區"
"220088","491-VK","2018/06/16 20:09:22","新北市板橋區民治街57巷2號","121.479491666667","25.0333783333333","6500100","板橋區"
"220093","689-BX","2018/06/16 20:09:29","新北市板橋區長江路一段355號","121.461331666667","25.0305083333333","6500100","板橋區"
"220102","KEA-2699","2018/06/16 20:09:30","新北市板橋區民治街126巷1號","121.477795","25.031155","6500100","板橋區"
"220067","829-TW","2018/06/16 20:09:22","新北市板橋區中山路一段206巷89號","121.471958333333","25.013255","6500100","板橋區"
"220068","830-TW","2018/06/16 20:09:19","新北市板橋區中山路二段337號","121.479453333333","25.0188316666667","6500100","板橋區"
"220089","833-TW","2018/06/16 20:09:29","新北市板橋區互助街58號","121.461298333333","25.0268183333333","6500100","板橋區"
"220074","895-R6","2018/06/16 20:09:26","新北市板橋區府後街1巷2-2號","121.459071666667","25.0106233333333","6500100","板橋區"
"220097","AAC-210","2018/06/16 20:09:29","新北市板橋區光正街18巷15號","121.462643333333","25.0178016666667","6500100","板橋區"
"220070","AAC-253","2018/06/16 20:09:29","新北市板橋區四川路二段245巷93號","121.452888333333","24.99313","6500100","板橋區"
"235068","KEA-2873","2018/06/16 20:09:15","新北市中和區福祥路85巷2弄8號","121.49864","25.00601","6500300","中和區"
