"lineid","car","time","location","longitude","latitude","cityid","cityname"
"234064","337-UY","2018/06/16 20:39:25","新北市永和區永元路138號","121.522935","25.0031066666667","6500400","永和區"
"234061","AAD-866","2018/06/16 20:39:25","新北市永和區中正路381號","121.517161666667","25.0036433333333","6500400","永和區"
"234050","863-TW","2018/06/16 20:39:28","新北市永和區保福路三段1號","121.50855","25.0154516666667","6500400","永和區"
"249001","173-UM","2018/06/16 20:39:27","新北市八里區中山路三段372號","121.36882","25.13623","6502300","八里區"
"249004","303-UY","2018/06/16 20:39:16","新北市八里區中山路一段157巷11號","121.412985","25.1583866666667","6502300","八里區"
"234023","9380-KE","2018/06/16 20:39:29","新北市永和區竹林路27號","121.517348333333","25.014635","6500400","永和區"
"234077","969-R7","2018/06/16 20:39:31","新北市新店區柴埕路116號","121.504216666667","24.9596583333333","6500400","永和區"
"234074","AAC-211","2018/06/16 20:39:27","新北市永和區竹林路119巷22弄4號","121.52132","25.0115566666667","6500400","永和區"
"243009","297-R6","2018/06/16 20:39:36","新北市泰山區泰林路二段542巷3弄9號","121.423001666667","25.064075","6501600","泰山區"
"243016","380-SR","2018/06/16 20:39:29","新北市泰山區文程路19-1號","121.428226666667","25.049385","6501600","泰山區"
"243011","KEA-2215","2018/06/16 20:39:20","新北市泰山區貴子路2號","121.424955","25.0419233333333","6501600","泰山區"
"243010","KEA-2216","2018/06/16 20:39:28","新北市泰山區明志路二段273巷16弄22號","121.427661666667","25.0464166666667","6501600","泰山區"
"222003","436-BY","2018/06/16 20:39:34","新北市深坑區深坑街162號","121.612795","25.0011283333333","6501800","深坑區"
"222002","659-BX","2018/06/16 20:39:31","新北市深坑區萬福路45號","121.599441666667","25.0068516666667","6501800","深坑區"
"231041","002-UM","2018/06/16 20:39:29","新北市新店區中正路689號","121.533915","24.9905366666667","6500600","新店區"
"231059","046-UY","2018/06/16 20:39:36","新北市新店區僑信路52號","121.499306666667","24.9502433333333","6500600","新店區"
"231040","047-UY","2018/06/16 20:39:30","新北市新店區中正路270號","121.538943333333","24.9735866666667","6500600","新店區"
"231044","106-UY","2018/06/16 20:39:32","新北市新店區民權路90巷36號","121.537043333333","24.9842683333333","6500600","新店區"
"231052","108-UY","2018/06/16 20:39:22","新北市新店區廣興路7-10號","121.545721666667","24.9117183333333","6500600","新店區"
"231048","187-VK","2018/06/16 20:39:28","新北市新店區復興路23號","121.539241666667","24.9866883333333","6500600","新店區"
"231054","KEA-2219","2018/06/16 20:39:16","新北市新店區北新路一段64巷37號","121.542185","24.96567","6500600","新店區"
"231057","256-BX","2018/06/16 20:39:19","新北市新店區花園六路二段20號","121.555388333333","24.9331183333333","6500600","新店區"
"231042","268-BY","2018/06/16 20:39:20","新北市新店區寶橋路230號","121.551471666667","24.97887","6500600","新店區"
"231051","278-BY","2018/06/16 20:39:15","新北市新店區中央五街3-1號","121.530306666667","24.9742633333333","6500600","新店區"
"231050","AAD-862","2018/06/16 20:39:35","新北市新店區中正路265巷17號","121.537823333333","24.973455","6500600","新店區"
"231058","3713-VJ","2018/06/16 20:39:25","新北市新店區平等街46巷2號","121.536398333333","24.9733","6500600","新店區"
"231066","4716-K9","2018/06/16 20:39:31","新北市新店區安民街341-1號","121.516808333333","24.974885","6500600","新店區"
"231056","4715-K9","2018/06/16 20:39:19","新北市新店區中央七街61巷24號","121.529168333333","24.9758866666667","6500600","新店區"
"231067","4772-VM","2018/06/16 20:39:33","新北市新店區安華路28-1號","121.519683333333","24.9608116666667","6500600","新店區"
"231065","512-UM","2018/06/16 20:39:26","新北市新店區安祥路102巷121弄2號","121.486233333333","24.9644566666667","6500600","新店區"
"231049","513-UM","2018/06/16 20:39:30","新北市新店區永業路81巷16號","121.531088333333","24.94814","6500600","新店區"
"231045","617-UM","2018/06/16 20:39:29","新北市新店區長春路45號","121.550493333333","24.9576433333333","6500600","新店區"
"231061","619-UM","2018/06/16 20:39:18","新北市新店區新和街33號","121.519196666667","24.9848833333333","6500600","新店區"
"231063","641-BX","2018/06/16 20:39:25","新北市新店區玫瑰路4-2號","121.493858333333","24.951325","6500600","新店區"
"231068","718-UY","2018/06/16 20:39:29","新北市新店區寶元路一段85巷8號","121.543045","24.9858033333333","6500600","新店區"
"231064","719-UM","2018/06/16 20:39:30","新北市新店區安和路三段120巷14號","121.517663333333","24.9857283333333","6500600","新店區"
"231062","720-UM","2018/06/16 20:39:31","新北市新店區安泰路60巷55弄44號","121.48453","24.945565","6500600","新店區"
"231060","897-TW","2018/06/16 20:39:21","新北市新店區錦秀路61號","121.479056666667","24.9430416666667","6500600","新店區"
"231043","899-TW","2018/06/16 20:39:19","新北市新店區博愛街13巷21號","121.540118333333","24.973855","6500600","新店區"
"241011","013-R5","2018/06/16 20:39:24","新北市三重區龍濱路285號","121.501083333333","25.073355","6500200","三重區"
"241028","022-UY","2018/06/16 20:39:33","新北市三重區光興街89號","121.497468333333","25.0599633333333","6500200","三重區"
"241008","059-VK","2018/06/16 20:39:20","新北市三重區下竹圍街42-1號","121.481073333333","25.0749116666667","6500200","三重區"
"241009","060-VK","2018/06/16 20:39:25","新北市三重區碧華街57號","121.484791666667","25.0813433333333","6500200","三重區"
"241031","061-VK","2018/06/16 20:39:22","新北市三重區重陽路一段113巷1弄49號","121.488136666667","25.05858","6500200","三重區"
"241015","062-VK","2018/06/16 20:39:37","新北市三重區文化北路101號","121.497893333333","25.0683466666667","6500200","三重區"
"241017","063-VK","2018/06/16 20:39:27","新北市三重區安慶街262號","121.490868333333","25.0677433333333","6500200","三重區"
"241024","065-VK","2018/06/16 20:39:18","新北市三重區三民街222號","121.48016","25.067195","6500200","三重區"
"241002","090-VK","2018/06/16 20:39:26","新北市三重區仁義街167巷18號","121.497686666667","25.0820016666667","6500200","三重區"
"241005","262-UM","2018/06/16 20:39:15","新北市三重區碧華街375號","121.492641666667","25.0854383333333","6500200","三重區"
"241003","265-UM","2018/06/16 20:39:18","新北市三重區五華街141巷60號","121.493451666667","25.0867083333333","6500200","三重區"
"241016","266-UM","2018/06/16 20:39:32","新北市三重區長壽西街143-3號","121.49441","25.066585","6500200","三重區"
"241022","267-UM","2018/06/16 20:39:27","新北市三重區新北大道一段46巷18弄10號","121.488388333333","25.0619883333333","6500200","三重區"
"241013","270-UM","2018/06/16 20:39:28","新北市三重區三和路四段128號","121.489031666667","25.07534","6500200","三重區"
"241025","271-UM","2018/06/16 20:39:25","新北市三重區忠孝路三段93巷10-1號","121.478641666667","25.0649133333333","6500200","三重區"
"241007","398-BY","2018/06/16 20:39:23","新北市三重區自強路四段34號","121.488763333333","25.077015","6500200","三重區"
"241035","KEA-2210","2018/06/16 20:39:33","新北市三重區正義北路348號","121.494125","25.071015","6500200","三重區"
"241023","413-TH","2018/06/16 20:39:27","新北市三重區自由街39巷14號","121.478408333333","25.0670333333333","6500200","三重區"
"241004","475-VK","2018/06/16 20:39:26","新北市三重區仁愛街416號","121.490615","25.0812766666667","6500200","三重區"
"241020","478-VK","2018/06/16 20:39:25","新北市三重區忠孝路一段50號","121.490841666667","25.0719433333333","6500200","三重區"
"241030","480-VK","2018/06/16 20:39:27","新北市三重區環河南路254巷43-1號","121.489388333333","25.05178","6500200","三重區"
"241014","543-UM","2018/06/16 20:39:20","新北市三重區介壽路4號","121.498743333333","25.0692716666667","6500200","三重區"
"241001","547-UM","2018/06/16 20:39:30","新北市三重區自強路三段110巷29號","121.485713333333","25.07456","6500200","三重區"
"241019","KEA-2593","2018/06/16 20:39:23","新北市三重區重陽路四段126巷1號","121.492325","25.071205","6500200","三重區"
"241006","AAD-863","2018/06/16 20:39:30","新北市三重區車路頭街139巷14號","121.484296666667","25.0762266666667","6500200","三重區"
"241018","743-BX","2018/06/16 20:39:27","新北市三重區正義北路206號","121.49629","25.06746","6500200","三重區"
"241026","887-TS","2018/06/16 20:39:33","新北市三重區文化南路7號","121.500013333333","25.0623383333333","6500200","三重區"
"241012","941-UM","2018/06/16 20:39:16","新北市三重區秀江街26號","121.502558333333","25.073015","6500200","三重區"
"241029","942-UM","2018/06/16 20:39:36","新北市三重區新興路55號","121.491253333333","25.0538433333333","6500200","三重區"
"241033","AAC-255","2018/06/16 20:39:27","新北市三重區光復路二段3-1號","121.47421","25.0538166666667","6500200","三重區"
"235069","4980-A6","2018/06/16 20:39:30","新北市中和區新生街258號","121.483715","24.997425","6500300","中和區"
"247024","893-R6","2018/06/16 20:39:28","新北市蘆洲區光榮路85號","121.461895","25.0886116666667","6501400","蘆洲區"
"247014","546-UM","2018/06/16 20:39:28","新北市蘆洲區成功路74號","121.4731","25.0811033333333","6501400","蘆洲區"
"247022","500-BY","2018/06/16 20:39:24","新北市蘆洲區中正路243巷7弄25號","121.467771666667","25.08556","6501400","蘆洲區"
"247010","341-TH","2018/06/16 20:39:24","新北市蘆洲區重陽街70號","121.481878333333","25.084165","6501400","蘆洲區"
"247012","339-TH","2018/06/16 20:39:17","新北市蘆洲區集賢路224巷42號","121.48134","25.0877383333333","6501400","蘆洲區"
"247004","337-TH","2018/06/16 20:39:16","新北市蘆洲區長安街222號","121.458161666667","25.085095","6501400","蘆洲區"
"247006","336-TH","2018/06/16 20:39:19","新北市蘆洲區和平路186號","121.46622","25.0815266666667","6501400","蘆洲區"
"247018","057-VK","2018/06/16 20:39:18","新北市蘆洲區復興路227巷22號","121.479945","25.0909583333333","6501400","蘆洲區"
"247008","056-VK","2018/06/16 20:39:27","新北市蘆洲區集賢路403號","121.480455","25.0814533333333","6501400","蘆洲區"
"247016","007-UY","2018/06/16 20:39:32","新北市蘆洲區中山二路202號","121.47018","25.0802383333333","6501400","蘆洲區"
"247002","002-UY","2018/06/16 20:39:32","新北市蘆洲區長安街375巷21號","121.456195","25.0877733333333","6501400","蘆洲區"
"247020","001-UY","2018/06/16 20:39:30","新北市蘆洲區民族路424號","121.47397","25.0917983333333","6501400","蘆洲區"
"224010","AGQ-8101","2018/06/16 20:34:13","新北市瑞芳區烏勢巷136號","121.846571666667","25.1075233333333","6501200","瑞芳區"
"224011","420-VK","2018/06/16 20:39:28","新北市瑞芳區崙頂路1-6號","121.847071666667","25.1047316666667","6501200","瑞芳區"
"222001","KEA-2212","2018/06/16 20:39:19","新北市深坑區北深路三段203號","121.600801666667","25.00384","6501800","深坑區"
"251001","011-UM","2018/06/16 20:39:18","新北市淡水區忠愛街4號","121.459748333333","25.171635","6501000","淡水區"
"251002","012-UM","2018/06/16 20:39:33","新北市淡水區中正路28號","121.444483333333","25.16898","6501000","淡水區"
"251013","KEA-2871","2018/06/16 20:39:16","新北市淡水區下圭柔山28巷13號","121.457733333333","25.203905","6501000","淡水區"
"251016","179-VK","2018/06/16 20:39:33","新北市淡水區後洲子8-2號","121.449643333333","25.2240233333333","6501000","淡水區"
"251014","180-VK","2018/06/16 20:39:29","新北市淡水區公埔子36-1號","121.462498333333","25.2322883333333","6501000","淡水區"
"251015","182-VK","2018/06/16 20:39:29","新北市淡水區淡金路二段138號","121.446903333333","25.18777","6501000","淡水區"
"251010","413-VK","2018/06/16 20:39:22","新北市淡水區沙崙路181巷15號","121.423923333333","25.1843633333333","6501000","淡水區"
"251012","441-VK","2018/06/16 20:39:31","新北市淡水區興仁路107號","121.451563333333","25.2181616666667","6501000","淡水區"
"251007","442-VK","2018/06/16 20:39:33","新北市淡水區忠愛街4號","121.459586666667","25.1713833333333","6501000","淡水區"
"251003","766-UM","2018/06/16 20:39:18","新北市淡水區新民街120巷15號","121.438211666667","25.1780033333333","6501000","淡水區"
"252002","178-VK","2018/06/16 20:39:32","新北市三芝區淡金路二段47-2號","121.503595","25.2605583333333","6502100","三芝區"
"252001","292-VK","2018/06/16 20:39:19","新北市三芝區長安街34號","121.501628333333","25.2561416666667","6502100","三芝區"
"242034","AAC-296","2018/06/16 20:39:30","新北市新莊區中正路334巷15號","121.445566666667","25.035555","6500500","新莊區"
"242058","986-R7","2018/06/16 20:39:18","新北市新莊區四維路150巷1號","121.422955","25.0231916666667","6500500","新莊區"
"242053","751-BX","2018/06/16 20:39:28","新北市新莊區西盛街323巷24號","121.429016666667","25.0146933333333","6500500","新莊區"
"242027","615-BX","2018/06/16 20:39:22","新北市新莊區思源路35號","121.460058333333","25.0396883333333","6500500","新莊區"
"242025","613-BX","2018/06/16 20:39:32","新北市三重區光復路二段198-1號","121.47","25.06319","6500500","新莊區"
"242029","612-BX","2018/06/16 20:39:34","新北市新莊區中華路二段83-1號","121.452808333333","25.048625","6500500","新莊區"
"242042","566-BX","2018/06/16 20:39:35","新北市新莊區中正路700-38號","121.41754","25.027765","6500500","新莊區"
"242046","497-BY","2018/06/16 20:39:23","新北市新莊區富國路22巷19號","121.418381666667","25.025745","6500500","新莊區"
"242051","441-UM","2018/06/16 20:39:24","新北市新莊區民安西路189巷27號","121.427113333333","25.0154433333333","6500500","新莊區"
"242056","440-UM","2018/06/16 20:39:17","新北市新莊區瓊泰路73號","121.443161666667","25.0288983333333","6500500","新莊區"
"242036","415-TV","2018/06/16 20:39:25","新北市新莊區後港一路94巷3弄3號","121.428103333333","25.0263233333333","6500500","新莊區"
"242007","413-TV","2018/06/16 20:39:33","新北市新莊區福壽街56巷5號","121.458693333333","25.04884","6500500","新莊區"
"242044","400-BY","2018/06/16 20:39:37","新北市新莊區龍安路74號","121.417156666667","25.0209266666667","6500500","新莊區"
"242023","362-BY","2018/06/16 20:39:22","新北市新莊區化成路416號","121.466045","25.0509016666667","6500500","新莊區"
"242061","353-BY","2018/06/16 20:39:19","新北市新莊區新樹路262號","121.432665","25.01483","6500500","新莊區"
"242009","132-UY","2018/06/16 20:39:26","新北市新莊區福壽街99巷8弄1號","121.456705","25.0504683333333","6500500","新莊區"
"242039","133-UY","2018/06/16 20:39:31","新北市新莊區民安路383號","121.431928333333","25.023005","6500500","新莊區"
"242048","172-VK","2018/06/16 20:39:30","新北市新莊區中正路596號","121.42664","25.030215","6500500","新莊區"
"242011","173-VK","2018/06/16 20:39:31","新北市新莊區中榮街152巷24號","121.446175","25.0534683333333","6500500","新莊區"
"242017","175-VK","2018/06/16 20:39:17","新北市新莊區中港一街161號","121.447111666667","25.0449733333333","6500500","新莊區"
"242015","346-TH","2018/06/16 20:39:34","新北市新莊區中和街32號","121.448203333333","25.0438033333333","6500500","新莊區"
"242031","347-TH","2018/06/16 20:39:15","新北市新莊區三泰路56-2號","121.436306666667","25.0361983333333","6500500","新莊區"
"242021","348-TH","2018/06/16 20:39:17","新北市新莊區中華路一段73號","121.452195","25.0400683333333","6500500","新莊區"
"242002","349-TH","2018/06/16 20:39:26","新北市新莊區中港路48巷25號","121.456876666667","25.0384333333333","6500500","新莊區"
"242019","350-TH","2018/06/16 20:39:25","新北市新莊區銘德街144號","121.454518333333","25.0428116666667","6500500","新莊區"
"242013","351-TH","2018/06/16 20:39:21","新北市新莊區中和街175巷10號","121.447411666667","25.05072","6500500","新莊區"
"221036","130-UY","2018/06/16 20:39:24","新北市汐止區新昌路55號","121.66325","25.068695","6501100","汐止區"
"221015","131-UY","2018/06/16 20:39:31","新北市汐止區建成路24號","121.664625","25.0726966666667","6501100","汐止區"
"221010","269-BY","2018/06/16 20:39:22","新北市汐止區八連路一段530巷2號","121.640255","25.09139","6501100","汐止區"
"221023","279-VK","2018/06/16 20:39:15","新北市汐止區康寧街629號","121.637226666667","25.071905","6501100","汐止區"
"221032","280-BY","2018/06/16 20:39:31","新北市汐止區民權街二段28號","121.619525","25.0500016666667","6501100","汐止區"
"221027","281-BY","2018/06/16 20:39:23","新北市汐止區大同路二段563-1號","121.662841666667","25.0698333333333","6501100","汐止區"
"221029","298-VK","2018/06/16 20:39:23","新北市汐止區大同路一段425號","121.642755","25.0612383333333","6501100","汐止區"
"221021","299-VK","2018/06/16 20:39:32","新北市汐止區水源路一段280號","121.65423","25.0583733333333","6501100","汐止區"
"221008","129-UY","2018/06/16 20:39:18","新北市汐止區康寧街706-2號","121.63849","25.0729816666667","6501100","汐止區"
"221035","622-UM","2018/06/16 20:39:22","新北市汐止區長江街101-5號","121.658733333333","25.0730883333333","6501100","汐止區"
"221025","623-UM","2018/06/16 20:39:22","新北市汐止區水源路二段188號","121.657721666667","25.0535483333333","6501100","汐止區"
"221038","646-BX","2018/06/16 20:39:29","新北市汐止區汐萬路一段204號","121.652095","25.0721916666667","6501100","汐止區"
"221033","647-BX","2018/06/16 20:39:30","新北市汐止區合順街18巷8弄5號","121.620366666667","25.0418883333333","6501100","汐止區"
"221018","753-BX","2018/06/16 20:39:25","新北市汐止區茄苳路99號","121.667408333333","25.0711883333333","6501100","汐止區"
"220061","293-UM","2018/06/16 20:39:26","新北市樹林區太平路269號","121.41947","24.9730383333333","6500100","板橋區"
"220070","AAC-253","2018/06/16 20:39:29","新北市五股區成泰路三段358號","121.451203333333","25.0978083333333","6500100","板橋區"
