"lineid","car","time","location","longitude","latitude","cityid","cityname"
"248005","653-BX","2018/05/10 06:49:00","新北市五股區中興路二段37巷24號","121.460658333333","25.075015","6501500","五股區"
"232001","290-BY","2018/05/10 06:48:55","新北市坪林區國中路8號","121.712976666667","24.94108","6502000","坪林區"
"232014","291-BY","2018/05/10 06:48:47","新北市坪林區北宜路八段67號","121.705233333333","24.9352366666667","6502000","坪林區"
"232010","375-UM","2018/05/10 06:48:55","新北市坪林區北宜路八段337號","121.710935","24.9336866666667","6502000","坪林區"
"232018","705-BZ","2018/05/10 06:48:49","新北市坪林區北宜路八段441號","121.707135","24.9242016666667","6502000","坪林區"
"232007","758-BX","2018/05/10 06:49:04","新北市坪林區魚堀52-1號","121.705408333333","24.9310816666667","6502000","坪林區"
"222006","289-BY","2018/05/10 06:48:56","新北市深坑區平埔街22巷17弄1號","121.614793333333","25.0008416666667","6501800","深坑區"
"235001","611-BX","2018/05/10 06:48:54","新北市中和區圓通路335巷53號","121.494653333333","24.989175","6500300","中和區"
"223006","022-BY","2018/05/10 06:48:50","新北市石碇區新興坑31號","121.648055","25.0158383333333","6501900","石碇區"
"223002","KEA-2673","2018/05/10 06:48:48","新北市石碇區烏塗窟34號","121.654376666667","24.9727383333333","6501900","石碇區"
"223001","205-TH","2018/05/10 06:48:51","新北市石碇區石崁40-6號","121.65896","24.99516","6501900","石碇區"
"223008","406-TH","2018/05/10 06:48:50","新北市石碇區雙溪84-1號","121.661268333333","25.0089433333333","6501900","石碇區"
"223001","592-UM","2018/05/10 06:48:59","新北市石碇區石崁40-8號","121.658875","24.9950416666667","6501900","石碇區"
"223004","660-BX","2018/05/10 06:48:50","新北市石碇區碇坪路一段125號","121.666051666667","24.9865666666667","6501900","石碇區"
"223007","661-BX","2018/05/10 06:48:48","新北市石碇區雙溪37-2號","121.655998333333","25.00794","6501900","石碇區"
"223005","677-TV","2018/05/10 06:48:48","新北市石碇區下橫坪11-3號","121.66695","24.9853933333333","6501900","石碇區"
"227007","282-VK","2018/05/10 06:48:53","新北市雙溪區新基里自強路5號","121.866311666667","25.03908","6502500","雙溪區"
"236009","165-UM","2018/05/10 06:48:54","新北市土城區永平街51號","121.427983333333","24.9591616666667","6501300","土城區"
