"lineid","car","time","location","longitude","latitude","cityid","cityname"
"248005","653-BX","2018/05/10 07:39:00","新北市五股區明德路12巷3號","121.433251666667","25.0717966666667","6501500","五股區"
"232001","290-BY","2018/05/10 07:38:55","新北市坪林區上坑子口23號","121.701943333333","24.9516433333333","6502000","坪林區"
"232014","291-BY","2018/05/10 07:38:47","新北市坪林區九芎根2-1號","121.66767","24.8877616666667","6502000","坪林區"
"232010","375-UM","2018/05/10 07:38:35","新北市坪林區磨壁潭12-2號","121.726536666667","24.938825","6502000","坪林區"
"232007","758-BX","2018/05/10 07:38:55","新北市坪林區魚堀49號","121.701445","24.9299316666667","6502000","坪林區"
"244003","248-BX","2018/05/10 07:38:58","新北市林口區頂福里53-7號","121.34498","25.08665","6501700","林口區"
"222006","289-BY","2018/05/10 07:36:55","新北市深坑區文化街39巷13號","121.618963333333","25.0009916666667","6501800","深坑區"
"231069","189-VK","2018/05/10 07:38:49","新北市新店區安華路28-1號","121.519713333333","24.9614566666667","6500600","新店區"
"235001","611-BX","2018/05/10 07:38:54","新北市中和區圓通路367巷4號","121.491415","24.989315","6500300","中和區"
"226005","5620-A6","2018/05/10 07:38:51","新北市平溪區石底里公園街9號","121.738016666667","25.0250933333333","6502400","平溪區"
"226007","7418-A5","2018/05/10 07:38:56","新北市平溪區平湖里大厝1號","121.779981666667","25.0388516666667","6502400","平溪區"
"226003","AGD-0702","2018/05/10 07:36:16","新北市平溪區嶺腳里嶺腳寮83-2號","121.74993","25.0352833333333","6502400","平溪區"
"223006","022-BY","2018/05/10 07:38:50","新北市石碇區靜安路一段245號","121.687843333333","25.0080933333333","6501900","石碇區"
"223002","KEA-2673","2018/05/10 07:37:28","新北市石碇區北宜路五段竹坑巷17號","121.624901666667","24.9410283333333","6501900","石碇區"
"223001","205-TH","2018/05/10 07:38:06","新北市石碇區烏塗窟37號","121.657098333333","24.9711566666667","6501900","石碇區"
"223008","406-TH","2018/05/10 07:20:26","新北市石碇區靜安路一段337號","121.69877","25.01464","6501900","石碇區"
"223001","592-UM","2018/05/10 07:37:41","新北市石碇區烏塗窟37號","121.656866666667","24.9714216666667","6501900","石碇區"
"223004","660-BX","2018/05/10 07:38:50","新北市石碇區八分寮49-1號","121.642671666667","25.014285","6501900","石碇區"
"223007","661-BX","2018/05/10 07:37:40","新北市石碇區靜安路一段337號","121.69894","25.01446","6501900","石碇區"
"223005","677-TV","2018/05/10 07:31:06","新北市石碇區新興坑36號","121.648718333333","25.020975","6501900","石碇區"
"227007","282-VK","2018/05/10 07:38:53","新北市雙溪區雙溪里太平路56號","121.864835","25.0355716666667","6502500","雙溪區"
"252004","249-BX","2018/05/10 07:38:50","新北市三芝區店子里菜公坑99號","121.51315","25.2060816666667","6502100","三芝區"
"252007","AAC-283","2018/05/10 07:38:52","新北市三芝區古庄里古庄76號","121.491003333333","25.26585","6502100","三芝區"
"237001","159-UY","2018/05/10 07:39:04","新北市三峽區國慶路130號","121.375985","24.9395266666667","6500900","三峽區"
"236009","165-UM","2018/05/10 07:38:54","新北市土城區金城路三段16號","121.46506","24.9862316666667","6501300","土城區"
"236003","339-SR","2018/05/10 07:39:04","新北市土城區南天母路139-1號","121.447853333333","24.9536016666667","6501300","土城區"
"242057","986-R7","2018/05/10 07:39:01","新北市新莊區新泰路255巷83號","121.442371666667","25.039175","6500500","新莊區"
"242052","751-BX","2018/05/10 07:38:59","新北市新莊區新泰路357巷2-2號","121.441995","25.0412616666667","6500500","新莊區"
"242026","615-BX","2018/05/10 07:38:58","新北市新莊區新泰路255巷83號","121.442353333333","25.0387516666667","6500500","新莊區"
"242024","613-BX","2018/05/10 07:39:01","新北市新莊區新泰路357巷3弄57號","121.442341666667","25.039355","6500500","新莊區"
"242028","612-BX","2018/05/10 07:39:01","新北市新莊區新泰路255巷83號","121.442253333333","25.0391933333333","6500500","新莊區"
"242045","497-BY","2018/05/10 07:38:44","新北市新莊區三和路12-16號","121.442188333333","25.0374466666667","6500500","新莊區"
"242040","442-UM","2018/05/10 07:38:47","新北市新莊區新泰路255巷83號","121.442106666667","25.038795","6500500","新莊區"
"242049","441-UM","2018/05/10 07:39:02","新北市新莊區新莊路771巷10號","121.442026666667","25.0318833333333","6500500","新莊區"
"242055","440-UM","2018/05/10 07:38:56","新北市新莊區新泰路255巷83號","121.442205","25.0391033333333","6500500","新莊區"
"242006","413-TV","2018/05/10 07:38:52","新北市新莊區新泰路357巷3弄57號","121.442086666667","25.0395","6500500","新莊區"
"242022","362-BY","2018/05/10 07:38:58","新北市新莊區新泰路255巷83號","121.442335","25.0386783333333","6500500","新莊區"
"242059","353-BY","2018/05/10 07:38:58","新北市新莊區新泰路255巷83號","121.442375","25.03894","6500500","新莊區"
"242038","133-UY","2018/05/10 07:38:56","新北市新莊區三和路12-16號","121.442286666667","25.0373266666667","6500500","新莊區"
"242030","135-UY","2018/05/10 07:38:52","新北市新莊區新泰路255巷83號","121.442193333333","25.0388416666667","6500500","新莊區"
"242047","172-VK","2018/05/10 07:39:02","新北市新莊區中正路685號","121.426038333333","25.029975","6500500","新莊區"
"242016","175-VK","2018/05/10 07:38:54","新北市新莊區三和路12-21號","121.441853333333","25.0386333333333","6500500","新莊區"
"242003","176-VK","2018/05/10 07:38:45","新北市泰山區磚雅厝6號","121.442265","25.04221","6500500","新莊區"
"242018","350-TH","2018/05/10 07:37:04","新北市新莊區新泰路255巷83號","121.441966666667","25.0389583333333","6500500","新莊區"
"242012","351-TH","2018/05/10 07:39:02","新北市新莊區新泰路357巷3弄57號","121.442133333333","25.0394766666667","6500500","新莊區"
"220070","282-UM","2018/05/10 07:38:48","新北市板橋區國光路13號","121.456733333333","25.0174166666667","6500100","板橋區"
"242008","281-VK","2018/05/10 07:39:04","新北市新莊區三和路12-18號","121.442081666667","25.0376166666667","6500500","新莊區"
