"lineid","car","time","location","longitude","latitude","cityid","cityname"
"248005","653-BX","2018/06/18 06:49:38","新北市五股區中興路二段83巷26-3號","121.459823333333","25.0754633333333","6501500","五股區"
"232001","290-BY","2018/06/18 06:49:28","新北市坪林區水柳腳38號","121.709753333333","24.93516","6502000","坪林區"
"232012","291-BY","2018/06/18 06:49:29","新北市坪林區水柳腳39號","121.709685","24.9351366666667","6502000","坪林區"
"232017","705-BZ","2018/06/18 06:47:13","新北市坪林區北宜路八段422號","121.708406666667","24.9266766666667","6502000","坪林區"
"232005","758-BX","2018/06/18 06:49:43","新北市坪林區九芎林23-5號","121.704496666667","24.9270933333333","6502000","坪林區"
"244001","248-BX","2018/06/18 06:49:46","新北市林口區中山路576號","121.376653333333","25.0848683333333","6501700","林口區"
"235001","611-BX","2018/06/18 06:49:31","新北市中和區圓通路367巷4號","121.491375","24.9892183333333","6500300","中和區"
"223006","022-BY","2018/06/18 06:49:32","新北市石碇區八分寮56-1號","121.644953333333","25.0177566666667","6501900","石碇區"
"223002","KEA-2673","2018/06/18 06:49:26","新北市石碇區烏塗窟34號","121.654295","24.9728066666667","6501900","石碇區"
"223003","205-TH","2018/06/18 06:49:26","新北市石碇區湳窟37-1號","121.66282","24.9951566666667","6501900","石碇區"
"223008","406-TH","2018/06/18 06:49:37","新北市石碇區碇坪路一段2號","121.651673333333","25.0061616666667","6501900","石碇區"
"223001","592-UM","2018/06/18 06:49:36","新北市石碇區石碇東街3號","121.662135","24.99032","6501900","石碇區"
"223004","660-BX","2018/06/18 06:49:34","新北市石碇區碇坪路一段109號","121.664033333333","24.9885416666667","6501900","石碇區"
"223007","661-BX","2018/06/18 06:49:42","新北市石碇區雙溪37-3號","121.654566666667","25.008125","6501900","石碇區"
"223005","677-TV","2018/06/18 06:49:40","新北市石碇區碇坪路一段111號","121.664243333333","24.98829","6501900","石碇區"
"227005","282-VK","2018/06/18 06:49:32","新北市雙溪區新基里自強路5號","121.866355","25.0390233333333","6502500","雙溪區"
"252006","073-UM","2018/06/18 06:49:36","新北市三芝區埔坪里埔頭坑41號","121.504638333333","25.2645133333333","6502100","三芝區"
"236007","165-UM","2018/06/18 06:49:29","新北市土城區永平街51號","121.42798","24.959155","6501300","土城區"
