"lineid","car","time","location","longitude","latitude","cityid","cityname"
"248005","653-BX","2018/09/07 09:59:22","新北市五股區成泰路一段241巷11號","121.435838333333","25.0810016666667","6501500","五股區"
"231007","189-VK","2018/09/07 09:59:19","新北市新店區新潭路三段215巷25號","121.508138333333","24.9040733333333","6500600","新店區"
"231009","192-VK","2018/09/07 09:59:22","新北市新店區小坑一路35巷1號","121.528493333333","24.9082416666667","6500600","新店區"
"227005","282-VK","2018/09/07 09:59:13","新北市雙溪區泰平里灣潭路36號","121.811288333333","24.92887","6502500","雙溪區"
"237001","159-UY","2018/09/07 09:59:16","新北市三峽區國學街2號","121.37365","24.9414433333333","6500900","三峽區"
"236006","498-BY","2018/09/07 09:59:09","新北市土城區城林路6巷80號","121.438718333333","24.97978","6501300","土城區"
