"lineid","car","time","location","longitude","latitude","cityid","cityname"
"248005","653-BX","2018/09/07 10:09:42","新北市五股區明德路12巷16號","121.433223333333","25.0720366666667","6501500","五股區"
"231007","189-VK","2018/09/07 10:09:39","新北市新店區新潭路三段215巷25號","121.508238333333","24.90406","6500600","新店區"
"231009","192-VK","2018/09/07 10:09:42","新北市新店區小坑一路21-1號","121.53072","24.911845","6500600","新店區"
"224007","275-VK","2018/09/07 10:09:38","新北市瑞芳區大寮路356-1號","121.78463","25.103235","6501200","瑞芳區"
"227005","282-VK","2018/09/07 10:06:33","新北市雙溪區泰平里灣潭路36號","121.812168333333","24.9287383333333","6502500","雙溪區"
"237001","159-UY","2018/09/07 10:09:36","新北市三峽區大義路259號","121.377433333333","24.9465283333333","6500900","三峽區"
