"lineid","car","time","location","longitude","latitude","cityid","cityname"
"248005","653-BX","2018/09/07 10:19:21","新北市五股區成泰路三段51號","121.44279","25.0892933333333","6501500","五股區"
"231007","189-VK","2018/09/07 10:19:19","新北市新店區新潭路三段215巷25號","121.508195","24.904115","6500600","新店區"
"231009","192-VK","2018/09/07 10:19:22","新北市新店區松林路7號","121.547115","24.911295","6500600","新店區"
"224007","275-VK","2018/09/07 10:19:18","新北市瑞芳區大寮路356-1號","121.784385","25.1032566666667","6501200","瑞芳區"
"227005","282-VK","2018/09/07 10:06:33","新北市雙溪區泰平里灣潭路36號","121.812168333333","24.9287383333333","6502500","雙溪區"
"237001","159-UY","2018/09/07 10:19:16","新北市三峽區大義路259號","121.377313333333","24.9464716666667","6500900","三峽區"
