"lineid","car","time","location","longitude","latitude","cityid","cityname"
"248005","653-BX","2018/09/07 10:24:37","新北市五股區新五路二段572號","121.443065","25.085945","6501500","五股區"
"231007","189-VK","2018/09/07 10:34:39","新北市新店區新潭路三段131號","121.510681666667","24.9108133333333","6500600","新店區"
"231009","192-VK","2018/09/07 10:34:42","新北市新店區成功路126號","121.534331666667","24.8942433333333","6500600","新店區"
"224007","275-VK","2018/09/07 10:32:51","新北市瑞芳區大寮路356號","121.78468","25.1030116666667","6501200","瑞芳區"
"227005","282-VK","2018/09/07 10:34:53","新北市雙溪區泰平里烏山路40-1號","121.833965","24.9379283333333","6502500","雙溪區"
"237001","159-UY","2018/09/07 10:34:36","新北市三峽區中山路459巷163-1號","121.349293333333","24.9333933333333","6500900","三峽區"
