"lineid","car","time","location","longitude","latitude","cityid","cityname"
"234044","148-BY","2018/09/07 13:49:47","新北市永和區林森路65號","121.524148333333","25.0040066666667","6500400","永和區"
"234005","207-UY","2018/09/07 13:49:24","新北市中和區中和路462號","121.512198333333","25.0039133333333","6500400","永和區"
"234078","298-R6","2018/09/07 13:49:54","新北市永和區林森路77號","121.523903333333","25.0039716666667","6500400","永和區"
"234036","336-UY","2018/09/07 13:49:54","新北市永和區成功路二段113號","121.526756666667","24.998745","6500400","永和區"
"234062","337-UY","2018/09/07 13:49:51","新北市永和區中正路368巷17號","121.51824","25.000855","6500400","永和區"
"234084","338-UY","2018/09/07 13:49:39","新北市永和區福和路278號","121.517868333333","25.0075966666667","6500400","永和區"
"234068","552-UM","2018/09/07 13:49:43","新北市永和區竹林路81號","121.5195","25.01251","6500400","永和區"
"234015","745-BX","2018/09/07 13:49:37","新北市永和區文化路77號","121.513641666667","25.0151633333333","6500400","永和區"
"234028","746-BX","2018/09/07 13:49:35","新北市永和區民生路67巷13號","121.523318333333","24.9972133333333","6500400","永和區"
"234052","KEA-2590","2018/09/07 13:49:38","新北市永和區竹林路75巷25弄7號","121.520056666667","25.01446","6500400","永和區"
"234012","KEA-2591","2018/09/07 13:49:51","新北市永和區永平路314號","121.507076666667","25.0126266666667","6500400","永和區"
"234060","AAD-866","2018/09/07 13:49:48","新北市永和區中正路281號","121.517588333333","25.00123","6500400","永和區"
"234040","862-TW","2018/09/07 13:49:37","新北市永和區中和路389巷41號","121.508188333333","25.0016533333333","6500400","永和區"
"234048","863-TW","2018/09/07 13:49:56","新北市永和區保安路63號","121.509205","25.0155466666667","6500400","永和區"
"234025","9371-KE","2018/09/07 13:49:39","新北市永和區自由街58號","121.513795","25.0059683333333","6500400","永和區"
"234010","9373-KE","2018/09/07 13:49:53","新北市永和區保安路151號","121.506936666667","25.0130266666667","6500400","永和區"
"248019","225-UY","2018/09/07 13:49:34","新北市五股區凌雲路三段41-1號","121.430876666667","25.11821","6501500","五股區"
"234022","9380-KE","2018/09/07 13:49:45","新北市永和區復興街16巷10號","121.515745","25.012475","6500400","永和區"
"234076","969-R7","2018/09/07 13:49:44","新北市永和區民族街44號","121.518433333333","24.9986983333333","6500400","永和區"
"234072","AAC-211","2018/09/07 13:49:46","新北市永和區豫溪街207巷22號","121.523406666667","25.010415","6500400","永和區"
"234066","AAC-212","2018/09/07 13:49:38","新北市永和區中山路一段255巷22號","121.508446666667","25.0070766666667","6500400","永和區"
"234001","AAC-295","2018/09/07 13:49:41","新北市永和區永和路一段118號","121.513943333333","25.0078716666667","6500400","永和區"
"244004","248-BX","2018/09/07 13:49:56","新北市林口區文化北路一段436號","121.36545","25.0770333333333","6501700","林口區"
"231002","002-UM","2018/09/07 13:49:46","新北市新店區溪園路87號","121.528136666667","24.985635","6500600","新店區"
"231027","0291-UT","2018/09/07 13:49:40","新北市新店區中興路一段24號","121.538678333333","24.95848","6500600","新店區"
"231028","046-UY","2018/09/07 13:49:52","新北市新店區安和路二段222號","121.517448333333","24.97587","6500600","新店區"
"231001","047-UY","2018/09/07 13:49:41","新北市新店區三民路137號","121.534351666667","24.97262","6500600","新店區"
"231005","106-UY","2018/09/07 13:49:53","新北市新店區寶中路123號","121.549628333333","24.9793466666667","6500600","新店區"
"231010","107-UY","2018/09/07 13:49:53","新北市新店區三民路60巷20號","121.535815","24.9730533333333","6500600","新店區"
"231022","108-UY","2018/09/07 13:49:37","新北市新店區永興路95-3號","121.544501666667","24.9325183333333","6500600","新店區"
"231035","110-UY","2018/09/07 13:49:42","新北市新店區安忠路57巷11弄1號","121.513581666667","24.9581733333333","6500600","新店區"
"231012","187-VK","2018/09/07 13:49:47","新北市新店區中興路二段67巷12號","121.546115","24.9710933333333","6500600","新店區"
"231023","KEA-2219","2018/09/07 13:49:54","新北市新店區國校路14號","121.537853333333","24.9554616666667","6500600","新店區"
"231026","256-BX","2018/09/07 13:49:47","新北市新店區三民路159巷19弄48號","121.53216","24.9731983333333","6500600","新店區"
"231003","268-BY","2018/09/07 13:49:43","新北市新店區大新街9巷28號","121.544255","24.96656","6500600","新店區"
"231018","278-BY","2018/09/07 13:49:41","新北市新店區中央路63號","121.532703333333","24.9771383333333","6500600","新店區"
"231016","AAD-862","2018/09/07 13:49:49","新北市新店區北宜路二段317號","121.556945","24.95398","6500600","新店區"
"231038","3712-VJ","2018/09/07 13:49:49","新北市新店區安華路28-1號","121.519178333333","24.9606116666667","6500600","新店區"
"231037","4716-K9","2018/09/07 13:49:42","新北市新店區安康路三段312號","121.487156666667","24.9518283333333","6500600","新店區"
"231025","4715-K9","2018/09/07 13:49:54","新北市新店區中正路314號","121.537248333333","24.974635","6500600","新店區"
"231036","512-UM","2018/09/07 13:49:49","新北市新店區安祥路142號","121.474236666667","24.955615","6500600","新店區"
"231013","513-UM","2018/09/07 13:49:51","新北市新店區二十張路25巷18弄35號","121.539343333333","24.9810466666667","6500600","新店區"
"231034","616-UM","2018/09/07 13:49:50","新北市新店區達觀路16-7號","121.502165","24.940895","6500600","新店區"
"231006","617-UM","2018/09/07 13:49:39","新北市新店區北宜路一段260號","121.545646666667","24.952785","6500600","新店區"
"231030","619-UM","2018/09/07 13:49:47","新北市新店區安康路一段81號","121.529745","24.96125","6500600","新店區"
"231032","720-UM","2018/09/07 13:49:51","新北市新店區莒光路44巷21弄12-1號","121.521298333333","24.9559666666667","6500600","新店區"
"231029","897-TW","2018/09/07 13:49:41","新北市新店區安康路二段128號","121.512745","24.962455","6500600","新店區"
"231004","899-TW","2018/09/07 13:49:45","新北市新店區寶橋路69-1號","121.545471666667","24.9749233333333","6500600","新店區"
"231024","AKT-0513","2018/09/07 13:49:44","新北市新店區北新路一段271巷34號","121.539936666667","24.9671733333333","6500600","新店區"
"235030","003-UY","2018/09/07 13:49:41","新北市中和區中山路二段131巷20號","121.503606666667","25.0025383333333","6500300","中和區"
"235027","006-UY","2018/09/07 13:49:41","新北市中和區中正路464號","121.49013","24.9942266666667","6500300","中和區"
"235020","096-UM","2018/09/07 13:49:40","新北市中和區中正路1163號","121.481648333333","25.0092116666667","6500300","中和區"
"235003","097-UM","2018/09/07 13:49:53","新北市中和區大仁街19巷6號","121.517465","24.9932233333333","6500300","中和區"
"235029","098-UM","2018/09/07 13:49:38","新北市中和區勝利路35巷1弄36號","121.5005","25.0078166666667","6500300","中和區"
"235004","150-BY","2018/09/07 13:49:51","新北市中和區保健路71號","121.510055","24.99712","6500300","中和區"
"235022","151-BY","2018/09/07 13:49:36","新北市中和區連城路532號","121.475558333333","24.991495","6500300","中和區"
"235019","183-VK","2018/09/07 13:49:40","新北市中和區民生街85巷5弄2號","121.469281666667","25.004005","6500300","中和區"
"235002","185-VK","2018/09/07 13:49:43","新北市中和區大勇街43巷14號","121.517245","24.9947533333333","6500300","中和區"
"235013","186-VK","2018/09/07 13:49:50","新北市中和區景安路177巷9號","121.505743333333","24.99432","6500300","中和區"
"235031","255-BX","2018/09/07 13:49:42","新北市中和區新生街220巷4號","121.482916666667","24.9986383333333","6500300","中和區"
"235008","293-VK","2018/09/07 13:49:44","新北市中和區中興街204號","121.499906666667","24.9903333333333","6500300","中和區"
"235036","301-VK","2018/09/07 13:49:52","新北市中和區永和路1號","121.499901666667","25.0029","6500300","中和區"
"235007","352-BY","2018/09/07 13:49:38","新北市中和區景平路1號","121.525511666667","24.9901283333333","6500300","中和區"
"235006","KEA-2878","2018/09/07 13:49:55","新北市中和區秀朗路三段70巷52號","121.524933333333","24.9944066666667","6500300","中和區"
"235014","4979-A6","2018/09/07 13:49:43","新北市中和區忠孝街62巷7弄1號","121.512908333333","24.9835616666667","6500300","中和區"
"235033","4980-A6","2018/09/07 13:49:42","新北市中和區泰和街2號","121.500038333333","25.0012116666667","6500300","中和區"
"235028","551-UM","2018/09/07 13:49:38","新北市中和區泰和街12號","121.49989","25.0010616666667","6500300","中和區"
"235034","558-UM","2018/09/07 13:49:50","新北市中和區中和路199號","121.503691666667","24.99983","6500300","中和區"
"235009","565-BX","2018/09/07 13:49:38","新北市中和區興南路一段86號","121.510021666667","24.9893716666667","6500300","中和區"
"235018","640-BX","2018/09/07 13:49:53","新北市中和區民治街26號","121.47519","25.0039516666667","6500300","中和區"
"235011","732-UM","2018/09/07 13:49:46","新北市中和區興南路二段34巷28弄2號","121.505068333333","24.9864866666667","6500300","中和區"
"235010","733-UM","2018/09/07 13:49:47","新北市中和區仁愛街36巷34號","121.511178333333","24.98678","6500300","中和區"
"235035","783-BX","2018/09/07 13:49:34","新北市中和區立德街7巷10號","121.489718333333","25.0059616666667","6500300","中和區"
"235026","800-TS","2018/09/07 13:49:46","新北市中和區中山路二段340巷26號","121.493558333333","25.0035016666667","6500300","中和區"
"235021","801-TS","2018/09/07 13:49:36","新北市中和區民利街29號","121.480053333333","24.9989833333333","6500300","中和區"
"235005","802-TS","2018/09/07 13:49:35","新北市永和區中和路603號","121.512348333333","25.00429","6500300","中和區"
"235016","805-TS","2018/09/07 13:49:47","新北市中和區興南路二段399巷120號","121.50136","24.9760366666667","6500300","中和區"
"235012","896-TW","2018/09/07 13:49:38","新北市中和區南山路361號","121.505996666667","24.9906533333333","6500300","中和區"
"235017","900-TW","2018/09/07 13:49:42","新北市中和區華福街44號","121.46647","24.9965316666667","6500300","中和區"
"235024","911-UM","2018/09/07 13:49:47","新北市中和區中山路三段214號","121.471428333333","25.006585","6500300","中和區"
"235015","157-BY","2018/09/07 13:49:44","新北市中和區忠孝街39-1號","121.51156","24.9837633333333","6500300","中和區"
"235001","AAC-213","2018/09/07 13:49:45","新北市中和區景平路1號","121.525393333333","24.9902216666667","6500300","中和區"
"235023","AAC-215","2018/09/07 13:49:56","新北市中和區圓通路393巷16號","121.489801666667","24.9886433333333","6500300","中和區"
"220016","013-TV","2018/09/07 13:49:40","新北市板橋區民生路二段89-4號","121.471098333333","25.0183916666667","6500100","板橋區"
"220013","072-UY","2018/09/07 13:49:41","新北市板橋區漢生東路280號","121.470398333333","25.009935","6500100","板橋區"
"220034","073-UY","2018/09/07 13:49:43","新北市板橋區大智街22號","121.455675","25.014885","6500100","板橋區"
"220105","075-UY","2018/09/07 13:49:49","新北市板橋區民生路二段161巷9號","121.470315","25.01961","6500100","板橋區"
"220017","AAD-861","2018/09/07 13:49:45","新北市板橋區南雅南路二段4巷2號","121.454446666667","25.003805","6500100","板橋區"
"247023","500-BY","2018/09/07 13:49:47","新北市蘆洲區光華路162巷19號","121.464813333333","25.0828183333333","6501400","蘆洲區"
"247007","336-TH","2018/09/07 13:49:42","新北市蘆洲區重陽二街22號","121.482245","25.0850616666667","6501400","蘆洲區"
"247009","056-VK","2018/09/07 13:49:54","新北市蘆洲區復興路323巷140號","121.481091666667","25.0956033333333","6501400","蘆洲區"
"247003","002-UY","2018/09/07 13:49:37","新北市蘆洲區長安街108巷9號","121.461418333333","25.0821366666667","6501400","蘆洲區"
"247021","001-UY","2018/09/07 13:49:36","新北市蘆洲區三民路550-4號","121.46163","25.0935066666667","6501400","蘆洲區"
"207002","749-BX","2018/09/07 13:49:50","新北市萬里區崁腳里崁腳路166號","121.645108333333","25.1557833333333","6502800","萬里區"
"207001","662-BX","2018/09/07 13:49:47","新北市金山區月眉21-1號","121.636361666667","25.21489","6502800","萬里區"
"236067","105-UM","2018/09/07 13:49:39","新北市土城區城林路6巷80號","121.438658333333","24.979645","6501300","土城區"
"236040","107-UM","2018/09/07 13:49:47","新北市土城區城林路6巷80號","121.438521666667","24.979795","6501300","土城區"
"236077","166-UM","2018/09/07 13:49:28","新北市土城區中央路二段219-7號","121.440753333333","24.9737583333333","6501300","土城區"
"236029","253-BX","2018/09/07 13:49:52","新北市土城區城林路6巷80號","121.438586666667","24.9797816666667","6501300","土城區"
"236032","271-VK","2018/09/07 13:49:36","新北市土城區城林路6巷80號","121.438448333333","24.9797833333333","6501300","土城區"
"236016","401-BY","2018/09/07 13:49:41","新北市土城區城林路6巷80號","121.438565","24.9798266666667","6501300","土城區"
"236006","498-BY","2018/09/07 13:49:44","新北市土城區中華路二段128號","121.437418333333","24.9736266666667","6501300","土城區"
"236057","752-BX","2018/09/07 13:49:36","新北市土城區中華路二段62號","121.43894","24.976685","6501300","土城區"
"236045","913-UM","2018/09/07 13:49:42","新北市土城區城林路6巷80號","121.438506666667","24.9797816666667","6501300","土城區"
"236060","915-UM","2018/09/07 13:49:44","新北市土城區城林路6巷80號","121.438491666667","24.9797366666667","6501300","土城區"
"236054","AAC-216","2018/09/07 13:49:38","新北市土城區城林路6巷80號","121.438563333333","24.979775","6501300","土城區"
"242051","172-VK","2018/09/07 13:49:53","新北市新莊區新樹路49號","121.440201666667","25.0320166666667","6500500","新莊區"
"221015","131-UY","2018/09/07 13:49:46","新北市汐止區福德一路12巷21號","121.637385","25.0704416666667","6501100","汐止區"
"221010","269-BY","2018/09/07 13:49:54","新北市汐止區長青路210巷188號","121.616338333333","25.1132583333333","6501100","汐止區"
"220027","145-BY","2018/09/07 13:49:55","新北市板橋區民權路202巷4弄2號","121.459786666667","25.0143833333333","6500100","板橋區"
"220028","200-UY","2018/09/07 13:49:44","新北市板橋區大觀路二段265巷3弄1號","121.44293","24.9983416666667","6500100","板橋區"
"220030","610-BX","2018/09/07 13:49:41","新北市板橋區篤行路三段79號","121.42686","24.98508","6500100","板橋區"
"220050","245-BX","2018/09/07 13:49:39","新北市板橋區民生路二段161巷1號","121.470165","25.0198766666667","6500100","板橋區"
"220004","276-BY","2018/09/07 13:49:38","新北市板橋區四川路二段79號","121.453051666667","24.99498","6500100","板橋區"
"220020","277-BY","2018/09/07 13:49:34","新北市板橋區大觀路三段63號","121.43363","24.99537","6500100","板橋區"
"220019","283-VK","2018/09/07 13:49:47","新北市板橋區重慶路245巷67弄2號","121.465635","25.0012216666667","6500100","板橋區"
"220043","285-UM","2018/09/07 13:49:34","新北市板橋區民生路二段161巷1號","121.47012","25.020015","6500100","板橋區"
"220001","285-VK","2018/09/07 13:49:39","新北市板橋區民生路二段89-1號","121.471556666667","25.01802","6500100","板橋區"
"220031","286-VK","2018/09/07 13:49:53","新北市板橋區大觀路一段38巷156弄137號","121.443623333333","25.0086783333333","6500100","板橋區"
"220029","287-VK","2018/09/07 13:49:41","新北市板橋區光華街15巷2號","121.453956666667","25.0118966666667","6500100","板橋區"
"220009","295-UM","2018/09/07 13:49:44","新北市板橋區民生路二段89-4號","121.471338333333","25.0185216666667","6500100","板橋區"
"220032","296-UM","2018/09/07 13:49:39","新北市板橋區大觀路二段150巷63-1號","121.441515","25.0004533333333","6500100","板橋區"
"220010","299-UM","2018/09/07 13:49:37","新北市板橋區中山路二段40巷16號","121.47327","25.0148316666667","6500100","板橋區"
"220023","303-R5","2018/09/07 13:49:37","新北市板橋區南雅東路79-1號","121.453396666667","25.0079816666667","6500100","板橋區"
"220047","317-R6","2018/09/07 13:49:49","新北市板橋區民生路二段120號","121.470436666667","25.0200766666667","6500100","板橋區"
"220012","486-VK","2018/09/07 13:49:40","新北市板橋區民生路二段36-1號","121.472063333333","25.0167666666667","6500100","板橋區"
"220037","491-VK","2018/09/07 13:49:38","新北市板橋區民生路二段171號","121.469946666667","25.0201883333333","6500100","板橋區"
"220104","560-BX","2018/09/07 13:49:48","新北市板橋區中正路325巷3弄9號","121.453808333333","25.018875","6500100","板橋區"
"220052","561-BX","2018/09/07 13:49:47","新北市板橋區民生路二段161巷1號","121.470145","25.0199316666667","6500100","板橋區"
"220011","609-BX","2018/09/07 13:49:53","新北市板橋區中山路二段50-1號","121.473316666667","25.0155783333333","6500100","板橋區"
"220040","637-BX","2018/09/07 13:49:45","新北市板橋區民生路二段161巷1號","121.470011666667","25.0200333333333","6500100","板橋區"
"220005","686-BX","2018/09/07 13:49:49","新北市板橋區南雅南路一段1巷35號","121.45773","25.0064383333333","6500100","板橋區"
"220025","687-BX","2018/09/07 13:49:48","新北市板橋區大觀路三段50巷49號","121.432283333333","24.9956133333333","6500100","板橋區"
"220042","689-BX","2018/09/07 13:49:42","新北市板橋區民生路二段188號","121.47014","25.0202266666667","6500100","板橋區"
"220002","741-BX","2018/09/07 13:49:39","新北市板橋區館前西路7號","121.45908","25.007055","6500100","板橋區"
"220051","KEA-2699","2018/09/07 13:49:41","新北市板橋區民生路二段161巷1號","121.470025","25.0201116666667","6500100","板橋區"
"220003","827-TW","2018/09/07 13:49:55","新北市板橋區中山路一段137號","121.462675","25.0107033333333","6500100","板橋區"
"220014","830-TW","2018/09/07 13:49:45","新北市板橋區民生路二段89-1號","121.471308333333","25.018215","6500100","板橋區"
"220038","833-TW","2018/09/07 13:49:43","新北市板橋區民生路二段179號","121.46979","25.0204233333333","6500100","板橋區"
"220022","895-R6","2018/09/07 13:49:56","新北市板橋區館前西路112巷13號","121.457051666667","25.007885","6500100","板橋區"
"220021","985-R7","2018/09/07 13:49:43","新北市板橋區府中路27號","121.459038333333","25.008885","6500100","板橋區"
"220018","AAC-253","2018/09/07 13:49:57","新北市板橋區四川路一段45號","121.459553333333","25.0064216666667","6500100","板橋區"
"235032","KEA-2873","2018/09/07 13:49:40","新北市中和區板南路252號","121.49623","24.9954683333333","6500300","中和區"
"235025","KEA-2875","2018/09/07 13:49:39","新北市中和區民治街134巷2-2號","121.475263333333","25.002105","6500300","中和區"
