"lineid","car","time","location","longitude","latitude","cityid","cityname"
"234046","148-BY","2018/09/07 18:38:42","新北市永和區永元路94號","121.522523333333","25.001675","6500400","永和區"
"234007","207-UY","2018/09/07 18:38:50","新北市永和區文化路208號","121.51024","25.01662","6500400","永和區"
"234081","298-R6","2018/09/07 18:38:53","新北市永和區林森路67號","121.52406","25.004","6500400","永和區"
"234064","337-UY","2018/09/07 18:38:46","新北市永和區福和路1號","121.52664","25.0100333333333","6500400","永和區"
"234086","338-UY","2018/09/07 18:38:46","新北市永和區中正路610-1號","121.517091666667","25.00735","6500400","永和區"
"234017","745-BX","2018/09/07 18:38:45","新北市永和區福和路1號","121.525811666667","25.00951","6500400","永和區"
"234030","746-BX","2018/09/07 18:38:52","新北市永和區得和路397號","121.525426666667","24.9992766666667","6500400","永和區"
"234013","KEA-2591","2018/09/07 18:38:42","新北市永和區保福路二段105號","121.510185","25.0133516666667","6500400","永和區"
"234042","862-TW","2018/09/07 18:38:46","新北市永和區永貞路308號","121.511795","25.004865","6500400","永和區"
"234026","9371-KE","2018/09/07 18:38:58","新北市永和區中山路一段213號","121.508621666667","25.0080966666667","6500400","永和區"
"234011","9373-KE","2018/09/07 18:38:57","新北市永和區永和路二段231巷8號","121.514953333333","25.0141116666667","6500400","永和區"
"249005","172-UM","2018/09/07 18:38:53","新北市八里區中華路三段196號","121.38812","25.1255833333333","6502300","八里區"
"249001","173-UM","2018/09/07 18:38:50","新北市八里區龍米路一段382號","121.451558333333","25.1317883333333","6502300","八里區"
"249004","303-UY","2018/09/07 18:38:52","新北市八里區中山路一段29-1號","121.421518333333","25.1591633333333","6502300","八里區"
"249002","305-UY","2018/09/07 18:38:58","新北市八里區龍形一街33巷1-1號","121.449365","25.13023","6502300","八里區"
"248014","025-BX","2018/09/07 18:38:57","新北市五股區明德路30號","121.432661666667","25.0715716666667","6501500","五股區"
"248018","225-UY","2018/09/07 18:38:49","新北市五股區民義路二段54-1號","121.40648","25.1075533333333","6501500","五股區"
"248012","247-BX","2018/09/07 18:38:56","新北市五股區成泰路三段2巷1-12號","121.441233333333","25.0867383333333","6501500","五股區"
"248016","261-SL","2018/09/07 18:38:56","新北市五股區凌雲路一段133巷27-3號","121.448635","25.1008916666667","6501500","五股區"
"248010","272-BY","2018/09/07 18:38:48","新北市五股區明德路23號","121.434646666667","25.07125","6501500","五股區"
"248004","677-BX","2018/09/07 18:38:53","新北市五股區民義路一段283號","121.425783333333","25.09274","6501500","五股區"
"248002","678-BX","2018/09/07 18:38:59","新北市五股區西雲路189號","121.447636666667","25.095565","6501500","五股區"
"234023","9380-KE","2018/09/07 18:38:48","新北市永和區福和路76巷5弄16號","121.522243333333","25.008345","6500400","永和區"
"234077","969-R7","2018/09/07 18:38:59","新北市永和區福和路265號","121.51775","25.00743","6500400","永和區"
"234067","AAC-212","2018/09/07 18:38:50","新北市永和區福和路1號","121.52619","25.0096466666667","6500400","永和區"
"234003","AAC-295","2018/09/07 18:38:50","新北市永和區福和路1號","121.525605","25.00923","6500400","永和區"
"244007","080-UY","2018/09/07 18:38:54","新北市林口區後湖29-5號","121.38716","25.0995566666667","6501700","林口區"
"244019","403-UM","2018/09/07 18:38:56","新北市林口區麗園二街23巷88號","121.380543333333","25.0703033333333","6501700","林口區"
"244013","KEA-2802","2018/09/07 18:38:53","新北市林口區中正路514巷31號","121.38214","25.07807","6501700","林口區"
"244023","483-VK","2018/09/07 18:38:47","新北市林口區信義路112號","121.380741666667","25.0793033333333","6501700","林口區"
"244017","485-VK","2018/09/07 18:38:46","新北市林口區文化二路一段22號","121.364755","25.067305","6501700","林口區"
"244009","656-BX","2018/09/07 18:38:57","新北市林口區竹林路266號","121.389648333333","25.08106","6501700","林口區"
"244011","657-BX","2018/09/07 18:39:02","新北市林口區仁愛路一段619號","121.390091666667","25.07659","6501700","林口區"
"244025","837-TS","2018/09/07 18:38:41","新北市林口區南勢里53-6號","121.35497","25.074985","6501700","林口區"
"244021","838-TS","2018/09/07 18:38:53","新北市林口區工六路100號","121.401155","25.0766116666667","6501700","林口區"
"243013","AAD-798","2018/09/07 18:29:17","新北市泰山區明志路三段206巷3號","121.423315","25.0379333333333","6501600","泰山區"
"243016","KEA-2801","2018/09/07 18:38:57","新北市泰山區黎明路1號","121.421185","25.0634133333333","6501600","泰山區"
"243011","KEA-2215","2018/09/07 18:38:56","新北市泰山區泰林路二段583號","121.42203","25.0635316666667","6501600","泰山區"
"243012","646-TV","2018/09/07 18:38:47","新北市泰山區泰林路二段65號","121.435123333333","25.0580666666667","6501600","泰山區"
"222003","436-BY","2018/09/07 18:38:58","新北市深坑區翠谷街14號","121.627031666667","25.008545","6501800","深坑區"
"222002","659-BX","2018/09/07 18:38:53","新北市深坑區文山路一段62巷10號","121.621813333333","25.0009133333333","6501800","深坑區"
"231041","002-UM","2018/09/07 18:38:56","新北市新店區安華路28-1號","121.51997","24.9608683333333","6500600","新店區"
"231059","046-UY","2018/09/07 18:38:59","新北市新店區安華路28-1號","121.519771666667","24.960835","6500600","新店區"
"231040","047-UY","2018/09/07 18:39:00","新北市新店區安華路28-1號","121.519086666667","24.9608533333333","6500600","新店區"
"231044","106-UY","2018/09/07 18:39:00","新北市新店區安康路一段69號","121.530251666667","24.9610516666667","6500600","新店區"
"231046","107-UY","2018/09/07 18:38:51","新北市新店區直潭二街1號","121.535558333333","24.9432016666667","6500600","新店區"
"231053","108-UY","2018/09/07 18:39:01","新北市新店區永興路15號","121.544278333333","24.9393783333333","6500600","新店區"
"231048","187-VK","2018/09/07 18:38:53","新北市新店區安一路一段1-1號","121.519741666667","24.96125","6500600","新店區"
"231054","KEA-2219","2018/09/07 18:38:49","新北市新店區安一路一段1-1號","121.519803333333","24.9612483333333","6500600","新店區"
"231057","256-BX","2018/09/07 18:38:49","新北市新店區新烏路一段140-1號","121.546403333333","24.9322866666667","6500600","新店區"
"231042","268-BY","2018/09/07 18:38:46","新北市新店區安華路28-1號","121.519501666667","24.96069","6500600","新店區"
"231051","278-BY","2018/09/07 18:38:49","新北市新店區環河路119號","121.532605","24.970685","6500600","新店區"
"231050","AAD-862","2018/09/07 18:38:54","新北市新店區安一路一段1-1號","121.520046666667","24.9612366666667","6500600","新店區"
"231058","3713-VJ","2018/09/07 18:38:45","新北市新店區能仁街12-1號","121.540675","24.95548","6500600","新店區"
"231066","4716-K9","2018/09/07 18:38:46","新北市新店區安一路一段1-1號","121.519415","24.9612166666667","6500600","新店區"
"231056","4715-K9","2018/09/07 18:38:53","新北市新店區民族路106號","121.53908","24.97801","6500600","新店區"
"231067","4772-VM","2018/09/07 18:38:54","新北市新店區安華路28-1號","121.519345","24.9606216666667","6500600","新店區"
"231065","512-UM","2018/09/07 18:38:53","新北市新店區安一路一段1-1號","121.51949","24.9613433333333","6500600","新店區"
"231049","513-UM","2018/09/07 18:38:44","新北市新店區安一路一段1-1號","121.519816666667","24.961155","6500600","新店區"
"231045","617-UM","2018/09/07 18:38:45","新北市新店區安一路一段1-1號","121.519448333333","24.9610833333333","6500600","新店區"
"231061","619-UM","2018/09/07 18:38:44","新北市新店區安華路28-1號","121.519708333333","24.9606383333333","6500600","新店區"
"231063","641-BX","2018/09/07 18:38:49","新北市新店區安華路28-1號","121.519691666667","24.9606116666667","6500600","新店區"
"231062","720-UM","2018/09/07 18:38:54","新北市新店區安一路一段1-1號","121.519248333333","24.9615","6500600","新店區"
"231060","897-TW","2018/09/07 18:38:41","新北市新店區安華路28-1號","121.519766666667","24.9608616666667","6500600","新店區"
"231043","899-TW","2018/09/07 18:38:54","新北市新店區安華路28-1號","121.519163333333","24.9608766666667","6500600","新店區"
"231055","AKT-0513","2018/09/07 18:38:45","新北市新店區中華路115號","121.538785","24.9694633333333","6500600","新店區"
"235066","003-UY","2018/09/07 18:38:44","新北市中和區水源路20號","121.504208333333","25.0035066666667","6500300","中和區"
"235063","006-UY","2018/09/07 18:38:43","新北市中和區連城路347巷4弄13號","121.48772","24.99557","6500300","中和區"
"235056","096-UM","2018/09/07 18:38:51","新北市中和區員山路611巷1號","121.477886666667","25.01125","6500300","中和區"
"235039","097-UM","2018/09/07 18:38:53","新北市永和區中正路1號","121.513738333333","24.9954466666667","6500300","中和區"
"235065","098-UM","2018/09/07 18:38:45","新北市中和區莊敬路49巷29弄10號","121.501101666667","25.00644","6500300","中和區"
"235040","150-BY","2018/09/07 18:38:45","新北市中和區安平路82號","121.511211666667","24.9967616666667","6500300","中和區"
"235058","151-BY","2018/09/07 18:38:54","新北市中和區員山路66-4號","121.481961666667","24.9918483333333","6500300","中和區"
"235055","183-VK","2018/09/07 18:38:47","新北市板橋區國泰街75巷53號","121.468741666667","25.0051316666667","6500300","中和區"
"235038","185-VK","2018/09/07 18:38:58","新北市中和區大勇街45巷1號","121.518066666667","24.9947883333333","6500300","中和區"
"235049","186-VK","2018/09/07 18:38:57","新北市中和區景安路157號","121.505408333333","24.9949033333333","6500300","中和區"
"235067","255-BX","2018/09/07 18:38:55","新北市中和區新生街1號","121.483161666667","25.0047866666667","6500300","中和區"
"235044","293-VK","2018/09/07 18:38:41","新北市中和區復興路274巷12號","121.50281","24.99079","6500300","中和區"
"235072","301-VK","2018/09/07 18:38:43","新北市中和區中山路二段132號","121.502266666667","25.0034183333333","6500300","中和區"
"235043","352-BY","2018/09/07 18:38:57","新北市中和區景平路163號","121.512428333333","24.9924233333333","6500300","中和區"
"247012","KEA-2869","2018/09/07 18:38:49","新北市八里區下罟子17-1號","121.380868333333","25.1398183333333","6501400","蘆洲區"
"235050","4979-A6","2018/09/07 18:38:51","新北市中和區忠孝街113巷31號","121.512501666667","24.98783","6500300","中和區"
"235069","4980-A6","2018/09/07 18:38:56","新北市中和區景平路597號","121.496991666667","25.0005466666667","6500300","中和區"
"235064","551-UM","2018/09/07 18:38:54","新北市中和區連城路99巷46號","121.497013333333","24.9986733333333","6500300","中和區"
"235070","558-UM","2018/09/07 18:39:02","新北市中和區南華路13號","121.502385","24.9955383333333","6500300","中和區"
"235045","565-BX","2018/09/07 18:38:50","新北市中和區南山路236巷63弄1號","121.5038","24.98763","6500300","中和區"
"235054","640-BX","2018/09/07 18:38:58","新北市中和區民享街86巷30弄1號","121.473171666667","25.000745","6500300","中和區"
"235047","732-UM","2018/09/07 18:38:57","新北市中和區南山路320巷10弄21號","121.506803333333","24.9867483333333","6500300","中和區"
"235046","733-UM","2018/09/07 18:39:02","新北市中和區仁愛街45號","121.511075","24.9883083333333","6500300","中和區"
"235071","783-BX","2018/09/07 18:38:56","新北市中和區員山路36巷16-3號","121.485226666667","24.9911016666667","6500300","中和區"
"235062","800-TS","2018/09/07 18:38:44","新北市中和區景平路677巷5號","121.49622","25.00273","6500300","中和區"
"235057","801-TS","2018/09/07 18:38:49","新北市中和區民安街2巷22號","121.480191666667","25.0017733333333","6500300","中和區"
"235041","802-TS","2018/09/07 18:38:50","新北市中和區中安街178巷13弄16號","121.510468333333","24.99827","6500300","中和區"
"235052","805-TS","2018/09/07 18:38:51","新北市中和區興南路三段73巷8號","121.492288333333","24.9743833333333","6500300","中和區"
"235048","896-TW","2018/09/07 18:38:46","新北市中和區南山路287號","121.504328333333","24.9920933333333","6500300","中和區"
"235053","900-TW","2018/09/07 18:38:45","新北市土城區延壽路77巷4弄3號","121.46918","24.9928733333333","6500300","中和區"
"235060","911-UM","2018/09/07 18:38:44","新北市中和區中山路二段483號","121.482865","25.0048816666667","6500300","中和區"
"235051","157-BY","2018/09/07 18:38:59","新北市中和區華新街143巷106弄28號","121.506031666667","24.9786933333333","6500300","中和區"
"235037","AAC-213","2018/09/07 18:38:49","新北市中和區景德街95-1號","121.515516666667","24.9912283333333","6500300","中和區"
"235059","AAC-215","2018/09/07 18:38:47","新北市中和區錦和路354巷15號","121.489435","24.9915716666667","6500300","中和區"
"220086","073-UY","2018/09/07 18:38:56","新北市板橋區南雅西路二段192巷1弄9-2號","121.452161666667","25.01466","6500100","板橋區"
"220106","075-UY","2018/09/07 18:38:46","新北市板橋區民生路二段120號","121.47069","25.0198033333333","6500100","板橋區"
"220069","AAD-861","2018/09/07 18:38:54","新北市板橋區華東街1-8號","121.44763","24.9949483333333","6500100","板橋區"
"247018","007-UY","2018/09/07 18:38:42","新北市八里區中山路三段380號","121.36982","25.136435","6501400","蘆洲區"
"226004","205-ST","2018/09/07 18:38:48","新北市平溪區石底里公園街18-3號","121.733286666667","25.0257733333333","6502400","平溪區"
"228002","663-BX","2018/09/07 18:38:56","新北市貢寮區福隆里東興街6-11號","121.950738333333","25.02103","6502600","貢寮區"
"228001","670-TC","2018/09/07 18:38:45","新北市貢寮區仁理村保健街73號","121.923711666667","25.0517116666667","6502600","貢寮區"
"228003","828-UM","2018/09/07 18:38:56","新北市貢寮區和美里龍洞街40-2號","121.915306666667","25.1116583333333","6502600","貢寮區"
"224010","AGQ-8101","2018/09/07 18:37:09","新北市瑞芳區崙頂路105號","121.844511666667","25.107055","6501200","瑞芳區"
"224006","676-BX","2018/09/07 18:38:51","新北市瑞芳區一坑路46號","121.803711666667","25.108825","6501200","瑞芳區"
"224002","639-TC","2018/09/07 18:38:50","新北市瑞芳區中山路32號","121.803843333333","25.1062783333333","6501200","瑞芳區"
"224007","275-VK","2018/09/07 18:38:56","新北市瑞芳區大埔路117號","121.763441666667","25.101045","6501200","瑞芳區"
"224009","273-VK","2018/09/07 18:39:01","新北市瑞芳區祈堂路2號","121.859763333333","25.1117416666667","6501200","瑞芳區"
"224008","272-VK","2018/09/07 18:39:00","新北市瑞芳區逢甲路204號","121.806826666667","25.1101283333333","6501200","瑞芳區"
"224005","271-BY","2018/09/07 18:38:59","新北市瑞芳區瑞濱路129號","121.819996666667","25.1200883333333","6501200","瑞芳區"
"227011","642-TC","2018/09/07 18:38:56","新北市雙溪區牡丹里下坑11號","121.851018333333","25.056175","6502500","雙溪區"
"227003","400-TW","2018/09/07 18:38:52","新北市雙溪區魚行里坤溪3-5號","121.87501","25.0216966666667","6502500","雙溪區"
"253006","032-BX","2018/09/07 18:38:44","新北市石門區楓林23號","121.536471666667","25.289605","6502200","石門區"
"253005","295-VK","2018/09/07 18:38:49","新北市石門區中山路33號","121.56713","25.290945","6502200","石門區"
"222001","KEA-2212","2018/09/07 18:38:57","新北市深坑區北深路一段80號","121.636395","25.01075","6501800","深坑區"
"208002","KEA-2872","2018/09/07 18:38:45","新北市金山區忠孝一路19巷17號","121.63732","25.2177716666667","6502700","金山區"
"208003","665-BX","2018/09/07 18:39:01","新北市金山區中山路379號","121.634203333333","25.2247516666667","6502700","金山區"
"208001","761-BX","2018/09/07 18:39:01","新北市金山區文化三路7號","121.635095","25.224965","6502700","金山區"
"251004","009-UM","2018/09/07 18:37:40","新北市淡水區大同路113巷6號","121.46344","25.1413916666667","6501000","淡水區"
"251002","012-UM","2018/09/07 18:38:43","新北市淡水區中正東路一段3巷14弄5號","121.451061666667","25.164275","6501000","淡水區"
"251008","181-VK","2018/09/07 18:38:57","新北市淡水區北投子19-3號","121.4539","25.1840466666667","6501000","淡水區"
"251010","413-VK","2018/09/07 18:38:50","新北市淡水區沙崙路128號","121.42342","25.1826116666667","6501000","淡水區"
"251012","441-VK","2018/09/07 18:38:44","新北市淡水區北新路180號","121.449148333333","25.17859","6501000","淡水區"
"251001","559-UM","2018/09/07 18:38:57","新北市淡水區自強路166號","121.465571666667","25.134145","6501000","淡水區"
"251006","561-UM","2018/09/07 18:38:56","新北市淡水區崁頂36-7號","121.438678333333","25.1931516666667","6501000","淡水區"
"251007","577-R6","2018/09/07 18:38:46","新北市淡水區中正東路二段143巷2弄1號","121.460603333333","25.1473433333333","6501000","淡水區"
"251011","650-BX","2018/09/07 18:38:55","新北市淡水區學府路32巷27號","121.448496666667","25.1683583333333","6501000","淡水區"
"251003","673-BX","2018/09/07 18:38:49","新北市淡水區北新路69巷26號","121.446658333333","25.180165","6501000","淡水區"
"207003","550-UM","2018/09/07 18:38:48","新北市萬里區野柳里八斗60號","121.660393333333","25.20725","6502800","萬里區"
"207004","225-TW","2018/09/07 18:38:55","新北市萬里區萬里里獅頭路7號","121.69204","25.17837","6502800","萬里區"
"252002","178-VK","2018/09/07 18:38:50","新北市三芝區民生街66號","121.503426666667","25.255455","6502100","三芝區"
"252003","249-BX","2018/09/07 18:38:52","新北市三芝區後厝里土地公坑56號","121.463208333333","25.24861","6502100","三芝區"
"252001","292-VK","2018/09/07 18:38:51","新北市三芝區中興街二段260號","121.501586666667","25.2531433333333","6502100","三芝區"
"237004","KEA-2597","2018/09/07 18:38:57","新北市三峽區插角222號","121.414928333333","24.86771","6500900","三峽區"
"237007","153-BY","2018/09/07 18:38:47","新北市三峽區柑樹路6巷11號","121.36238","24.9049083333333","6500900","三峽區"
"237009","210-TH","2018/09/07 18:38:54","新北市三峽區民權街231號","121.367846666667","24.927935","6500900","三峽區"
"237013","252-BX","2018/09/07 18:38:43","新北市三峽區光明路69巷27號","121.376863333333","24.9292916666667","6500900","三峽區"
"237012","275-BY","2018/09/07 18:38:43","新北市三峽區三樹路340號","121.383971666667","24.943345","6500900","三峽區"
"237008","302-VK","2018/09/07 18:38:42","新北市三峽區白雞77號","121.402465","24.910245","6500900","三峽區"
"237014","433-BY","2018/09/07 18:38:48","新北市三峽區復興路480巷28號","121.35908","24.939735","6500900","三峽區"
"237006","5529-G3","2018/09/07 18:38:43","新北市三峽區溪東路315巷29號","121.411635","24.931025","6500900","三峽區"
"237011","KEA-2596","2018/09/07 18:38:46","新北市三峽區溪東路135號","121.402548333333","24.9342933333333","6500900","三峽區"
"237015","649-BX","2018/09/07 18:38:49","新北市三峽區成福路313號","121.429315","24.9236583333333","6500900","三峽區"
"237010","706-TV","2018/09/07 18:38:44","新北市三峽區復興路311-3號","121.365198333333","24.9388316666667","6500900","三峽區"
"237005","AKY-6261","2018/09/07 18:38:55","新北市三峽區中山路93號","121.366023333333","24.9353266666667","6500900","三峽區"
"236069","105-UM","2018/09/07 18:38:51","新北市土城區永豐路157巷29弄6-1號","121.468381666667","24.981505","6501300","土城區"
"236042","107-UM","2018/09/07 18:38:59","新北市土城區裕民路55巷15號","121.449463333333","24.988815","6501300","土城區"
"236079","166-UM","2018/09/07 18:38:59","新北市土城區大暖路3號","121.422535","24.9614116666667","6501300","土城區"
"236030","253-BX","2018/09/07 18:38:45","新北市土城區福仁街72號","121.439126666667","24.9742533333333","6501300","土城區"
"236026","269-VK","2018/09/07 18:38:46","新北市土城區忠義路47-1號","121.440731666667","24.96945","6501300","土城區"
"236014","270-VK","2018/09/07 18:39:00","新北市土城區青雲路151巷4號","121.460076666667","24.9840716666667","6501300","土城區"
"236039","271-VK","2018/09/07 18:38:44","新北市土城區明德路一段287巷7號","121.460465","24.97692","6501300","土城區"
"236020","401-BY","2018/09/07 18:38:47","新北市土城區延吉街230號","121.467203333333","24.98483","6501300","土城區"
"236059","752-BX","2018/09/07 18:38:56","新北市土城區中央路三段207號","121.429803333333","24.9646616666667","6501300","土城區"
"236048","913-UM","2018/09/07 18:38:47","新北市土城區明德路一段33號","121.465025","24.9853683333333","6501300","土城區"
"236063","915-UM","2018/09/07 18:38:53","新北市土城區延壽路21號","121.471215","24.990765","6501300","土城區"
"236055","AAC-216","2018/09/07 18:38:43","新北市土城區裕民路2號","121.446526666667","24.9891433333333","6501300","土城區"
"242058","986-R7","2018/09/07 18:39:00","新北市新莊區中正路887-35號","121.415626666667","25.0239566666667","6500500","新莊區"
"242025","613-BX","2018/09/07 18:38:59","新北市新莊區中原路660號","121.44292","25.054515","6500500","新莊區"
"242054","441-UM","2018/09/07 18:38:52","新北市板橋區溪城路90-2號","121.428915","24.979775","6500500","新莊區"
"242060","353-BY","2018/09/07 18:38:55","新北市新莊區民安路188巷8弄5號","121.424301666667","25.0237866666667","6500500","新莊區"
"242046","347-TH","2018/09/07 18:38:47","新北市泰山區明志路三段514號","121.420836666667","25.0307583333333","6500500","新莊區"
"242005","349-TH","2018/09/07 18:38:47","新北市新莊區三和路12-21號","121.441923333333","25.037935","6500500","新莊區"
"238023","601-UM","2018/09/07 18:38:45","新北市樹林區三福街114號","121.406555","25.016285","6500700","樹林區"
"238018","571-TV","2018/09/07 18:38:51","新北市樹林區鎮前街1號","121.426105","24.9929783333333","6500700","樹林區"
"238024","5061-A6","2018/09/07 18:38:53","新北市樹林區太順街79巷5號","121.417063333333","24.9781483333333","6500700","樹林區"
"238025","303-VK","2018/09/07 18:38:52","新北市樹林區中山路三段22號","121.395633333333","24.9729316666667","6500700","樹林區"
"238017","283-BY","2018/09/07 18:38:47","新北市樹林區光興街50號","121.409823333333","25.0027066666667","6500700","樹林區"
"238014","282-BY","2018/09/07 18:38:54","新北市樹林區大安路111巷6號","121.423076666667","24.99747","6500700","樹林區"
"238020","268-VK","2018/09/07 18:38:50","新北市樹林區俊興街257號","121.418038333333","25.0162183333333","6500700","樹林區"
"238026","172-UY","2018/09/07 18:38:48","新北市樹林區八德街1176號","121.390855","24.9687466666667","6500700","樹林區"
"238016","169-UY","2018/09/07 18:38:23","新北市樹林區文化街26號","121.419466666667","24.9877283333333","6500700","樹林區"
"239007","AAC-297","2018/09/07 18:38:51","新北市鶯歌區中正一路建德巷38號","121.364526666667","24.957825","6500800","鶯歌區"
"239006","891-R6","2018/09/07 18:38:54","新北市鶯歌區鶯桃路296巷102號","121.337123333333","24.9622616666667","6500800","鶯歌區"
"239008","527-UM","2018/09/07 18:38:55","新北市鶯歌區國際一路179號","121.336243333333","24.97653","6500800","鶯歌區"
"239005","526-UM","2018/09/07 18:39:00","新北市鶯歌區鳳吉一街122號","121.327588333333","24.9750533333333","6500800","鶯歌區"
"239001","417-VK","2018/09/07 18:38:46","新北市鶯歌區鶯桃路21號","121.343716666667","24.9504566666667","6500800","鶯歌區"
"239003","360-BY","2018/09/07 18:38:48","新北市鶯歌區鶯桃路526號","121.331585","24.96692","6500800","鶯歌區"
"239002","359-BY","2018/09/07 18:38:48","新北市鶯歌區中山路64號","121.351663333333","24.9571083333333","6500800","鶯歌區"
"239004","193-VK","2018/09/07 18:38:49","新北市鶯歌區中正三路156巷31號","121.333333333333","24.9395683333333","6500800","鶯歌區"
"221008","489-VK","2018/09/07 18:38:51","新北市汐止區康寧街901號","121.651373333333","25.0750316666667","6501100","汐止區"
"221036","130-UY","2018/09/07 18:38:51","新北市汐止區忠孝東路340號","121.665145","25.06959","6501100","汐止區"
"221015","131-UY","2018/09/07 18:38:58","新北市汐止區鄉長路一段55巷17號","121.66479","25.0762766666667","6501100","汐止區"
"221010","269-BY","2018/09/07 18:38:44","新北市汐止區汐萬路二段132號","121.64793","25.0855133333333","6501100","汐止區"
"221012","278-VK","2018/09/07 18:38:52","新北市汐止區長江街101-5號","121.658863333333","25.0731233333333","6501100","汐止區"
"221023","279-VK","2018/09/07 18:38:59","新北市汐止區康寧街523-1號","121.633513333333","25.0687166666667","6501100","汐止區"
"221032","280-BY","2018/09/07 18:38:56","新北市汐止區民權街二段79號","121.619151666667","25.0481016666667","6501100","汐止區"
"221027","281-BY","2018/09/07 18:38:41","新北市汐止區水源路一段3號","121.657243333333","25.067195","6501100","汐止區"
"221029","298-VK","2018/09/07 18:38:57","新北市汐止區樟樹一路156號","121.642383333333","25.0653133333333","6501100","汐止區"
"221031","353-TW","2018/09/07 18:38:59","新北市汐止區福德一路274號","121.63211","25.063955","6501100","汐止區"
"221035","622-UM","2018/09/07 18:38:59","新北市汐止區大同路二段175號","121.65143","25.064095","6501100","汐止區"
"221025","623-UM","2018/09/07 18:38:55","新北市汐止區仁愛路119巷21號","121.662153333333","25.064275","6501100","汐止區"
"221038","646-BX","2018/09/07 18:38:48","新北市汐止區汐萬路一段256巷3號","121.65295","25.0744483333333","6501100","汐止區"
"221002","707-TV","2018/09/07 18:38:50","新北市汐止區大同路一段277號","121.636443333333","25.058495","6501100","汐止區"
"221018","753-BX","2018/09/07 18:38:57","新北市汐止區茄福街17號","121.672873333333","25.0673316666667","6501100","汐止區"
"220079","145-BY","2018/09/07 18:38:50","新北市板橋區大觀路一段51號","121.447543333333","25.0063266666667","6500100","板橋區"
"220080","200-UY","2018/09/07 18:38:50","新北市板橋區大觀路二段265巷76弄37號","121.441093333333","24.996765","6500100","板橋區"
"220082","610-BX","2018/09/07 18:38:56","新北市板橋區大觀路三段5-4號","121.432685","24.9958816666667","6500100","板橋區"
"220056","276-BY","2018/09/07 18:38:53","新北市板橋區華東街1號","121.44834","24.9941133333333","6500100","板橋區"
"220072","277-BY","2018/09/07 18:38:47","新北市板橋區大觀路三段36巷5號","121.433655","24.9957733333333","6500100","板橋區"
"220071","283-VK","2018/09/07 18:38:56","新北市板橋區四川路二段23-3號","121.454763333333","24.9956833333333","6500100","板橋區"
"220094","285-UM","2018/09/07 18:38:57","新北市板橋區民生路二段120號","121.470311666667","25.0198833333333","6500100","板橋區"
"220083","286-VK","2018/09/07 18:38:56","新北市板橋區合宜路185-1號","121.447163333333","24.999135","6500100","板橋區"
"220081","287-VK","2018/09/07 18:38:46","新北市板橋區大觀路一段79號","121.447025","25.00436","6500100","板橋區"
"220084","296-UM","2018/09/07 18:38:53","新北市板橋區合安一路81號","121.448213333333","24.9987866666667","6500100","板橋區"
"220062","299-UM","2018/09/07 18:17:47","新北市板橋區文化路一段387巷25號","121.46586","25.0221516666667","6500100","板橋區"
"220075","303-R5","2018/09/07 18:38:40","新北市板橋區大觀路一段65號","121.44718","25.0049766666667","6500100","板橋區"
"220064","486-VK","2018/09/07 18:38:56","新北市板橋區館前西路49號","121.457806666667","25.0066583333333","6500100","板橋區"
"220035","560-BX","2018/09/07 18:38:41","新北市板橋區南雅西路二段145巷6號","121.451611666667","25.0118583333333","6500100","板橋區"
"220103","561-BX","2018/09/07 18:38:43","新北市板橋區民生路二段161巷3號","121.470143333333","25.019745","6500100","板橋區"
"220063","609-BX","2018/09/07 18:38:53","新北市板橋區民生路二段161巷1號","121.47001","25.020105","6500100","板橋區"
"220057","686-BX","2018/09/07 18:38:54","新北市板橋區華東街1-8號","121.447475","24.9950666666667","6500100","板橋區"
"220077","687-BX","2018/09/07 18:38:57","新北市板橋區大觀路二段170號","121.441036666667","24.9986483333333","6500100","板橋區"
"220054","741-BX","2018/09/07 18:38:51","新北市板橋區板城路421號","121.448101666667","24.99566","6500100","板橋區"
"220055","827-TW","2018/09/07 18:38:49","新北市板橋區四川路二段130巷24號","121.449508333333","24.994235","6500100","板橋區"
"220074","895-R6","2018/09/07 18:38:48","新北市板橋區南雅南路二段11-4號","121.454118333333","25.0024466666667","6500100","板橋區"
"220073","985-R7","2018/09/07 18:38:58","新北市板橋區貴興路114號","121.455208333333","25.0020833333333","6500100","板橋區"
"220070","AAC-253","2018/09/07 18:38:58","新北市板橋區板城路421號","121.448368333333","24.99588","6500100","板橋區"
"235068","KEA-2873","2018/09/07 18:38:41","新北市中和區中興街118巷10號","121.49988","24.99318","6500300","中和區"
"235061","KEA-2875","2018/09/07 18:38:46","新北市中和區民享街114巷19號","121.473735","24.9994183333333","6500300","中和區"
