"lineid","car","time","location","longitude","latitude","cityid","cityname"
"234046","148-BY","2018/09/07 18:59:01","新北市永和區永元路52巷52號","121.524531666667","25.0007433333333","6500400","永和區"
"234007","207-UY","2018/09/07 18:58:50","新北市永和區中山路一段27號","121.513408333333","25.0104833333333","6500400","永和區"
"234081","298-R6","2018/09/07 18:58:53","新北市永和區永貞路39巷13號","121.522341666667","25.0063233333333","6500400","永和區"
"234038","336-UY","2018/09/07 18:58:55","新北市中和區秀朗路三段24號","121.52647","24.9962016666667","6500400","永和區"
"234064","337-UY","2018/09/07 18:58:49","新北市永和區秀朗路一段189號","121.517573333333","25.0036083333333","6500400","永和區"
"234086","338-UY","2018/09/07 18:58:46","新北市永和區中正路140號","121.514643333333","24.996245","6500400","永和區"
"234070","552-UM","2018/09/07 18:58:55","新北市永和區竹林路124巷36號","121.518045","25.0115183333333","6500400","永和區"
"234017","745-BX","2018/09/07 18:58:45","新北市永和區永和路二段299號","121.516068333333","25.0161966666667","6500400","永和區"
"234030","746-BX","2018/09/07 18:58:56","新北市永和區秀朗路二段275號","121.526146666667","24.9985266666667","6500400","永和區"
"234054","KEA-2590","2018/09/07 18:58:51","新北市永和區竹林路66巷6號","121.518103333333","25.0133466666667","6500400","永和區"
"234013","KEA-2591","2018/09/07 18:58:42","新北市永和區信義路17巷12號","121.513655","25.0115183333333","6500400","永和區"
"234061","AAD-866","2018/09/07 18:58:49","新北市永和區福和路295號","121.516655","25.0071466666667","6500400","永和區"
"234042","862-TW","2018/09/07 18:58:46","新北市永和區永貞路265號","121.511766666667","25.0046266666667","6500400","永和區"
"234050","863-TW","2018/09/07 18:58:59","新北市永和區文化路161號","121.510256666667","25.0163783333333","6500400","永和區"
"234026","9371-KE","2018/09/07 18:58:58","新北市永和區自由街49號","121.513901666667","25.00578","6500400","永和區"
"234011","9373-KE","2018/09/07 18:58:55","新北市永和區仁愛路141巷5弄3號","121.51179","25.0122116666667","6500400","永和區"
"249005","172-UM","2018/09/07 18:58:53","新北市八里區長道坑7-3號","121.393348333333","25.12365","6502300","八里區"
"249001","173-UM","2018/09/07 18:58:50","新北市八里區龍米路二段228-1號","121.432805","25.1584666666667","6502300","八里區"
"248014","025-BX","2018/09/07 18:58:57","新北市五股區民義路一段107巷32號","121.4322","25.08442","6501500","五股區"
"248006","077-UY","2018/09/07 18:58:53","新北市五股區中興路一段39號","121.468686666667","25.0723833333333","6501500","五股區"
"248018","225-UY","2018/09/07 18:58:49","新北市五股區民義路二段17號","121.420778333333","25.0964383333333","6501500","五股區"
"248012","247-BX","2018/09/07 18:58:56","新北市五股區成泰路二段87號","121.438218333333","25.0841183333333","6501500","五股區"
"248016","261-SL","2018/09/07 18:58:56","新北市五股區成泰路三段543巷18號","121.450853333333","25.10224","6501500","五股區"
"248010","272-BY","2018/09/07 18:58:48","新北市五股區水碓一路37號","121.43111","25.07161","6501500","五股區"
"248004","677-BX","2018/09/07 18:58:53","新北市五股區民義路二段23號","121.416358333333","25.0995483333333","6501500","五股區"
"248002","678-BX","2018/09/07 18:58:58","新北市五股區凌雲路一段50號","121.451565","25.1007916666667","6501500","五股區"
"234023","9380-KE","2018/09/07 18:58:48","新北市永和區竹林路75巷33弄47號","121.521333333333","25.01473","6500400","永和區"
"234077","969-R7","2018/09/07 18:58:59","新北市中和區宜安路63號","121.511398333333","24.9970083333333","6500400","永和區"
"234074","AAC-211","2018/09/07 18:58:55","新北市永和區環河東路二段100號","121.524116666667","25.0103316666667","6500400","永和區"
"234067","AAC-212","2018/09/07 18:58:50","新北市中和區永貞路227號","121.513428333333","25.0036716666667","6500400","永和區"
"234003","AAC-295","2018/09/07 18:58:50","新北市永和區和平街34號","121.513178333333","25.0099916666667","6500400","永和區"
"232011","375-UM","2018/09/07 18:58:50","新北市坪林區北宜路八段349號","121.710576666667","24.9336583333333","6502000","坪林區"
"244019","403-UM","2018/09/07 18:58:55","新北市林口區麗園二街3巷5號","121.377878333333","25.07","6501700","林口區"
"244013","KEA-2802","2018/09/07 18:58:53","新北市林口區麗園二街23巷15-9號","121.37934","25.07027","6501700","林口區"
"244023","483-VK","2018/09/07 18:58:47","新北市林口區文化三路二段77巷39號","121.37307","25.08028","6501700","林口區"
"244017","485-VK","2018/09/07 18:58:46","新北市林口區文化二路一段20巷48-1號","121.36521","25.0664683333333","6501700","林口區"
"244009","656-BX","2018/09/07 18:58:57","新北市林口區竹林路456號","121.388026666667","25.08513","6501700","林口區"
"244011","657-BX","2018/09/07 18:58:42","新北市林口區仁愛路一段330號","121.391695","25.0764383333333","6501700","林口區"
"244025","837-TS","2018/09/07 18:59:02","新北市林口區忠孝路45號","121.36484","25.0752383333333","6501700","林口區"
"243013","AAD-798","2018/09/07 18:58:44","新北市泰山區明志路三段206巷3號","121.423308333333","25.0379466666667","6501600","泰山區"
"243009","297-R6","2018/09/07 18:59:01","新北市泰山區泰林路二段365號","121.42792","25.06374","6501600","泰山區"
"243016","KEA-2801","2018/09/07 18:58:57","新北市泰山區明志路二段152號","121.427528333333","25.0508216666667","6501600","泰山區"
"243015","421-VK","2018/09/07 18:58:48","新北市泰山區泰林路二段247號","121.431916666667","25.0621933333333","6501600","泰山區"
"243011","KEA-2215","2018/09/07 18:58:56","新北市泰山區明志路二段228號","121.427168333333","25.04836","6501600","泰山區"
"243010","KEA-2216","2018/09/07 18:58:55","新北市泰山區辭修路24號","121.42911","25.058315","6501600","泰山區"
"243012","646-TV","2018/09/07 18:58:59","新北市泰山區福興三街156號","121.43308","25.0572183333333","6501600","泰山區"
"243014","680-BX","2018/09/07 18:58:58","新北市泰山區黎明路13號","121.420995","25.0632483333333","6501600","泰山區"
"222003","436-BY","2018/09/07 18:58:58","新北市深坑區深南路51-1號","121.621405","25.0101666666667","6501800","深坑區"
"222002","659-BX","2018/09/07 18:58:54","新北市深坑區文山路一段31巷2號","121.629881666667","25.00328","6501800","深坑區"
"231041","002-UM","2018/09/07 18:58:56","新北市新店區環河路64號","121.536935","24.9627083333333","6500600","新店區"
"231059","046-UY","2018/09/07 18:58:59","新北市新店區安華路28-1號","121.519563333333","24.960835","6500600","新店區"
"231040","047-UY","2018/09/07 18:59:00","新北市新店區中央路45號","121.532913333333","24.9776083333333","6500600","新店區"
"231044","106-UY","2018/09/07 18:59:00","新北市新店區寶中路72號","121.547891666667","24.9806233333333","6500600","新店區"
"231046","107-UY","2018/09/07 18:58:59","新北市新店區直潭五街28號","121.534168333333","24.9414116666667","6500600","新店區"
"231053","108-UY","2018/09/07 18:59:01","新北市新店區屈尺路16號","121.548826666667","24.9225716666667","6500600","新店區"
"231064","110-UY","2018/09/07 18:58:44","新北市新店區安一路一段1-1號","121.519368333333","24.9610383333333","6500600","新店區"
"231048","187-VK","2018/09/07 18:58:53","新北市新店區德正街23巷12-1號","121.544733333333","24.9721866666667","6500600","新店區"
"231054","KEA-2219","2018/09/07 18:58:49","新北市新店區新店路21號","121.540236666667","24.9527866666667","6500600","新店區"
"231042","268-BY","2018/09/07 18:58:46","新北市新店區中正路71號","121.543521666667","24.9698233333333","6500600","新店區"
"231051","278-BY","2018/09/07 18:58:49","新北市新店區百忍街17巷2號","121.53433","24.9756316666667","6500600","新店區"
"231050","AAD-862","2018/09/07 18:58:54","新北市新店區北宜路二段56巷3弄1號","121.549226666667","24.9509433333333","6500600","新店區"
"231058","3713-VJ","2018/09/07 18:58:45","新北市新店區光明街102巷1號","121.539188333333","24.9604366666667","6500600","新店區"
"231066","4716-K9","2018/09/07 18:58:46","新北市新店區安豐路22巷18-1號","121.501871666667","24.95441","6500600","新店區"
"231056","4715-K9","2018/09/07 18:58:53","新北市新店區二十張路46巷37弄15號","121.536346666667","24.9817933333333","6500600","新店區"
"231067","4772-VM","2018/09/07 18:58:54","新北市新店區安華路28-1號","121.519365","24.96066","6500600","新店區"
"231065","512-UM","2018/09/07 18:58:53","新北市新店區安康路二段397巷2-1號","121.494446666667","24.9537516666667","6500600","新店區"
"231049","513-UM","2018/09/07 18:58:44","新北市新店區中正路454-5號","121.534446666667","24.979","6500600","新店區"
"231045","617-UM","2018/09/07 18:58:45","新北市新店區光明街67號","121.538788333333","24.9604783333333","6500600","新店區"
"231061","619-UM","2018/09/07 18:58:44","新北市新店區安華路28-1號","121.519748333333","24.960785","6500600","新店區"
"231063","641-BX","2018/09/07 18:58:49","新北市新店區安華路28-1號","121.519526666667","24.96057","6500600","新店區"
"231062","720-UM","2018/09/07 18:58:54","新北市新店區安豐路48號","121.500538333333","24.9542","6500600","新店區"
"231060","897-TW","2018/09/07 18:59:01","新北市新店區安華路30巷3號","121.519011666667","24.9591016666667","6500600","新店區"
"231043","899-TW","2018/09/07 18:58:54","新北市新店區中正路111號","121.542443333333","24.9705933333333","6500600","新店區"
"231055","AKT-0513","2018/09/07 18:58:45","新北市新店區力行路12號","121.539448333333","24.9647116666667","6500600","新店區"
"241026","066-VK","2018/09/07 18:58:54","新北市三重區泉州街104號","121.49489","25.0537883333333","6500200","三重區"
"241029","942-UM","2018/09/07 18:58:53","新北市三重區重安街14號","121.490261666667","25.0582","6500200","三重區"
"235066","003-UY","2018/09/07 18:58:44","新北市中和區中山路二段131巷5弄3號","121.50279","25.0028666666667","6500300","中和區"
"235063","006-UY","2018/09/07 18:58:43","新北市中和區中正路513號","121.488331666667","24.9942283333333","6500300","中和區"
"235056","096-UM","2018/09/07 18:58:51","新北市中和區員山路466巷17弄31號","121.480476666667","25.007415","6500300","中和區"
"235039","097-UM","2018/09/07 18:58:53","新北市中和區安樂路185號","121.514925","24.9980083333333","6500300","中和區"
"235065","098-UM","2018/09/07 18:58:45","新北市中和區福祥路135號","121.498466666667","25.0074916666667","6500300","中和區"
"235040","150-BY","2018/09/07 18:58:45","新北市中和區宜安路1巷28弄2號","121.512376666667","24.994205","6500300","中和區"
"235058","151-BY","2018/09/07 18:58:54","新北市中和區連城路428巷14號","121.479935","24.995455","6500300","中和區"
"235055","183-VK","2018/09/07 18:58:47","新北市中和區民德路4號","121.46877","25.0032133333333","6500300","中和區"
"235038","185-VK","2018/09/07 18:58:58","新北市中和區立人街24-5號","121.518863333333","24.99416","6500300","中和區"
"235049","186-VK","2018/09/07 18:58:57","新北市中和區景新街210巷2號","121.507071666667","24.9943166666667","6500300","中和區"
"235067","255-BX","2018/09/07 18:58:55","新北市中和區民樂路78號","121.48446","25.0011583333333","6500300","中和區"
"235044","293-VK","2018/09/07 18:58:41","新北市中和區復興路280巷33弄9號","121.501443333333","24.991245","6500300","中和區"
"235072","301-VK","2018/09/07 18:59:03","新北市中和區福美路310號","121.496761666667","25.0049483333333","6500300","中和區"
"235043","352-BY","2018/09/07 18:59:00","新北市中和區秀朗路三段93號","121.526533333333","24.9952033333333","6500300","中和區"
"247012","KEA-2869","2018/09/07 18:59:00","新北市五股區中興路三段2巷10號","121.44927","25.0807866666667","6501400","蘆洲區"
"235050","4979-A6","2018/09/07 18:58:51","新北市中和區忠孝街39-1號","121.51151","24.9836716666667","6500300","中和區"
"235069","4980-A6","2018/09/07 18:58:56","新北市中和區景平路459巷2弄5號","121.500236666667","24.9964766666667","6500300","中和區"
"235064","551-UM","2018/09/07 18:58:54","新北市中和區泰和街30巷27號","121.498765","25.001285","6500300","中和區"
"235070","558-UM","2018/09/07 18:58:42","新北市中和區安和路163號","121.506053333333","24.9975316666667","6500300","中和區"
"235045","565-BX","2018/09/07 18:58:50","新北市中和區景新街467巷22號","121.514221666667","24.9883283333333","6500300","中和區"
"235054","640-BX","2018/09/07 18:58:58","新北市中和區民享街5號","121.473918333333","25.0056733333333","6500300","中和區"
"235047","732-UM","2018/09/07 18:58:57","新北市中和區興南路二段54巷9弄2號","121.50592","24.98552","6500300","中和區"
"235046","733-UM","2018/09/07 18:58:42","新北市中和區興南路一段135巷22弄18號","121.508821666667","24.9865666666667","6500300","中和區"
"235071","783-BX","2018/09/07 18:58:56","新北市中和區員山路36巷16-2號","121.485405","24.99114","6500300","中和區"
"235062","800-TS","2018/09/07 18:58:44","新北市中和區中山路二段356號","121.492791666667","25.0029183333333","6500300","中和區"
"235057","801-TS","2018/09/07 18:58:49","新北市中和區民利街71號","121.47861","24.9983483333333","6500300","中和區"
"235041","802-TS","2018/09/07 18:58:48","新北市中和區宜安路121號","121.510008333333","24.9980583333333","6500300","中和區"
"235052","805-TS","2018/09/07 18:58:51","新北市中和區興南路二段134號","121.504193333333","24.9833683333333","6500300","中和區"
"235048","896-TW","2018/09/07 18:58:46","新北市中和區華新街109巷4號","121.508965","24.9822583333333","6500300","中和區"
"235053","900-TW","2018/09/07 18:58:45","新北市中和區壽德街26號","121.4665","24.9942833333333","6500300","中和區"
"235060","911-UM","2018/09/07 18:58:44","新北市中和區民治街3巷2號","121.474995","25.005185","6500300","中和區"
"235051","157-BY","2018/09/07 18:58:59","新北市中和區忠孝街11巷10號","121.510073333333","24.98323","6500300","中和區"
"235037","AAC-213","2018/09/07 18:58:54","新北市中和區自立路99巷36弄2號","121.523856666667","24.9943233333333","6500300","中和區"
"235059","AAC-215","2018/09/07 18:58:47","新北市中和區圓通路367巷18-2號","121.491728333333","24.9887266666667","6500300","中和區"
"220065","072-UY","2018/09/07 18:58:40","新北市板橋區漢生東路324號","121.4717","25.0079683333333","6500100","板橋區"
"220086","073-UY","2018/09/07 18:58:43","新北市板橋區中正路273號","121.455635","25.0188683333333","6500100","板橋區"
"220106","075-UY","2018/09/07 18:58:50","新北市板橋區文化路二段124巷3號","121.470368333333","25.02612","6500100","板橋區"
"220069","AAD-861","2018/09/07 18:58:54","新北市板橋區大華街108-2號","121.458973333333","25.00532","6500100","板橋區"
"226004","205-ST","2018/09/07 18:58:48","新北市平溪區靜安路二段393號","121.738676666667","25.0246133333333","6502400","平溪區"
"228002","663-BX","2018/09/07 18:58:55","新北市貢寮區福隆里東興街104號","121.945956666667","25.0173333333333","6502600","貢寮區"
"228001","670-TC","2018/09/07 18:58:45","新北市貢寮區仁理村研海街12-1號","121.923758333333","25.0517133333333","6502600","貢寮區"
"228003","828-UM","2018/09/07 18:58:56","新北市貢寮區和美里龍洞街47號","121.911811666667","25.1132433333333","6502600","貢寮區"
"224010","AGQ-8101","2018/09/07 18:57:50","新北市瑞芳區輕便路216號","121.845131666667","25.1094566666667","6501200","瑞芳區"
"224006","676-BX","2018/09/07 18:58:51","新北市瑞芳區明燈路二段66號","121.80938","25.1072416666667","6501200","瑞芳區"
"224002","639-TC","2018/09/07 18:58:50","新北市平溪區新寮里五分寮10-2號","121.799936666667","25.0739916666667","6501200","瑞芳區"
"224007","275-VK","2018/09/07 18:58:56","新北市瑞芳區大埔路270號","121.759583333333","25.1014066666667","6501200","瑞芳區"
"224009","273-VK","2018/09/07 18:59:01","新北市瑞芳區洞頂路101巷56號","121.860486666667","25.12194","6501200","瑞芳區"
"224008","272-VK","2018/09/07 18:59:00","新北市瑞芳區逢甲路282巷5弄2號","121.803618333333","25.1115033333333","6501200","瑞芳區"
"224005","271-BY","2018/09/07 18:58:59","新北市瑞芳區連福新城30號","121.820475","25.1190466666667","6501200","瑞芳區"
"227011","642-TC","2018/09/07 18:58:56","新北市雙溪區牡丹里中正路58巷22號","121.866385","25.0416516666667","6502500","雙溪區"
"227003","400-TW","2018/09/07 18:58:52","新北市雙溪區平林里康福家園17號","121.858886666667","25.037395","6502500","雙溪區"
"253006","032-BX","2018/09/07 18:58:44","新北市石門區下員坑42-2號","121.517465","25.277395","6502200","石門區"
"253005","295-VK","2018/09/07 18:58:49","新北市石門區中央路37-1號","121.568478333333","25.2943383333333","6502200","石門區"
"222001","KEA-2212","2018/09/07 18:58:57","新北市深坑區翠谷街1號","121.626603333333","25.007275","6501800","深坑區"
"208002","KEA-2872","2018/09/07 18:58:43","新北市金山區信義路72號","121.63517","25.219655","6502700","金山區"
"208003","665-BX","2018/09/07 18:58:52","新北市金山區中正路89號","121.633293333333","25.2216416666667","6502700","金山區"
"208001","761-BX","2018/09/07 18:59:00","新北市金山區中山路105-1號","121.639605","25.219405","6502700","金山區"
"251002","012-UM","2018/09/07 18:58:45","新北市淡水區中正東路71號","121.447436666667","25.16774","6501000","淡水區"
"251010","413-VK","2018/09/07 18:58:50","新北市淡水區淡海路111號","121.421695","25.1827066666667","6501000","淡水區"
"251001","559-UM","2018/09/07 18:58:57","新北市淡水區自強路249號","121.463","25.1274666666667","6501000","淡水區"
"251007","577-R6","2018/09/07 18:58:46","新北市淡水區民生路115-1號","121.464463333333","25.1385066666667","6501000","淡水區"
"251011","650-BX","2018/09/07 18:58:55","新北市淡水區中正東路二段153號","121.459608333333","25.1467566666667","6501000","淡水區"
"251003","673-BX","2018/09/07 18:58:49","新北市淡水區大義街11號","121.443281666667","25.178205","6501000","淡水區"
"207003","550-UM","2018/09/07 18:58:48","新北市萬里區大鵬里頂社29號","121.656575","25.2107816666667","6502800","萬里區"
"207004","225-TW","2018/09/07 18:58:54","新北市萬里區萬里里獅頭路23號","121.693338333333","25.1782466666667","6502800","萬里區"
"252002","178-VK","2018/09/07 18:58:51","新北市三芝區中正路一段76號","121.50398","25.25747","6502100","三芝區"
"252003","249-BX","2018/09/07 18:58:52","新北市三芝區後厝里北勢子42-1號","121.47181","25.252225","6502100","三芝區"
"252001","292-VK","2018/09/07 18:58:51","新北市三芝區中興街二段260號","121.50171","25.253085","6502100","三芝區"
"237004","KEA-2597","2018/09/07 18:58:57","新北市三峽區有木206號","121.439125","24.85148","6500900","三峽區"
"237007","153-BY","2018/09/07 18:58:47","新北市三峽區中正路二段81號","121.366888333333","24.91798","6500900","三峽區"
"237013","252-BX","2018/09/07 18:58:42","新北市三峽區光明路69巷25號","121.376701666667","24.9291533333333","6500900","三峽區"
"237012","275-BY","2018/09/07 18:58:43","新北市三峽區三樹路222巷236弄2號","121.390831666667","24.9426916666667","6500900","三峽區"
"237008","302-VK","2018/09/07 18:58:42","新北市三峽區中正路一段474號","121.370508333333","24.9213316666667","6500900","三峽區"
"237014","433-BY","2018/09/07 18:58:48","新北市三峽區隆恩街232號","121.357811666667","24.941275","6500900","三峽區"
"237006","5529-G3","2018/09/07 18:59:02","新北市三峽區溪東路233巷47弄2號","121.410618333333","24.93474","6500900","三峽區"
"237011","KEA-2596","2018/09/07 18:58:46","新北市三峽區介壽路三段112號","121.397513333333","24.941595","6500900","三峽區"
"237015","649-BX","2018/09/07 18:58:49","新北市三峽區建安122號","121.465435","24.9187733333333","6500900","三峽區"
"237010","706-TV","2018/09/07 18:58:44","新北市三峽區國光街25號","121.375423333333","24.93696","6500900","三峽區"
"237005","AKY-6261","2018/09/07 18:58:55","新北市三峽區中山路459巷163-3號","121.348655","24.932985","6500900","三峽區"
"236069","105-UM","2018/09/07 18:58:51","新北市土城區裕民路269號","121.4556","24.98198","6501300","土城區"
"236042","107-UM","2018/09/07 18:58:59","新北市土城區學府路一段189巷11弄2號","121.452566666667","24.9844166666667","6501300","土城區"
"236079","166-UM","2018/09/07 18:58:59","新北市土城區中央路四段125巷2弄17-1號","121.416376666667","24.95678","6501300","土城區"
"236030","253-BX","2018/09/07 18:58:45","新北市土城區興城路79號","121.439908333333","24.9706966666667","6501300","土城區"
"236026","269-VK","2018/09/07 18:58:45","新北市土城區中正路45號","121.444025","24.9755916666667","6501300","土城區"
"236014","270-VK","2018/09/07 18:59:00","新北市土城區永豐路92號","121.463101666667","24.9875016666667","6501300","土城區"
"236039","271-VK","2018/09/07 18:59:00","新北市土城區仁愛路9巷1號","121.460155","24.9809683333333","6501300","土城區"
"236020","401-BY","2018/09/07 18:58:53","新北市土城區延吉街168巷9號","121.468058333333","24.98582","6501300","土城區"
"236059","752-BX","2018/09/07 18:58:50","新北市土城區金城路二段200號","121.454611666667","24.981585","6501300","土城區"
"236048","913-UM","2018/09/07 18:58:47","新北市土城區青雲路318號","121.45897","24.9772333333333","6501300","土城區"
"236063","915-UM","2018/09/07 18:58:44","新北市土城區延和路41巷6弄15號","121.466553333333","24.9903583333333","6501300","土城區"
"236055","AAC-216","2018/09/07 18:58:43","新北市土城區學成路164號","121.448036666667","24.9891233333333","6501300","土城區"
"242005","349-TH","2018/09/07 18:58:47","新北市新莊區三和路12-20號","121.441941666667","25.03784","6500500","新莊區"
"238023","601-UM","2018/09/07 18:56:01","新北市樹林區大慶街156號","121.397028333333","25.0131066666667","6500700","樹林區"
"238019","599-UM","2018/09/07 18:58:58","新北市樹林區東榮街145號","121.414528333333","24.9815666666667","6500700","樹林區"
"238022","KEA-2213","2018/09/07 18:58:57","新北市樹林區東興街14-2號","121.409981666667","24.978375","6500700","樹林區"
"238021","KEA-2539","2018/09/07 18:59:00","新北市樹林區柑園街二段276巷30號","121.372125","24.9534433333333","6500700","樹林區"
"238025","303-VK","2018/09/07 18:58:52","新北市樹林區中山路三段24號","121.39554","24.97306","6500700","樹林區"
"238017","283-BY","2018/09/07 18:58:47","新北市樹林區光興街83-8號","121.40977","25.0026083333333","6500700","樹林區"
"238014","282-BY","2018/09/07 18:58:54","新北市樹林區潭興街143巷14-7號","121.425366666667","25.0001616666667","6500700","樹林區"
"238020","268-VK","2018/09/07 18:58:50","新北市樹林區俊英街79號","121.426146666667","25.0074933333333","6500700","樹林區"
"238026","172-UY","2018/09/07 18:58:59","新北市樹林區吉祥街7號","121.392875","24.9730583333333","6500700","樹林區"
"238016","169-UY","2018/09/07 18:58:43","新北市樹林區文化街25巷28號","121.417891666667","24.9866483333333","6500700","樹林區"
"239007","AAC-297","2018/09/07 18:58:53","新北市鶯歌區中山路134號","121.350043333333","24.95701","6500800","鶯歌區"
"239006","891-R6","2018/09/07 18:58:54","新北市鶯歌區鶯桃路96-2號","121.339645","24.9537883333333","6500800","鶯歌區"
"239008","527-UM","2018/09/07 18:58:55","新北市鶯歌區國際二路18巷2號","121.337261666667","24.9749066666667","6500800","鶯歌區"
"239005","526-UM","2018/09/07 18:59:00","新北市鶯歌區中湖街60號","121.347828333333","24.9728383333333","6500800","鶯歌區"
"239001","417-VK","2018/09/07 18:58:46","新北市鶯歌區永明街23號","121.338566666667","24.9556316666667","6500800","鶯歌區"
"239003","360-BY","2018/09/07 18:58:48","新北市鶯歌區鶯桃路387號","121.333421666667","24.9637216666667","6500800","鶯歌區"
"239002","359-BY","2018/09/07 18:58:48","新北市鶯歌區國際二路6巷1號","121.338391666667","24.9736416666667","6500800","鶯歌區"
"239004","193-VK","2018/09/07 18:58:49","新北市鶯歌區中正三路342-1號","121.327593333333","24.934925","6500800","鶯歌區"
"221008","489-VK","2018/09/07 18:58:51","新北市汐止區康寧街815巷1號","121.641103333333","25.075075","6501100","汐止區"
"221036","130-UY","2018/09/07 18:58:51","新北市汐止區汐萬路一段256巷3號","121.652378333333","25.0746216666667","6501100","汐止區"
"221010","269-BY","2018/09/07 18:58:44","新北市汐止區康寧街901號","121.6514","25.0750933333333","6501100","汐止區"
"221012","278-VK","2018/09/07 18:58:52","新北市汐止區康寧街901號","121.65073","25.0751683333333","6501100","汐止區"
"221023","279-VK","2018/09/07 18:58:59","新北市汐止區康寧街901號","121.650926666667","25.0751016666667","6501100","汐止區"
"221032","280-BY","2018/09/07 18:58:56","新北市汐止區橫科路407巷25弄17-4號","121.626448333333","25.0487366666667","6501100","汐止區"
"221027","281-BY","2018/09/07 18:58:41","新北市汐止區康寧街901號","121.650788333333","25.0752766666667","6501100","汐止區"
"221029","298-VK","2018/09/07 18:58:57","新北市汐止區樟樹一路228號","121.642346666667","25.0666333333333","6501100","汐止區"
"221031","353-TW","2018/09/07 18:58:59","新北市汐止區中興路181巷29弄8號","121.629845","25.065815","6501100","汐止區"
"221035","622-UM","2018/09/07 18:58:59","新北市汐止區汐萬路一段244-1號","121.651498333333","25.0731516666667","6501100","汐止區"
"221025","623-UM","2018/09/07 18:58:55","新北市汐止區汐萬路一段284號","121.65078","25.0741716666667","6501100","汐止區"
"221038","646-BX","2018/09/07 18:58:48","新北市汐止區康寧街901號","121.650768333333","25.0752616666667","6501100","汐止區"
"221002","707-TV","2018/09/07 18:58:50","新北市汐止區大同路一段2號","121.620833333333","25.0550516666667","6501100","汐止區"
"221018","753-BX","2018/09/07 18:58:56","新北市汐止區汐萬路一段256巷3號","121.65242","25.0745016666667","6501100","汐止區"
"220079","145-BY","2018/09/07 18:58:50","新北市板橋區民權路202巷9弄29號","121.459426666667","25.01563","6500100","板橋區"
"220080","200-UY","2018/09/07 18:58:50","新北市板橋區大觀路二段265巷62號","121.442716666667","24.9977783333333","6500100","板橋區"
"220082","610-BX","2018/09/07 18:58:56","新北市板橋區溪北路52號","121.427406666667","24.9897666666667","6500100","板橋區"
"220101","245-BX","2018/09/07 18:59:02","新北市板橋區文化路二段182巷5弄1號","121.471608333333","25.0269566666667","6500100","板橋區"
"220056","276-BY","2018/09/07 18:59:00","新北市板橋區信義路161號","121.458555","24.9923916666667","6500100","板橋區"
"220072","277-BY","2018/09/07 18:58:47","新北市板橋區篤行路二段79號","121.43171","24.9918766666667","6500100","板橋區"
"220071","283-VK","2018/09/07 18:58:56","新北市板橋區忠孝路169號","121.463995","25.0025183333333","6500100","板橋區"
"220094","285-UM","2018/09/07 18:58:57","新北市板橋區文化路二段76號","121.469506666667","25.024975","6500100","板橋區"
"220053","285-VK","2018/09/07 18:58:45","新北市板橋區太和街5巷20號","121.473141666667","25.019645","6500100","板橋區"
"220083","286-VK","2018/09/07 18:58:56","新北市板橋區大觀路一段38巷156弄9號","121.442436666667","25.0050933333333","6500100","板橋區"
"220081","287-VK","2018/09/07 18:58:53","新北市板橋區光華街19巷6號","121.453718333333","25.012135","6500100","板橋區"
"220090","288-VK","2018/09/07 18:58:44","新北市板橋區四維路112巷19-4號","121.465491666667","25.025475","6500100","板橋區"
"220061","295-UM","2018/09/07 18:58:58","新北市板橋區富山街99號","121.476343333333","25.021865","6500100","板橋區"
"220084","296-UM","2018/09/07 18:58:53","新北市板橋區龍興街8號","121.44277","24.9995916666667","6500100","板橋區"
"220062","299-UM","2018/09/07 18:58:47","新北市板橋區三民路二段正隆巷44號","121.476905","25.0138833333333","6500100","板橋區"
"220075","303-R5","2018/09/07 18:59:00","新北市板橋區茶館街15號","121.456626666667","25.0105633333333","6500100","板橋區"
"220098","317-R6","2018/09/07 18:58:54","新北市板橋區民有街13號","121.466316666667","25.0247266666667","6500100","板橋區"
"220064","486-VK","2018/09/07 18:58:56","新北市板橋區縣民大道二段106號","121.466846666667","25.0153216666667","6500100","板橋區"
"220088","491-VK","2018/09/07 18:58:56","新北市板橋區民生路二段148號","121.471553333333","25.01975","6500100","板橋區"
"220035","560-BX","2018/09/07 18:58:59","新北市板橋區中正路335號","121.454865","25.0201216666667","6500100","板橋區"
"220103","561-BX","2018/09/07 18:58:43","新北市板橋區民生路二段123號","121.470646666667","25.0185533333333","6500100","板橋區"
"220063","609-BX","2018/09/07 18:58:58","新北市板橋區中山路二段159號","121.47578","25.0167016666667","6500100","板橋區"
"220091","637-BX","2018/09/07 18:58:44","新北市板橋區莒光路167-4號","121.474235","25.0236166666667","6500100","板橋區"
"220057","686-BX","2018/09/07 18:58:54","新北市板橋區重慶路37號","121.461778333333","25.0075316666667","6500100","板橋區"
"220077","687-BX","2018/09/07 18:58:57","新北市板橋區龍興街2號","121.442683333333","24.9993533333333","6500100","板橋區"
"220093","689-BX","2018/09/07 18:58:44","新北市板橋區民生路三段64號","121.467158333333","25.025555","6500100","板橋區"
"220054","741-BX","2018/09/07 18:58:51","新北市板橋區後埔街46號","121.460486666667","25.00609","6500100","板橋區"
"220102","KEA-2699","2018/09/07 18:58:57","新北市板橋區萬板路570號","121.48121","25.026745","6500100","板橋區"
"220055","827-TW","2018/09/07 18:58:49","新北市板橋區中山路一段160-3號","121.466551666667","25.0120833333333","6500100","板橋區"
"220068","829-TW","2018/09/07 18:59:01","新北市板橋區中山路二段465巷33號","121.481275","25.021245","6500100","板橋區"
"220067","830-TW","2018/09/07 18:59:03","新北市板橋區三民路二段154巷8號","121.47865","25.015125","6500100","板橋區"
"220096","831-TW","2018/09/07 18:58:55","新北市板橋區莒光路80號","121.471571666667","25.0239833333333","6500100","板橋區"
"220089","833-TW","2018/09/07 18:59:00","新北市板橋區文化路二段382號","121.473211666667","25.0309266666667","6500100","板橋區"
"220074","895-R6","2018/09/07 18:58:48","新北市板橋區林園街7-1號","121.453986666667","25.0091616666667","6500100","板橋區"
"220073","985-R7","2018/09/07 18:58:58","新北市板橋區民權路200號","121.459098333333","25.0137983333333","6500100","板橋區"
"220097","AAC-210","2018/09/07 18:58:49","新北市板橋區板新路232號","121.468238333333","25.016385","6500100","板橋區"
"220070","AAC-253","2018/09/07 18:58:38","新北市板橋區四川路一段249號","121.459816666667","25.0026016666667","6500100","板橋區"
"235068","KEA-2873","2018/09/07 18:58:58","新北市中和區圓通路265巷30號","121.49579","24.9925633333333","6500300","中和區"
"235061","KEA-2875","2018/09/07 18:58:46","新北市中和區民治街130巷9號","121.474821666667","25.0025516666667","6500300","中和區"
