"lineid","car","time","location","longitude","latitude","cityid","cityname"
"234046","148-BY","2018/09/07 19:39:42","新北市永和區永利路151號","121.524598333333","25.0035666666667","6500400","永和區"
"234007","207-UY","2018/09/07 19:40:00","新北市永和區中和路573號","121.511763333333","25.003515","6500400","永和區"
"234081","298-R6","2018/09/07 19:39:53","新北市永和區國中路104巷8弄15號","121.525263333333","25.006545","6500400","永和區"
"234038","336-UY","2018/09/07 19:39:54","新北市永和區民樂街31巷10弄1號","121.528155","25.00079","6500400","永和區"
"234064","337-UY","2018/09/07 19:39:46","新北市永和區秀朗路一段192巷6弄14號","121.519136666667","25.0022683333333","6500400","永和區"
"234086","338-UY","2018/09/07 19:39:46","新北市永和區永利路72號","121.520211666667","25.0042816666667","6500400","永和區"
"234070","552-UM","2018/09/07 19:39:54","新北市永和區永和路二段234號","121.51572","25.0144633333333","6500400","永和區"
"234017","745-BX","2018/09/07 19:39:45","新北市永和區永和路二段425巷57弄1號","121.513678333333","25.0171833333333","6500400","永和區"
"234030","746-BX","2018/09/07 19:39:53","新北市永和區四維街103巷7號","121.52393","24.99784","6500400","永和區"
"234054","KEA-2590","2018/09/07 19:39:51","新北市永和區竹林路39巷10號","121.518281666667","25.0144516666667","6500400","永和區"
"234013","KEA-2591","2018/09/07 19:40:03","新北市永和區仁愛路255號","121.50847","25.01163","6500400","永和區"
"234061","AAD-866","2018/09/07 19:39:49","新北市永和區中正路446號","121.517475","25.0028666666667","6500400","永和區"
"234042","862-TW","2018/09/07 19:39:46","新北市中和區中和路328號","121.509781666667","25.001175","6500400","永和區"
"234050","863-TW","2018/09/07 19:40:00","新北市永和區保安路122號","121.509113333333","25.0155166666667","6500400","永和區"
"234026","9371-KE","2018/09/07 19:39:58","新北市永和區中和路501巷5號","121.510481666667","25.0026416666667","6500400","永和區"
"234011","9373-KE","2018/09/07 19:39:55","新北市永和區保生路55號","121.504761666667","25.0106633333333","6500400","永和區"
"249004","303-UY","2018/09/07 19:39:56","新北市八里區仁愛路37號","121.413381666667","25.1606866666667","6502300","八里區"
"249003","593-UM","2018/09/07 19:40:02","新北市八里區華峰三街62號","121.398865","25.1457783333333","6502300","八里區"
"248014","025-BX","2018/09/07 19:39:57","新北市五股區五福路66號","121.433331666667","25.0900783333333","6501500","五股區"
"248008","095-VK","2018/09/07 19:40:02","新北市五股區四維路118巷13號","121.46932","25.0741766666667","6501500","五股區"
"248018","225-UY","2018/09/07 19:39:49","新北市五股區外寮路1-5號","121.425968333333","25.0768333333333","6501500","五股區"
"248012","247-BX","2018/09/07 19:39:56","新北市五股區成泰路一段241巷10號","121.436146666667","25.080995","6501500","五股區"
"248016","261-SL","2018/09/07 19:39:56","新北市五股區成泰路四段51-2號","121.456411666667","25.10996","6501500","五股區"
"248010","272-BY","2018/09/07 19:39:48","新北市五股區自強路111號","121.432295","25.0705816666667","6501500","五股區"
"248004","677-BX","2018/09/07 19:39:53","新北市五股區成泰路一段220號","121.436396666667","25.0796633333333","6501500","五股區"
"248002","678-BX","2018/09/07 19:39:58","新北市五股區成泰路三段577巷77號","121.449718333333","25.10372","6501500","五股區"
"234077","969-R7","2018/09/07 19:39:59","新北市永和區民治街29號","121.519661666667","24.9976833333333","6500400","永和區"
"234074","AAC-211","2018/09/07 19:39:55","新北市永和區竹林路223號","121.52096","25.0085366666667","6500400","永和區"
"234067","AAC-212","2018/09/07 19:39:50","新北市永和區永貞路412號","121.508961666667","25.0078683333333","6500400","永和區"
"234003","AAC-295","2018/09/07 19:39:50","新北市永和區自由街76號","121.51336","25.0053516666667","6500400","永和區"
"244023","483-VK","2018/09/07 19:39:47","新北市林口區文化北路二段232號","121.372778333333","25.0853533333333","6501700","林口區"
"243013","AAD-798","2018/09/07 19:35:13","新北市泰山區應化街7號","121.423885","25.0437116666667","6501600","泰山區"
"243009","297-R6","2018/09/07 19:39:53","新北市泰山區美寧街58號","121.43082","25.06475","6501600","泰山區"
"243016","KEA-2801","2018/09/07 19:39:57","新北市泰山區明志路三段452號","121.420991666667","25.0325233333333","6501600","泰山區"
"243015","421-VK","2018/09/07 19:39:47","新北市泰山區明志路二段246-1號","121.427001666667","25.0481683333333","6501600","泰山區"
"243011","KEA-2215","2018/09/07 19:39:56","新北市泰山區貴子路67巷2號","121.430863333333","25.040445","6501600","泰山區"
"243010","KEA-2216","2018/09/07 19:39:55","新北市泰山區民生路33號","121.43088","25.052125","6501600","泰山區"
"243012","646-TV","2018/09/07 19:39:47","新北市泰山區仁愛路100巷58號","121.433758333333","25.0543533333333","6501600","泰山區"
"243014","680-BX","2018/09/07 19:39:58","新北市泰山區泰林路二段33-8號","121.43521","25.05652","6501600","泰山區"
"222003","436-BY","2018/09/07 19:39:58","新北市深坑區深南路51-1號","121.621245","25.009775","6501800","深坑區"
"222002","659-BX","2018/09/07 19:39:53","新北市深坑區北深路一段177號","121.632518333333","25.0109016666667","6501800","深坑區"
"231041","002-UM","2018/09/07 19:39:56","新北市新店區中正路485號","121.5338","24.9820516666667","6500600","新店區"
"231059","046-UY","2018/09/07 19:39:59","新北市新店區安和路三段83號","121.517845","24.9837966666667","6500600","新店區"
"231040","047-UY","2018/09/07 19:40:00","新北市新店區大新街7巷1號","121.543211666667","24.9686633333333","6500600","新店區"
"231044","106-UY","2018/09/07 19:40:00","新北市新店區順安街1號","121.540925","24.985035","6500600","新店區"
"231046","107-UY","2018/09/07 19:39:51","新北市新店區中正路329巷7弄1號","121.535198333333","24.9742566666667","6500600","新店區"
"231053","108-UY","2018/09/07 19:40:01","新北市新店區新烏路二段315號","121.549638333333","24.9112333333333","6500600","新店區"
"231064","110-UY","2018/09/07 19:39:44","新北市新店區安和路一段52巷2-1號","121.517698333333","24.9664483333333","6500600","新店區"
"231048","187-VK","2018/09/07 19:39:53","新北市新店區五峰路63巷22號","121.546485","24.96901","6500600","新店區"
"231054","KEA-2219","2018/09/07 19:39:49","新北市新店區文中路45號","121.539611666667","24.9566516666667","6500600","新店區"
"231057","256-BX","2018/09/07 19:40:02","新北市新店區橘園一路11號","121.548026666667","24.93403","6500600","新店區"
"231042","268-BY","2018/09/07 19:39:45","新北市新店區中興路一段193號","121.543231666667","24.9651633333333","6500600","新店區"
"231051","278-BY","2018/09/07 19:39:49","新北市新店區中央四街36號","121.528333333333","24.9744466666667","6500600","新店區"
"231050","AAD-862","2018/09/07 19:39:54","新北市新店區北宜路二段92號","121.555178333333","24.95356","6500600","新店區"
"231058","3713-VJ","2018/09/07 19:39:45","新北市新店區中央二街81號","121.525771666667","24.9749866666667","6500600","新店區"
"231066","4716-K9","2018/09/07 19:39:46","新北市新店區安康路三段207巷16號","121.487925","24.9509883333333","6500600","新店區"
"231056","4715-K9","2018/09/07 19:39:53","新北市新店區安民街121巷12號","121.515438333333","24.9692866666667","6500600","新店區"
"231065","512-UM","2018/09/07 19:39:53","新北市新店區安祥路109巷6弄7號","121.475415","24.9585466666667","6500600","新店區"
"231049","513-UM","2018/09/07 19:40:04","新北市新店區建國路128巷3-1號","121.539023333333","24.979355","6500600","新店區"
"231045","617-UM","2018/09/07 19:39:45","新北市新店區北宜路二段423-1號","121.560401666667","24.95446","6500600","新店區"
"231061","619-UM","2018/09/07 19:40:04","新北市新店區安民街42號","121.515926666667","24.965385","6500600","新店區"
"231063","641-BX","2018/09/07 19:39:49","新北市新店區達觀路12號","121.504928333333","24.9404683333333","6500600","新店區"
"231062","720-UM","2018/09/07 19:39:34","新北市新店區精忠路10-1號","121.532663333333","24.9591183333333","6500600","新店區"
"231060","897-TW","2018/09/07 19:40:01","新北市新店區安康路二段161號","121.510095","24.95943","6500600","新店區"
"231043","899-TW","2018/09/07 19:39:54","新北市新店區北新路二段6號","121.542823333333","24.9710316666667","6500600","新店區"
"231055","AKT-0513","2018/09/07 19:40:02","新北市新店區北新路一段235號","121.540506666667","24.9657216666667","6500600","新店區"
"241011","013-R5","2018/09/07 19:39:45","新北市三重區秀江街202號","121.49745","25.07159","6500200","三重區"
"241028","022-UY","2018/09/07 19:39:56","新北市三重區中正南路190號","121.493875","25.0560716666667","6500200","三重區"
"241008","059-VK","2018/09/07 19:39:45","新北市三重區永福街127號","121.479036666667","25.07701","6500200","三重區"
"241022","060-VK","2018/09/07 19:39:52","新北市三重區中正北路162號","121.484478333333","25.0660966666667","6500200","三重區"
"241031","061-VK","2018/09/07 19:40:02","新北市三重區重新路四段248號","121.486116666667","25.0533716666667","6500200","三重區"
"241015","062-VK","2018/09/07 19:39:49","新北市三重區福德北路34號","121.502071666667","25.0652766666667","6500200","三重區"
"241017","063-VK","2018/09/07 19:39:51","新北市三重區重陽路三段5巷30號","121.491388333333","25.0653933333333","6500200","三重區"
"241026","066-VK","2018/09/07 19:39:54","新北市三重區文化南路75巷1號","121.500303333333","25.0606916666667","6500200","三重區"
"241003","091-VK","2018/09/07 19:39:58","新北市三重區五華街93巷79號","121.493718333333","25.0847083333333","6500200","三重區"
"241009","267-UM","2018/09/07 19:40:00","新北市三重區三和路四段410號","121.481045","25.079795","6500200","三重區"
"241013","270-UM","2018/09/07 19:39:47","新北市三重區仁愛街129巷5號","121.495875","25.0751716666667","6500200","三重區"
"241025","271-UM","2018/09/07 19:39:51","新北市三重區頂崁街157號","121.478321666667","25.0649566666667","6500200","三重區"
"241007","398-BY","2018/09/07 19:39:46","新北市三重區仁美街62號","121.486488333333","25.078295","6500200","三重區"
"241035","KEA-2210","2018/09/07 19:39:48","新北市三重區信義西街17號","121.497751666667","25.0646283333333","6500200","三重區"
"241004","475-VK","2018/09/07 19:39:54","新北市三重區五華街74號","121.493401666667","25.0820316666667","6500200","三重區"
"241020","478-VK","2018/09/07 19:39:50","新北市三重區三和路四段20巷122號","121.4882","25.0731233333333","6500200","三重區"
"241030","480-VK","2018/09/07 19:39:45","新北市三重區新興路1號","121.493021666667","25.05294","6500200","三重區"
"241014","543-UM","2018/09/07 19:39:52","新北市三重區長壽街196號","121.504225","25.069045","6500200","三重區"
"241023","545-UM","2018/09/07 19:40:03","新北市三重區忠孝路三段99巷4號","121.480056666667","25.0640733333333","6500200","三重區"
"241001","547-UM","2018/09/07 19:40:00","新北市三重區仁愛街315巷10號","121.493063333333","25.0795816666667","6500200","三重區"
"241019","KEA-2593","2018/09/07 19:39:43","新北市三重區安慶街297巷3弄2號","121.488605","25.0682","6500200","三重區"
"241006","AAD-863","2018/09/07 19:40:01","新北市三重區永福街287-1號","121.483126666667","25.0744","6500200","三重區"
"241029","942-UM","2018/09/07 19:39:53","新北市三重區光明路122號","121.492961666667","25.0559266666667","6500200","三重區"
"235066","003-UY","2018/09/07 19:39:24","新北市中和區中和路196巷11號","121.505216666667","24.9991316666667","6500300","中和區"
"235063","006-UY","2018/09/07 19:40:03","新北市中和區連城路176號","121.493151666667","24.997035","6500300","中和區"
"235056","096-UM","2018/09/07 19:39:51","新北市中和區民富街94號","121.476958333333","25.0086366666667","6500300","中和區"
"235039","097-UM","2018/09/07 19:39:52","新北市中和區景平路148號","121.518351666667","24.992035","6500300","中和區"
"235065","098-UM","2018/09/07 19:39:45","新北市中和區永和路8巷13號","121.500493333333","25.0034083333333","6500300","中和區"
"235040","150-BY","2018/09/07 19:39:44","新北市中和區宜安路116號","121.510283333333","24.9979133333333","6500300","中和區"
"235058","151-BY","2018/09/07 19:39:54","新北市中和區員山路124巷46號","121.482536666667","24.9962283333333","6500300","中和區"
"235055","183-VK","2018/09/07 19:39:46","新北市中和區中山路三段179巷3號","121.472871666667","25.00601","6500300","中和區"
"235038","185-VK","2018/09/07 19:39:58","新北市中和區自強路27巷22號","121.521675","24.9932783333333","6500300","中和區"
"235049","186-VK","2018/09/07 19:39:57","新北市中和區景新街216號","121.507131666667","24.99516","6500300","中和區"
"235067","255-BX","2018/09/07 19:39:55","新北市中和區新生街186巷12號","121.483045","24.999685","6500300","中和區"
"235044","293-VK","2018/09/07 19:39:59","新北市中和區南山路310號","121.50792","24.9869516666667","6500300","中和區"
"235072","301-VK","2018/09/07 19:39:43","新北市中和區中正路432巷9號","121.490713333333","24.9957016666667","6500300","中和區"
"235043","352-BY","2018/09/07 19:40:02","新北市中和區興南路一段29號","121.511118333333","24.990655","6500300","中和區"
"235042","KEA-2878","2018/09/07 19:40:00","新北市中和區景安路79巷37弄22號","121.50778","24.9962983333333","6500300","中和區"
"247012","KEA-2869","2018/09/07 19:39:59","新北市五股區中興路三段163號","121.449091666667","25.0805716666667","6501400","蘆洲區"
"235050","4979-A6","2018/09/07 19:39:51","新北市中和區錦和路350-1號","121.49036","24.9935583333333","6500300","中和區"
"235064","551-UM","2018/09/07 19:39:54","新北市中和區南山路60-2號","121.502081666667","24.9968116666667","6500300","中和區"
"235070","558-UM","2018/09/07 19:39:48","新北市中和區連勝街41號","121.498233333333","24.9975633333333","6500300","中和區"
"235045","565-BX","2018/09/07 19:39:49","新北市中和區景新街438號","121.513171666667","24.9883083333333","6500300","中和區"
"235054","640-BX","2018/09/07 19:39:58","新北市中和區民德路187號","121.468466666667","24.9992066666667","6500300","中和區"
"235047","732-UM","2018/09/07 19:39:57","新北市中和區景平路381號","121.503876666667","24.993305","6500300","中和區"
"235046","733-UM","2018/09/07 19:40:02","新北市中和區景新街487號","121.513586666667","24.9873883333333","6500300","中和區"
"235071","783-BX","2018/09/07 19:39:56","新北市中和區中正路839巷33號","121.483563333333","25.0021616666667","6500300","中和區"
"235057","801-TS","2018/09/07 19:39:53","新北市中和區員山路246號","121.481488333333","25.001415","6500300","中和區"
"235041","802-TS","2018/09/07 19:39:48","新北市中和區中和路462號","121.512268333333","25.0038616666667","6500300","中和區"
"235052","805-TS","2018/09/07 19:39:51","新北市中和區華新街192巷11號","121.506608333333","24.982595","6500300","中和區"
"235048","896-TW","2018/09/07 19:39:46","新北市中和區忠孝街1巷2-1號","121.50917","24.9830283333333","6500300","中和區"
"235053","900-TW","2018/09/07 19:39:45","新北市中和區國光街215巷8弄1號","121.466635","25.0011983333333","6500300","中和區"
"235060","911-UM","2018/09/07 19:39:52","新北市中和區中山路二段523巷20號","121.481538333333","25.0041483333333","6500300","中和區"
"235051","157-BY","2018/09/07 19:39:59","新北市中和區板南路182號","121.500705","24.9928716666667","6500300","中和區"
"235037","AAC-213","2018/09/07 19:39:53","新北市中和區成功路9號","121.526306666667","24.9939083333333","6500300","中和區"
"235059","AAC-215","2018/09/07 19:39:47","新北市中和區錦和路374號","121.490551666667","24.9908316666667","6500300","中和區"
"220065","072-UY","2018/09/07 19:40:00","新北市板橋區國泰街39巷5弄8號","121.4687","25.0060233333333","6500100","板橋區"
"220086","073-UY","2018/09/07 19:39:50","新北市板橋區中正路48號","121.456435","25.014175","6500100","板橋區"
"220106","075-UY","2018/09/07 19:39:46","新北市板橋區文化路二段446號","121.4746","25.032295","6500100","板橋區"
"220069","AAD-861","2018/09/07 19:39:54","新北市板橋區稚暉街24號","121.455643333333","25.0043316666667","6500100","板橋區"
"247002","893-R6","2018/09/07 19:39:55","新北市蘆洲區三民路595號","121.460861666667","25.09359","6501400","蘆洲區"
"247008","336-TH","2018/09/07 19:39:50","新北市蘆洲區中山二路45巷30號","121.47427","25.0813066666667","6501400","蘆洲區"
"247004","002-UY","2018/09/07 19:39:50","新北市蘆洲區長安街98巷22號","121.463153333333","25.0818033333333","6501400","蘆洲區"
"226004","205-ST","2018/09/07 19:39:48","新北市平溪區靜安路三段392巷3號","121.784475","25.0495633333333","6502400","平溪區"
"228001","670-TC","2018/09/07 19:39:44","新北市貢寮區真理里延平街22-9號","121.92462","25.0559933333333","6502600","貢寮區"
"228003","828-UM","2018/09/07 19:39:56","新北市貢寮區真理里美艷山街15-3號","121.923718333333","25.06805","6502600","貢寮區"
"224010","AGQ-8101","2018/09/07 19:39:49","新北市瑞芳區基山街152號","121.843058333333","25.1082733333333","6501200","瑞芳區"
"224002","639-TC","2018/09/07 19:39:58","新北市瑞芳區民享新村21號","121.816981666667","25.1057033333333","6501200","瑞芳區"
"227011","642-TC","2018/09/07 19:39:56","新北市雙溪區新基里新基北街22號","121.867233333333","25.0389183333333","6502500","雙溪區"
"227003","400-TW","2018/09/07 19:39:52","新北市雙溪區雙溪里內挖路47號","121.86326","25.0366716666667","6502500","雙溪區"
"253006","032-BX","2018/09/07 19:39:44","新北市石門區小坑9號","121.593651666667","25.28842","6502200","石門區"
"222001","KEA-2212","2018/09/07 19:39:57","新北市深坑區北深路二段204號","121.612948333333","25.0015383333333","6501800","深坑區"
"208002","KEA-2872","2018/09/07 19:39:43","新北市金山區三民街1號","121.63479","25.222375","6502700","金山區"
"208003","665-BX","2018/09/07 19:39:52","新北市金山區中山路216號","121.63739","25.2218683333333","6502700","金山區"
"208001","761-BX","2018/09/07 19:40:00","新北市金山區重和里六股林口20號","121.602986666667","25.2189966666667","6502700","金山區"
"251005","010-UM","2018/09/07 19:39:48","新北市淡水區原德路117號","121.443011666667","25.173195","6501000","淡水區"
"251008","181-VK","2018/09/07 19:39:56","新北市淡水區中正路32巷7號","121.430578333333","25.1758183333333","6501000","淡水區"
"251010","413-VK","2018/09/07 19:39:50","新北市淡水區新市二路三段18號","121.432795","25.1938833333333","6501000","淡水區"
"251012","441-VK","2018/09/07 19:39:44","新北市淡水區淡金路二段605號","121.446253333333","25.1932283333333","6501000","淡水區"
"251001","559-UM","2018/09/07 19:39:57","新北市淡水區民權路13-5號","121.45976","25.1419416666667","6501000","淡水區"
"251006","561-UM","2018/09/07 19:39:56","新北市淡水區中山北路一段207巷13號","121.44364","25.1791066666667","6501000","淡水區"
"251009","575-R6","2018/09/07 19:39:56","新北市淡水區中山北路一段188-5號","121.444478333333","25.1790966666667","6501000","淡水區"
"251007","577-R6","2018/09/07 19:39:46","新北市淡水區中正東路一段105巷5號","121.453281666667","25.1607116666667","6501000","淡水區"
"251011","650-BX","2018/09/07 19:39:41","新北市淡水區中正東路二段5巷31號","121.460448333333","25.1586816666667","6501000","淡水區"
"207003","550-UM","2018/09/07 19:39:48","新北市萬里區大鵬里下社1-1號","121.648321666667","25.2157566666667","6502800","萬里區"
"207004","225-TW","2018/09/07 19:39:54","新北市萬里區萬里里瑪鋉路5號","121.68682","25.1753033333333","6502800","萬里區"
"252002","178-VK","2018/09/07 19:39:50","新北市三芝區三民街33-1號","121.504598333333","25.258605","6502100","三芝區"
"252001","292-VK","2018/09/07 19:39:51","新北市三芝區公正街9號","121.499776666667","25.2574916666667","6502100","三芝區"
"237004","KEA-2597","2018/09/07 19:39:57","新北市三峽區有木3號","121.421548333333","24.865715","6500900","三峽區"
"237007","153-BY","2018/09/07 19:39:47","新北市三峽區二鬮路136巷24弄47號","121.356963333333","24.9105566666667","6500900","三峽區"
"237009","210-TH","2018/09/07 19:39:53","新北市三峽區中園街62-2號","121.368086666667","24.9257733333333","6500900","三峽區"
"237013","252-BX","2018/09/07 19:39:42","新北市三峽區橫溪路15號","121.396235","24.93588","6500900","三峽區"
"237012","275-BY","2018/09/07 19:40:03","新北市三峽區光明路35號","121.373648333333","24.930785","6500900","三峽區"
"237008","302-VK","2018/09/07 19:40:02","新北市三峽區永安街177號","121.373225","24.9270483333333","6500900","三峽區"
"237014","433-BY","2018/09/07 19:39:48","新北市三峽區添福14-39號","121.37186","24.9003316666667","6500900","三峽區"
"237006","5529-G3","2018/09/07 19:39:43","新北市三峽區中正路一段336巷15弄2號","121.369973333333","24.9249483333333","6500900","三峽區"
"237015","649-BX","2018/09/07 19:39:49","新北市三峽區溪東路218巷25號","121.407023333333","24.9305","6500900","三峽區"
"237005","AKY-6261","2018/09/07 19:39:55","新北市三峽區中山路169巷9號","121.364335","24.9360433333333","6500900","三峽區"
"236069","105-UM","2018/09/07 19:39:51","新北市土城區學府路2段185巷37-1號","121.447441666667","24.9776116666667","6501300","土城區"
"236042","107-UM","2018/09/07 19:39:59","新北市土城區裕民路244號","121.454126666667","24.9833","6501300","土城區"
"236079","166-UM","2018/09/07 19:39:59","新北市土城區溪頭路7巷2號","121.412816666667","24.95547","6501300","土城區"
"236030","253-BX","2018/09/07 19:39:45","新北市土城區福祥街58號","121.441465","24.9814133333333","6501300","土城區"
"236026","269-VK","2018/09/07 19:39:45","新北市土城區中央路二段61巷26號","121.443301666667","24.978785","6501300","土城區"
"236039","271-VK","2018/09/07 19:40:03","新北市土城區仁愛路16巷22號","121.460063333333","24.979835","6501300","土城區"
"236020","401-BY","2018/09/07 19:39:47","新北市土城區明峰街83號","121.468951666667","24.987345","6501300","土城區"
"236059","752-BX","2018/09/07 19:39:54","新北市土城區中央路二段51號","121.442631666667","24.9795383333333","6501300","土城區"
"236048","913-UM","2018/09/07 19:39:47","新北市土城區明德路一段103號","121.465623333333","24.982685","6501300","土城區"
"236063","915-UM","2018/09/07 19:40:04","新北市土城區延平街65號","121.467766666667","24.9927833333333","6501300","土城區"
"236055","AAC-216","2018/09/07 19:40:02","新北市土城區學府路一段33號","121.458028333333","24.9884533333333","6501300","土城區"
"242037","AAC-296","2018/09/07 19:39:55","新北市新莊區民安路207巷6號","121.426563333333","25.022605","6500500","新莊區"
"242048","497-BY","2018/09/07 19:39:41","新北市新莊區後港一路17巷22號","121.424355","25.0268166666667","6500500","新莊區"
"242039","415-TV","2018/09/07 19:39:58","新北市新莊區建國二路83-20號","121.43088","25.025755","6500500","新莊區"
"242023","362-BY","2018/09/07 19:39:55","新北市新莊區復興路二段143號","121.457618333333","25.0444216666667","6500500","新莊區"
"242034","135-UY","2018/09/07 19:39:55","新北市新莊區仁愛街16-5號","121.444256666667","25.0355916666667","6500500","新莊區"
"242032","348-TH","2018/09/07 19:39:53","新北市新莊區公園一路115號","121.445113333333","25.0379666666667","6500500","新莊區"
"242005","349-TH","2018/09/07 19:39:47","新北市新莊區化成路11巷66號","121.462286666667","25.0435316666667","6500500","新莊區"
"242021","350-TH","2018/09/07 19:39:51","新北市新莊區新莊路664號","121.44237","25.032795","6500500","新莊區"
"238015","755-BX","2018/09/07 19:39:59","新北市樹林區日新街70巷8號","121.421513333333","24.9909216666667","6500700","樹林區"
"238023","601-UM","2018/09/07 19:16:45","桃園市龜山區萬壽路一段337號","121.402116666667","25.01688","6500700","樹林區"
"238019","599-UM","2018/09/07 19:39:58","新北市樹林區中山路二段185-3號","121.405271666667","24.9781833333333","6500700","樹林區"
"238024","5061-A6","2018/09/07 19:39:53","新北市樹林區中山路三段204號","121.38722","24.9681766666667","6500700","樹林區"
"238022","KEA-2213","2018/09/07 19:39:57","新北市樹林區名園街55號","121.420026666667","24.9782366666667","6500700","樹林區"
"238021","KEA-2539","2018/09/07 19:39:59","新北市樹林區佳園路三段101巷38弄45號","121.391911666667","24.9497833333333","6500700","樹林區"
"238025","303-VK","2018/09/07 19:39:52","新北市樹林區中山路一段115-2號","121.422833333333","24.99034","6500700","樹林區"
"238017","283-BY","2018/09/07 19:39:47","新北市樹林區保安街二段24-1號","121.4154","25.0020166666667","6500700","樹林區"
"238014","282-BY","2018/09/07 19:39:54","新北市樹林區千歲街26號","121.425513333333","24.995895","6500700","樹林區"
"238020","268-VK","2018/09/07 19:39:50","新北市樹林區俊英街6-1號","121.429928333333","24.9994133333333","6500700","樹林區"
"238026","172-UY","2018/09/07 19:39:48","新北市樹林區佳園路二段77號","121.3908","24.9597316666667","6500700","樹林區"
"239006","891-R6","2018/09/07 19:39:53","新北市鶯歌區文化路61-1號","121.358933333333","24.9566166666667","6500800","鶯歌區"
"221008","489-VK","2018/09/07 19:39:51","新北市汐止區康寧街61巷42號","121.62014","25.067725","6501100","汐止區"
"221036","130-UY","2018/09/07 19:39:51","新北市汐止區康寧街901號","121.651651666667","25.0748833333333","6501100","汐止區"
"221015","131-UY","2018/09/07 19:39:58","新北市汐止區汐萬路一段160號","121.652595","25.0714683333333","6501100","汐止區"
"221010","269-BY","2018/09/07 19:39:44","新北市汐止區汐萬路二段23巷1號","121.649433333333","25.0808433333333","6501100","汐止區"
"221012","278-VK","2018/09/07 19:39:52","新北市汐止區大同路三段380號","121.68139","25.0714516666667","6501100","汐止區"
"221023","279-VK","2018/09/07 19:40:01","新北市汐止區明峰街190號","121.628138333333","25.0696633333333","6501100","汐止區"
"221032","280-BY","2018/09/07 19:39:56","新北市汐止區新台五路一段97-1號","121.651208333333","25.0615316666667","6501100","汐止區"
"221027","281-BY","2018/09/07 19:40:01","新北市汐止區忠孝東路9號","121.658283333333","25.06597","6501100","汐止區"
"221029","298-VK","2018/09/07 19:39:57","新北市汐止區康寧街901號","121.651606666667","25.0748733333333","6501100","汐止區"
"221031","353-TW","2018/09/07 19:39:59","新北市汐止區汐萬路一段312號","121.650586666667","25.0753733333333","6501100","汐止區"
"221025","623-UM","2018/09/07 19:39:55","新北市汐止區福安街20巷2號","121.662553333333","25.0650083333333","6501100","汐止區"
"221038","646-BX","2018/09/07 19:39:48","新北市汐止區忠孝東路223號","121.662243333333","25.0668033333333","6501100","汐止區"
"221002","707-TV","2018/09/07 19:39:50","新北市汐止區工建路31號","121.639175","25.063565","6501100","汐止區"
"221018","753-BX","2018/09/07 19:39:56","新北市汐止區康寧街901號","121.650726666667","25.075335","6501100","汐止區"
"220079","145-BY","2018/09/07 19:39:50","新北市板橋區建國街94號","121.459705","25.01733","6500100","板橋區"
"220080","200-UY","2018/09/07 19:39:57","新北市板橋區大觀路二段37巷67號","121.449816666667","25.0025166666667","6500100","板橋區"
"220082","610-BX","2018/09/07 19:39:56","新北市板橋區大觀路三段191號","121.432035","24.9937233333333","6500100","板橋區"
"220101","245-BX","2018/09/07 19:40:02","新北市板橋區八德路三段33巷17-1號","121.47385","25.0214683333333","6500100","板橋區"
"220056","276-BY","2018/09/07 19:39:53","新北市板橋區四川路二段47巷1弄2號","121.454163333333","24.99499","6500100","板橋區"
"220072","277-BY","2018/09/07 19:39:47","新北市板橋區金門街151巷15號","121.433613333333","24.9903833333333","6500100","板橋區"
"220071","283-VK","2018/09/07 19:39:56","新北市板橋區信義路279巷11號","121.46202","24.989445","6500100","板橋區"
"220094","285-UM","2018/09/07 19:39:57","新北市板橋區宏國路96號","121.470068333333","25.031955","6500100","板橋區"
"220053","285-VK","2018/09/07 19:39:45","新北市板橋區中山路二段60巷1弄11號","121.474683333333","25.0155483333333","6500100","板橋區"
"220083","286-VK","2018/09/07 19:39:56","新北市板橋區龍興街65巷2號","121.443581666667","25.0014983333333","6500100","板橋區"
"220081","287-VK","2018/09/07 19:39:46","新北市板橋區大觀路一段29巷179弄7號","121.449031666667","25.004815","6500100","板橋區"
"220090","288-VK","2018/09/07 19:39:44","新北市板橋區新海路431巷10號","121.457901666667","25.0271816666667","6500100","板橋區"
"220061","295-UM","2018/09/07 19:39:58","新北市板橋區漢生東路178號","121.467255","25.014615","6500100","板橋區"
"220084","296-UM","2018/09/07 19:39:54","新北市板橋區滿平二街2巷1弄2號","121.425285","24.986165","6500100","板橋區"
"220062","299-UM","2018/09/07 19:39:47","新北市板橋區三民路二段29巷4號","121.48144","25.0180483333333","6500100","板橋區"
"242013","281-VK","2018/09/07 19:39:54","新北市新莊區中誠街121巷11號","121.449523333333","25.0469783333333","6500500","新莊區"
"220075","303-R5","2018/09/07 19:40:00","新北市板橋區大勇街4巷2號","121.455026666667","25.0174816666667","6500100","板橋區"
"220092","307-R5","2018/09/07 19:39:52","新北市板橋區文化路一段387巷38號","121.465691666667","25.02254","6500100","板橋區"
"220098","317-R6","2018/09/07 19:39:52","新北市板橋區四維路269巷45號","121.461305","25.0274616666667","6500100","板橋區"
"220064","486-VK","2018/09/07 19:40:01","新北市板橋區民權路31號","121.462485","25.0110533333333","6500100","板橋區"
"220088","491-VK","2018/09/07 19:39:44","新北市板橋區仁化街180號","121.478476666667","25.033915","6500100","板橋區"
"220035","560-BX","2018/09/07 19:40:01","新北市板橋區金華街66號","121.457395","25.0205683333333","6500100","板橋區"
"220103","561-BX","2018/09/07 19:39:51","新北市板橋區文化路一段286巷2弄1號","121.468466666667","25.021035","6500100","板橋區"
"220063","609-BX","2018/09/07 19:39:53","新北市板橋區中山路二段531巷88號","121.482293333333","25.0234683333333","6500100","板橋區"
"220091","637-BX","2018/09/07 19:39:56","新北市板橋區懷德街127巷56號","121.480591666667","25.0318666666667","6500100","板橋區"
"220057","686-BX","2018/09/07 19:39:54","新北市板橋區廣和街72號","121.462286666667","24.9940233333333","6500100","板橋區"
"220077","687-BX","2018/09/07 19:39:57","新北市板橋區僑中一街136號","121.44543","25.0117816666667","6500100","板橋區"
"220093","689-BX","2018/09/07 19:39:44","新北市板橋區長江路一段7號","121.457871666667","25.028795","6500100","板橋區"
"220054","741-BX","2018/09/07 19:39:50","新北市板橋區忠孝路204號","121.46597","25.0026283333333","6500100","板橋區"
"220102","KEA-2699","2018/09/07 19:39:57","新北市板橋區雙十路二段46巷20號","121.476228333333","25.0281083333333","6500100","板橋區"
"220055","827-TW","2018/09/07 19:39:49","新北市板橋區國慶路149巷11-3號","121.461126666667","24.9971716666667","6500100","板橋區"
"220068","829-TW","2018/09/07 19:39:53","新北市板橋區中山路二段507號","121.482756666667","25.0211566666667","6500100","板橋區"
"220067","830-TW","2018/09/07 19:40:03","新北市板橋區長安街255巷37號","121.472395","25.0111366666667","6500100","板橋區"
"220096","831-TW","2018/09/07 19:39:55","新北市板橋區民生路二段234巷2弄1號","121.469455","25.0225316666667","6500100","板橋區"
"220089","833-TW","2018/09/07 19:40:00","新北市板橋區陽明街251號","121.462583333333","25.0251066666667","6500100","板橋區"
"220074","895-R6","2018/09/07 19:39:56","新北市板橋區府中路111號","121.456485","25.009585","6500100","板橋區"
"220073","985-R7","2018/09/07 19:39:58","新北市板橋區國光路51號","121.458148333333","25.0179033333333","6500100","板橋區"
"220097","AAC-210","2018/09/07 19:39:49","新北市板橋區漢生西路89巷2弄20號","121.461751666667","25.0197583333333","6500100","板橋區"
"220070","AAC-253","2018/09/07 19:40:05","新北市板橋區民族路169號","121.46852","25.0077333333333","6500100","板橋區"
"235068","KEA-2873","2018/09/07 19:39:41","新北市中和區景平路493-5號","121.500088333333","24.997915","6500300","中和區"
"235061","KEA-2875","2018/09/07 19:39:46","新北市中和區民安街2巷1號","121.480658333333","25.0012016666667","6500300","中和區"
