"lineid","car","time","location","longitude","latitude","cityid","cityname"
"234046","148-BY","2018/09/07 20:05:22","新北市永和區秀朗路二段181巷25號","121.526785","25.0015633333333","6500400","永和區"
"234007","207-UY","2018/09/07 20:08:09","新北市永和區保順路19-1號","121.50412","25.009915","6500400","永和區"
"234081","298-R6","2018/09/07 20:03:13","新北市永和區永亨路110號","121.523663333333","25.0044833333333","6500400","永和區"
"234038","336-UY","2018/09/07 20:03:26","新北市永和區成功路一段136號","121.52676","25.0019116666667","6500400","永和區"
"234064","337-UY","2018/09/07 20:08:26","新北市永和區秀朗路二段67號","121.522096666667","25.0019883333333","6500400","永和區"
"234086","338-UY","2018/09/07 20:04:26","新北市永和區永利路13號","121.517848333333","25.0059516666667","6500400","永和區"
"234070","552-UM","2018/09/07 20:04:34","新北市永和區大新街87號","121.518036666667","25.0081433333333","6500400","永和區"
"234017","745-BX","2018/09/07 20:07:25","新北市永和區文化路170號","121.51194","25.01551","6500400","永和區"
"234030","746-BX","2018/09/07 20:04:32","新北市永和區民權路49巷5弄15號","121.520773333333","24.997605","6500400","永和區"
"234054","KEA-2590","2018/09/07 20:08:38","新北市永和區博愛街14號","121.516973333333","25.0158083333333","6500400","永和區"
"234013","KEA-2591","2018/09/07 20:06:42","新北市永和區永貞路419號","121.507206666667","25.0094866666667","6500400","永和區"
"234061","AAD-866","2018/09/07 20:05:34","新北市永和區中正路283巷31號","121.516238333333","24.9998083333333","6500400","永和區"
"234042","862-TW","2018/09/07 20:04:27","新北市永和區雙和街16巷15號","121.509891666667","25.002445","6500400","永和區"
"234050","863-TW","2018/09/07 20:06:39","新北市永和區新生路273巷1-1號","121.505131666667","25.012755","6500400","永和區"
"234026","9371-KE","2018/09/07 20:08:18","新北市永和區保生路55號","121.504683333333","25.0107","6500400","永和區"
"234011","9373-KE","2018/09/07 20:07:34","新北市永和區仁愛路352巷122弄13號","121.500581666667","25.0090266666667","6500400","永和區"
"249005","172-UM","2018/09/07 20:04:33","新北市八里區下罟子44號","121.384518333333","25.1364966666667","6502300","八里區"
"249001","173-UM","2018/09/07 20:07:49","新北市八里區中華路二段312號","121.403715","25.1482733333333","6502300","八里區"
"249004","303-UY","2018/09/07 20:08:55","新北市八里區中山路一段418-6號","121.410936666667","25.1582133333333","6502300","八里區"
"249002","305-UY","2018/09/07 20:05:18","新北市八里區龍米路一段3-6號","121.456946666667","25.1176833333333","6502300","八里區"
"249003","593-UM","2018/09/07 20:06:41","新北市八里區中山路二段542號","121.397381666667","25.1466633333333","6502300","八里區"
"248014","025-BX","2018/09/07 20:06:57","新北市五股區成泰路三段55號","121.44309","25.0894883333333","6501500","五股區"
"248008","095-VK","2018/09/07 20:08:21","新北市五股區中興路一段1巷24號","121.469813333333","25.07054","6501500","五股區"
"248018","225-UY","2018/09/07 20:05:49","新北市五股區登林路118-6號","121.414135","25.0759466666667","6501500","五股區"
"248012","247-BX","2018/09/07 20:08:56","新北市五股區六合街118號","121.430265","25.0908133333333","6501500","五股區"
"248016","261-SL","2018/09/07 20:07:16","新北市五股區成泰路三段577巷80弄77號","121.44865","25.1046516666667","6501500","五股區"
"248010","272-BY","2018/09/07 20:04:08","新北市五股區成泰路一段7巷44號","121.432493333333","25.06717","6501500","五股區"
"248004","677-BX","2018/09/07 20:05:13","新北市五股區成泰路一段56號","121.435435","25.0695116666667","6501500","五股區"
"248002","678-BX","2018/09/07 20:08:33","新北市五股區成泰路三段369-1號","121.448738333333","25.09583","6501500","五股區"
"234023","9380-KE","2018/09/07 20:04:48","新北市永和區中正路662巷25號","121.517635","25.0088383333333","6500400","永和區"
"234077","969-R7","2018/09/07 20:07:39","新北市永和區民有街21巷9弄2號","121.51736","24.9977333333333","6500400","永和區"
"234074","AAC-211","2018/09/07 20:08:55","新北市永和區豫溪街185號","121.522483333333","25.0103683333333","6500400","永和區"
"234067","AAC-212","2018/09/07 20:05:51","新北市永和區永貞路386巷1號","121.5095","25.0072183333333","6500400","永和區"
"234003","AAC-295","2018/09/07 20:06:50","新北市永和區中正路700號","121.51636","25.00983","6500400","永和區"
"244023","483-VK","2018/09/07 20:05:47","新北市林口區太平里180號","121.368281666667","25.1342383333333","6501700","林口區"
"243013","AAD-798","2018/09/07 20:08:45","新北市泰山區明志路三段74巷24號","121.423898333333","25.0417316666667","6501600","泰山區"
"243009","297-R6","2018/09/07 20:04:13","新北市泰山區泰林路二段164巷13號","121.434546666667","25.0607266666667","6501600","泰山區"
"243016","KEA-2801","2018/09/07 20:06:37","新北市泰山區新北大道六段311號","121.4237","25.0337616666667","6501600","泰山區"
"243015","421-VK","2018/09/07 20:05:07","新北市泰山區明志路一段475號","121.430741666667","25.0556516666667","6501600","泰山區"
"243011","KEA-2215","2018/09/07 20:09:04","新北市泰山區明志路三段182巷20號","121.423583333333","25.0393133333333","6501600","泰山區"
"243010","KEA-2216","2018/09/07 20:07:15","新北市泰山區明志路二段136巷24號","121.426226666667","25.05197","6501600","泰山區"
"243012","646-TV","2018/09/07 20:08:27","新北市泰山區楓江路46巷1號","121.435133333333","25.0622133333333","6501600","泰山區"
"243014","680-BX","2018/09/07 20:04:38","新北市泰山區明志路一段12號","121.433606666667","25.0659033333333","6501600","泰山區"
"222003","436-BY","2018/09/07 20:08:18","新北市深坑區埔新街60號","121.62022","25.0024316666667","6501800","深坑區"
"222002","659-BX","2018/09/07 20:07:53","新北市深坑區北深路三段154號","121.602993333333","25.0031883333333","6501800","深坑區"
"231041","002-UM","2018/09/07 20:08:16","新北市新店區中正路460號","121.534028333333","24.979395","6500600","新店區"
"231059","046-UY","2018/09/07 20:08:19","新北市新店區安成街18號","121.51044","24.9606816666667","6500600","新店區"
"231040","047-UY","2018/09/07 20:08:40","新北市新店區中正路106號","121.543148333333","24.970655","6500600","新店區"
"231044","106-UY","2018/09/07 20:08:00","新北市新店區寶慶街66號","121.542","24.9868233333333","6500600","新店區"
"231053","108-UY","2018/09/07 20:08:21","新北市新店區新烏路三段寶島巷2弄1號","121.552066666667","24.8986733333333","6500600","新店區"
"231064","110-UY","2018/09/07 20:07:44","新北市新店區安光路13-1號","121.513286666667","24.9638233333333","6500600","新店區"
"231048","187-VK","2018/09/07 20:08:55","新北市新店區寶橋路61號","121.545188333333","24.9750316666667","6500600","新店區"
"231054","KEA-2219","2018/09/07 20:07:59","新北市新店區光明街298號","121.540465","24.9647733333333","6500600","新店區"
"231057","256-BX","2018/09/07 20:06:22","新北市新店區花園一路一段2號","121.55315","24.932415","6500600","新店區"
"231042","268-BY","2018/09/07 20:05:25","新北市新店區中興路一段294號","121.546235","24.9693","6500600","新店區"
"231051","278-BY","2018/09/07 20:07:49","新北市新店區中央六街6號","121.530181666667","24.9743733333333","6500600","新店區"
"231050","AAD-862","2018/09/07 20:09:14","新北市新店區北新路一段90號","121.5419","24.9686566666667","6500600","新店區"
"231056","4715-K9","2018/09/07 20:06:53","新北市新店區中正路190號","121.540611666667","24.972455","6500600","新店區"
"231067","4772-VM","2018/09/07 20:08:02","新北市新店區安康路一段3-1號","121.534088333333","24.960545","6500600","新店區"
"231065","512-UM","2018/09/07 20:07:13","新北市新店區安祥路106巷110號","121.473898333333","24.95907","6500600","新店區"
"231049","513-UM","2018/09/07 20:08:44","新北市新店區北新路二段139巷12弄2號","121.542238333333","24.975945","6500600","新店區"
"231045","617-UM","2018/09/07 20:06:45","新北市新店區北宜路一段201號","121.54726","24.9522816666667","6500600","新店區"
"231061","619-UM","2018/09/07 20:07:44","新北市新店區安民街210號","121.517278333333","24.9721283333333","6500600","新店區"
"231063","641-BX","2018/09/07 20:08:28","新北市新店區黎明路54巷2號","121.502345","24.948285","6500600","新店區"
"231068","718-UY","2018/09/07 20:06:23","新北市新店區寶高路102巷20號","121.553365","24.9726333333333","6500600","新店區"
"231062","720-UM","2018/09/07 20:07:14","新北市新店區華城路10巷1-3號","121.528773333333","24.957825","6500600","新店區"
"231060","897-TW","2018/09/07 20:07:21","新北市新店區安康路三段454號","121.484358333333","24.9511816666667","6500600","新店區"
"231043","899-TW","2018/09/07 20:04:34","新北市新店區中正路283號","121.537481666667","24.9744766666667","6500600","新店區"
"231055","AKT-0513","2018/09/07 20:09:05","新北市新店區中華路42巷18號","121.54059","24.968735","6500600","新店區"
"241011","013-R5","2018/09/07 20:09:05","新北市三重區仁愛街32號","121.496321666667","25.071735","6500200","三重區"
"241028","022-UY","2018/09/07 20:06:56","新北市三重區仁化街188號","121.494936666667","25.05673","6500200","三重區"
"241008","059-VK","2018/09/07 20:07:05","新北市三重區永福街197巷37弄18號","121.47772","25.07412","6500200","三重區"
"241022","060-VK","2018/09/07 20:06:52","新北市三重區新北大道一段11號","121.48857","25.0606633333333","6500200","三重區"
"241031","061-VK","2018/09/07 20:08:42","新北市三重區過圳街9-1號","121.488768333333","25.060065","6500200","三重區"
"241015","062-VK","2018/09/07 20:06:09","新北市三重區福德北路34號","121.502051666667","25.06533","6500200","三重區"
"241017","063-VK","2018/09/07 20:09:11","新北市三重區大同北路221巷44號","121.49241","25.066545","6500200","三重區"
"241024","065-VK","2018/09/07 20:07:51","新北市三重區中正北路310號","121.479443333333","25.0690616666667","6500200","三重區"
"241026","066-VK","2018/09/07 20:09:14","新北市三重區福德南路63-2號","121.502288333333","25.0606383333333","6500200","三重區"
"241002","090-VK","2018/09/07 20:06:57","新北市三重區五華街55巷53號","121.495628333333","25.0820366666667","6500200","三重區"
"241003","091-VK","2018/09/07 20:07:58","新北市三重區富華街18號","121.489593333333","25.0824816666667","6500200","三重區"
"241016","266-UM","2018/09/07 20:06:11","新北市三重區大同北路54巷3號","121.49411","25.0633533333333","6500200","三重區"
"241009","267-UM","2018/09/07 20:07:20","新北市三重區三和路四段360-4號","121.483081666667","25.0786","6500200","三重區"
"241018","268-UM","2018/09/07 20:06:46","新北市三重區大智街49號","121.492871666667","25.0676583333333","6500200","三重區"
"241013","270-UM","2018/09/07 20:06:47","新北市三重區三和路三段139巷16號","121.493088333333","25.0738083333333","6500200","三重區"
"241025","271-UM","2018/09/07 20:06:51","新北市三重區中正北路428巷52號","121.47455","25.068955","6500200","三重區"
"241007","398-BY","2018/09/07 20:07:26","新北市三重區三和路四段111-27號","121.487078333333","25.0776383333333","6500200","三重區"
"241035","KEA-2210","2018/09/07 20:09:08","新北市三重區平安街41號","121.498085","25.0642133333333","6500200","三重區"
"241004","475-VK","2018/09/07 20:06:34","新北市三重區仁愛街406巷3號","121.49064","25.0812666666667","6500200","三重區"
"241020","478-VK","2018/09/07 20:05:50","新北市三重區大智街179巷11號","121.490276666667","25.0727816666667","6500200","三重區"
"241030","480-VK","2018/09/07 20:08:45","新北市三重區成功路145巷35號","121.48783","25.0531183333333","6500200","三重區"
"241014","543-UM","2018/09/07 20:06:12","新北市三重區長樂街90號","121.501311666667","25.0694816666667","6500200","三重區"
"241023","545-UM","2018/09/07 20:07:42","新北市三重區頂崁街210巷2號","121.477178333333","25.06749","6500200","三重區"
"241001","547-UM","2018/09/07 20:05:20","新北市三重區福隆路8號","121.490038333333","25.07735","6500200","三重區"
"241019","KEA-2593","2018/09/07 20:08:03","新北市三重區自強路二段33巷18號","121.490031666667","25.0696916666667","6500200","三重區"
"241006","AAD-863","2018/09/07 20:08:41","新北市三重區車路頭街139巷14號","121.484275","25.0762","6500200","三重區"
"241005","887-TS","2018/09/07 20:08:55","新北市三重區溪尾街327號","121.488438333333","25.0848233333333","6500200","三重區"
"241029","942-UM","2018/09/07 20:07:13","新北市三重區光明路9號","121.49102","25.0588783333333","6500200","三重區"
"241033","AAC-255","2018/09/07 20:07:17","新北市三重區光復路一段68巷3號","121.471546666667","25.0494183333333","6500200","三重區"
"235066","003-UY","2018/09/07 20:09:04","新北市中和區水源路127巷11號","121.508046666667","25.0038283333333","6500300","中和區"
"235056","096-UM","2018/09/07 20:03:51","新北市中和區中山路三段170巷29號","121.472571666667","25.0072816666667","6500300","中和區"
"235039","097-UM","2018/09/07 20:08:12","新北市中和區大勇街25巷11弄1號","121.516523333333","24.993295","6500300","中和區"
"235065","098-UM","2018/09/07 20:07:05","新北市中和區永和路39巷6號","121.49774","25.0050333333333","6500300","中和區"
"235040","150-BY","2018/09/07 20:08:05","新北市中和區景安路33號","121.507551666667","24.9986416666667","6500300","中和區"
"235044","293-VK","2018/09/07 20:09:01","新北市中和區復興路329號","121.500731666667","24.9901983333333","6500300","中和區"
"247012","KEA-2869","2018/09/07 20:06:40","新北市蘆洲區復興路195號","121.479338333333","25.08944","6501400","蘆洲區"
"235050","4979-A6","2018/09/07 20:07:31","新北市中和區安樂路66號","121.512175","24.9932333333333","6500300","中和區"
"235069","4980-A6","2018/09/07 20:04:56","新北市中和區南山路47號","121.502096666667","24.9985383333333","6500300","中和區"
"235070","558-UM","2018/09/07 20:09:02","新北市中和區錦和路216號","121.490316666667","24.9942366666667","6500300","中和區"
"235046","733-UM","2018/09/07 20:08:02","新北市中和區忠孝街31巷17號","121.510298333333","24.983475","6500300","中和區"
"235048","896-TW","2018/09/07 20:06:06","新北市中和區景新街568-1號","121.51477","24.9865833333333","6500300","中和區"
"235051","157-BY","2018/09/07 20:03:19","新北市中和區景安路225號","121.504438333333","24.99129","6500300","中和區"
"235059","AAC-215","2018/09/07 20:06:47","新北市中和區圓通路335巷33弄13號","121.493328333333","24.98892","6500300","中和區"
"220065","072-UY","2018/09/07 20:06:20","新北市板橋區富山街109巷2號","121.476168333333","25.0219233333333","6500100","板橋區"
"220106","075-UY","2018/09/07 20:03:09","新北市板橋區文聖街11巷26號","121.476211666667","25.0330483333333","6500100","板橋區"
"220069","AAD-861","2018/09/07 20:05:14","新北市板橋區大明街25巷4弄9號","121.457645","25.0021066666667","6500100","板橋區"
"247002","893-R6","2018/09/07 20:08:55","新北市蘆洲區永康街6號","121.45926","25.0859783333333","6501400","蘆洲區"
"247016","546-UM","2018/09/07 20:09:02","新北市蘆洲區光華路133號","121.46636","25.0822716666667","6501400","蘆洲區"
"247024","500-BY","2018/09/07 20:07:33","新北市蘆洲區光榮路120巷9號","121.465356666667","25.0886416666667","6501400","蘆洲區"
"247014","339-TH","2018/09/07 20:07:02","新北市蘆洲區中山二路265巷13號","121.470473333333","25.0795833333333","6501400","蘆洲區"
"247006","337-TH","2018/09/07 20:06:16","新北市蘆洲區中山二路272號","121.469065","25.0782983333333","6501400","蘆洲區"
"247008","336-TH","2018/09/07 20:05:51","新北市蘆洲區中山一路97巷32弄5號","121.475648333333","25.08114","6501400","蘆洲區"
"247020","057-VK","2018/09/07 20:07:04","新北市蘆洲區民權路106巷5弄7號","121.474251666667","25.0891333333333","6501400","蘆洲區"
"247010","056-VK","2018/09/07 20:06:04","新北市蘆洲區集賢路378號","121.480533333333","25.082845","6501400","蘆洲區"
"247018","007-UY","2018/09/07 20:07:02","新北市蘆洲區民族路314巷11-2號","121.477931666667","25.0905983333333","6501400","蘆洲區"
"247004","002-UY","2018/09/07 20:08:45","新北市蘆洲區長安街285巷3號","121.458066666667","25.0842","6501400","蘆洲區"
"247022","001-UY","2018/09/07 20:07:26","新北市蘆洲區三民路175號","121.470935","25.08733","6501400","蘆洲區"
"226004","205-ST","2018/09/07 20:09:08","新北市平溪區十分里十分街311號","121.775141666667","25.04352","6502400","平溪區"
"224010","AGQ-8101","2018/09/07 20:02:29","新北市瑞芳區金光路334號","121.848343333333","25.1097466666667","6501200","瑞芳區"
"227011","642-TC","2018/09/07 20:03:56","新北市雙溪區新基里新基西街6號","121.8655","25.0376733333333","6502500","雙溪區"
"222001","KEA-2212","2018/09/07 20:07:17","新北市深坑區北深路三段187號","121.601273333333","25.003635","6501800","深坑區"
"208002","KEA-2872","2018/09/07 20:08:08","新北市金山區環金路58號","121.638925","25.2173883333333","6502700","金山區"
"208003","665-BX","2018/09/07 20:05:18","新北市金山區海興路87號","121.633146666667","25.2407483333333","6502700","金山區"
"251004","009-UM","2018/09/07 20:07:40","新北市淡水區民族路29巷64號","121.461963333333","25.1367683333333","6501000","淡水區"
"251005","010-UM","2018/09/07 20:07:09","新北市淡水區學府路68號","121.448875","25.1704966666667","6501000","淡水區"
"251008","181-VK","2018/09/07 20:06:56","新北市淡水區淡海路72巷30弄11號","121.424765","25.1827066666667","6501000","淡水區"
"251010","413-VK","2018/09/07 20:09:10","新北市淡水區崁頂五路303號","121.424745","25.1989083333333","6501000","淡水區"
"251012","441-VK","2018/09/07 20:06:04","新北市淡水區淡金路三段185號","121.448703333333","25.204515","6501000","淡水區"
"251001","559-UM","2018/09/07 20:08:37","新北市淡水區新市二路四段265號","121.445723333333","25.1925","6501000","淡水區"
"251006","561-UM","2018/09/07 20:04:56","新北市淡水區北新路141巷2弄2號","121.449365","25.1792066666667","6501000","淡水區"
"251009","575-R6","2018/09/07 20:08:56","新北市淡水區清水街9-4號","121.444748333333","25.1703033333333","6501000","淡水區"
"251007","577-R6","2018/09/07 20:07:26","新北市淡水區淡金路一段69號","121.458136666667","25.17362","6501000","淡水區"
"251011","650-BX","2018/09/07 20:07:21","新北市淡水區崁頂78-5號","121.429538333333","25.2069566666667","6501000","淡水區"
"251003","673-BX","2018/09/07 20:09:09","新北市淡水區中山北路二段189巷15弄31號","121.443498333333","25.1841183333333","6501000","淡水區"
"207003","550-UM","2018/09/07 20:08:48","新北市萬里區大鵬里萬里加投186號","121.642806666667","25.21565","6502800","萬里區"
"207004","225-TW","2018/09/07 20:04:54","新北市萬里區萬里里瑪鋉路17-1號","121.684913333333","25.1771916666667","6502800","萬里區"
"252002","178-VK","2018/09/07 20:06:50","新北市三芝區三民街12號","121.504068333333","25.2584933333333","6502100","三芝區"
"252001","292-VK","2018/09/07 20:09:11","新北市三芝區公正街9號","121.499745","25.2575233333333","6502100","三芝區"
"237008","302-VK","2018/09/07 20:06:22","新北市三峽區中華路39號","121.372555","24.93105","6500900","三峽區"
"237006","5529-G3","2018/09/07 20:08:02","新北市三峽區嘉添95號","121.370291666667","24.9095816666667","6500900","三峽區"
"237015","649-BX","2018/09/07 20:07:49","新北市三峽區介壽路二段138巷1弄146號","121.399401666667","24.9304416666667","6500900","三峽區"
"237005","AKY-6261","2018/09/07 20:07:45","新北市三峽區三樹路88號","121.378196666667","24.938705","6500900","三峽區"
"236069","105-UM","2018/09/07 20:07:31","新北市土城區中央路三段142號","121.433008333333","24.9655333333333","6501300","土城區"
"236042","107-UM","2018/09/07 20:04:39","新北市土城區學府路一段164巷11號","121.453673333333","24.9871683333333","6501300","土城區"
"236079","166-UM","2018/09/07 20:03:41","新北市土城區三民路63號","121.419553333333","24.96442","6501300","土城區"
"236030","253-BX","2018/09/07 20:04:45","新北市土城區中央路一段164-1號","121.445846666667","24.9869683333333","6501300","土城區"
"236026","269-VK","2018/09/07 20:07:05","新北市土城區裕生路71-1號","121.446986666667","24.9845666666667","6501300","土城區"
"236014","270-VK","2018/09/07 20:04:20","新北市土城區廣明街48巷9號","121.455826666667","24.993355","6501300","土城區"
"236039","271-VK","2018/09/07 20:07:23","新北市土城區延吉街355號","121.46457","24.9838783333333","6501300","土城區"
"236020","401-BY","2018/09/07 20:04:27","新北市土城區延吉街111巷12弄15-3號","121.47162","24.9852183333333","6501300","土城區"
"236059","752-BX","2018/09/07 20:05:14","新北市土城區中央路二段183號","121.442063333333","24.9757816666667","6501300","土城區"
"236048","913-UM","2018/09/07 20:05:07","新北市土城區金城路三段151號","121.468556666667","24.98832","6501300","土城區"
"236063","915-UM","2018/09/07 20:03:24","新北市土城區延和路11號","121.463865","24.98803","6501300","土城區"
"236055","AAC-216","2018/09/07 20:06:49","新北市土城區中華路一段14號","121.447926666667","24.9905366666667","6501300","土城區"
"242037","AAC-296","2018/09/07 20:06:15","新北市新莊區建安街35巷20號","121.429925","25.0258766666667","6500500","新莊區"
"242058","986-R7","2018/09/07 20:02:14","新北市新莊區八德街57號","121.424866666667","25.022145","6500500","新莊區"
"242056","751-BX","2018/09/07 20:02:41","新北市新莊區新豐街65號","121.446348333333","25.0334766666667","6500500","新莊區"
"242027","615-BX","2018/09/07 20:06:47","新北市新莊區中平路289號","121.444745","25.0507133333333","6500500","新莊區"
"242025","613-BX","2018/09/07 20:04:02","新北市新莊區化成路630巷12號","121.466711666667","25.055105","6500500","新莊區"
"242044","566-BX","2018/09/07 20:05:46","新北市新莊區萬壽路一段21巷17弄3號","121.410868333333","25.0205266666667","6500500","新莊區"
"242048","497-BY","2018/09/07 20:03:21","新北市新莊區後港二路10號","121.422893333333","25.0240733333333","6500500","新莊區"
"242054","441-UM","2018/09/07 20:05:52","新北市新莊區西盛街395巷25弄1號","121.428631666667","25.0122916666667","6500500","新莊區"
"242002","440-UM","2018/09/07 20:06:25","新北市新莊區中正路92號","121.455451666667","25.03672","6500500","新莊區"
"242039","415-TV","2018/09/07 20:07:26","新北市新莊區民安西路110號","121.426856666667","25.01881","6500500","新莊區"
"242009","413-TV","2018/09/07 20:05:14","新北市新莊區昌隆街28號","121.454066666667","25.0507816666667","6500500","新莊區"
"242023","362-BY","2018/09/07 20:04:35","新北市新莊區化成路540-2號","121.466286666667","25.05339","6500500","新莊區"
"242060","353-BY","2018/09/07 20:02:34","新北市新莊區瓊林路瓊英巷8弄8號","121.443211666667","25.02797","6500500","新莊區"
"242011","132-UY","2018/09/07 20:03:48","新北市新莊區中和街204巷3號","121.447965","25.0503783333333","6500500","新莊區"
"242041","133-UY","2018/09/07 20:08:14","新北市新莊區壽山路69號","121.409946666667","25.0326866666667","6500500","新莊區"
"242034","135-UY","2018/09/07 20:02:55","新北市新莊區建中街81巷8號","121.447355","25.0362316666667","6500500","新莊區"
"242050","172-VK","2018/09/07 20:02:54","新北市新莊區民安西路142號","121.426226666667","25.0167483333333","6500500","新莊區"
"242019","175-VK","2018/09/07 20:03:41","新北市新莊區民樂街63號","121.457698333333","25.0417866666667","6500500","新莊區"
"242007","176-VK","2018/09/07 20:06:09","新北市新莊區福壽街202巷15號","121.458818333333","25.0537983333333","6500500","新莊區"
"242017","346-TH","2018/09/07 20:03:37","新北市新莊區中安街9號","121.452881666667","25.0457366666667","6500500","新莊區"
"242046","347-TH","2018/09/07 20:06:27","新北市新莊區裕民街85巷20號","121.419536666667","25.0232066666667","6500500","新莊區"
"242032","348-TH","2018/09/07 20:06:53","新北市新莊區中正路400號","121.44156","25.033865","6500500","新莊區"
"242005","349-TH","2018/09/07 20:08:47","新北市新莊區頭前路146號","121.462238333333","25.0525166666667","6500500","新莊區"
"242021","350-TH","2018/09/07 20:06:30","新北市新莊區中興街5號","121.449218333333","25.03588","6500500","新莊區"
"242015","351-TH","2018/09/07 20:04:24","新北市新莊區中平路6巷36號","121.445585","25.0426816666667","6500500","新莊區"
"238015","755-BX","2018/09/07 20:07:39","新北市樹林區育德街78-1號","121.387456666667","24.9683033333333","6500700","樹林區"
"221008","489-VK","2018/09/07 20:07:31","新北市汐止區忠三街7號","121.6246","25.0785966666667","6501100","汐止區"
"221036","130-UY","2018/09/07 20:04:51","新北市汐止區新台五路二段39號","121.663128333333","25.0665116666667","6501100","汐止區"
"221015","131-UY","2018/09/07 20:08:31","新北市汐止區建成路27號","121.664121666667","25.0726783333333","6501100","汐止區"
"221010","269-BY","2018/09/07 20:06:08","新北市汐止區八連路一段203號","121.64116","25.0808183333333","6501100","汐止區"
"221012","278-VK","2018/09/07 20:07:12","新北市汐止區汐平路二段44號","121.695186666667","25.06504","6501100","汐止區"
"221023","279-VK","2018/09/07 20:03:19","新北市汐止區明峰街298巷1號","121.625325","25.0678933333333","6501100","汐止區"
"221032","280-BY","2018/09/07 20:08:36","新北市汐止區弘道街8巷5弄6號","121.617378333333","25.0478733333333","6501100","汐止區"
"221027","281-BY","2018/09/07 20:06:41","新北市汐止區和平街101號","121.660888333333","25.0700833333333","6501100","汐止區"
"221033","297-VK","2018/09/07 20:08:25","新北市汐止區東勢街201巷104號","121.6336","25.0428516666667","6501100","汐止區"
"221029","298-VK","2018/09/07 20:06:57","新北市汐止區樟樹一路135巷17號","121.641448333333","25.0654916666667","6501100","汐止區"
"221031","353-TW","2018/09/07 20:04:59","新北市汐止區中興路214巷7弄2號","121.631501666667","25.0666266666667","6501100","汐止區"
"221035","622-UM","2018/09/07 20:07:59","新北市汐止區長江街67巷2弄10號","121.657108333333","25.0724983333333","6501100","汐止區"
"221025","623-UM","2018/09/07 20:05:15","新北市汐止區秀峰路76號","121.659845","25.0642566666667","6501100","汐止區"
"221038","646-BX","2018/09/07 20:08:48","新北市汐止區大同路三段75號","121.667556666667","25.0771416666667","6501100","汐止區"
"221002","707-TV","2018/09/07 20:07:50","新北市汐止區翠峰街21巷3弄18號","121.64436","25.0758033333333","6501100","汐止區"
"221018","753-BX","2018/09/07 20:08:56","新北市汐止區茄苳路317號","121.67361","25.06658","6501100","汐止區"
"220101","245-BX","2018/09/07 20:07:02","新北市板橋區莒光路171巷1弄16號","121.474563333333","25.024605","6500100","板橋區"
"220094","285-UM","2018/09/07 20:05:17","新北市板橋區陽明街46-1號","121.465788333333","25.0219766666667","6500100","板橋區"
"220053","285-VK","2018/09/07 20:06:25","新北市板橋區中山路二段311號","121.478908333333","25.0184566666667","6500100","板橋區"
"220083","286-VK","2018/09/07 20:04:16","新北市板橋區僑中二街48巷26號","121.445265","25.0103783333333","6500100","板橋區"
"220081","287-VK","2018/09/07 20:05:46","新北市板橋區僑中一街124巷18弄21號","121.447041666667","25.0136683333333","6500100","板橋區"
"220061","295-UM","2018/09/07 20:04:17","新北市板橋區縣民大道二段200巷35號","121.47073","25.0178233333333","6500100","板橋區"
"242013","281-VK","2018/09/07 20:08:09","新北市新莊區中誠街53巷32號","121.451465","25.047235","6500500","新莊區"
"220092","307-R5","2018/09/07 20:07:12","新北市板橋區文化路一段141號","121.461881666667","25.0157133333333","6500100","板橋區"
"220098","317-R6","2018/09/07 20:05:12","新北市板橋區新海路72巷17號","121.46243","25.02233","6500100","板橋區"
"220064","486-VK","2018/09/07 20:03:56","新北市板橋區區運路61號","121.466726666667","25.0106233333333","6500100","板橋區"
"220088","491-VK","2018/09/07 20:03:24","新北市板橋區民治街63號","121.479581666667","25.0330716666667","6500100","板橋區"
"220103","561-BX","2018/09/07 20:04:23","新北市板橋區自由路34號","121.465628333333","25.0230766666667","6500100","板橋區"
"220063","609-BX","2018/09/07 20:03:09","新北市板橋區中山路二段90巷2號","121.475235","25.01613","6500100","板橋區"
"220093","689-BX","2018/09/07 20:04:44","新北市板橋區長江路二段108號","121.465186666667","25.0313933333333","6500100","板橋區"
"220102","KEA-2699","2018/09/07 20:07:37","新北市板橋區懷德街78巷21號","121.477801666667","25.0312583333333","6500100","板橋區"
"220055","827-TW","2018/09/07 20:04:49","新北市板橋區仁愛路86巷22-1號","121.46084","24.9986383333333","6500100","板橋區"
"220068","829-TW","2018/09/07 20:05:51","新北市板橋區中山路二段412巷23號","121.48365","25.0201283333333","6500100","板橋區"
"220067","830-TW","2018/09/07 20:05:03","新北市板橋區中山路一段206巷50號","121.471465","25.0128816666667","6500100","板橋區"
"220089","833-TW","2018/09/07 20:04:19","新北市板橋區互助街85號","121.459831666667","25.02595","6500100","板橋區"
"220074","895-R6","2018/09/07 20:05:08","新北市板橋區文化路一段32巷11號","121.459776666667","25.01133","6500100","板橋區"
"220097","AAC-210","2018/09/07 20:04:28","新北市板橋區光正街18巷11號","121.46266","25.0176216666667","6500100","板橋區"
"220070","AAC-253","2018/09/07 20:07:38","新北市板橋區德興街16號","121.453413333333","24.9944016666667","6500100","板橋區"
"235068","KEA-2873","2018/09/07 20:08:11","新北市中和區永和路39巷10號","121.497555","25.0050383333333","6500300","中和區"
