"lineid","car","time","location","longitude","latitude","cityid","cityname"
"234046","148-BY","2018/09/07 20:14:21","新北市永和區得和路301號","121.522936666667","24.9996583333333","6500400","永和區"
"234007","207-UY","2018/09/07 20:16:30","新北市永和區環河西路二段229巷1號","121.501393333333","25.0099866666667","6500400","永和區"
"234081","298-R6","2018/09/07 20:10:13","新北市永和區國中路101號","121.524108333333","25.0061116666667","6500400","永和區"
"234038","336-UY","2018/09/07 20:12:46","新北市永和區成功路一段93巷23弄9號","121.528528333333","25.00313","6500400","永和區"
"234064","337-UY","2018/09/07 20:12:06","新北市永和區得和路249-4號","121.520801666667","24.9998483333333","6500400","永和區"
"234086","338-UY","2018/09/07 20:07:46","新北市永和區中正路495號","121.516878333333","25.006725","6500400","永和區"
"234070","552-UM","2018/09/07 20:12:35","新北市永和區永貞路10巷1弄1號","121.520543333333","25.007225","6500400","永和區"
"234017","745-BX","2018/09/07 20:14:25","新北市永和區文化路32號","121.51504","25.0151233333333","6500400","永和區"
"234030","746-BX","2018/09/07 20:07:32","新北市永和區民權路49巷5弄34號","121.522013333333","24.997875","6500400","永和區"
"234054","KEA-2590","2018/09/07 20:14:51","新北市永和區光復街2巷16弄15號","121.517621666667","25.0163366666667","6500400","永和區"
"234013","KEA-2591","2018/09/07 20:14:23","新北市永和區保生路3號","121.506403333333","25.0073366666667","6500400","永和區"
"234061","AAD-866","2018/09/07 20:12:29","新北市永和區中正路151巷1號","121.516103333333","24.998435","6500400","永和區"
"234042","862-TW","2018/09/07 20:07:46","新北市永和區雙和街64巷1號","121.50916","25.0034533333333","6500400","永和區"
"234050","863-TW","2018/09/07 20:07:59","新北市永和區新生路206號","121.50556","25.0132916666667","6500400","永和區"
"234011","9373-KE","2018/09/07 20:18:34","新北市永和區保生路55-1號","121.504536666667","25.01089","6500400","永和區"
"249005","172-UM","2018/09/07 20:08:33","新北市八里區下罟子61號","121.38713","25.1363166666667","6502300","八里區"
"249001","173-UM","2018/09/07 20:17:49","新北市八里區中華路二段516號","121.39948","25.1452833333333","6502300","八里區"
"249004","303-UY","2018/09/07 20:14:55","新北市八里區中山路一段127號","121.413463333333","25.1592866666667","6502300","八里區"
"249002","305-UY","2018/09/07 20:13:18","新北市八里區龍米路一段3-6號","121.457133333333","25.1176583333333","6502300","八里區"
"249003","593-UM","2018/09/07 20:15:22","新北市八里區中山路二段447巷7號","121.397","25.14545","6502300","八里區"
"248014","025-BX","2018/09/07 20:19:16","新北市八里區荖阡坑路4-26號","121.398303333333","25.14286","6501500","五股區"
"248012","247-BX","2018/09/07 20:16:56","新北市五股區六合街94號","121.431295","25.0910133333333","6501500","五股區"
"248016","261-SL","2018/09/07 20:13:36","新北市五股區凌雲路一段158巷44號","121.447038333333","25.1039066666667","6501500","五股區"
"248004","677-BX","2018/09/07 20:10:53","新北市五股區成泰路一段194-1號","121.435605","25.0779166666667","6501500","五股區"
"248002","678-BX","2018/09/07 20:14:38","新北市五股區成泰路三段191號","121.445675","25.0923366666667","6501500","五股區"
"234023","9380-KE","2018/09/07 20:09:28","新北市永和區永和路二段127號","121.51501","25.012015","6500400","永和區"
"234077","969-R7","2018/09/07 20:13:39","新北市永和區民有街18號","121.516533333333","24.9966316666667","6500400","永和區"
"234074","AAC-211","2018/09/07 20:11:15","新北市永和區竹林路159號","121.520643333333","25.01033","6500400","永和區"
"234067","AAC-212","2018/09/07 20:12:51","新北市永和區保平路214巷8弄2號","121.509526666667","25.006235","6500400","永和區"
"234003","AAC-295","2018/09/07 20:12:30","新北市永和區自強街32巷2號","121.5157","25.00789","6500400","永和區"
"244023","483-VK","2018/09/07 20:15:07","新北市八里區中華路三段170-1號","121.392241666667","25.1302766666667","6501700","林口區"
"243013","AAD-798","2018/09/07 20:17:45","新北市泰山區新民路24號","121.4267","25.0445866666667","6501600","泰山區"
"243009","297-R6","2018/09/07 20:10:13","新北市泰山區泰林路二段109-1號","121.434533333333","25.0592516666667","6501600","泰山區"
"243016","KEA-2801","2018/09/07 20:12:57","新北市泰山區明志路三段326號","121.422221666667","25.0356866666667","6501600","泰山區"
"243015","421-VK","2018/09/07 20:09:08","新北市泰山區明志路一段332號","121.431166666667","25.0587966666667","6501600","泰山區"
"243011","KEA-2215","2018/09/07 20:15:36","新北市新莊區丹鳳街36號","121.42165","25.0295733333333","6501600","泰山區"
"243010","KEA-2216","2018/09/07 20:15:32","新北市泰山區明志路二段254巷16弄4號","121.426206666667","25.0481516666667","6501600","泰山區"
"243012","646-TV","2018/09/07 20:14:47","新北市泰山區楓江路119號","121.438903333333","25.06432","6501600","泰山區"
"243014","680-BX","2018/09/07 20:07:58","新北市泰山區明志路一段124號","121.43341","25.06364","6501600","泰山區"
"222003","436-BY","2018/09/07 20:15:58","新北市深坑區埔新街99號","121.619191666667","25.00225","6501800","深坑區"
"222002","659-BX","2018/09/07 20:16:53","新北市深坑區萬福路75巷21號","121.59915","25.009705","6501800","深坑區"
"231041","002-UM","2018/09/07 20:15:36","新北市新店區民權路126號","121.535035","24.9829066666667","6500600","新店區"
"231059","046-UY","2018/09/07 20:14:39","新北市新店區安德街42號","121.511353333333","24.9625666666667","6500600","新店區"
"231040","047-UY","2018/09/07 20:18:00","新北市新店區中正路121號","121.542138333333","24.97118","6500600","新店區"
"231044","106-UY","2018/09/07 20:19:00","新北市新店區北新路三段94號","121.54187","24.98091","6500600","新店區"
"231053","108-UY","2018/09/07 20:15:01","新北市新店區新烏路三段1號","121.552178333333","24.9064283333333","6500600","新店區"
"231064","110-UY","2018/09/07 20:18:44","新北市新店區安業街8巷1號","121.515945","24.9773266666667","6500600","新店區"
"231048","187-VK","2018/09/07 20:14:33","新北市新店區永華街33巷9號","121.544095","24.9766666666667","6500600","新店區"
"231054","KEA-2219","2018/09/07 20:11:29","新北市新店區檳榔路38號","121.541511666667","24.96381","6500600","新店區"
"231057","256-BX","2018/09/07 20:13:02","新北市新店區花園一路一段1號","121.55195","24.932895","6500600","新店區"
"231042","268-BY","2018/09/07 20:15:06","新北市新店區中興路二段55-1號","121.546556666667","24.9703266666667","6500600","新店區"
"231051","278-BY","2018/09/07 20:18:09","新北市新店區中央六街109號","121.525543333333","24.977235","6500600","新店區"
"231050","AAD-862","2018/09/07 20:18:54","新北市新店區博愛街11巷1號","121.540873333333","24.97305","6500600","新店區"
"231066","4716-K9","2018/09/07 20:18:46","新北市新店區柴埕路52巷1-1號","121.511335","24.9642966666667","6500600","新店區"
"231056","4715-K9","2018/09/07 20:13:53","新北市新店區中正路328巷5號","121.537175","24.9752966666667","6500600","新店區"
"231067","4772-VM","2018/09/07 20:18:13","新北市新店區安康路一段46巷4號","121.530675","24.9610716666667","6500600","新店區"
"231065","512-UM","2018/09/07 20:18:53","新北市新店區安祥路106巷26號","121.477691666667","24.9622","6500600","新店區"
"231049","513-UM","2018/09/07 20:13:04","新北市新店區北新路二段97巷9弄17號","121.542221666667","24.97379","6500600","新店區"
"231045","617-UM","2018/09/07 20:11:05","新北市新店區北宜路一段144-2號","121.54014","24.9540983333333","6500600","新店區"
"231061","619-UM","2018/09/07 20:18:24","新北市新店區安民街269巷16號","121.51621","24.9735133333333","6500600","新店區"
"231063","641-BX","2018/09/07 20:16:28","新北市新店區車子路1-1號","121.504748333333","24.9578416666667","6500600","新店區"
"231068","718-UY","2018/09/07 20:17:43","新北市新店區寶安街30號","121.54202","24.9823716666667","6500600","新店區"
"231062","720-UM","2018/09/07 20:19:14","新北市新店區安康路二段316號","121.505381666667","24.9581633333333","6500600","新店區"
"231060","897-TW","2018/09/07 20:17:41","新北市新店區錦秀路11巷38號","121.48085","24.943885","6500600","新店區"
"231043","899-TW","2018/09/07 20:06:54","新北市新店區中正路309號","121.536535","24.9750366666667","6500600","新店區"
"231055","AKT-0513","2018/09/07 20:15:45","新北市新店區中華路48巷27號","121.54115","24.9695","6500600","新店區"
"241011","013-R5","2018/09/07 20:17:06","新北市三重區龍濱路283巷8號","121.501175","25.0737","6500200","三重區"
"241028","022-UY","2018/09/07 20:15:36","新北市三重區大同南路151-3號","121.496636666667","25.057015","6500200","三重區"
"241008","059-VK","2018/09/07 20:13:05","新北市三重區永福街205號","121.479745","25.07465","6500200","三重區"
"241022","060-VK","2018/09/07 20:17:12","新北市三重區中正北路10號","121.488863333333","25.06327","6500200","三重區"
"241031","061-VK","2018/09/07 20:18:22","新北市三重區三寧街22號","121.489345","25.0600716666667","6500200","三重區"
"241015","062-VK","2018/09/07 20:15:49","新北市三重區重新路一段51-2號","121.501893333333","25.0636816666667","6500200","三重區"
"241017","063-VK","2018/09/07 20:18:51","新北市三重區自強路一段199號","121.491678333333","25.0683133333333","6500200","三重區"
"241024","065-VK","2018/09/07 20:17:51","新北市三重區中正北路242號","121.48171","25.0679366666667","6500200","三重區"
"241026","066-VK","2018/09/07 20:15:54","新北市三重區中央南路57號","121.501388333333","25.061585","6500200","三重區"
"241002","090-VK","2018/09/07 20:18:37","新北市三重區仁義街101巷2號","121.49788","25.0800516666667","6500200","三重區"
"241003","091-VK","2018/09/07 20:15:38","新北市三重區富華街62號","121.490448333333","25.083035","6500200","三重區"
"241016","266-UM","2018/09/07 20:18:10","新北市三重區大同北路97-3號","121.494426666667","25.0636133333333","6500200","三重區"
"241009","267-UM","2018/09/07 20:16:20","新北市三重區三和路四段382巷119號","121.47983","25.0782216666667","6500200","三重區"
"241018","268-UM","2018/09/07 20:15:45","新北市三重區正義北路222號","121.496011666667","25.06778","6500200","三重區"
"241013","270-UM","2018/09/07 20:16:47","新北市三重區三和路三段155號","121.492076666667","25.0737016666667","6500200","三重區"
"241025","271-UM","2018/09/07 20:13:51","新北市三重區中正北路312巷6號","121.479163333333","25.0686733333333","6500200","三重區"
"241007","398-BY","2018/09/07 20:15:06","新北市三重區三和路四段117巷33號","121.486578333333","25.0779316666667","6500200","三重區"
"241035","KEA-2210","2018/09/07 20:19:05","新北市三重區正義北路33巷24號","121.49827","25.0638283333333","6500200","三重區"
"241004","475-VK","2018/09/07 20:11:34","新北市三重區溪尾街115號","121.489733333333","25.0787766666667","6500200","三重區"
"241020","478-VK","2018/09/07 20:12:30","新北市三重區三和路三段121號","121.49282","25.0731","6500200","三重區"
"241030","480-VK","2018/09/07 20:19:05","新北市三重區環河南路254巷61號","121.487805","25.0523516666667","6500200","三重區"
"241014","543-UM","2018/09/07 20:17:52","新北市三重區介壽路39巷168號","121.502081666667","25.070795","6500200","三重區"
"241023","545-UM","2018/09/07 20:17:42","新北市三重區頂崁街189號","121.477501666667","25.0664183333333","6500200","三重區"
"241001","547-UM","2018/09/07 20:18:40","新北市三重區溪尾街36號","121.490626666667","25.0767566666667","6500200","三重區"
"241019","KEA-2593","2018/09/07 20:15:03","新北市三重區三張街75號","121.490061666667","25.0706766666667","6500200","三重區"
"241006","AAD-863","2018/09/07 20:19:01","新北市三重區車路頭街139巷14號","121.484281666667","25.0762266666667","6500200","三重區"
"241005","887-TS","2018/09/07 20:17:15","新北市三重區碧華街215號","121.488761666667","25.082835","6500200","三重區"
"241029","942-UM","2018/09/07 20:17:13","新北市三重區中正南路129巷35號","121.493025","25.0567133333333","6500200","三重區"
"241033","AAC-255","2018/09/07 20:18:37","新北市三重區五谷王北街50巷6號","121.475771666667","25.0514483333333","6500200","三重區"
"235066","003-UY","2018/09/07 20:15:24","新北市中和區光華街75號","121.50674","25.0027266666667","6500300","中和區"
"235039","097-UM","2018/09/07 20:17:12","新北市中和區立人街24-5號","121.518976666667","24.9941383333333","6500300","中和區"
"235065","098-UM","2018/09/07 20:18:25","新北市中和區永和路112號","121.496471666667","25.0059566666667","6500300","中和區"
"235040","150-BY","2018/09/07 20:18:44","新北市中和區安平路38號","121.509971666667","24.99493","6500300","中和區"
"247012","KEA-2869","2018/09/07 20:11:59","新北市蘆洲區民族路250巷10號","121.479701666667","25.088805","6501400","蘆洲區"
"235050","4979-A6","2018/09/07 20:13:51","新北市中和區景新街323-3號","121.511401666667","24.9921233333333","6500300","中和區"
"235069","4980-A6","2018/09/07 20:12:56","新北市中和區景新街132巷8-4號","121.50462","24.9981583333333","6500300","中和區"
"235051","157-BY","2018/09/07 20:13:19","新北市中和區捷運路10-3號","121.509198333333","24.9898166666667","6500300","中和區"
"235059","AAC-215","2018/09/07 20:14:47","新北市中和區圓通路367巷13弄4號","121.49259","24.98816","6500300","中和區"
"220069","AAD-861","2018/09/07 20:07:34","新北市板橋區大明街18-5號","121.458775","25.0029666666667","6500100","板橋區"
"247002","893-R6","2018/09/07 20:17:37","新北市蘆洲區長安街331巷38號","121.455721666667","25.0866316666667","6501400","蘆洲區"
"247016","546-UM","2018/09/07 20:16:22","新北市蘆洲區光華路148號","121.465848333333","25.0823066666667","6501400","蘆洲區"
"247024","500-BY","2018/09/07 20:18:49","新北市蘆洲區光榮路120巷8弄37號","121.4647","25.087945","6501400","蘆洲區"
"247014","339-TH","2018/09/07 20:17:33","新北市蘆洲區中山一路238號","121.472523333333","25.0800733333333","6501400","蘆洲區"
"247006","337-TH","2018/09/07 20:17:36","新北市蘆洲區九芎街167巷6號","121.464948333333","25.0785716666667","6501400","蘆洲區"
"247020","057-VK","2018/09/07 20:18:03","新北市蘆洲區仁愛街57號","121.471816666667","25.0932933333333","6501400","蘆洲區"
"247010","056-VK","2018/09/07 20:17:04","新北市蘆洲區信義路222巷32弄16號","121.480418333333","25.0846183333333","6501400","蘆洲區"
"247018","007-UY","2018/09/07 20:13:02","新北市蘆洲區民族路301號","121.47498","25.0912283333333","6501400","蘆洲區"
"247004","002-UY","2018/09/07 20:19:10","新北市蘆洲區長安街303號","121.457951666667","25.0850533333333","6501400","蘆洲區"
"247022","001-UY","2018/09/07 20:15:58","新北市蘆洲區民族路451號","121.467416666667","25.0886566666667","6501400","蘆洲區"
"224010","AGQ-8101","2018/09/07 20:12:09","新北市瑞芳區汽車路38號","121.846108333333","25.111335","6501200","瑞芳區"
"222001","KEA-2212","2018/09/07 20:17:57","新北市深坑區北深路三段234號","121.600535","25.0041933333333","6501800","深坑區"
"208002","KEA-2872","2018/09/07 20:10:24","新北市金山區中正路147號","121.631936666667","25.2211716666667","6502700","金山區"
"208003","665-BX","2018/09/07 20:08:12","新北市金山區清泉里清水路41巷2號","121.629575","25.2329066666667","6502700","金山區"
"251004","009-UM","2018/09/07 20:14:23","新北市淡水區民族路28號","121.461116666667","25.13646","6501000","淡水區"
"251008","181-VK","2018/09/07 20:15:16","新北市淡水區淡海路111號","121.421885","25.1829","6501000","淡水區"
"251010","413-VK","2018/09/07 20:18:44","新北市淡水區新民街一段134號","121.427511666667","25.1889566666667","6501000","淡水區"
"251012","441-VK","2018/09/07 20:10:44","新北市淡水區淡金路三段290號","121.44889","25.2075116666667","6501000","淡水區"
"251001","559-UM","2018/09/07 20:18:37","新北市淡水區新市二路四段265號","121.445735","25.1924983333333","6501000","淡水區"
"251006","561-UM","2018/09/07 20:14:16","新北市淡水區北新路141巷29號","121.448215","25.179625","6501000","淡水區"
"251009","575-R6","2018/09/07 20:18:36","新北市淡水區中正路38-1號","121.443758333333","25.16926","6501000","淡水區"
"251007","577-R6","2018/09/07 20:17:26","新北市淡水區淡金路一段69號","121.458065","25.1736183333333","6501000","淡水區"
"251003","673-BX","2018/09/07 20:16:29","新北市淡水區中山北路一段229號","121.444465","25.1795166666667","6501000","淡水區"
"207003","550-UM","2018/09/07 20:10:48","新北市萬里區大鵬里萬里加投150-1號","121.644073333333","25.2148416666667","6502800","萬里區"
"207004","225-TW","2018/09/07 20:16:34","新北市萬里區北基里仁七街1號","121.681135","25.17499","6502800","萬里區"
"252002","178-VK","2018/09/07 20:17:10","新北市三芝區中正路一段16-1號","121.502961666667","25.2586516666667","6502100","三芝區"
"252001","292-VK","2018/09/07 20:18:51","新北市三芝區中山路一段14號","121.500693333333","25.2580466666667","6502100","三芝區"
"237006","5529-G3","2018/09/07 20:18:38","新北市三峽區中園街86巷1號","121.367706666667","24.9245216666667","6500900","三峽區"
"236069","105-UM","2018/09/07 20:18:31","新北市土城區中山路32號","121.424218333333","24.9635516666667","6501300","土城區"
"236042","107-UM","2018/09/07 20:08:59","新北市土城區學府路一段200號","121.452803333333","24.9859633333333","6501300","土城區"
"236079","166-UM","2018/09/07 20:08:59","新北市土城區福安街50號","121.418848333333","24.96466","6501300","土城區"
"236030","253-BX","2018/09/07 20:10:45","新北市土城區中央路一段143巷17號","121.447278333333","24.9877383333333","6501300","土城區"
"236026","269-VK","2018/09/07 20:11:05","新北市土城區裕生路67巷8弄2號","121.447966666667","24.9844283333333","6501300","土城區"
"236014","270-VK","2018/09/07 20:04:39","新北市土城區廣明街46號","121.455398333333","24.9931633333333","6501300","土城區"
"236039","271-VK","2018/09/07 20:11:43","新北市土城區延吉街310號","121.463953333333","24.9840266666667","6501300","土城區"
"236020","401-BY","2018/09/07 20:06:27","新北市土城區延吉街111巷12弄18號","121.471575","24.98554","6501300","土城區"
"236059","752-BX","2018/09/07 20:18:54","新北市土城區大安路101-5號","121.433498333333","24.9685683333333","6501300","土城區"
"236048","913-UM","2018/09/07 20:06:27","新北市土城區金城路三段71號","121.466353333333","24.98718","6501300","土城區"
"242037","AAC-296","2018/09/07 20:12:15","新北市新莊區建安街67號","121.428043333333","25.0249733333333","6500500","新莊區"
"242058","986-R7","2018/09/07 20:05:53","新北市新莊區八德街105號","121.424188333333","25.0211633333333","6500500","新莊區"
"242056","751-BX","2018/09/07 20:04:17","新北市新莊區新莊路649巷13弄2號","121.444975","25.03189","6500500","新莊區"
"242027","615-BX","2018/09/07 20:12:27","新北市新莊區幸福路690號","121.450296666667","25.0492816666667","6500500","新莊區"
"242025","613-BX","2018/09/07 20:04:02","新北市新莊區化成路630巷12號","121.466711666667","25.055105","6500500","新莊區"
"242044","566-BX","2018/09/07 20:13:06","新北市新莊區中正路907號","121.411086666667","25.0213833333333","6500500","新莊區"
"242048","497-BY","2018/09/07 20:08:01","新北市新莊區四維路152巷28號","121.422005","25.0225866666667","6500500","新莊區"
"242054","441-UM","2018/09/07 20:12:51","新北市新莊區民安西路302號","121.4263","25.0120916666667","6500500","新莊區"
"242002","440-UM","2018/09/07 20:10:05","新北市新莊區中正路145號","121.459625","25.0383116666667","6500500","新莊區"
"242039","415-TV","2018/09/07 20:13:38","新北市新莊區龍安路481號","121.425535","25.0182233333333","6500500","新莊區"
"242009","413-TV","2018/09/07 20:10:13","新北市新莊區昌平街26號","121.454955","25.0528816666667","6500500","新莊區"
"242023","362-BY","2018/09/07 20:10:36","新北市新莊區化成路694號","121.465855","25.0562766666667","6500500","新莊區"
"242060","353-BY","2018/09/07 20:07:54","新北市新莊區瓊林路100巷1號","121.443483333333","25.0264283333333","6500500","新莊區"
"242011","132-UY","2018/09/07 20:08:28","新北市新莊區中信街61號","121.449281666667","25.0508116666667","6500500","新莊區"
"242041","133-UY","2018/09/07 20:14:34","新北市新莊區壽山路39號","121.415696666667","25.03068","6500500","新莊區"
"242034","135-UY","2018/09/07 20:07:15","新北市新莊區中正路318巷11號","121.446261666667","25.035695","6500500","新莊區"
"242050","172-VK","2018/09/07 20:09:46","新北市新莊區民安西路174號","121.42599","25.0159533333333","6500500","新莊區"
"242019","175-VK","2018/09/07 20:08:41","新北市新莊區長青街15號","121.458555","25.042335","6500500","新莊區"
"242007","176-VK","2018/09/07 20:11:49","新北市新莊區福壽街164巷20號","121.459306666667","25.05275","6500500","新莊區"
"242017","346-TH","2018/09/07 20:09:57","新北市新莊區中港路350號","121.45188","25.04645","6500500","新莊區"
"242046","347-TH","2018/09/07 20:11:47","新北市新莊區裕民街126號","121.418023333333","25.0224783333333","6500500","新莊區"
"242032","348-TH","2018/09/07 20:09:33","新北市新莊區義豐街29號","121.441138333333","25.035355","6500500","新莊區"
"242005","349-TH","2018/09/07 20:10:47","新北市新莊區頭興街11巷3號","121.461818333333","25.05342","6500500","新莊區"
"242021","350-TH","2018/09/07 20:16:51","新北市新莊區和興街43號","121.446711666667","25.0404083333333","6500500","新莊區"
"242015","351-TH","2018/09/07 20:13:24","新北市新莊區中平路26巷53號","121.44736","25.0435183333333","6500500","新莊區"
"221008","489-VK","2018/09/07 20:17:51","新北市汐止區康寧街44號","121.618435","25.066735","6501100","汐止區"
"221036","130-UY","2018/09/07 20:11:11","新北市汐止區福安街59巷4號","121.664183333333","25.063645","6501100","汐止區"
"221015","131-UY","2018/09/07 20:17:18","新北市汐止區建成路142巷19弄1號","121.66221","25.07371","6501100","汐止區"
"221010","269-BY","2018/09/07 20:12:44","新北市汐止區八連路二段231號","121.632828333333","25.0960233333333","6501100","汐止區"
"221012","278-VK","2018/09/07 20:16:51","新北市汐止區保新街一段285號","121.692823333333","25.0683133333333","6501100","汐止區"
"221023","279-VK","2018/09/07 20:14:59","新北市汐止區明峰街86號","121.63132","25.0711583333333","6501100","汐止區"
"221032","280-BY","2018/09/07 20:14:56","新北市汐止區民權街二段70號","121.619006666667","25.04829","6501100","汐止區"
"221027","281-BY","2018/09/07 20:18:24","新北市汐止區大同路二段478號","121.660216666667","25.0679666666667","6501100","汐止區"
"221033","297-VK","2018/09/07 20:14:25","新北市汐止區東勢街201巷104號","121.633571666667","25.0428483333333","6501100","汐止區"
"221029","298-VK","2018/09/07 20:16:37","新北市汐止區樟樹一路99巷7弄2號","121.641141666667","25.0636483333333","6501100","汐止區"
"221031","353-TW","2018/09/07 20:18:59","新北市汐止區中興路150巷13號","121.632863333333","25.06498","6501100","汐止區"
"221035","622-UM","2018/09/07 20:17:59","新北市汐止區長江街101-5號","121.658695","25.0732166666667","6501100","汐止區"
"221025","623-UM","2018/09/07 20:16:55","新北市汐止區水源路二段32號","121.654848333333","25.05732","6501100","汐止區"
"221038","646-BX","2018/09/07 20:18:08","新北市汐止區忠孝東路438號","121.666163333333","25.07239","6501100","汐止區"
"221002","707-TV","2018/09/07 20:15:50","新北市汐止區福德三路67號","121.636756666667","25.06933","6501100","汐止區"
"221018","753-BX","2018/09/07 20:18:56","新北市汐止區茄苳路277號","121.672293333333","25.0679716666667","6501100","汐止區"
"220101","245-BX","2018/09/07 20:19:02","新北市板橋區雙十路二段6-5號","121.476806666667","25.0261466666667","6500100","板橋區"
"220083","286-VK","2018/09/07 20:09:16","新北市板橋區僑中二街88巷28號","121.44501","25.0096216666667","6500100","板橋區"
"220081","287-VK","2018/09/07 20:12:46","新北市板橋區僑中一街102巷5弄3號","121.44666","25.0125366666667","6500100","板橋區"
"220061","295-UM","2018/09/07 20:18:37","新北市板橋區四川路一段107號","121.45973","25.0051316666667","6500100","板橋區"
"220092","307-R5","2018/09/07 20:10:12","新北市板橋區文化路一段45巷1弄1號","121.46037","25.0136016666667","6500100","板橋區"
"220098","317-R6","2018/09/07 20:09:32","新北市板橋區新海路72巷5弄21號","121.461678333333","25.0227883333333","6500100","板橋區"
"220064","486-VK","2018/09/07 20:08:56","新北市板橋區長安街331巷98號","121.471878333333","25.0127816666667","6500100","板橋區"
"220088","491-VK","2018/09/07 20:11:24","新北市板橋區萬板路820號","121.483456666667","25.0275466666667","6500100","板橋區"
"220103","561-BX","2018/09/07 20:09:43","新北市板橋區自由路26巷17號","121.466376666667","25.0225366666667","6500100","板橋區"
"220093","689-BX","2018/09/07 20:06:25","新北市板橋區長江路一段174號","121.461635","25.0304866666667","6500100","板橋區"
"220102","KEA-2699","2018/09/07 20:14:57","新北市板橋區文化路二段365號","121.473041666667","25.0308616666667","6500100","板橋區"
"220055","827-TW","2018/09/07 20:10:09","新北市板橋區忠孝路48巷11弄6號","121.461646666667","24.9997833333333","6500100","板橋區"
"220068","829-TW","2018/09/07 20:07:51","新北市板橋區中山路二段416巷66弄7號","121.482616666667","25.0185866666667","6500100","板橋區"
"220067","830-TW","2018/09/07 20:12:22","新北市板橋區中山路二段312號","121.47998","25.01903","6500100","板橋區"
"220089","833-TW","2018/09/07 20:10:00","新北市板橋區互助街13號","121.463046666667","25.02766","6500100","板橋區"
"220074","895-R6","2018/09/07 20:09:48","新北市板橋區館前西路92號","121.457326666667","25.0072783333333","6500100","板橋區"
"220097","AAC-210","2018/09/07 20:08:28","新北市板橋區光正街18巷1號","121.462558333333","25.0172566666667","6500100","板橋區"
"220070","AAC-253","2018/09/07 20:13:58","新北市板橋區四川路二段245巷48號","121.451898333333","24.9924566666667","6500100","板橋區"
"235068","KEA-2873","2018/09/07 20:18:41","新北市中和區勝利路35巷1弄35號","121.500171666667","25.00784","6500300","中和區"
