"lineid","car","time","location","longitude","latitude","cityid","cityname"
"249002","305-UY","2018/09/07 20:37:58","新北市八里區龍米路三段52號","121.424593333333","25.159175","6502300","八里區"
"234023","9380-KE","2018/09/07 20:32:28","新北市永和區博愛街37號","121.518721666667","25.0158583333333","6500400","永和區"
"234074","AAC-211","2018/09/07 20:29:15","新北市永和區豫溪街191巷7弄23號","121.523248333333","25.010985","6500400","永和區"
"231059","046-UY","2018/09/07 20:36:18","新北市新店區安豐路46號","121.500153333333","24.9550233333333","6500600","新店區"
"231040","047-UY","2018/09/07 20:29:20","新北市新店區中正路348號","121.536341666667","24.975215","6500600","新店區"
"231053","108-UY","2018/09/07 20:37:21","新北市新店區廣興路7-10號","121.545678333333","24.9117016666667","6500600","新店區"
"231064","110-UY","2018/09/07 20:32:45","新北市新店區永安街74巷17號","121.519223333333","24.98593","6500600","新店區"
"231048","187-VK","2018/09/07 20:33:53","新北市新店區寶慶街70號","121.54178","24.9867233333333","6500600","新店區"
"231054","KEA-2219","2018/09/07 20:30:29","新北市新店區檳榔路105號","121.544646666667","24.961595","6500600","新店區"
"231042","268-BY","2018/09/07 20:35:25","新北市新店區寶橋路230號","121.551511666667","24.9788883333333","6500600","新店區"
"231051","278-BY","2018/09/07 20:37:29","新北市新店區中央三街85號","121.525988333333","24.975765","6500600","新店區"
"231050","AAD-862","2018/09/07 20:36:52","新北市新店區中正路256號","121.539256666667","24.973315","6500600","新店區"
"231058","3713-VJ","2018/09/07 20:36:05","新北市新店區平等街23號","121.536701666667","24.9736983333333","6500600","新店區"
"231066","4716-K9","2018/09/07 20:37:45","新北市新店區安民街365巷1弄8號","121.516225","24.9750833333333","6500600","新店區"
"231067","4772-VM","2018/09/07 20:38:13","新北市新店區安華路28-1號","121.519736666667","24.9609983333333","6500600","新店區"
"231065","512-UM","2018/09/07 20:34:13","新北市新店區安祥路102巷46弄53號","121.486338333333","24.963575","6500600","新店區"
"231049","513-UM","2018/09/07 20:36:04","新北市新店區永業路81巷7弄1號","121.530483333333","24.9487633333333","6500600","新店區"
"231061","619-UM","2018/09/07 20:37:04","新北市新店區新和街36號","121.519266666667","24.9849166666667","6500600","新店區"
"231063","641-BX","2018/09/07 20:37:48","新北市新店區玫瑰路4-1號","121.493633333333","24.9513816666667","6500600","新店區"
"231068","718-UY","2018/09/07 20:38:03","新北市新店區寶元路一段65號","121.542255","24.9858433333333","6500600","新店區"
"231062","720-UM","2018/09/07 20:36:14","新北市新店區安泰路60巷87號","121.484146666667","24.9444566666667","6500600","新店區"
"231060","897-TW","2018/09/07 20:36:41","新北市新店區安康路三段740號","121.473858333333","24.94192","6500600","新店區"
"241011","013-R5","2018/09/07 20:36:06","新北市三重區龍門路181號","121.499343333333","25.0732766666667","6500200","三重區"
"241028","022-UY","2018/09/07 20:37:36","新北市三重區光興街89號","121.497431666667","25.0599633333333","6500200","三重區"
"241008","059-VK","2018/09/07 20:38:05","新北市三重區下竹圍街91號","121.481113333333","25.07481","6500200","三重區"
"241022","060-VK","2018/09/07 20:33:12","新北市三重區中正北路20巷12號","121.48801","25.0625866666667","6500200","三重區"
"241031","061-VK","2018/09/07 20:35:22","新北市三重區重陽路一段113巷1弄51號","121.488155","25.0585033333333","6500200","三重區"
"241015","062-VK","2018/09/07 20:37:49","新北市三重區文化北路200弄1號","121.497943333333","25.068105","6500200","三重區"
"241017","063-VK","2018/09/07 20:36:31","新北市三重區安慶街242-1號","121.491183333333","25.0678116666667","6500200","三重區"
"241024","065-VK","2018/09/07 20:35:11","新北市三重區忠孝路三段45號","121.481091666667","25.0666866666667","6500200","三重區"
"241026","066-VK","2018/09/07 20:33:13","新北市三重區和平街44號","121.50234","25.0628233333333","6500200","三重區"
"241002","090-VK","2018/09/07 20:37:57","新北市三重區仁義街167巷19號","121.497778333333","25.0818916666667","6500200","三重區"
"241003","091-VK","2018/09/07 20:33:38","新北市三重區五華街141巷60號","121.493576666667","25.0867966666667","6500200","三重區"
"241016","266-UM","2018/09/07 20:36:51","新北市三重區長壽西街143-2號","121.494558333333","25.0668183333333","6500200","三重區"
"241009","267-UM","2018/09/07 20:37:00","新北市三重區三和路四段420號","121.480581666667","25.080105","6500200","三重區"
"241018","268-UM","2018/09/07 20:34:06","新北市三重區長壽西街143-3號","121.494311666667","25.0666633333333","6500200","三重區"
"241013","270-UM","2018/09/07 20:34:07","新北市三重區三和路四段1號","121.491625","25.074195","6500200","三重區"
"241025","271-UM","2018/09/07 20:38:11","新北市三重區頂崁街210巷28弄1號","121.475886666667","25.0678416666667","6500200","三重區"
"241007","398-BY","2018/09/07 20:38:06","新北市三重區三和路四段95-7號","121.487661666667","25.0761783333333","6500200","三重區"
"241020","462-BY","2018/09/07 20:34:54","新北市三重區忠孝路一段21號","121.492011666667","25.0718116666667","6500200","三重區"
"241004","475-VK","2018/09/07 20:34:54","新北市三重區仁愛街418號","121.49049","25.08137","6500200","三重區"
"241030","480-VK","2018/09/07 20:36:30","新北市三重區成功路73巷6號","121.489238333333","25.0516566666667","6500200","三重區"
"241014","543-UM","2018/09/07 20:37:32","新北市三重區三和路二段156號","121.499293333333","25.0684883333333","6500200","三重區"
"241023","545-UM","2018/09/07 20:35:42","新北市三重區自由街17巷1號","121.479873333333","25.0666266666667","6500200","三重區"
"241001","547-UM","2018/09/07 20:37:20","新北市三重區自強路三段110巷1號","121.48665","25.0746266666667","6500200","三重區"
"241019","KEA-2593","2018/09/07 20:33:43","新北市三重區三張街24號","121.491835","25.071205","6500200","三重區"
"241006","AAD-863","2018/09/07 20:36:41","新北市三重區車路頭街139巷12號","121.484256666667","25.0762183333333","6500200","三重區"
"241005","887-TS","2018/09/07 20:37:55","新北市三重區碧華街436號","121.492831666667","25.0856583333333","6500200","三重區"
"241029","942-UM","2018/09/07 20:38:13","新北市三重區集美街126巷27號","121.490063333333","25.05382","6500200","三重區"
"241033","AAC-255","2018/09/07 20:34:57","新北市三重區光復路二段129巷2號","121.474785","25.0592383333333","6500200","三重區"
"247012","KEA-2869","2018/09/07 20:33:39","新北市蘆洲區中興街179號","121.481888333333","25.08992","6501400","蘆洲區"
"235069","4980-A6","2018/09/07 20:30:35","新北市中和區中正路442巷20號","121.490983333333","24.9951666666667","6500300","中和區"
"235010","733-UM","2018/09/07 20:37:42","新北市新店區安興路125-6號","121.513378333333","24.9781683333333","6500300","中和區"
"247002","893-R6","2018/09/07 20:36:27","新北市蘆洲區永樂街90號","121.45665","25.0886616666667","6501400","蘆洲區"
"247024","500-BY","2018/09/07 20:33:28","新北市蘆洲區長樂路2-15號","121.464923333333","25.083825","6501400","蘆洲區"
"247006","337-TH","2018/09/07 20:33:16","新北市蘆洲區和平路138-3號","121.467025","25.0809566666667","6501400","蘆洲區"
"247008","336-TH","2018/09/07 20:36:50","新北市三重區永安北路二段51-1號","121.482825","25.0832","6501400","蘆洲區"
"247020","057-VK","2018/09/07 20:38:03","新北市蘆洲區民族路331號","121.473773333333","25.0917483333333","6501400","蘆洲區"
"247010","056-VK","2018/09/07 20:34:18","新北市蘆洲區民族路162號","121.479603333333","25.0862866666667","6501400","蘆洲區"
"247004","002-UY","2018/09/07 20:37:50","新北市蘆洲區長安街297號","121.458091666667","25.0848983333333","6501400","蘆洲區"
"222001","KEA-2212","2018/09/07 20:37:40","新北市深坑區北深路三段236號","121.600491666667","25.0042266666667","6501800","深坑區"
"251005","010-UM","2018/09/07 20:37:48","新北市淡水區中正東路40號","121.450343333333","25.16556","6501000","淡水區"
"251002","012-UM","2018/09/07 20:38:03","新北市淡水區中正路38-1號","121.44375","25.1692333333333","6501000","淡水區"
"251008","181-VK","2018/09/07 20:30:56","新北市淡水區淡海路189巷6號","121.42","25.1845533333333","6501000","淡水區"
"251010","413-VK","2018/09/07 20:37:30","新北市淡水區沙崙路181巷15號","121.423975","25.184425","6501000","淡水區"
"251012","441-VK","2018/09/07 20:38:04","新北市淡水區興仁路109號","121.451606666667","25.21818","6501000","淡水區"
"251001","559-UM","2018/09/07 20:29:37","新北市淡水區淡金路一段571號","121.452661666667","25.1807583333333","6501000","淡水區"
"251009","575-R6","2018/09/07 20:36:16","新北市淡水區民權路185-10號","121.459283333333","25.1335433333333","6501000","淡水區"
"251007","577-R6","2018/09/07 20:36:46","新北市淡水區淡金路一段69號","121.458035","25.1735766666667","6501000","淡水區"
"251011","650-BX","2018/09/07 20:37:41","新北市淡水區新市一路一段306號","121.436418333333","25.1861283333333","6501000","淡水區"
"251003","673-BX","2018/09/07 20:32:49","新北市淡水區新民街64號","121.438771666667","25.1760716666667","6501000","淡水區"
"221027","281-BY","2018/09/07 20:30:21","新北市汐止區中正路233號","121.657851666667","25.068715","6501100","汐止區"
"221029","298-VK","2018/09/07 20:34:04","新北市汐止區大同路一段515巷6-1號","121.642518333333","25.06318","6501100","汐止區"
"221035","622-UM","2018/09/07 20:37:59","新北市汐止區長江街101-5號","121.658743333333","25.0731683333333","6501100","汐止區"
"221018","753-BX","2018/09/07 20:34:36","新北市汐止區茄苳路70號","121.666706666667","25.0706783333333","6501100","汐止區"
"220070","AAC-253","2018/09/07 20:33:58","新北市五股區新五路三段181號","121.448271666667","25.0926366666667","6500100","板橋區"
