"lineid","car","time","location","longitude","latitude","cityid","cityname"
"249002","305-UY","2018/09/07 21:00:58","新北市八里區中山路三段392號","121.366871666667","25.1354266666667","6502300","八里區"
"234077","969-R7","2018/09/07 21:00:59","新北市八里區荖阡坑路34號","121.401635","25.12983","6500400","永和區"
"231059","046-UY","2018/09/07 21:00:59","新北市新店區僑信路130號","121.500705","24.9458483333333","6500600","新店區"
"231040","047-UY","2018/09/07 21:00:40","新北市新店區中正路148號","121.541665","24.9716033333333","6500600","新店區"
"231064","110-UY","2018/09/07 21:00:44","新北市新店區安民街241號","121.517228333333","24.9723033333333","6500600","新店區"
"231048","187-VK","2018/09/07 21:00:53","新北市新店區寶元路一段109號","121.545695","24.9831233333333","6500600","新店區"
"231054","KEA-2219","2018/09/07 21:00:49","新北市新店區北新路一段96巷23號","121.543003333333","24.96877","6500600","新店區"
"231042","268-BY","2018/09/07 21:00:45","新北市新店區中興路二段161號","121.548131666667","24.9735983333333","6500600","新店區"
"231051","278-BY","2018/09/07 21:00:49","新北市新店區中正路663巷7弄15號","121.53291","24.99011","6500600","新店區"
"231050","AAD-862","2018/09/07 21:00:54","新北市新店區三民路43號","121.537175","24.97094","6500600","新店區"
"231065","512-UM","2018/09/07 21:00:35","新北市新店區安祥路67巷23號","121.48442","24.95983","6500600","新店區"
"231061","619-UM","2018/09/07 21:01:04","新北市新店區永安街87號","121.520081666667","24.9863933333333","6500600","新店區"
"231063","641-BX","2018/09/07 21:00:48","新北市新店區玫瑰路58巷2號","121.49542","24.9466033333333","6500600","新店區"
"231060","897-TW","2018/09/07 21:01:01","新北市新店區安康路三段237號","121.48732","24.95182","6500600","新店區"
"241011","013-R5","2018/09/07 21:00:45","新北市三重區秀江街117號","121.499745","25.0721983333333","6500200","三重區"
"241028","022-UY","2018/09/07 21:00:56","新北市三重區正義南路38號","121.498211666667","25.0609316666667","6500200","三重區"
"241008","059-VK","2018/09/07 21:01:05","新北市三重區車路頭街135號","121.484205","25.0758216666667","6500200","三重區"
"241022","060-VK","2018/09/07 21:00:51","新北市三重區重陽路二段67號","121.487785","25.063955","6500200","三重區"
"241031","061-VK","2018/09/07 21:01:02","新北市三重區過圳街42-1號","121.488191666667","25.059885","6500200","三重區"
"241015","062-VK","2018/09/07 21:00:49","新北市三重區福德北路46號","121.502003333333","25.06544","6500200","三重區"
"241017","063-VK","2018/09/07 21:00:51","新北市三重區國隆路31號","121.492293333333","25.0645416666667","6500200","三重區"
"241024","065-VK","2018/09/07 21:00:51","新北市三重區國道路一段58巷20號","121.481263333333","25.0720966666667","6500200","三重區"
"241026","066-VK","2018/09/07 21:00:53","新北市三重區文化南路36號","121.50027","25.0614416666667","6500200","三重區"
"241002","090-VK","2018/09/07 21:00:57","新北市三重區五華街1巷96號","121.49726","25.08066","6500200","三重區"
"241003","091-VK","2018/09/07 21:00:58","新北市三重區進安街198號","121.493855","25.0859833333333","6500200","三重區"
"241016","266-UM","2018/09/07 21:00:51","新北市三重區信義西街138號","121.495673333333","25.0643216666667","6500200","三重區"
"241009","267-UM","2018/09/07 21:01:00","新北市三重區車路頭街182號","121.483666666667","25.0770916666667","6500200","三重區"
"241018","268-UM","2018/09/07 20:56:26","新北市三重區雙園街95號","121.49388","25.06739","6500200","三重區"
"241013","270-UM","2018/09/07 21:00:47","新北市三重區仁賢街12-1號","121.495695","25.074905","6500200","三重區"
"241025","271-UM","2018/09/07 21:00:51","新北市三重區貴陽街14號","121.484155","25.061825","6500200","三重區"
"241007","398-BY","2018/09/07 21:00:45","新北市三重區三和路四段145巷85號","121.486435","25.078685","6500200","三重區"
"241020","462-BY","2018/09/07 21:00:54","新北市三重區忠孝路二段34號","121.485915","25.0710183333333","6500200","三重區"
"241004","475-VK","2018/09/07 21:00:54","新北市三重區仁愛街423-1號","121.490408333333","25.0814566666667","6500200","三重區"
"241030","480-VK","2018/09/07 21:00:45","新北市三重區環河南路220-8號","121.49335","25.05279","6500200","三重區"
"241014","543-UM","2018/09/07 21:00:52","新北市三重區長榮路75號","121.502605","25.0691766666667","6500200","三重區"
"241023","545-UM","2018/09/07 21:00:42","新北市三重區洛陽街45巷15號","121.482375","25.06379","6500200","三重區"
"241001","547-UM","2018/09/07 21:01:00","新北市三重區自強路三段89號","121.48766","25.0748216666667","6500200","三重區"
"241019","KEA-2593","2018/09/07 21:01:03","新北市三重區自強路二段74巷19號","121.488003333333","25.0699066666667","6500200","三重區"
"241006","AAD-863","2018/09/07 21:01:01","新北市三重區力行路二段35號","121.48199","25.0735566666667","6500200","三重區"
"241005","887-TS","2018/09/07 21:00:55","新北市三重區三信路182號","121.487931666667","25.086165","6500200","三重區"
"241029","942-UM","2018/09/07 21:00:53","新北市三重區正義南路111號","121.498251666667","25.058575","6500200","三重區"
"241033","AAC-255","2018/09/07 21:00:57","新北市三重區光復路二段28號","121.472076666667","25.0542916666667","6500200","三重區"
"247012","KEA-2869","2018/09/07 21:00:59","新北市蘆洲區民權路8-1號","121.476708333333","25.08576","6501400","蘆洲區"
"235010","733-UM","2018/09/07 21:01:02","新北市中和區員山路36巷13號","121.484085","24.9909033333333","6500300","中和區"
"247002","893-R6","2018/09/07 21:00:35","新北市蘆洲區永樂街38巷43號","121.458276666667","25.089795","6501400","蘆洲區"
"247016","546-UM","2018/09/07 21:01:02","新北市蘆洲區正和街104號","121.468011666667","25.0806883333333","6501400","蘆洲區"
"247024","500-BY","2018/09/07 21:00:49","新北市蘆洲區長興路213號","121.461203333333","25.08637","6501400","蘆洲區"
"247014","339-TH","2018/09/07 21:01:02","新北市蘆洲區中央路103號","121.47229","25.0839333333333","6501400","蘆洲區"
"247006","337-TH","2018/09/07 21:00:56","新北市蘆洲區永安南路二段16巷8號","121.467836666667","25.07726","6501400","蘆洲區"
"247008","336-TH","2018/09/07 21:00:50","新北市蘆洲區民生街76號","121.472796666667","25.0791266666667","6501400","蘆洲區"
"247020","057-VK","2018/09/07 21:01:03","新北市蘆洲區民族路488號","121.471091666667","25.0913066666667","6501400","蘆洲區"
"247010","056-VK","2018/09/07 21:00:43","新北市蘆洲區鷺江街76號","121.47693","25.083775","6501400","蘆洲區"
"247018","007-UY","2018/09/07 21:01:02","新北市蘆洲區民權路99號","121.472701666667","25.0890433333333","6501400","蘆洲區"
"247004","002-UY","2018/09/07 21:00:50","新北市蘆洲區永安南路二段268號","121.458686666667","25.0807383333333","6501400","蘆洲區"
"247022","001-UY","2018/09/07 20:59:58","新北市蘆洲區民族路500號","121.46969","25.0904466666667","6501400","蘆洲區"
"251005","010-UM","2018/09/07 21:00:48","新北市淡水區學府路51巷1弄1號","121.447661666667","25.1694533333333","6501000","淡水區"
"251002","012-UM","2018/09/07 21:00:43","新北市淡水區英專路90號","121.445885","25.1715633333333","6501000","淡水區"
"251008","181-VK","2018/09/07 21:00:56","新北市淡水區北投子80號","121.461406666667","25.17863","6501000","淡水區"
"251010","413-VK","2018/09/07 21:00:50","新北市淡水區中正路一段118-3號","121.423881666667","25.1787833333333","6501000","淡水區"
"251012","441-VK","2018/09/07 21:00:44","新北市淡水區淡金路五段116-1號","121.456473333333","25.2369783333333","6501000","淡水區"
"251001","559-UM","2018/09/07 21:00:57","新北市淡水區新市一路三段174號","121.44792","25.1830383333333","6501000","淡水區"
"251009","575-R6","2018/09/07 21:00:56","新北市淡水區民族路112巷68號","121.461735","25.1340433333333","6501000","淡水區"
"251011","650-BX","2018/09/07 21:01:01","新北市淡水區新民街226巷2號","121.436188333333","25.1805783333333","6501000","淡水區"
"251003","673-BX","2018/09/07 20:56:29","新北市淡水區新春街165號","121.442943333333","25.181165","6501000","淡水區"
"242015","351-TH","2018/09/07 20:45:04","新北市新莊區新泰路357巷3弄1號","121.442558333333","25.0413583333333","6500500","新莊區"
"221029","298-VK","2018/09/07 20:59:56","新北市汐止區康寧街901號","121.651711666667","25.0749183333333","6501100","汐止區"
"220070","AAC-253","2018/09/07 21:00:58","新北市八里區中山路三段383號","121.372323333333","25.1376516666667","6500100","板橋區"
