"lineid","car","time","location","longitude","latitude","cityid","cityname"
"234077","969-R7","2018/09/07 21:28:59","新北市五股區成泰路一段98巷77號","121.45025","25.0778783333333","6500400","永和區"
"231054","KEA-2219","2018/09/07 21:28:49","新北市新店區安德街148巷31號","121.505906666667","24.9604983333333","6500600","新店區"
"231063","641-BX","2018/09/07 21:28:48","新北市新店區如意街26號","121.493791666667","24.9483216666667","6500600","新店區"
"241011","013-R5","2018/09/07 21:29:06","新北市三重區龍濱路285號","121.501086666667","25.073315","6500200","三重區"
"241028","022-UY","2018/09/07 21:28:56","新北市新莊區五權一路13-3號","121.459808333333","25.0686433333333","6500200","三重區"
"241017","063-VK","2018/09/07 21:28:51","新北市三重區中正北路25巷2號","121.493175","25.0626833333333","6500200","三重區"
"241024","065-VK","2018/09/07 21:28:51","新北市三重區中正北路145巷14號","121.484121666667","25.067795","6500200","三重區"
"241026","066-VK","2018/09/07 21:28:53","新北市三重區重新路三段45-1號","121.493108333333","25.0611916666667","6500200","三重區"
"241016","266-UM","2018/09/07 21:28:50","新北市三重區正義北路154號","121.496296666667","25.0663433333333","6500200","三重區"
"241007","398-BY","2018/09/07 21:28:45","新北市三重區正義北路113號","121.496903333333","25.0657033333333","6500200","三重區"
"241023","545-UM","2018/09/07 21:29:02","新北市新莊區化成路565號","121.465025","25.0660433333333","6500200","三重區"
"241005","887-TS","2018/09/07 21:28:55","新北市三重區仁華街85號","121.485721666667","25.0829733333333","6500200","三重區"
"247012","KEA-2869","2018/09/07 21:28:59","新北市蘆洲區中正路520巷10號","121.46351","25.0999283333333","6501400","蘆洲區"
"235010","733-UM","2018/09/07 21:07:52","新北市中和區員山路36巷13號","121.484098333333","24.9908583333333","6500300","中和區"
"247008","336-TH","2018/09/07 21:28:50","新北市五股區中興路三段2巷10號","121.448453333333","25.0830883333333","6501400","蘆洲區"
"247018","007-UY","2018/09/07 21:29:02","新北市蘆洲區永樂街106號","121.456075","25.0887583333333","6501400","蘆洲區"
"251004","009-UM","2018/09/07 21:28:58","新北市淡水區民族路27號","121.460731666667","25.1367516666667","6501000","淡水區"
"251005","010-UM","2018/09/07 21:28:48","新北市淡水區水源街一段34巷9號","121.443245","25.171855","6501000","淡水區"
"251008","181-VK","2018/09/07 21:28:56","新北市淡水區水源街二段138-1號","121.453805","25.1748816666667","6501000","淡水區"
"251010","413-VK","2018/09/07 21:28:50","新北市淡水區沙崙路25巷21號","121.420605","25.1824133333333","6501000","淡水區"
"251012","441-VK","2018/09/07 21:29:04","新北市淡水區石頭埔8號","121.452525","25.2346933333333","6501000","淡水區"
"251001","559-UM","2018/09/07 21:28:57","新北市淡水區新市二路三段18號","121.432691666667","25.1936933333333","6501000","淡水區"
"251006","561-UM","2018/09/07 21:28:56","新北市淡水區公明街67號","121.443745","25.168545","6501000","淡水區"
"251009","575-R6","2018/09/07 21:28:56","新北市淡水區民族路33巷16-3號","121.463318333333","25.1360983333333","6501000","淡水區"
"251011","650-BX","2018/09/07 21:29:01","新北市淡水區新民街180-6號","121.436725","25.1788066666667","6501000","淡水區"
"251003","673-BX","2018/09/07 21:28:49","新北市淡水區崁頂15-5號","121.438975","25.185875","6501000","淡水區"
"242015","351-TH","2018/09/07 21:28:44","新北市板橋區大觀路三段2巷31號","121.435258333333","24.9967366666667","6500500","新莊區"
"220070","AAC-253","2018/09/07 21:28:58","新北市板橋區大觀路一段28巷4弄28-2號","121.451071666667","25.0094633333333","6500100","板橋區"
