"lineid","car","time","location","longitude","latitude","cityid","cityname"
"241011","013-R5","2018/09/07 21:58:45","新北市林口區汕頭32號","121.366316666667","25.13474","6500200","三重區"
"247012","KEA-2869","2018/09/07 21:56:39","新北市林口區太平里180號","121.368473333333","25.1341533333333","6501400","蘆洲區"
"251004","009-UM","2018/09/07 21:58:58","新北市淡水區民權路133號","121.460088333333","25.1365966666667","6501000","淡水區"
"251005","010-UM","2018/09/07 21:58:48","新北市淡水區鄧公路30巷2弄55號","121.454105","25.1692483333333","6501000","淡水區"
"251002","012-UM","2018/09/07 21:59:03","新北市淡水區中山北路一段166號","121.444161666667","25.1783766666667","6501000","淡水區"
"251008","181-VK","2018/09/07 21:58:56","新北市淡水區學府路104號","121.449873333333","25.17183","6501000","淡水區"
"251010","413-VK","2018/09/07 21:58:50","新北市淡水區中正路二段215號","121.426261666667","25.189315","6501000","淡水區"
"251006","561-UM","2018/09/07 21:58:56","新北市淡水區中正路11巷3號","121.437821666667","25.1707633333333","6501000","淡水區"
"251007","577-R6","2018/09/07 21:58:46","新北市淡水區北新路184巷41號","121.450705","25.177815","6501000","淡水區"
"251011","650-BX","2018/09/07 21:59:01","新北市淡水區水碓街7號","121.44315","25.17713","6501000","淡水區"
"251003","673-BX","2018/09/07 21:58:49","新北市淡水區新春街94號","121.438981666667","25.1824183333333","6501000","淡水區"
