"lineid","car","time","location","longitude","latitude","cityid","cityname"
"247007","336-TH","2018/09/07 22:21:53","新北市五股區中興路三段2巷10號","121.449086666667","25.0811016666667","6501400","蘆洲區"
"251004","009-UM","2018/09/07 22:28:58","新北市淡水區民族路33號","121.462268333333","25.135805","6501000","淡水區"
"251002","012-UM","2018/09/07 22:29:03","新北市淡水區下圭柔山90-8號","121.43124","25.2102233333333","6501000","淡水區"
"251008","181-VK","2018/09/07 22:28:56","新北市淡水區學府路104號","121.44986","25.1718416666667","6501000","淡水區"
"251010","413-VK","2018/09/07 22:28:50","新北市淡水區沙崙路200號","121.424631666667","25.18391","6501000","淡水區"
"251007","577-R6","2018/09/07 22:29:06","新北市淡水區北新路180號","121.449448333333","25.178795","6501000","淡水區"
"251011","650-BX","2018/09/07 22:29:01","新北市淡水區水碓街7號","121.443148333333","25.1771766666667","6501000","淡水區"
