"lineid","car","time","location","longitude","latitude","cityid","cityname"
"232016","291-BY","2018/09/08 06:39:16","新北市坪林區北宜路八段558號","121.718035","24.90935","6502000","坪林區"
"232010","375-UM","2018/09/08 06:39:00","新北市坪林區北宜路八段503號","121.707401666667","24.9192266666667","6502000","坪林區"
"235001","611-BX","2018/09/08 06:39:10","新北市中和區圓通路335巷37弄15號","121.494711666667","24.9888283333333","6500300","中和區"
"223006","022-BY","2018/09/08 06:39:05","新北市石碇區石碇東街8號","121.662133333333","24.990525","6501900","石碇區"
"223002","KEA-2673","2018/09/08 06:39:15","新北市石碇區碇坪路一段93號","121.662243333333","24.9901433333333","6501900","石碇區"
"223008","406-TH","2018/09/08 06:39:11","新北市石碇區碇坪路一段282號","121.676861666667","24.9778266666667","6501900","石碇區"
"223007","661-BX","2018/09/08 06:39:09","新北市石碇區靜安路一段85號","121.652198333333","25.0072733333333","6501900","石碇區"
"227006","030-BX","2018/09/08 06:39:06","新北市雙溪區新基里中華路90-1號","121.866005","25.0390383333333","6502500","雙溪區"
