"lineid","car","time","location","longitude","latitude","cityid","cityname"
"232010","375-UM","2018/09/08 07:48:40","新北市坪林區磨壁潭10-1號","121.723501666667","24.93807","6502000","坪林區"
"244005","248-BX","2018/09/08 07:48:48","新北市林口區下福里15-1號","121.3166","25.1056033333333","6501700","林口區"
"222004","289-BY","2018/09/08 07:36:16","新北市深坑區昇高坑路51號","121.630631666667","24.991895","6501800","深坑區"
"231007","189-VK","2018/09/08 07:48:41","新北市新店區安一路一段1-1號","121.519633333333","24.9612916666667","6500600","新店區"
"235001","611-BX","2018/09/08 07:48:30","新北市中和區圓通路367巷4號","121.491401666667","24.9892516666667","6500300","中和區"
"226005","5620-A6","2018/09/08 07:48:26","新北市平溪區嶺腳里中華街16號","121.739731666667","25.0252483333333","6502400","平溪區"
"226007","7418-A5","2018/09/08 07:48:46","新北市平溪區平湖里大湖19-1號","121.780165","25.0222716666667","6502400","平溪區"
"226003","AGD-0702","2018/09/08 07:48:32","新北市平溪區新寮里頂寮子4號","121.773723333333","25.0518216666667","6502400","平溪區"
"223006","022-BY","2018/09/08 07:48:29","新北市石碇區半路店2號","121.647663333333","24.968535","6501900","石碇區"
"223002","KEA-2673","2018/09/08 07:48:40","新北市石碇區摸乳巷5-1號","121.660193333333","24.9841183333333","6501900","石碇區"
"223003","205-TH","2018/09/08 07:47:47","新北市石碇區烏塗窟46-2號","121.655791666667","24.973015","6501900","石碇區"
"223008","406-TH","2018/09/08 07:32:49","新北市石碇區靜安路一段337號","121.69881","25.01468","6501900","石碇區"
"223001","592-UM","2018/09/08 07:47:57","新北市石碇區烏塗窟46號","121.65604","24.9724366666667","6501900","石碇區"
"223004","660-BX","2018/09/08 07:48:44","新北市石碇區楓子林30號","121.642323333333","25.0095466666667","6501900","石碇區"
"223007","661-BX","2018/09/08 07:41:56","新北市石碇區靜安路一段337號","121.698831666667","25.0145383333333","6501900","石碇區"
"223005","677-TV","2018/09/08 07:48:47","新北市石碇區楓子林30號","121.64233","25.009595","6501900","石碇區"
"227006","030-BX","2018/09/08 07:48:46","新北市雙溪區雙溪里太平路54號","121.864788333333","25.0354866666667","6502500","雙溪區"
"252004","249-BX","2018/09/08 07:48:34","新北市三芝區店子里菜公坑99-3號","121.51257","25.2058466666667","6502100","三芝區"
"252007","AAC-283","2018/09/08 07:48:36","新北市三芝區錫板里海尾14-29號","121.476376666667","25.2573516666667","6502100","三芝區"
"237001","159-UY","2018/09/08 07:48:34","新北市三峽區學成路220巷22號","121.374686666667","24.9405183333333","6500900","三峽區"
"236011","165-UM","2018/09/08 07:48:47","新北市土城區清水路330號","121.463933333333","24.985505","6501300","土城區"
"236002","339-SR","2018/09/08 07:48:45","新北市土城區龍泉路96號","121.441485","24.9421283333333","6501300","土城區"
