"lineid","car","time","location","longitude","latitude","cityid","cityname"
"244018","403-UM","2018/10/08 11:09:33","新北市林口區粉寮路二段88巷100-12號","121.40965","25.0901916666667","6501700","林口區"
"231007","189-VK","2018/10/08 11:09:42","新北市新店區新潭路二段61號","121.522126666667","24.926505","6500600","新店區"
"231008","192-VK","2018/10/08 11:09:27","新北市新店區頂石厝路72號","121.535333333333","24.9184316666667","6500600","新店區"
"235029","098-UM","2018/10/08 11:09:36","新北市中和區員山路36巷16-3號","121.485103333333","24.991275","6500300","中和區"
"227005","282-VK","2018/10/08 11:09:32","新北市雙溪區泰平里泰平1-5號","121.847631666667","24.9945866666667","6502500","雙溪區"
