"lineid","car","time","location","longitude","latitude","cityid","cityname"
"244018","403-UM","2018/10/08 11:19:33","新北市林口區粉寮路二段88巷100-12號","121.409656666667","25.0902083333333","6501700","林口區"
"231007","189-VK","2018/10/08 11:19:42","新北市新店區新潭路一段140巷11號","121.528085","24.934785","6500600","新店區"
"231008","192-VK","2018/10/08 11:19:27","新北市新店區頂石厝路72號","121.53537","24.91845","6500600","新店區"
"235029","098-UM","2018/10/08 11:19:36","新北市中和區員山路36巷16-3號","121.485133333333","24.9912083333333","6500300","中和區"
"227005","282-VK","2018/10/08 11:19:32","新北市雙溪區魚行里丁子蘭坑17-1號","121.856813333333","25.0161383333333","6502500","雙溪區"
