"lineid","car","time","location","longitude","latitude","cityid","cityname"
"244023","069-UM","2018/10/08 11:46:41","新北市林口區粉寮路二段88巷100-12號","121.409738333333","25.090245","6501700","林口區"
"244019","403-UM","2018/10/08 11:59:29","新北市林口區粉寮路二段88巷100-12號","121.409653333333","25.0902233333333","6501700","林口區"
"243008","KEA-2801","2018/10/08 11:58:23","新北市泰山區黎明路25號","121.422266666667","25.0606766666667","6501600","泰山區"
"235029","098-UM","2018/10/08 12:09:36","新北市中和區員山路36巷16-3號","121.485023333333","24.99125","6500300","中和區"
"235031","255-BX","2018/10/08 11:48:14","新北市中和區和城路一段271巷1號","121.485446666667","24.9918466666667","6500300","中和區"
"227005","282-VK","2018/10/08 12:09:32","新北市雙溪區牡丹里聖南10-3號","121.861091666667","25.0488483333333","6502500","雙溪區"
