"lineid","car","time","location","longitude","latitude","cityid","cityname"
"234044","148-BY","2018/10/08 12:49:37","新北市永和區秀朗路二段124-3號","121.524791666667","25.0015216666667","6500400","永和區"
"234005","207-UY","2018/10/08 12:49:39","新北市永和區永和路二段245號","121.515713333333","25.0149833333333","6500400","永和區"
"234078","298-R6","2018/10/08 12:49:44","新北市永和區永利路99號","121.52181","25.0030916666667","6500400","永和區"
"234036","336-UY","2018/10/08 12:49:44","新北市永和區成功路一段70號","121.526963333333","25.0035666666667","6500400","永和區"
"234062","337-UY","2018/10/08 12:49:32","新北市永和區福和路1號","121.526618333333","25.0102316666667","6500400","永和區"
"234084","338-UY","2018/10/08 12:49:38","新北市永和區中正路7號","121.513963333333","24.9956216666667","6500400","永和區"
"234068","552-UM","2018/10/08 12:49:43","新北市永和區竹林路96巷4號","121.519153333333","25.012175","6500400","永和區"
"234015","745-BX","2018/10/08 12:49:29","新北市永和區永和路二段299號","121.516088333333","25.01613","6500400","永和區"
"234028","746-BX","2018/10/08 12:49:29","新北市永和區得和路331號","121.523593333333","24.9996266666667","6500400","永和區"
"234052","KEA-2590","2018/10/08 12:49:29","新北市永和區環河東路一段122號","121.5205","25.01554","6500400","永和區"
"234012","KEA-2591","2018/10/08 12:49:41","新北市永和區保福路二段133巷27號","121.509273333333","25.01357","6500400","永和區"
"234060","AAD-866","2018/10/08 12:49:25","新北市永和區福和路285號","121.517431666667","25.0073883333333","6500400","永和區"
"234040","862-TW","2018/10/08 12:49:29","新北市永和區永貞路306號","121.512013333333","25.004895","6500400","永和區"
"234025","9371-KE","2018/10/08 12:49:47","新北市永和區永和路二段8號","121.514511666667","25.010195","6500400","永和區"
"234010","9373-KE","2018/10/08 12:49:41","新北市永和區保福路二段165號","121.50904","25.0149366666667","6500400","永和區"
"248015","026-BX","2018/10/08 12:45:55","新北市五股區中興路二段83巷26-6號","121.459918333333","25.0752683333333","6501500","五股區"
"248019","225-UY","2018/10/08 12:49:40","新北市五股區中興路二段83巷26-3號","121.460076666667","25.0753716666667","6501500","五股區"
"248013","261-SL","2018/10/08 12:49:32","新北市五股區中興路二段83巷26-6號","121.45967","25.0752316666667","6501500","五股區"
"234022","9380-KE","2018/10/08 12:49:45","新北市永和區竹林路119巷45號","121.521965","25.0118333333333","6500400","永和區"
"234076","969-R7","2018/10/08 12:49:38","新北市永和區中正路2巷5號","121.51278","24.993435","6500400","永和區"
"234066","AAC-212","2018/10/08 12:49:40","新北市永和區永和路一段1號","121.513","25.0050883333333","6500400","永和區"
"234001","AAC-295","2018/10/08 12:49:29","新北市永和區中正路620號","121.517103333333","25.0078333333333","6500400","永和區"
"243005","AAD-798","2018/10/08 12:46:25","新北市泰山區黎明路25號","121.422025","25.0608283333333","6501600","泰山區"
"243004","646-TV","2018/10/08 12:22:00","新北市泰山區黎明路25號","121.422351666667","25.0608366666667","6501600","泰山區"
"231027","0293-UT","2018/10/08 12:49:34","新北市新店區安華路28-1號","121.5195","24.9606716666667","6500600","新店區"
"231005","106-UY","2018/10/08 12:49:37","新北市新店區安華路28-1號","121.519768333333","24.96076","6500600","新店區"
"231010","107-UY","2018/10/08 12:49:39","新北市新店區安一路一段1-1號","121.519541666667","24.9614116666667","6500600","新店區"
"231003","268-BY","2018/10/08 12:49:21","新北市新店區安華路28-1號","121.51949","24.96069","6500600","新店區"
"231014","AAD-862","2018/10/08 12:49:44","新北市新店區安一路一段1-1號","121.519835","24.9612183333333","6500600","新店區"
"231037","4716-K9","2018/10/08 12:49:39","新北市新店區安一路一段1-1號","121.519375","24.96121","6500600","新店區"
"231036","512-UM","2018/10/08 12:49:34","新北市新店區安一路一段1-1號","121.51934","24.9614066666667","6500600","新店區"
"231013","513-UM","2018/10/08 12:49:35","新北市新店區安一路一段1-1號","121.519835","24.9612466666667","6500600","新店區"
"231034","616-UM","2018/10/08 12:49:38","新北市新店區安華路28-1號","121.519518333333","24.9606116666667","6500600","新店區"
"231030","619-UM","2018/10/08 12:49:30","新北市新店區安華路28-1號","121.519641666667","24.9609216666667","6500600","新店區"
"231035","719-UM","2018/10/08 12:49:26","新北市新店區安一路一段1-1號","121.519631666667","24.9613366666667","6500600","新店區"
"231029","897-TW","2018/10/08 12:49:29","新北市新店區安華路28-1號","121.51963","24.96093","6500600","新店區"
"231024","AKT-0513","2018/10/08 12:49:34","新北市新店區安華路28-1號","121.51952","24.9606383333333","6500600","新店區"
"235027","006-UY","2018/10/08 12:49:24","新北市中和區員山路36巷16-3號","121.485035","24.9913516666667","6500300","中和區"
"235029","098-UM","2018/10/08 12:49:36","新北市中和區中正路748號","121.485565","24.9984583333333","6500300","中和區"
"235022","151-BY","2018/10/08 12:49:37","新北市中和區員山路36巷16-2號","121.485303333333","24.991735","6500300","中和區"
"235002","185-VK","2018/10/08 12:49:44","新北市中和區中正路637巷52弄1號","121.485603333333","24.9936466666667","6500300","中和區"
"235031","255-BX","2018/10/08 12:49:44","新北市中和區新民街6號","121.482795","25.0056","6500300","中和區"
"235001","611-BX","2018/10/08 12:49:34","新北市板橋區長安街138巷3弄71號","121.474478333333","25.0093283333333","6500300","中和區"
"235018","640-BX","2018/10/08 12:49:36","新北市中和區員山路36巷16-6號","121.485326666667","24.992015","6500300","中和區"
"235035","783-BX","2018/10/08 12:49:39","新北市中和區員山路36巷16-3號","121.485108333333","24.9914716666667","6500300","中和區"
"235005","802-TS","2018/10/08 12:49:36","新北市中和區和城路一段271巷1號","121.485508333333","24.99173","6500300","中和區"
"207002","749-BX","2018/10/08 12:49:29","新北市萬里區雙興里二坪路30號","121.647273333333","25.1686666666667","6502800","萬里區"
"207001","662-BX","2018/10/08 12:49:36","新北市萬里區萬里里瑪鋉路98號","121.690616666667","25.1785516666667","6502800","萬里區"
