"lineid","car","time","location","longitude","latitude","cityid","cityname"
"243014","680-BX","2018/10/08 15:34:08","新北市泰山區犁頭窠3-1號","121.421891666667","25.0605066666667","6501600","泰山區"
"231028","001-UM","2018/10/08 15:39:20","新北市新店區僑義路21號","121.500398333333","24.9511266666667","6500600","新店區"
"231005","106-UY","2018/10/08 15:39:16","新北市新店區中正路349號","121.53538","24.9759733333333","6500600","新店區"
"231011","187-VK","2018/10/08 15:39:20","新北市新店區寶元路一段109號","121.545726666667","24.983125","6500600","新店區"
"231031","188-VK","2018/10/08 15:39:06","新北市新店區雙城路31號","121.492735","24.9496466666667","6500600","新店區"
"231019","189-VK","2018/10/08 15:39:00","新北市新店區新烏路一段247號","121.546835","24.9301466666667","6500600","新店區"
"231023","KEA-2219","2018/10/08 15:39:10","新北市新店區五峰路51號","121.544943333333","24.9687783333333","6500600","新店區"
"231026","256-BX","2018/10/08 15:39:11","新北市新店區三民路75巷3弄3號","121.535826666667","24.970975","6500600","新店區"
"231003","268-BY","2018/10/08 15:39:01","新北市新店區寶高路102巷20號","121.55304","24.9741216666667","6500600","新店區"
"231018","278-BY","2018/10/08 15:38:34","新北市新店區民生路156巷86號","121.527468333333","24.982025","6500600","新店區"
"231014","AAD-862","2018/10/08 15:39:04","新北市新店區北宜路二段69號","121.54953","24.9515066666667","6500600","新店區"
"231038","3712-VJ","2018/10/08 15:39:03","新北市新店區安康路二段16巷18號","121.516518333333","24.9645316666667","6500600","新店區"
"231037","4716-K9","2018/10/08 15:39:19","新北市新店區安興路112號","121.51465","24.9774566666667","6500600","新店區"
"231036","512-UM","2018/10/08 15:39:14","新北市新店區薏仁坑路6號","121.500355","24.9579666666667","6500600","新店區"
"231013","513-UM","2018/10/08 15:39:18","新北市新店區永業路81巷3弄2號","121.530066666667","24.9490583333333","6500600","新店區"
"231034","616-UM","2018/10/08 15:39:18","新北市新店區如意街80號","121.495561666667","24.9467933333333","6500600","新店區"
"231030","619-UM","2018/10/08 15:39:09","新北市新店區新和街93巷10號","121.520795","24.986755","6500600","新店區"
"231039","718-UY","2018/10/08 15:39:01","新北市新店區寶元路二段19號","121.546413333333","24.9819883333333","6500600","新店區"
"231035","719-UM","2018/10/08 15:39:06","新北市新店區安興路83-3號","121.515315","24.975475","6500600","新店區"
"231029","897-TW","2018/10/08 15:39:09","新北市新店區安康路二段391號","121.494476666667","24.95422","6500600","新店區"
"231004","899-TW","2018/10/08 15:39:18","新北市新店區民族路105號","121.538101666667","24.977325","6500600","新店區"
"241028","022-UY","2018/10/08 15:39:19","新北市三重區成功路12號","121.489888333333","25.0502483333333","6500200","三重區"
"241003","061-VK","2018/10/08 15:39:10","新北市三重區成功路110-1號","121.487106666667","25.0518116666667","6500200","三重區"
"241015","062-VK","2018/10/08 15:39:22","新北市三重區重新路四段121號","121.485091666667","25.0523783333333","6500200","三重區"
"241017","063-VK","2018/10/08 15:39:13","新北市三重區大仁街1號","121.491626666667","25.06366","6500200","三重區"
"241024","065-VK","2018/10/08 15:39:09","新北市三重區成功路108巷8號","121.485723333333","25.0504133333333","6500200","三重區"
"241026","066-VK","2018/10/08 15:39:13","新北市三重區重新路四段121號","121.485065","25.05243","6500200","三重區"
"241005","262-UM","2018/10/08 15:39:13","新北市三重區重新路四段121號","121.485065","25.0524333333333","6500200","三重區"
"241011","265-UM","2018/10/08 15:39:17","新北市三重區秀江街186號","121.497811666667","25.07166","6500200","三重區"
"241016","266-UM","2018/10/08 15:39:14","新北市三重區重新路四段121號","121.48492","25.052645","6500200","三重區"
"241018","268-UM","2018/10/08 15:39:08","新北市三重區重新路四段121號","121.484791666667","25.0525466666667","6500200","三重區"
"241013","270-UM","2018/10/08 15:39:09","新北市三重區正義北路346號","121.494446666667","25.0708666666667","6500200","三重區"
"241007","398-BY","2018/10/08 15:39:18","新北市三重區重新路四段121號","121.48509","25.0524233333333","6500200","三重區"
"241004","475-VK","2018/10/08 15:39:06","新北市三重區重新路四段121號","121.484925","25.0524166666667","6500200","三重區"
"241020","478-VK","2018/10/08 15:39:11","新北市三重區忠孝路二段52號","121.48503","25.0704183333333","6500200","三重區"
"241014","543-UM","2018/10/08 15:39:02","新北市三重區重新路四段121號","121.484773333333","25.052505","6500200","三重區"
"241031","743-BX","2018/10/08 15:39:07","新北市三重區重新路4段97-3號","121.485521666667","25.05503","6500200","三重區"
"241029","942-UM","2018/10/08 15:39:20","新北市三重區環河南路220-8號","121.493388333333","25.0526983333333","6500200","三重區"
"241033","AAC-255","2018/10/08 15:39:06","新北市三重區後埔街80-1號","121.478113333333","25.0460983333333","6500200","三重區"
"247011","KEA-2869","2018/10/08 15:39:04","新北市五股區成泰路三段358號","121.450978333333","25.0979583333333","6501400","蘆洲區"
"235033","4980-A6","2018/10/08 15:39:00","新北市中和區員山路359巷1弄8號","121.480975","25.0016483333333","6500300","中和區"
"235023","AAC-215","2018/10/08 15:39:13","新北市中和區員山路23號","121.480451666667","24.985065","6500300","中和區"
"247008","336-TH","2018/10/08 15:38:33","新北市五股區中興路三段2巷10號","121.449071666667","25.080955","6501400","蘆洲區"
"227001","642-TC","2018/10/08 15:39:04","新北市雙溪區牡丹里中正路66號","121.865083333333","25.0437366666667","6502500","雙溪區"
"253003","6232-TK","2018/10/08 15:35:25","新北市石門區小坑9號","121.594718333333","25.288115","6502200","石門區"
"236064","105-UM","2018/10/08 15:39:06","新北市土城區中央路三段92-2號","121.435773333333","24.9666166666667","6501300","土城區"
"236074","166-UM","2018/10/08 15:39:09","新北市土城區中山路6號","121.412528333333","24.9603983333333","6501300","土城區"
"236029","253-BX","2018/10/08 15:39:16","新北市土城區學成路165號","121.448178333333","24.9891583333333","6501300","土城區"
"236024","269-VK","2018/10/08 15:39:10","新北市土城區裕生路67巷6弄1號","121.44782","24.984485","6501300","土城區"
"236012","270-VK","2018/10/08 15:39:17","新北市土城區廣明街90巷9號","121.455228333333","24.99444","6501300","土城區"
"236016","401-BY","2018/10/08 15:39:18","新北市土城區延吉街111巷12弄10號","121.471641666667","24.9857","6501300","土城區"
"236057","912-UM","2018/10/08 15:39:15","新北市土城區中央路一段186-1號","121.445516666667","24.98633","6501300","土城區"
"236045","913-UM","2018/10/08 15:39:18","新北市土城區金城路三段260號","121.474026666667","24.990845","6501300","土城區"
"236054","AAC-216","2018/10/08 15:39:08","新北市土城區學府路一段148號","121.454668333333","24.98702","6501300","土城區"
"242001","233-RS","2018/10/08 15:31:47","新北市新莊區環河路636-7號","121.437555","25.0116233333333","6500500","新莊區"
"238002","755-BX","2018/10/08 15:39:05","新北市樹林區日新街83號","121.42174","24.9904366666667","6500700","樹林區"
"238010","601-UM","2018/10/08 15:39:10","新北市樹林區福興街3號","121.404301666667","25.0169716666667","6500700","樹林區"
"238006","599-UM","2018/10/08 15:39:16","新北市樹林區忠孝街59號","121.424175","24.9813983333333","6500700","樹林區"
"238005","571-TV","2018/10/08 15:39:05","新北市樹林區中華路229號","121.418646666667","24.9808333333333","6500700","樹林區"
"238011","5061-A6","2018/10/08 15:39:21","新北市樹林區中山路二段235號","121.402398333333","24.9761016666667","6500700","樹林區"
"238009","KEA-2213","2018/10/08 15:39:20","新北市樹林區中華路267號","121.417986666667","24.980335","6500700","樹林區"
"238008","KEA-2539","2018/10/08 15:39:08","新北市樹林區柑園街一段169號","121.39983","24.957525","6500700","樹林區"
"238012","303-VK","2018/10/08 15:39:01","新北市樹林區中山路一段252號","121.420923333333","24.9873216666667","6500700","樹林區"
"238004","283-BY","2018/10/08 15:39:03","新北市樹林區光榮街3巷1號","121.412968333333","25.0039016666667","6500700","樹林區"
"238001","282-BY","2018/10/08 15:39:13","新北市樹林區千歲街61巷40弄18號","121.426158333333","24.999135","6500700","樹林區"
"238007","268-VK","2018/10/08 15:39:14","新北市樹林區三俊街261號","121.422521666667","25.0143683333333","6500700","樹林區"
"238013","172-UY","2018/10/08 15:39:06","新北市樹林區中洲街30巷13弄41號","121.398215","24.97246","6500700","樹林區"
"238003","169-UY","2018/10/08 15:39:13","新北市樹林區復興路236號","121.418695","24.9894366666667","6500700","樹林區"
"220027","145-BY","2018/10/08 15:39:07","新北市樹林區中山路三段214號","121.380216666667","24.96785","6500100","板橋區"
"220050","245-BX","2018/10/08 15:38:32","新北市板橋區三民路一段1巷24號","121.479953333333","25.0244","6500100","板橋區"
"220031","286-VK","2018/10/08 15:24:37","新北市板橋區華東街1-10號","121.448408333333","24.995065","6500100","板橋區"
"220038","487-VK","2018/10/08 15:39:06","新北市板橋區四維路345號","121.462358333333","25.02984","6500100","板橋區"
"220031","568-UM","2018/10/08 15:39:12","新北市板橋區僑中二街108巷2號","121.4459","25.0072933333333","6500100","板橋區"
