"lineid","car","time","location","longitude","latitude","cityid","cityname"
"231046","107-UY","2018/10/08 16:19:12","新北市新店區灣潭路3-3號","121.538256666667","24.9507816666667","6500600","新店區"
"231018","278-BY","2018/10/08 16:19:14","新北市新店區中正路700巷82號","121.536076666667","24.993305","6500600","新店區"
"241028","022-UY","2018/10/08 16:19:19","新北市三重區同安東街60號","121.498168333333","25.05731","6500200","三重區"
"241008","059-VK","2018/10/08 16:19:11","新北市三重區力行路二段136巷45弄12號","121.479075","25.0754066666667","6500200","三重區"
"241022","060-VK","2018/10/08 16:19:13","新北市三重區新北大道一段11號","121.488706666667","25.0606416666667","6500200","三重區"
"241003","061-VK","2018/10/08 16:19:10","新北市三重區五華街57巷6號","121.49328","25.0825516666667","6500200","三重區"
"241015","062-VK","2018/10/08 16:19:02","新北市三重區福德北路62號","121.501825","25.06586","6500200","三重區"
"241017","063-VK","2018/10/08 16:19:13","新北市三重區大同北路91號","121.49478","25.0636716666667","6500200","三重區"
"241024","065-VK","2018/10/08 16:19:09","新北市三重區中正北路186號","121.483078333333","25.0670316666667","6500200","三重區"
"241026","066-VK","2018/10/08 16:19:13","新北市三重區正義南路67號","121.498328333333","25.0602416666667","6500200","三重區"
"241002","090-VK","2018/10/08 16:19:11","新北市三重區仁義街91號","121.49976","25.07952","6500200","三重區"
"241005","262-UM","2018/10/08 16:19:13","新北市三重區溪尾街300-2號","121.48738","25.083725","6500200","三重區"
"241011","265-UM","2018/10/08 16:19:15","新北市三重區龍濱路285號","121.501136666667","25.0733333333333","6500200","三重區"
"241016","266-UM","2018/10/08 16:19:14","新北市三重區大仁街86號","121.492846666667","25.065495","6500200","三重區"
"241009","267-UM","2018/10/08 16:19:05","新北市三重區碧華街75號","121.485071666667","25.0815366666667","6500200","三重區"
"241018","268-UM","2018/10/08 16:19:08","新北市三重區重陽路三段142-1號","121.4894","25.06706","6500200","三重區"
"241032","269-UM","2018/10/08 16:19:20","新北市三重區三陽路100巷3弄15號","121.482901666667","25.058145","6500200","三重區"
"241013","270-UM","2018/10/08 16:19:09","新北市三重區三和路三段83巷9-2號","121.495298333333","25.0723166666667","6500200","三重區"
"241025","271-UM","2018/10/08 16:19:11","新北市三重區中正北路560巷100弄2號","121.472456666667","25.0682366666667","6500200","三重區"
"241007","398-BY","2018/10/08 16:19:18","新北市三重區三和路四段163巷66號","121.486671666667","25.07962","6500200","三重區"
"241004","475-VK","2018/10/08 16:19:06","新北市三重區自強路五段67號","121.494876666667","25.0820133333333","6500200","三重區"
"241020","478-VK","2018/10/08 16:19:11","新北市三重區車路頭街17巷11號","121.484451666667","25.0705916666667","6500200","三重區"
"241014","543-UM","2018/10/08 16:19:02","新北市三重區河邊北街96-1號","121.504011666667","25.069925","6500200","三重區"
"241023","545-UM","2018/10/08 16:19:15","新北市三重區中正北路145巷4弄16號","121.48274","25.0680183333333","6500200","三重區"
"241001","547-UM","2018/10/08 16:19:20","新北市三重區自強路四段87號","121.491138333333","25.07936","6500200","三重區"
"241019","KEA-2593","2018/10/08 16:19:00","新北市三重區重陽路三段97號","121.490461666667","25.06791","6500200","三重區"
"241006","AAD-863","2018/10/08 16:19:10","新北市三重區永福街46巷31弄25號","121.481518333333","25.0775166666667","6500200","三重區"
"241031","743-BX","2018/10/08 16:19:07","新北市三重區重新路四段254號","121.485628333333","25.05317","6500200","三重區"
"241012","941-UM","2018/10/08 16:19:13","新北市三重區三和路三段5號","121.497135","25.0705033333333","6500200","三重區"
"241029","942-UM","2018/10/08 16:19:20","新北市三重區環河南路220-8號","121.493385","25.0526866666667","6500200","三重區"
"241033","AAC-255","2018/10/08 16:19:06","新北市三重區重新路五段442號","121.47485","25.0470283333333","6500200","三重區"
"235026","800-TS","2018/10/08 16:19:08","新北市中和區永和路171巷3弄7號","121.49269","25.0066316666667","6500300","中和區"
"247008","336-TH","2018/10/08 16:19:14","新北市五股區中興路三段163號","121.449275","25.080755","6501400","蘆洲區"
"224007","275-VK","2018/10/08 16:19:06","新北市瑞芳區大埔路110-4號","121.762253333333","25.101675","6501200","瑞芳區"
"224005","271-BY","2018/10/08 16:19:03","新北市瑞芳區明燈路二段66號","121.809285","25.1078333333333","6501200","瑞芳區"
"227001","642-TC","2018/10/08 16:19:04","新北市雙溪區上林里內平林80號","121.828296666667","25.027955","6502500","雙溪區"
"227008","400-TW","2018/10/08 16:19:22","新北市雙溪區三港里雙澳路80號","121.883815","25.0538866666667","6502500","雙溪區"
"251013","KEA-2871","2018/10/08 16:19:08","新北市淡水區北新路三段169-8號","121.490858333333","25.1910216666667","6501000","淡水區"
"251015","180-VK","2018/10/08 16:19:09","新北市淡水區中正路二段18號","121.419678333333","25.1811683333333","6501000","淡水區"
"251008","181-VK","2018/10/08 16:19:13","新北市淡水區中正東路二段141號","121.459568333333","25.1477116666667","6501000","淡水區"
"238002","755-BX","2018/10/08 16:19:04","新北市樹林區中山路二段235號","121.402338333333","24.97619","6500700","樹林區"
"238006","599-UM","2018/10/08 16:19:16","新北市樹林區東華街39號","121.41537","24.9814183333333","6500700","樹林區"
"238009","KEA-2213","2018/10/08 16:19:19","新北市樹林區八德街263-1號","121.41931","24.9737433333333","6500700","樹林區"
"238025","303-VK","2018/10/08 16:03:37","新北市樹林區中正路22-1號","121.427893333333","24.99942","6500700","樹林區"
"238004","283-BY","2018/10/08 16:19:03","新北市樹林區中正路433-2號","121.414811666667","25.0082033333333","6500700","樹林區"
"238001","282-BY","2018/10/08 16:19:13","新北市樹林區千歲街17號","121.424936666667","24.9955766666667","6500700","樹林區"
"238007","268-VK","2018/10/08 16:19:21","新北市樹林區三俊街63號","121.413693333333","25.0159366666667","6500700","樹林區"
"220031","286-VK","2018/10/08 16:11:14","新北市板橋區華東街1-10號","121.44839","24.995095","6500100","板橋區"
