"lineid","car","time","location","longitude","latitude","cityid","cityname"
"249005","172-UM","2018/10/08 16:59:04","新北市八里區渡船頭2號","121.43402","25.15186","6502300","八里區"
"249001","173-UM","2018/10/08 16:59:14","新北市八里區中山路三段106號","121.391108333333","25.142285","6502300","八里區"
"249004","303-UY","2018/10/08 16:59:05","新北市八里區仁愛路10號","121.413235","25.1623133333333","6502300","八里區"
"249002","305-UY","2018/10/08 16:58:20","新北市八里區牛寮埔19-1號","121.431693333333","25.1428183333333","6502300","八里區"
"249003","593-UM","2018/10/08 16:59:12","新北市八里區中山路二段297號","121.401148333333","25.148185","6502300","八里區"
"244023","069-UM","2018/10/08 16:59:03","新北市林口區粉寮路一段105號","121.397848333333","25.0803066666667","6501700","林口區"
"244007","080-UY","2018/10/08 16:59:24","新北市林口區林口路296號","121.386076666667","25.085465","6501700","林口區"
"244019","403-UM","2018/10/08 16:59:14","新北市林口區中山路156號","121.390873333333","25.0787916666667","6501700","林口區"
"244013","KEA-2802","2018/10/08 16:59:15","新北市林口區粉寮路二段88巷100-12號","121.409515","25.0901766666667","6501700","林口區"
"244009","656-BX","2018/10/08 16:59:17","新北市林口區粉寮路一段183號","121.399966666667","25.082275","6501700","林口區"
"244021","838-TS","2018/10/08 16:59:13","新北市林口區粉寮路56-6號","121.406798333333","25.0884583333333","6501700","林口區"
"231046","107-UY","2018/10/08 16:59:11","新北市新店區直潭一街76號","121.535358333333","24.939995","6500600","新店區"
"241028","022-UY","2018/10/08 16:59:19","新北市三重區中正南路32-1號","121.49382","25.060205","6500200","三重區"
"241008","059-VK","2018/10/08 16:59:11","新北市三重區永安北路一段11巷20號","121.477396666667","25.07484","6500200","三重區"
"241022","060-VK","2018/10/08 16:59:13","新北市三重區中華路92號","121.483503333333","25.0629616666667","6500200","三重區"
"241003","061-VK","2018/10/08 16:59:10","新北市三重區五華街141巷60號","121.493425","25.086715","6500200","三重區"
"241015","062-VK","2018/10/08 16:59:02","新北市三重區福德北路82-1號","121.501563333333","25.06629","6500200","三重區"
"241017","063-VK","2018/10/08 16:59:13","新北市三重區國隆路12巷7號","121.492621666667","25.0637033333333","6500200","三重區"
"241024","065-VK","2018/10/08 16:59:09","新北市三重區力行路二段3號","121.4822","25.0719283333333","6500200","三重區"
"241026","066-VK","2018/10/08 16:59:13","新北市三重區文化南路42號","121.50039","25.0603366666667","6500200","三重區"
"241002","090-VK","2018/10/08 16:59:11","新北市三重區仁義街143巷2號","121.497336666667","25.08064","6500200","三重區"
"251014","742-BX","2018/10/08 16:59:23","新北市淡水區八里堆2-12號","121.454473333333","25.2245716666667","6501000","淡水區"
"241005","262-UM","2018/10/08 16:59:13","新北市三重區仁華街77號","121.485435","25.083095","6500200","三重區"
"241011","265-UM","2018/10/08 16:59:15","新北市三重區公園街13號","121.499503333333","25.0729516666667","6500200","三重區"
"241016","266-UM","2018/10/08 16:59:14","新北市三重區大同北路99號","121.494351666667","25.063845","6500200","三重區"
"241009","267-UM","2018/10/08 16:59:05","新北市三重區溪尾街218巷51號","121.485946666667","25.0808816666667","6500200","三重區"
"241018","268-UM","2018/10/08 16:59:08","新北市三重區民生東街16號","121.49292","25.068765","6500200","三重區"
"241032","269-UM","2018/10/08 16:59:20","新北市三重區三光街3號","121.485083333333","25.0608166666667","6500200","三重區"
"241013","270-UM","2018/10/08 16:59:09","新北市三重區仁和街30號","121.496621666667","25.0736766666667","6500200","三重區"
"241025","271-UM","2018/10/08 16:59:11","新北市三重區中正北路510號","121.472636666667","25.0716016666667","6500200","三重區"
"241007","398-BY","2018/10/08 16:59:18","新北市三重區三和路四段145巷209號","121.488725","25.0793716666667","6500200","三重區"
"241004","475-VK","2018/10/08 16:59:06","新北市三重區五華街98巷12號","121.491483333333","25.081685","6500200","三重區"
"241020","478-VK","2018/10/08 16:59:11","新北市三重區後竹圍街175巷16號","121.485706666667","25.0723666666667","6500200","三重區"
"241030","480-VK","2018/10/08 16:59:19","新北市三重區昌隆街64號","121.491086666667","25.0510366666667","6500200","三重區"
"241014","543-UM","2018/10/08 16:59:22","新北市三重區介壽路39巷94號","121.500658333333","25.0706816666667","6500200","三重區"
"241023","545-UM","2018/10/08 16:59:15","新北市三重區新北大道一段252號","121.479943333333","25.0617133333333","6500200","三重區"
"241001","547-UM","2018/10/08 16:59:20","新北市三重區仁愛街172巷11號","121.493528333333","25.0764883333333","6500200","三重區"
"241019","KEA-2593","2018/10/08 16:59:00","新北市三重區自強路二段74巷17號","121.488081666667","25.0699483333333","6500200","三重區"
"241006","AAD-863","2018/10/08 16:59:10","新北市三重區車路頭街131巷18號","121.485113333333","25.0760016666667","6500200","三重區"
"241031","743-BX","2018/10/08 16:59:07","新北市三重區三寧街15號","121.48938","25.059735","6500200","三重區"
"241012","941-UM","2018/10/08 16:59:13","新北市三重區仁壽街200號","121.501063333333","25.074945","6500200","三重區"
"241029","942-UM","2018/10/08 16:59:20","新北市三重區重安街81號","121.492398333333","25.055935","6500200","三重區"
"241033","AAC-255","2018/10/08 16:59:06","新北市三重區中興北街271號","121.469001666667","25.060585","6500200","三重區"
"235065","098-UM","2018/10/08 16:59:16","新北市中和區員山路36巷16-3號","121.485048333333","24.991205","6500300","中和區"
"247024","500-BY","2018/10/08 16:59:10","新北市蘆洲區長興路255號","121.46046","25.0875816666667","6501400","蘆洲區"
"247014","339-TH","2018/10/08 16:59:16","新北市蘆洲區中山二路36巷35號","121.474","25.0833583333333","6501400","蘆洲區"
"247006","337-TH","2018/10/08 16:59:20","新北市蘆洲區長安街99巷29號","121.46083","25.0797633333333","6501400","蘆洲區"
"247008","336-TH","2018/10/08 16:59:13","新北市蘆洲區信義路50號","121.475118333333","25.0797","6501400","蘆洲區"
"247020","057-VK","2018/10/08 16:59:16","新北市蘆洲區民族路422巷82弄2號","121.473636666667","25.0937666666667","6501400","蘆洲區"
"247010","056-VK","2018/10/08 16:59:05","新北市蘆洲區信義路170號","121.4794","25.0838816666667","6501400","蘆洲區"
"247018","007-UY","2018/10/08 16:59:19","新北市蘆洲區民族路227巷24弄1號","121.476338333333","25.08876","6501400","蘆洲區"
"247004","002-UY","2018/10/08 16:59:17","新北市蘆洲區長榮路155號","121.461735","25.0840616666667","6501400","蘆洲區"
"247022","001-UY","2018/10/08 16:59:15","新北市蘆洲區三民路128巷85號","121.468383333333","25.09246","6501400","蘆洲區"
"228003","097-TW","2018/10/08 16:59:10","新北市貢寮區福隆里興隆街36號","121.941836666667","25.01684","6502600","貢寮區"
"228002","663-BX","2018/10/08 16:59:13","新北市貢寮區貢寮里朝陽街108號","121.907983333333","25.0223616666667","6502600","貢寮區"
"228001","670-TC","2018/10/08 16:59:06","新北市貢寮區貢寮里朝陽街1-2號","121.912328333333","25.0212433333333","6502600","貢寮區"
"224006","676-BX","2018/10/08 16:59:09","新北市瑞芳區大寮路36號","121.782413333333","25.098765","6501200","瑞芳區"
"224008","285-BY","2018/10/08 16:59:20","新北市瑞芳區明燈路一段253號","121.81747","25.1082916666667","6501200","瑞芳區"
"224007","275-VK","2018/10/08 16:59:14","新北市瑞芳區瑞竹路2號","121.7656","25.10303","6501200","瑞芳區"
"224009","273-VK","2018/10/08 16:59:14","新北市瑞芳區濱二路30號","121.841398333333","25.1156716666667","6501200","瑞芳區"
"224005","271-BY","2018/10/08 16:59:03","新北市瑞芳區明里路43號","121.868818333333","25.12149","6501200","瑞芳區"
"227001","642-TC","2018/10/08 16:59:04","新北市雙溪區長源里柑腳42號","121.80134","25.0127833333333","6502500","雙溪區"
"227008","400-TW","2018/10/08 16:59:22","新北市雙溪區牡丹里聖南21號","121.858578333333","25.053075","6502500","雙溪區"
"251013","KEA-2871","2018/10/08 16:59:08","新北市淡水區泉洲厝32號","121.48934","25.1926333333333","6501000","淡水區"
"251016","179-VK","2018/10/08 16:59:11","新北市淡水區瓦坑6-1號","121.47759","25.1809916666667","6501000","淡水區"
"251015","180-VK","2018/10/08 16:59:09","新北市淡水區忠愛街14號","121.45809","25.1746716666667","6501000","淡水區"
"251008","181-VK","2018/10/08 16:59:13","新北市淡水區樹梅坑6-1號","121.472661666667","25.1428466666667","6501000","淡水區"
"251010","413-VK","2018/10/08 16:59:18","新北市淡水區中正路二段31號","121.419511666667","25.1814616666667","6501000","淡水區"
"251012","441-VK","2018/10/08 16:59:02","新北市淡水區中正路一段22巷101號","121.427158333333","25.1866183333333","6501000","淡水區"
"251007","442-VK","2018/10/08 16:59:15","新北市淡水區中正東路40號","121.450016666667","25.1652383333333","6501000","淡水區"
"251004","443-VK","2018/10/08 16:59:12","新北市淡水區中正路13-1號","121.442988333333","25.169585","6501000","淡水區"
"251006","561-UM","2018/10/08 16:59:17","新北市淡水區中正路二段31號","121.419273333333","25.1817716666667","6501000","淡水區"
"251009","575-R6","2018/10/08 16:59:12","新北市淡水區中正路二段31號","121.419053333333","25.1820383333333","6501000","淡水區"
"251011","650-BX","2018/10/08 16:59:03","新北市淡水區中山路50號","121.444046666667","25.170335","6501000","淡水區"
"252002","178-VK","2018/10/08 16:59:08","新北市三芝區忠孝街171號","121.505935","25.2609333333333","6502100","三芝區"
"252001","292-VK","2018/10/08 16:59:18","新北市三芝區淡金路二段89號","121.503838333333","25.2607866666667","6502100","三芝區"
"242036","AAC-296","2018/10/08 16:49:11","新北市新莊區新泰路357巷1弄43號","121.44274","25.0398633333333","6500500","新莊區"
"242025","613-BX","2018/10/08 16:59:19","新北市新莊區新泰路255巷83號","121.442141666667","25.0391066666667","6500500","新莊區"
"242044","566-BX","2018/10/08 16:59:10","新北市新莊區三和路12-21號","121.442265","25.0383633333333","6500500","新莊區"
"242011","442-UM","2018/10/08 16:59:06","新北市新莊區新泰路255巷83號","121.442063333333","25.0389366666667","6500500","新莊區"
"242053","441-UM","2018/10/08 16:59:11","新北市新莊區新泰路255巷83號","121.44257","25.0386766666667","6500500","新莊區"
"242039","415-TV","2018/10/08 16:59:03","新北市新莊區三和路12-21號","121.44206","25.0387416666667","6500500","新莊區"
"242046","400-BY","2018/10/08 16:59:15","新北市新莊區新泰路357巷3弄57號","121.442336666667","25.0395883333333","6500500","新莊區"
"242023","362-BY","2018/10/08 16:59:17","新北市新莊區新泰路255巷83號","121.442075","25.03895","6500500","新莊區"
"242042","133-UY","2018/10/08 16:59:13","新北市新莊區新泰路255巷83號","121.442138333333","25.0388366666667","6500500","新莊區"
"242019","175-VK","2018/10/08 16:59:02","新北市新莊區三和路12-21號","121.44203","25.03871","6500500","新莊區"
"242001","233-RS","2018/10/08 16:50:40","新北市新莊區環河路636-7號","121.437555","25.0116183333333","6500500","新莊區"
"242031","348-TH","2018/10/08 16:59:20","新北市新莊區新泰路357巷3弄57號","121.442311666667","25.0395766666667","6500500","新莊區"
"242021","350-TH","2018/10/08 16:59:13","新北市新莊區新泰路255巷83號","121.442065","25.038825","6500500","新莊區"
"238018","571-TV","2018/10/08 16:59:04","新北市樹林區八德街816號","121.394788333333","24.9687083333333","6500700","樹林區"
"238022","KEA-2213","2018/10/08 16:59:19","新北市樹林區八德街263-1號","121.41923","24.9738016666667","6500700","樹林區"
"238025","303-VK","2018/10/08 16:45:55","新北市樹林區中正路22-1號","121.427833333333","24.9993283333333","6500700","樹林區"
"238017","283-BY","2018/10/08 16:59:22","新北市樹林區三多路123號","121.414685","25.00778","6500700","樹林區"
"238014","282-BY","2018/10/08 16:59:13","新北市樹林區中正路22-1號","121.42783","24.99968","6500700","樹林區"
"238020","268-VK","2018/10/08 16:59:01","新北市樹林區中山路三段214號","121.380515","24.96696","6500700","樹林區"
"239007","AAC-297","2018/10/08 16:59:02","新北市鶯歌區二甲路13-16號","121.345441666667","24.9351316666667","6500800","鶯歌區"
"239006","891-R6","2018/10/08 16:59:22","新北市鶯歌區二甲路175號","121.345363333333","24.9359383333333","6500800","鶯歌區"
"239001","417-VK","2018/10/08 16:57:41","新北市鶯歌區二甲路12-2號","121.34568","24.9349383333333","6500800","鶯歌區"
"220031","286-VK","2018/10/08 16:39:14","新北市板橋區華東街1-10號","121.448325","24.995125","6500100","板橋區"
