"lineid","car","time","location","longitude","latitude","cityid","cityname"
"234026","9371-KE","2018/10/08 17:39:10","新北市永和區豫溪街33號","121.516453333333","25.0099433333333","6500400","永和區"
"249005","172-UM","2018/10/08 17:39:04","新北市八里區荖阡坑路34-1號","121.402785","25.1297766666667","6502300","八里區"
"249001","173-UM","2018/10/08 17:39:16","新北市八里區龍米路二段185號","121.434313333333","25.158195","6502300","八里區"
"249004","303-UY","2018/10/08 17:39:05","新北市八里區賢二街41號","121.41897","25.1577416666667","6502300","八里區"
"249002","305-UY","2018/10/08 17:39:20","新北市八里區坪子頂1號","121.442125","25.1258966666667","6502300","八里區"
"249003","593-UM","2018/10/08 17:39:12","新北市八里區中山路二段233號","121.403156666667","25.1492916666667","6502300","八里區"
"232011","375-UM","2018/10/08 17:39:05","新北市坪林區北宜路八段103號","121.706106666667","24.9348433333333","6502000","坪林區"
"244023","069-UM","2018/10/08 17:39:03","新北市林口區興林路152巷28號","121.387466666667","25.0717566666667","6501700","林口區"
"244007","080-UY","2018/10/08 17:39:04","新北市林口區林口路272巷19號","121.386778333333","25.0845966666667","6501700","林口區"
"244019","403-UM","2018/10/08 17:39:14","新北市林口區忠孝路533號","121.371825","25.069215","6501700","林口區"
"244013","KEA-2802","2018/10/08 17:39:10","新北市林口區中山路262-1號","121.384445","25.0801166666667","6501700","林口區"
"244017","485-VK","2018/10/08 17:39:09","新北市林口區忠孝路371-1號","121.369021666667","25.071865","6501700","林口區"
"244009","656-BX","2018/10/08 17:38:57","新北市林口區民享路178號","121.382288333333","25.0836333333333","6501700","林口區"
"244011","701-TV","2018/10/08 17:39:18","新北市林口區佳林路146號","121.384225","25.07715","6501700","林口區"
"244025","837-TS","2018/10/08 17:39:22","新北市林口區民族路16巷2號","121.364371666667","25.0738683333333","6501700","林口區"
"244021","838-TS","2018/10/08 17:39:13","新北市林口區仁愛路一段211巷113號","121.39763","25.0743616666667","6501700","林口區"
"231046","107-UY","2018/10/08 17:39:08","新北市新店區直潭路92-1號","121.530855","24.9370583333333","6500600","新店區"
"241017","063-VK","2018/10/08 17:39:13","新北市三重區大同北路36號","121.494936666667","25.06246","6500200","三重區"
"251014","742-BX","2018/10/08 17:39:06","新北市淡水區公埔子16-6號","121.48102","25.2246083333333","6501000","淡水區"
"241005","262-UM","2018/10/08 17:39:13","新北市三重區碧華街1號","121.48354","25.081105","6500200","三重區"
"241016","266-UM","2018/10/08 17:39:14","新北市三重區正義北路21號","121.497591666667","25.0634083333333","6500200","三重區"
"241018","268-UM","2018/10/08 17:39:08","新北市三重區新北大道一段7號","121.489608333333","25.0612783333333","6500200","三重區"
"241025","271-UM","2018/10/08 17:39:11","新北市蘆洲區永安南路一段166號","121.474958333333","25.0747983333333","6500200","三重區"
"241007","398-BY","2018/10/08 17:39:18","新北市三重區後竹圍街205巷61號","121.484636666667","25.0731533333333","6500200","三重區"
"241024","KEA-2210","2018/10/08 17:39:07","新北市三重區大勇街27號","121.482773333333","25.07158","6500200","三重區"
"241014","543-UM","2018/10/08 17:39:02","新北市三重區河邊北街66號","121.504113333333","25.0680483333333","6500200","三重區"
"241023","545-UM","2018/10/08 17:39:15","新北市三重區忠孝路三段50巷98號","121.483623333333","25.0644333333333","6500200","三重區"
"241012","941-UM","2018/10/08 17:39:13","新北市三重區仁興街39巷14-6號","121.499858333333","25.0761033333333","6500200","三重區"
"241033","AAC-255","2018/10/08 17:39:06","新北市三重區光復路一段49號","121.472138333333","25.0487916666667","6500200","三重區"
"235065","098-UM","2018/10/08 17:39:16","新北市中和區員山路36巷16-3號","121.485111666667","24.9911316666667","6500300","中和區"
"247012","KEA-2869","2018/10/08 17:39:20","新北市蘆洲區民權路39號","121.47581","25.08667","6501400","蘆洲區"
"247002","893-R6","2018/10/08 17:39:19","新北市蘆洲區永平街32巷11弄23號","121.457993333333","25.0916266666667","6501400","蘆洲區"
"247016","546-UM","2018/10/08 17:39:19","新北市蘆洲區光華路70巷8號","121.467718333333","25.0833466666667","6501400","蘆洲區"
"247024","500-BY","2018/10/08 17:39:10","新北市蘆洲區長樂路125-1號","121.462175","25.0879983333333","6501400","蘆洲區"
"247004","341-TH","2018/10/08 17:39:08","新北市蘆洲區中原路32號","121.459945","25.082815","6501400","蘆洲區"
"247014","339-TH","2018/10/08 17:38:56","新北市蘆洲區中山二路55號","121.47376","25.0820533333333","6501400","蘆洲區"
"247006","337-TH","2018/10/08 17:39:20","新北市蘆洲區長安街66號","121.462778333333","25.08006","6501400","蘆洲區"
"247008","336-TH","2018/10/08 17:39:13","新北市蘆洲區民生街131巷3號","121.472503333333","25.0786583333333","6501400","蘆洲區"
"247020","057-VK","2018/10/08 17:39:16","新北市蘆洲區民族路343-3號","121.472503333333","25.0917783333333","6501400","蘆洲區"
"247010","056-VK","2018/10/08 17:39:05","新北市蘆洲區中山一路114號","121.477221666667","25.0814716666667","6501400","蘆洲區"
"247018","007-UY","2018/10/08 17:39:19","新北市蘆洲區三民路98巷7號","121.472468333333","25.0871266666667","6501400","蘆洲區"
"247004","002-UY","2018/10/08 17:39:17","新北市蘆洲區長安街49巷8弄1號","121.462333333333","25.0785933333333","6501400","蘆洲區"
"247022","001-UY","2018/10/08 17:39:15","新北市蘆洲區三民路285號","121.467046666667","25.0899733333333","6501400","蘆洲區"
"228003","097-TW","2018/10/08 17:39:10","新北市貢寮區仁理村仁和路228號","121.923948333333","25.0536733333333","6502600","貢寮區"
"228002","663-BX","2018/10/08 17:39:13","新北市貢寮區福隆里外隆林街16-4號","121.95788","25.00517","6502600","貢寮區"
"228001","670-TC","2018/10/08 17:39:06","新北市貢寮區仁理村仁愛路95-1號","121.927706666667","25.0555083333333","6502600","貢寮區"
"224010","AGQ-8101","2018/10/08 17:35:48","新北市瑞芳區瑞芳街1號","121.806871666667","25.1100366666667","6501200","瑞芳區"
"224006","676-BX","2018/10/08 17:39:03","新北市瑞芳區傑魚坑路36號","121.794046666667","25.1105733333333","6501200","瑞芳區"
"224008","285-BY","2018/10/08 17:39:20","新北市瑞芳區瑞柑新村1-1號","121.829406666667","25.1061566666667","6501200","瑞芳區"
"224009","273-VK","2018/10/08 17:39:14","新北市瑞芳區金光路368號","121.849826666667","25.1103883333333","6501200","瑞芳區"
"224005","271-BY","2018/10/08 17:39:03","新北市瑞芳區海濱路8-6號","121.831486666667","25.1261966666667","6501200","瑞芳區"
"227001","642-TC","2018/10/08 17:39:04","新北市雙溪區共和里東榮街52號","121.866335","25.03367","6502500","雙溪區"
"251005","010-UM","2018/10/08 17:39:07","新北市淡水區鄧公路33巷12號","121.451795","25.1709283333333","6501000","淡水區"
"251001","011-UM","2018/10/08 17:39:04","新北市淡水區民權路92巷35-1號","121.462211666667","25.1265783333333","6501000","淡水區"
"251013","KEA-2871","2018/10/08 17:39:08","新北市淡水區演戲埔腳5號","121.472018333333","25.1937033333333","6501000","淡水區"
"251016","179-VK","2018/10/08 17:39:11","新北市淡水區埤島39-15號","121.452721666667","25.1958883333333","6501000","淡水區"
"251015","180-VK","2018/10/08 17:39:14","新北市淡水區糞箕湖20號","121.485695","25.17089","6501000","淡水區"
"251008","181-VK","2018/10/08 17:39:19","新北市淡水區八勢路一段123巷5弄1號","121.466705","25.1565833333333","6501000","淡水區"
"251010","413-VK","2018/10/08 17:39:18","新北市淡水區淡海路280巷23號","121.419758333333","25.1899833333333","6501000","淡水區"
"251012","441-VK","2018/10/08 17:39:02","新北市淡水區北新路200巷8號","121.451758333333","25.179655","6501000","淡水區"
"251007","442-VK","2018/10/08 17:39:15","新北市淡水區民生路124巷26號","121.464108333333","25.13765","6501000","淡水區"
"251004","443-VK","2018/10/08 17:39:06","新北市淡水區中正東路二段163號","121.459251666667","25.1449383333333","6501000","淡水區"
"251006","561-UM","2018/10/08 17:39:17","新北市淡水區大信街32號","121.442101666667","25.1770766666667","6501000","淡水區"
"251009","575-R6","2018/10/08 17:39:12","新北市淡水區中正路28號","121.444218333333","25.1691616666667","6501000","淡水區"
"251011","650-BX","2018/10/08 17:39:03","新北市淡水區小坪頂20-1號","121.484625","25.15755","6501000","淡水區"
"251002","672-BX","2018/10/08 17:39:15","新北市淡水區重建街80號","121.440141666667","25.1723416666667","6501000","淡水區"
"251003","766-UM","2018/10/08 17:39:14","新北市淡水區中山北路一段50號","121.441833333333","25.17558","6501000","淡水區"
"207003","681-TV","2018/10/08 17:39:14","新北市萬里區龜吼里漁澳路64-3號","121.687733333333","25.1960083333333","6502800","萬里區"
"207004","225-TW","2018/10/08 17:39:19","新北市萬里區中幅里中福路8-1號","121.685943333333","25.1647366666667","6502800","萬里區"
"252002","178-VK","2018/10/08 17:39:07","新北市三芝區智成街83號","121.505036666667","25.2557266666667","6502100","三芝區"
"252001","292-VK","2018/10/08 17:39:02","新北市三芝區淡金路二段15號","121.502376666667","25.2591366666667","6502100","三芝區"
"237013","252-BX","2018/10/08 17:39:10","新北市三峽區介壽路一段21-1號","121.375473333333","24.9333983333333","6500900","三峽區"
"237006","5529-G3","2018/10/08 17:39:12","新北市三峽區介壽路二段38巷67號","121.391655","24.93421","6500900","三峽區"
"237015","649-BX","2018/10/08 17:39:22","新北市三峽區正義街57號","121.369223333333","24.9186983333333","6500900","三峽區"
"237010","706-TV","2018/10/08 17:39:21","新北市三峽區中山路167號","121.3646","24.9364583333333","6500900","三峽區"
"236014","270-VK","2018/10/08 17:39:14","新北市土城區城林路6巷80號","121.438501666667","24.9796016666667","6501300","土城區"
"236020","401-BY","2018/10/08 17:39:07","新北市土城區中華路二段2號","121.438828333333","24.9797016666667","6501300","土城區"
"236059","912-UM","2018/10/08 17:39:07","新北市土城區城林路6巷80號","121.438363333333","24.9798133333333","6501300","土城區"
"236063","915-UM","2018/10/08 17:39:16","新北市土城區城林路6巷80號","121.438693333333","24.9797","6501300","土城區"
"242036","AAC-296","2018/10/08 17:39:11","新北市新莊區建福路59巷30號","121.428171666667","25.027535","6500500","新莊區"
"242058","986-R7","2018/10/08 17:39:08","新北市新莊區中正路723-9號","121.422976666667","25.029095","6500500","新莊區"
"242056","751-BX","2018/10/08 17:39:15","新北市新莊區新莊路543巷9弄28號","121.448323333333","25.031905","6500500","新莊區"
"242029","705-TV","2018/10/08 17:39:22","新北市新莊區復興路一段163號","121.450956666667","25.04335","6500500","新莊區"
"242027","615-BX","2018/10/08 17:39:05","新北市新莊區福壽街107號","121.457955","25.0508233333333","6500500","新莊區"
"242025","613-BX","2018/10/08 17:39:19","新北市新莊區思源路98號","121.4602","25.0460983333333","6500500","新莊區"
"242044","566-BX","2018/10/08 17:39:10","新北市新莊區富國路47號","121.419268333333","25.026165","6500500","新莊區"
"242048","497-BY","2018/10/08 17:39:12","新北市新莊區萬安街121號","121.420718333333","25.0224933333333","6500500","新莊區"
"242011","442-UM","2018/10/08 17:39:12","新北市新莊區中港路607號","121.451391666667","25.053225","6500500","新莊區"
"242053","441-UM","2018/10/08 17:39:20","新北市新莊區新樹路699巷10號","121.432466666667","25.0020083333333","6500500","新莊區"
"242039","415-TV","2018/10/08 17:39:03","新北市新莊區民安路322號","121.428971666667","25.0220216666667","6500500","新莊區"
"242009","413-TV","2018/10/08 17:39:22","新北市新莊區福壽街169巷3號","121.45734","25.0537033333333","6500500","新莊區"
"242046","400-BY","2018/10/08 17:39:15","新北市新莊區福營路89號","121.434575","25.0322433333333","6500500","新莊區"
"242023","362-BY","2018/10/08 17:39:17","新北市新莊區公園路129-5號","121.457341666667","25.040825","6500500","新莊區"
"242060","353-BY","2018/10/08 17:39:25","新北市新莊區瓊林南路219號","121.434601666667","25.0088983333333","6500500","新莊區"
"242042","133-UY","2018/10/08 17:39:13","新北市新莊區中正路514巷15號","121.433045","25.03295","6500500","新莊區"
"242034","135-UY","2018/10/08 17:39:21","新北市新莊區新莊路621號","121.445671666667","25.0328533333333","6500500","新莊區"
"242013","173-VK","2018/10/08 17:39:21","新北市新莊區中誠街99號","121.449925","25.04771","6500500","新莊區"
"242019","175-VK","2018/10/08 17:39:22","新北市新莊區中港路218號","121.454295","25.0427266666667","6500500","新莊區"
"242007","176-VK","2018/10/08 17:39:22","新北市新莊區福樂街120號","121.457066666667","25.0478316666667","6500500","新莊區"
"242017","346-TH","2018/10/08 17:39:16","新北市新莊區復興路一段127巷12號","121.449075","25.0436266666667","6500500","新莊區"
"242002","347-TH","2018/10/08 17:39:15","新北市新莊區新莊路280號","121.451581666667","25.03383","6500500","新莊區"
"242031","348-TH","2018/10/08 17:39:20","新北市新莊區新泰路374號","121.444126666667","25.043175","6500500","新莊區"
"242004","349-TH","2018/10/08 17:39:21","新北市新莊區自立街229號","121.456653333333","25.0457466666667","6500500","新莊區"
"242021","350-TH","2018/10/08 17:39:13","新北市新莊區中華路一段182號","121.452646666667","25.0422333333333","6500500","新莊區"
"242015","351-TH","2018/10/08 17:39:06","新北市新莊區新泰路334號","121.444876666667","25.0419733333333","6500500","新莊區"
"238015","755-BX","2018/10/08 17:39:22","新北市樹林區啟智街9號","121.421115","24.99387","6500700","樹林區"
"238023","601-UM","2018/10/08 17:39:09","新北市樹林區三福街60號","121.405191666667","25.0162533333333","6500700","樹林區"
"238019","599-UM","2018/10/08 17:39:16","新北市樹林區太平路99號","121.419115","24.9811716666667","6500700","樹林區"
"238018","571-TV","2018/10/08 17:39:04","新北市樹林區博愛街29巷10號","121.427356666667","24.9925233333333","6500700","樹林區"
"238024","5061-A6","2018/10/08 17:39:18","新北市樹林區環河路110號","121.426148333333","24.97739","6500700","樹林區"
"238022","KEA-2213","2018/10/08 17:39:18","新北市樹林區太元街17號","121.418161666667","24.98024","6500700","樹林區"
"238021","KEA-2539","2018/10/08 17:39:02","新北市樹林區柑園街一段236號","121.392251666667","24.9563316666667","6500700","樹林區"
"238025","303-VK","2018/10/08 17:39:16","新北市樹林區保安街三段69號","121.412606666667","25.012075","6500700","樹林區"
"238017","283-BY","2018/10/08 17:39:02","新北市樹林區三德街30巷7號","121.414661666667","25.01282","6500700","樹林區"
"238014","282-BY","2018/10/08 17:39:15","新北市樹林區保安街一段354號","121.417836666667","24.998325","6500700","樹林區"
"238020","268-VK","2018/10/08 17:39:21","新北市樹林區俊英街160巷5-1號","121.42823","25.0074583333333","6500700","樹林區"
"238026","172-UY","2018/10/08 17:39:18","新北市樹林區新興街19巷34弄1號","121.402091666667","24.9734316666667","6500700","樹林區"
"238016","169-UY","2018/10/08 17:39:09","新北市樹林區育英街137號","121.419675","24.9892566666667","6500700","樹林區"
"239007","AAC-297","2018/10/08 17:39:02","新北市鶯歌區鶯桃路182巷96弄5號","121.339756666667","24.9575383333333","6500800","鶯歌區"
"239006","891-R6","2018/10/08 17:39:22","新北市鶯歌區鶯桃路436巷71號","121.333866666667","24.9675033333333","6500800","鶯歌區"
"239008","527-UM","2018/10/08 17:39:19","桃園市龜山區宏德司法新村4號","121.331078333333","24.9793283333333","6500800","鶯歌區"
"239005","526-UM","2018/10/08 17:39:08","新北市鶯歌區福隆二街21號","121.325056666667","24.9719466666667","6500800","鶯歌區"
"239001","417-VK","2018/10/08 17:39:21","新北市鶯歌區中正三路220號","121.331533333333","24.9375183333333","6500800","鶯歌區"
"239003","360-BY","2018/10/08 17:39:09","新北市鶯歌區鶯桃路188-2號","121.338195","24.958375","6500800","鶯歌區"
"239002","359-BY","2018/10/08 17:39:16","新北市鶯歌區育德街12號","121.344686666667","24.9552616666667","6500800","鶯歌區"
"239004","193-VK","2018/10/08 17:39:11","新北市鶯歌區三鶯路121-3號","121.360345","24.944915","6500800","鶯歌區"
"221008","489-VK","2018/10/08 17:39:13","新北市汐止區康寧街901號","121.651423333333","25.0750316666667","6501100","汐止區"
"221015","131-UY","2018/10/08 17:39:07","新北市汐止區汐萬路一段256巷1號","121.651931666667","25.07488","6501100","汐止區"
"221010","269-BY","2018/10/08 17:39:07","新北市汐止區汐萬路一段418巷25號","121.650033333333","25.0788733333333","6501100","汐止區"
"221023","279-VK","2018/10/08 17:39:03","新北市汐止區汐萬路一段256巷1號","121.651708333333","25.0748783333333","6501100","汐止區"
"221032","280-BY","2018/10/08 17:39:09","新北市汐止區連峰街1巷2號","121.647395","25.076155","6501100","汐止區"
"221021","299-VK","2018/10/08 17:39:17","新北市汐止區汐萬路一段256巷1號","121.651923333333","25.074885","6501100","汐止區"
"221018","753-BX","2018/10/08 17:39:22","新北市汐止區汐萬路一段256巷1號","121.651951666667","25.074735","6501100","汐止區"
"242050","281-VK","2018/10/08 17:39:18","新北市新莊區西盛街216號","121.427985","25.017305","6500500","新莊區"
"235061","KEA-2875","2018/10/08 17:13:11","新北市中和區員山路36巷16-2號","121.48525","24.991655","6500300","中和區"
