"lineid","car","time","location","longitude","latitude","cityid","cityname"
"234026","9371-KE","2018/10/08 17:49:10","新北市永和區中山路一段137號","121.510558333333","25.0096366666667","6500400","永和區"
"249005","172-UM","2018/10/08 17:49:24","新北市八里區荖阡坑路34-2號","121.402261666667","25.1311233333333","6502300","八里區"
"249001","173-UM","2018/10/08 17:49:14","新北市八里區龍米路二段139號","121.444471666667","25.1485616666667","6502300","八里區"
"249004","303-UY","2018/10/08 17:49:05","新北市八里區中華路一段81巷25號","121.419688333333","25.1552","6502300","八里區"
"249002","305-UY","2018/10/08 17:49:20","新北市八里區頂寮二街117號","121.448386666667","25.126395","6502300","八里區"
"249003","593-UM","2018/10/08 17:49:12","新北市八里區中山路二段123號","121.405473333333","25.1518916666667","6502300","八里區"
"248016","026-BX","2018/10/08 17:49:05","新北市五股區中興路二段83巷26-6號","121.460036666667","25.0752366666667","6501500","五股區"
"248004","677-BX","2018/10/08 17:49:08","新北市五股區中興路二段83巷26-6號","121.460036666667","25.0750083333333","6501500","五股區"
"248002","678-BX","2018/10/08 17:49:07","新北市五股區中興路二段37巷28號","121.46013","25.0747833333333","6501500","五股區"
"232011","375-UM","2018/10/08 17:49:05","新北市坪林區北宜路八段260號","121.709541666667","24.9350566666667","6502000","坪林區"
"244023","069-UM","2018/10/08 17:49:03","新北市林口區東湖路41巷19號","121.38689","25.0731433333333","6501700","林口區"
"244007","080-UY","2018/10/08 17:49:12","新北市林口區林口路108號","121.388688333333","25.0812866666667","6501700","林口區"
"244019","403-UM","2018/10/08 17:49:14","新北市林口區麗園路123號","121.37154","25.067435","6501700","林口區"
"244013","KEA-2802","2018/10/08 17:49:10","新北市林口區中正路525巷17號","121.383321666667","25.0768583333333","6501700","林口區"
"244017","485-VK","2018/10/08 17:49:09","新北市林口區公園路177號","121.370848333333","25.07204","6501700","林口區"
"244009","656-BX","2018/10/08 17:49:17","新北市林口區林口路297巷11號","121.38556","25.0845033333333","6501700","林口區"
"244011","701-TV","2018/10/08 17:49:18","新北市林口區竹林路35號","121.386838333333","25.0776816666667","6501700","林口區"
"244025","837-TS","2018/10/08 17:49:17","新北市林口區文化三路一段125號","121.361468333333","25.069045","6501700","林口區"
"244021","838-TS","2018/10/08 17:49:13","新北市林口區仁愛路一段83巷38號","121.397708333333","25.0706066666667","6501700","林口區"
"222003","436-BY","2018/10/08 17:49:11","新北市深坑區阿柔洋60-1號","121.60826","24.9987616666667","6501800","深坑區"
"222002","659-BX","2018/10/08 17:49:14","新北市深坑區平埔街22巷17弄1號","121.614905","25.0008366666667","6501800","深坑區"
"231046","107-UY","2018/10/08 17:49:08","新北市新店區下石厝路1號","121.53121","24.9298533333333","6500600","新店區"
"251014","742-BX","2018/10/08 17:49:05","新北市淡水區公埔子16-6號","121.48102","25.2246083333333","6501000","淡水區"
"241005","262-UM","2018/10/08 17:49:13","新北市三重區仁愛街517號","121.487553333333","25.0822","6500200","三重區"
"241016","266-UM","2018/10/08 17:49:14","新北市三重區新北大道一段2號","121.490948333333","25.0613683333333","6500200","三重區"
"241024","KEA-2210","2018/10/08 17:49:07","新北市三重區力行路二段9巷10號","121.48285","25.0722883333333","6500200","三重區"
"241012","941-UM","2018/10/08 17:49:13","新北市三重區龍門路225號","121.50145","25.073885","6500200","三重區"
"241033","AAC-255","2018/10/08 17:49:06","新北市三重區重新路五段527號","121.471121666667","25.0460583333333","6500200","三重區"
"235065","098-UM","2018/10/08 17:49:16","新北市中和區連城路469巷16號","121.483533333333","24.9952516666667","6500300","中和區"
"235058","151-BY","2018/10/08 17:49:07","新北市中和區員山路36巷16-2號","121.48522","24.9915616666667","6500300","中和區"
"247012","KEA-2869","2018/10/08 17:49:20","新北市蘆洲區復興路85號","121.476518333333","25.0875116666667","6501400","蘆洲區"
"247002","893-R6","2018/10/08 17:49:19","新北市蘆洲區永平街32巷33弄18號","121.458706666667","25.0924116666667","6501400","蘆洲區"
"247016","546-UM","2018/10/08 17:49:19","新北市蘆洲區中正路185巷23弄2號","121.466871666667","25.08468","6501400","蘆洲區"
"247024","500-BY","2018/10/08 17:49:10","新北市蘆洲區長樂路231號","121.461823333333","25.0898916666667","6501400","蘆洲區"
"247004","341-TH","2018/10/08 17:49:08","新北市蘆洲區長安街233巷44號","121.457736666667","25.0820966666667","6501400","蘆洲區"
"247014","339-TH","2018/10/08 17:49:16","新北市蘆洲區保和街71號","121.469418333333","25.086025","6501400","蘆洲區"
"247006","337-TH","2018/10/08 17:49:20","新北市蘆洲區九芎街115號","121.465541666667","25.0795533333333","6501400","蘆洲區"
"247008","336-TH","2018/10/08 17:49:23","新北市蘆洲區信義路37巷12號","121.474316666667","25.07981","6501400","蘆洲區"
"247020","057-VK","2018/10/08 17:49:16","新北市蘆洲區民義街71巷31號","121.472056666667","25.0911233333333","6501400","蘆洲區"
"247010","056-VK","2018/10/08 17:49:05","新北市蘆洲區信義路226號","121.478941666667","25.0853266666667","6501400","蘆洲區"
"247018","007-UY","2018/10/08 17:49:19","新北市蘆洲區復興路227巷2弄25號","121.48138","25.090515","6501400","蘆洲區"
"247004","002-UY","2018/10/08 17:48:57","新北市五股區更洲路47-1號","121.45388","25.078475","6501400","蘆洲區"
"247022","001-UY","2018/10/08 17:49:15","新北市蘆洲區中正路353號","121.465365","25.089705","6501400","蘆洲區"
"226004","312-R5","2018/10/08 17:49:15","新北市平溪區石底里公園街18-3號","121.733276666667","25.025965","6502400","平溪區"
"228003","097-TW","2018/10/08 17:49:10","新北市貢寮區真理里延平街72-5號","121.925175","25.0581583333333","6502600","貢寮區"
"228002","663-BX","2018/10/08 17:49:13","新北市貢寮區福隆里龜壽谷街13號","121.956353333333","25.006075","6502600","貢寮區"
"228001","670-TC","2018/10/08 17:49:06","新北市貢寮區仁理村仁愛路95-1號","121.927705","25.055435","6502600","貢寮區"
"224006","676-BX","2018/10/08 17:49:24","新北市瑞芳區傑魚坑路183號","121.788446666667","25.1082483333333","6501200","瑞芳區"
"224008","285-BY","2018/10/08 17:49:21","新北市瑞芳區明燈路一段184號","121.818415","25.1081716666667","6501200","瑞芳區"
"224009","273-VK","2018/10/08 17:49:14","新北市瑞芳區山尖路2號","121.854748333333","25.1160533333333","6501200","瑞芳區"
"224005","271-BY","2018/10/08 17:49:03","新北市瑞芳區瑞濱路26號","121.826725","25.1216716666667","6501200","瑞芳區"
"227001","642-TC","2018/10/08 17:49:04","新北市雙溪區共和里東榮街52號","121.866378333333","25.0336916666667","6502500","雙溪區"
"253006","032-BX","2018/10/08 17:49:20","新北市石門區中山路62-7號","121.567325","25.2902433333333","6502200","石門區"
"222001","KEA-2212","2018/10/08 17:49:15","新北市深坑區文山路三段110號","121.608645","24.9993283333333","6501800","深坑區"
"208002","KEA-2872","2018/10/08 17:49:02","新北市金山區磺清路135號","121.63949","25.22776","6502700","金山區"
"208001","761-BX","2018/10/08 17:49:15","新北市金山區磺清路135號","121.639263333333","25.227645","6502700","金山區"
"251005","010-UM","2018/10/08 17:49:07","新北市淡水區學府路102巷12號","121.450775","25.1717566666667","6501000","淡水區"
"251001","011-UM","2018/10/08 17:49:04","新北市淡水區民權路92巷35-1號","121.462221666667","25.1266333333333","6501000","淡水區"
"251013","KEA-2871","2018/10/08 17:49:08","新北市淡水區泉洲厝31號","121.479593333333","25.1910316666667","6501000","淡水區"
"251016","179-VK","2018/10/08 17:49:11","新北市淡水區埤島39-15號","121.452743333333","25.1958666666667","6501000","淡水區"
"251015","180-VK","2018/10/08 17:49:09","新北市淡水區興福寮22-3號","121.493893333333","25.164195","6501000","淡水區"
"251008","181-VK","2018/10/08 17:49:13","新北市淡水區八勢路一段133號","121.466995","25.15774","6501000","淡水區"
"251010","413-VK","2018/10/08 17:49:18","新北市淡水區淡海路280巷33弄34-2號","121.418725","25.1885933333333","6501000","淡水區"
"251012","441-VK","2018/10/08 17:49:02","新北市淡水區北新路一段606號","121.472123333333","25.1848283333333","6501000","淡水區"
"251007","442-VK","2018/10/08 17:49:15","新北市淡水區民生路16巷1號","121.46094","25.1375783333333","6501000","淡水區"
"251004","443-VK","2018/10/08 17:49:06","新北市淡水區民權一街7號","121.459056666667","25.1369133333333","6501000","淡水區"
"251006","561-UM","2018/10/08 17:49:17","新北市淡水區大信街1巷16號","121.440323333333","25.176755","6501000","淡水區"
"251009","575-R6","2018/10/08 17:49:12","新北市淡水區長興街43-2號","121.444198333333","25.1716966666667","6501000","淡水區"
"251011","650-BX","2018/10/08 17:44:23","新北市淡水區吳(仔)厝10-3號","121.48183","25.14884","6501000","淡水區"
"251002","672-BX","2018/10/08 17:49:18","新北市淡水區中山路46號","121.444205","25.170065","6501000","淡水區"
"251003","766-UM","2018/10/08 17:49:14","新北市淡水區大忠街5巷2號","121.443135","25.1763716666667","6501000","淡水區"
"207003","681-TV","2018/10/08 17:49:14","新北市萬里區野柳里東澳路66號","121.6927","25.200945","6502800","萬里區"
"207004","225-TW","2018/10/08 17:49:19","新北市萬里區萬里里瑪鋉頂街100-1號","121.687753333333","25.1804566666667","6502800","萬里區"
"252002","178-VK","2018/10/08 17:49:07","新北市三芝區智成街58號","121.504456666667","25.2561633333333","6502100","三芝區"
"252001","292-VK","2018/10/08 17:49:22","新北市三芝區中興街一段12號","121.497431666667","25.2593133333333","6502100","三芝區"
"237004","KEA-2597","2018/10/08 17:49:20","新北市三峽區中山路146號","121.365005","24.9362766666667","6500900","三峽區"
"237009","210-TH","2018/10/08 17:49:22","新北市三峽區大勇路31號","121.367221666667","24.9363066666667","6500900","三峽區"
"237013","252-BX","2018/10/08 17:49:10","新北市三峽區愛國路34巷1號","121.374621666667","24.9328333333333","6500900","三峽區"
"237014","433-BY","2018/10/08 17:49:18","新北市三峽區文化路117號","121.370098333333","24.9360966666667","6500900","三峽區"
"237006","5529-G3","2018/10/08 17:49:12","新北市三峽區介壽路二段138巷1弄45-5號","121.398145","24.9327383333333","6500900","三峽區"
"237011","KEA-2596","2018/10/08 17:49:10","新北市三峽區仁愛街26號","121.368416666667","24.9321383333333","6500900","三峽區"
"237015","649-BX","2018/10/08 17:49:22","新北市三峽區白雞149-2號","121.400095","24.9054966666667","6500900","三峽區"
"237010","706-TV","2018/10/08 17:49:21","新北市三峽區文化路147號","121.368488333333","24.93591","6500900","三峽區"
"237005","AKY-6261","2018/10/08 17:49:10","新北市三峽區中山路365號","121.35897","24.9372633333333","6500900","三峽區"
"236069","105-UM","2018/10/08 17:49:03","新北市土城區城林路6巷80號","121.438468333333","24.9797483333333","6501300","土城區"
"236042","107-UM","2018/10/08 17:49:06","新北市土城區城林路6巷80號","121.438465","24.979775","6501300","土城區"
"236078","166-UM","2018/10/08 17:49:12","新北市土城區中央路三段32號","121.438536666667","24.9690633333333","6501300","土城區"
"236030","253-BX","2018/10/08 17:49:22","新北市土城區城林路6巷80號","121.4387","24.9796616666667","6501300","土城區"
"236014","270-VK","2018/10/08 17:49:14","新北市土城區城林路6巷80號","121.438506666667","24.979595","6501300","土城區"
"236039","271-VK","2018/10/08 17:49:12","新北市土城區城林路6巷80號","121.438556666667","24.9795733333333","6501300","土城區"
"236020","401-BY","2018/10/08 17:49:07","新北市土城區城林路6巷80號","121.438478333333","24.979775","6501300","土城區"
"236059","912-UM","2018/10/08 17:49:07","新北市土城區中央路三段149號","121.432373333333","24.9655233333333","6501300","土城區"
"236063","915-UM","2018/10/08 17:49:16","新北市土城區城林路6巷80號","121.438655","24.9797","6501300","土城區"
"242036","AAC-296","2018/10/08 17:49:11","新北市新莊區建福路49巷28號","121.427803333333","25.0280316666667","6500500","新莊區"
"242058","986-R7","2018/10/08 17:49:18","新北市新莊區中正路887-10號","121.416385","25.024495","6500500","新莊區"
"242056","751-BX","2018/10/08 17:49:15","新北市新莊區豐年街118號","121.446473333333","25.0303233333333","6500500","新莊區"
"242029","705-TV","2018/10/08 17:49:02","新北市新莊區復興路一段29號","121.446346666667","25.0418216666667","6500500","新莊區"
"242027","615-BX","2018/10/08 17:49:05","新北市新莊區福壽街167號","121.458008333333","25.05368","6500500","新莊區"
"242025","613-BX","2018/10/08 17:49:19","新北市三重區新北大道二段95號","121.467306666667","25.0613933333333","6500500","新莊區"
"242044","566-BX","2018/10/08 17:49:15","新北市新莊區中正路855巷21號","121.420293333333","25.026935","6500500","新莊區"
"242048","497-BY","2018/10/08 17:49:14","新北市新莊區萬安街146巷16號","121.41996","25.0217716666667","6500500","新莊區"
"242011","442-UM","2018/10/08 17:49:05","新北市新莊區中港路679號","121.450718333333","25.056155","6500500","新莊區"
"242053","441-UM","2018/10/08 17:49:11","新北市新莊區民安西路470-1號","121.431736666667","25.0078383333333","6500500","新莊區"
"242039","415-TV","2018/10/08 17:49:04","新北市新莊區民安路208號","121.425723333333","25.02299","6500500","新莊區"
"242009","413-TV","2018/10/08 17:49:22","新北市新莊區昌平街39號","121.454765","25.05239","6500500","新莊區"
"242046","400-BY","2018/10/08 17:49:15","新北市新莊區福營路97巷16號","121.434351666667","25.0316783333333","6500500","新莊區"
"242023","362-BY","2018/10/08 17:49:17","新北市新莊區福樂街78號","121.457655","25.046785","6500500","新莊區"
"242060","353-BY","2018/10/08 17:49:17","新北市新莊區新樹路563號","121.432905","25.0072333333333","6500500","新莊區"
"242042","133-UY","2018/10/08 17:49:13","新北市泰山區貴陽街29號","121.422453333333","25.03309","6500500","新莊區"
"242034","135-UY","2018/10/08 17:49:21","新北市新莊區新莊路692號","121.440638333333","25.032795","6500500","新莊區"
"242013","173-VK","2018/10/08 17:49:21","新北市新莊區中誠街171號","121.448133333333","25.0473633333333","6500500","新莊區"
"242019","175-VK","2018/10/08 17:49:22","新北市新莊區公園路224號","121.456646666667","25.0406516666667","6500500","新莊區"
"242007","176-VK","2018/10/08 17:49:22","新北市新莊區福樂街132巷1號","121.45674","25.0482266666667","6500500","新莊區"
"242017","346-TH","2018/10/08 17:49:18","新北市新莊區永安街46號","121.451473333333","25.044835","6500500","新莊區"
"242002","347-TH","2018/10/08 17:49:16","新北市新莊區景德路168號","121.45048","25.0340566666667","6500500","新莊區"
"242031","348-TH","2018/10/08 17:49:20","新北市新莊區新泰路357巷3弄21號","121.442298333333","25.0407516666667","6500500","新莊區"
"242004","349-TH","2018/10/08 17:49:21","新北市新莊區自立街236號","121.458198333333","25.0454483333333","6500500","新莊區"
"242021","350-TH","2018/10/08 17:49:13","新北市新莊區中華路一段66巷7號","121.452665","25.0387083333333","6500500","新莊區"
"242015","351-TH","2018/10/08 17:49:06","新北市新莊區新泰路502巷20號","121.443106666667","25.0464416666667","6500500","新莊區"
"238015","755-BX","2018/10/08 17:49:02","新北市樹林區復興路74號","121.421945","24.9935566666667","6500700","樹林區"
"238023","601-UM","2018/10/08 17:49:09","新北市樹林區龍興街32巷12號","121.40237","25.015785","6500700","樹林區"
"238019","599-UM","2018/10/08 17:49:16","新北市樹林區太順街5巷1號","121.420211666667","24.9800033333333","6500700","樹林區"
"238018","571-TV","2018/10/08 17:49:04","新北市樹林區中正路7-1號","121.430253333333","24.9975916666667","6500700","樹林區"
"238022","KEA-2213","2018/10/08 17:49:18","新北市樹林區太順街86巷34號","121.416328333333","24.978465","6500700","樹林區"
"238021","KEA-2539","2018/10/08 17:49:02","新北市樹林區柑園街一段73號","121.40202","24.9602366666667","6500700","樹林區"
"238025","303-VK","2018/10/08 17:49:16","新北市樹林區三俊街125號","121.417735","25.0155716666667","6500700","樹林區"
"238017","283-BY","2018/10/08 17:49:03","新北市樹林區三德街34-5號","121.415365","25.0132","6500700","樹林區"
"238014","282-BY","2018/10/08 17:49:21","新北市樹林區保安街一段289巷48號","121.41706","24.99658","6500700","樹林區"
"238020","268-VK","2018/10/08 17:49:21","新北市樹林區俊英街252號","121.424491666667","25.0110516666667","6500700","樹林區"
"238026","172-UY","2018/10/08 17:49:18","新北市樹林區新興街19巷2弄22號","121.4013","24.9727766666667","6500700","樹林區"
"238016","169-UY","2018/10/08 17:49:09","新北市樹林區復興路312號","121.41676","24.9869583333333","6500700","樹林區"
"239007","AAC-297","2018/10/08 17:49:22","新北市鶯歌區鶯桃路100號","121.33922","24.9542416666667","6500800","鶯歌區"
"239006","891-R6","2018/10/08 17:49:02","新北市鶯歌區鶯桃路413巷34弄2號","121.331013333333","24.9635316666667","6500800","鶯歌區"
"239008","527-UM","2018/10/08 17:48:59","新北市鶯歌區大湖路700巷22弄19號","121.333885","24.977395","6500800","鶯歌區"
"239005","526-UM","2018/10/08 17:49:08","新北市鶯歌區鳳吉五街5號","121.326511666667","24.97225","6500800","鶯歌區"
"239001","417-VK","2018/10/08 17:49:21","新北市鶯歌區中正三路408號","121.32518","24.9346783333333","6500800","鶯歌區"
"239003","360-BY","2018/10/08 17:49:09","新北市鶯歌區鶯桃路288號","121.335046666667","24.9602833333333","6500800","鶯歌區"
"239002","359-BY","2018/10/08 17:49:16","新北市鶯歌區國華路100-1號","121.343255","24.9535583333333","6500800","鶯歌區"
"239004","193-VK","2018/10/08 17:49:11","新北市鶯歌區文化路393巷7號","121.35278","24.9507266666667","6500800","鶯歌區"
"221008","489-VK","2018/10/08 17:49:13","新北市汐止區康寧街901號","121.651396666667","25.0750766666667","6501100","汐止區"
"221036","130-UY","2018/10/08 17:49:17","新北市汐止區汐萬路一段273號","121.650475","25.0745333333333","6501100","汐止區"
"221015","131-UY","2018/10/08 17:49:07","新北市汐止區長江街213號","121.6614","25.0776616666667","6501100","汐止區"
"221010","269-BY","2018/10/08 17:49:09","新北市汐止區汐萬路二段104號","121.648188333333","25.084335","6501100","汐止區"
"221012","278-VK","2018/10/08 17:49:07","新北市汐止區汐萬路一段204號","121.652136666667","25.0722783333333","6501100","汐止區"
"221023","279-VK","2018/10/08 17:49:23","新北市汐止區康寧街688號","121.63691","25.0716866666667","6501100","汐止區"
"221032","280-BY","2018/10/08 17:49:09","新北市汐止區大同路一段142-1號","121.631263333333","25.0553416666667","6501100","汐止區"
"221027","281-BY","2018/10/08 17:49:06","新北市汐止區汐萬路一段310號","121.650288333333","25.0747116666667","6501100","汐止區"
"221021","299-VK","2018/10/08 17:49:17","新北市汐止區汐萬路一段8號","121.656128333333","25.0673033333333","6501100","汐止區"
"221031","353-TW","2018/10/08 17:49:11","新北市汐止區中興路86-5號","121.634751666667","25.0624416666667","6501100","汐止區"
"221035","622-UM","2018/10/08 17:49:23","新北市汐止區汐萬路一段266號","121.651023333333","25.0740033333333","6501100","汐止區"
"221025","623-UM","2018/10/08 17:49:17","新北市汐止區大同路二段187巷53號","121.652086666667","25.0661933333333","6501100","汐止區"
"221038","646-BX","2018/10/08 17:49:17","新北市汐止區汐萬路一段310號","121.650453333333","25.0749383333333","6501100","汐止區"
"221018","753-BX","2018/10/08 17:49:02","新北市汐止區汐萬路一段81號","121.654846666667","25.06982","6501100","汐止區"
"242050","281-VK","2018/10/08 17:49:18","新北市新莊區西盛街269巷20號","121.428835","25.01554","6500500","新莊區"
