"lineid","car","time","location","longitude","latitude","cityid","cityname"
"234026","9371-KE","2018/10/08 17:59:10","新北市永和區永和路一段45-1號","121.512758333333","25.0062433333333","6500400","永和區"
"249005","172-UM","2018/10/08 17:59:04","新北市八里區荖阡坑路22-1號","121.398766666667","25.1370066666667","6502300","八里區"
"249001","173-UM","2018/10/08 17:59:13","新北市八里區龍米路二段39號","121.448346666667","25.1401016666667","6502300","八里區"
"249004","303-UY","2018/10/08 17:59:11","新北市八里區龍米路三段46號","121.42787","25.1591683333333","6502300","八里區"
"249002","305-UY","2018/10/08 17:59:20","新北市八里區龍形五街7號","121.450486666667","25.1336916666667","6502300","八里區"
"249003","593-UM","2018/10/08 17:59:12","新北市八里區中山路二段88號","121.40816","25.1554616666667","6502300","八里區"
"248016","026-BX","2018/10/08 17:59:05","新北市五股區中興路二段83巷26-6號","121.459381666667","25.07531","6501500","五股區"
"248006","077-UY","2018/10/08 17:59:08","新北市五股區中興路二段83巷26-6號","121.459965","25.07528","6501500","五股區"
"248008","095-VK","2018/10/08 17:59:17","新北市五股區中興路二段150號","121.458606666667","25.078565","6501500","五股區"
"248012","247-BX","2018/10/08 17:59:07","新北市五股區中興路二段37巷28號","121.460205","25.07489","6501500","五股區"
"248004","677-BX","2018/10/08 17:59:08","新北市五股區中興路二段163號","121.4576","25.0776766666667","6501500","五股區"
"248002","678-BX","2018/10/08 17:59:07","新北市五股區中興路二段37巷28號","121.460065","25.07492","6501500","五股區"
"248010","682-TV","2018/10/08 17:59:23","新北市五股區中興路二段157巷11-1號","121.45807","25.0767266666667","6501500","五股區"
"232011","375-UM","2018/10/08 17:59:05","新北市坪林區北宜路八段192號","121.70818","24.9346733333333","6502000","坪林區"
"244023","069-UM","2018/10/08 17:59:03","新北市林口區東湖路75巷43號","121.385353333333","25.0721883333333","6501700","林口區"
"244007","080-UY","2018/10/08 17:59:24","新北市林口區竹林路554-1號","121.387168333333","25.08422","6501700","林口區"
"244019","403-UM","2018/10/08 17:59:14","新北市林口區文化一路一段126號","121.375306666667","25.0725233333333","6501700","林口區"
"244013","KEA-2802","2018/10/08 17:59:10","新北市林口區中山路164號","121.390346666667","25.0787883333333","6501700","林口區"
"244017","485-VK","2018/10/08 17:59:10","新北市林口區忠孝路488號","121.370376666667","25.070385","6501700","林口區"
"244009","656-BX","2018/10/08 17:59:17","新北市林口區佳林路56巷43號","121.385121666667","25.0807566666667","6501700","林口區"
"244011","701-TV","2018/10/08 17:59:18","新北市林口區中正路160號","121.392431666667","25.0774466666667","6501700","林口區"
"244025","837-TS","2018/10/08 17:59:02","新北市林口區文化北路一段212號","121.35808","25.070855","6501700","林口區"
"244021","838-TS","2018/10/08 17:59:13","新北市林口區新寮27-5號","121.396668333333","25.0668716666667","6501700","林口區"
"222003","436-BY","2018/10/08 17:59:11","新北市深坑區炮子崙9號","121.603641666667","24.987155","6501800","深坑區"
"222002","659-BX","2018/10/08 17:59:14","新北市深坑區深坑街35號","121.61601","25.0018183333333","6501800","深坑區"
"231046","107-UY","2018/10/08 17:59:08","新北市新店區康雅崙路14號","121.53721","24.9267616666667","6500600","新店區"
"231058","3713-VJ","2018/10/08 17:59:23","新北市新店區安華路28-1號","121.519178333333","24.960645","6500600","新店區"
"231055","AKT-0513","2018/10/08 17:59:15","新北市新店區安華路1-1號","121.519491666667","24.9603416666667","6500600","新店區"
"251014","742-BX","2018/10/08 17:59:05","新北市淡水區公埔子16-6號","121.480903333333","25.2243866666667","6501000","淡水區"
"241016","266-UM","2018/10/08 17:59:14","新北市新莊區五工一路92號","121.460861666667","25.0680883333333","6500200","三重區"
"241024","KEA-2210","2018/10/08 17:59:07","新北市三重區力行路一段277號","121.482196666667","25.071695","6500200","三重區"
"241033","AAC-255","2018/10/08 17:59:06","新北市三重區重新路五段599號","121.469521666667","25.0455933333333","6500200","三重區"
"235065","098-UM","2018/10/08 17:59:16","新北市中和區橋和路128號","121.493201666667","25.0059933333333","6500300","中和區"
"235058","151-BY","2018/10/08 17:59:07","新北市中和區錦和路400號","121.490988333333","24.9899416666667","6500300","中和區"
"235038","185-VK","2018/10/08 17:59:03","新北市中和區中正路395號","121.489478333333","24.9941883333333","6500300","中和區"
"235067","255-BX","2018/10/08 17:59:18","新北市中和區和城路一段271巷1號","121.485696666667","24.99177","6500300","中和區"
"247012","KEA-2869","2018/10/08 17:59:20","新北市蘆洲區民族路167巷11號","121.478438333333","25.0881066666667","6501400","蘆洲區"
"235054","640-BX","2018/10/08 17:59:15","新北市中和區員山路36巷16-8號","121.48541","24.9924","6500300","中和區"
"235062","800-TS","2018/10/08 17:57:59","新北市中和區員山路36巷16-3號","121.484946666667","24.991625","6500300","中和區"
"235057","801-TS","2018/10/08 17:59:24","新北市中和區員山路36巷16-2號","121.485183333333","24.991415","6500300","中和區"
"235048","896-TW","2018/10/08 17:59:05","新北市中和區員山路36巷16-2號","121.485031666667","24.991925","6500300","中和區"
"235053","900-TW","2018/10/08 17:59:15","新北市中和區員山路36巷16-3號","121.484966666667","24.9917833333333","6500300","中和區"
"235051","157-BY","2018/10/08 17:59:21","新北市中和區員山路36巷13號","121.484218333333","24.99091","6500300","中和區"
"235037","AAC-213","2018/10/08 17:59:18","新北市中和區錦和路350-1號","121.490223333333","24.9935466666667","6500300","中和區"
"247002","893-R6","2018/10/08 17:59:19","新北市蘆洲區永平街32巷57弄13-1號","121.459283333333","25.0930616666667","6501400","蘆洲區"
"247016","546-UM","2018/10/08 17:59:19","新北市蘆洲區中正路185巷3弄1號","121.468333333333","25.0853483333333","6501400","蘆洲區"
"247024","500-BY","2018/10/08 17:59:16","新北市蘆洲區光復路30巷20號","121.463866666667","25.0841633333333","6501400","蘆洲區"
"247004","341-TH","2018/10/08 17:59:08","新北市蘆洲區中原路12巷25號","121.460555","25.0841033333333","6501400","蘆洲區"
"247014","339-TH","2018/10/08 17:59:16","新北市蘆洲區復興路11號","121.471983333333","25.0853033333333","6501400","蘆洲區"
"247006","337-TH","2018/10/08 17:59:20","新北市蘆洲區長榮路128號","121.461493333333","25.0843716666667","6501400","蘆洲區"
"247004","002-UY","2018/10/08 17:50:49","新北市五股區中興路三段2巷10號","121.448625","25.08176","6501400","蘆洲區"
"247022","001-UY","2018/10/08 17:58:35","新北市蘆洲區中正路516巷21號","121.46295","25.0981566666667","6501400","蘆洲區"
"226004","312-R5","2018/10/08 17:59:15","新北市平溪區石底里公園街18-3號","121.733343333333","25.0259366666667","6502400","平溪區"
"228003","097-TW","2018/10/08 17:59:10","新北市貢寮區真理里美艷山街6-2號","121.928886666667","25.06073","6502600","貢寮區"
"228002","663-BX","2018/10/08 17:59:12","新北市貢寮區福隆里桂安街17號","121.96617","25.0223483333333","6502600","貢寮區"
"228001","670-TC","2018/10/08 17:59:06","新北市貢寮區仁理村仁愛路106巷36號","121.929175","25.0538333333333","6502600","貢寮區"
"224006","676-BX","2018/10/08 17:59:24","新北市瑞芳區大寮路356-1號","121.784761666667","25.1031733333333","6501200","瑞芳區"
"224002","639-TC","2018/10/08 17:59:13","新北市瑞芳區三爪子坑路32巷138號","121.809706666667","25.1058233333333","6501200","瑞芳區"
"224008","285-BY","2018/10/08 17:59:20","新北市瑞芳區明燈路一段45巷109號","121.822053333333","25.103645","6501200","瑞芳區"
"224009","273-VK","2018/10/08 17:59:14","新北市瑞芳區金光路115號","121.853611666667","25.106245","6501200","瑞芳區"
"224005","271-BY","2018/10/08 17:59:23","新北市瑞芳區深澳路197-2號","121.819675","25.1338483333333","6501200","瑞芳區"
"227001","642-TC","2018/10/08 17:59:04","新北市雙溪區共和里東榮街52號","121.866366666667","25.0336533333333","6502500","雙溪區"
"253006","032-BX","2018/10/08 17:59:20","新北市石門區大丘田45-2號","121.549738333333","25.27487","6502200","石門區"
"253005","295-VK","2018/10/08 17:59:05","新北市石門區中山路62-5號","121.567371666667","25.2896866666667","6502200","石門區"
"222001","KEA-2212","2018/10/08 17:59:15","新北市深坑區北深路三段28號","121.609181666667","25.0010716666667","6501800","深坑區"
"208002","KEA-2872","2018/10/08 17:59:02","新北市金山區三界壇路37號","121.627443333333","25.2279683333333","6502700","金山區"
"208001","761-BX","2018/10/08 17:59:15","新北市金山區磺港里青年路1號","121.640746666667","25.2252166666667","6502700","金山區"
"251005","010-UM","2018/10/08 17:59:07","新北市淡水區英專路118號","121.445871666667","25.1723516666667","6501000","淡水區"
"251001","011-UM","2018/10/08 17:59:04","新北市淡水區民權路94巷1號","121.463115","25.12478","6501000","淡水區"
"251013","KEA-2871","2018/10/08 17:59:08","新北市淡水區泉洲厝31號","121.479585","25.19103","6501000","淡水區"
"251016","179-VK","2018/10/08 17:59:11","新北市淡水區埤島30-14號","121.448183333333","25.1980933333333","6501000","淡水區"
"251015","180-VK","2018/10/08 17:59:09","新北市淡水區興福寮88巷1號","121.485361666667","25.1649616666667","6501000","淡水區"
"251008","181-VK","2018/10/08 17:59:13","新北市淡水區八勢一街32巷2號","121.461993333333","25.15614","6501000","淡水區"
"251010","413-VK","2018/10/08 17:59:18","新北市淡水區中正路一段87巷13弄1號","121.421023333333","25.1786983333333","6501000","淡水區"
"251012","441-VK","2018/10/08 17:59:21","新北市淡水區北新路三段38巷7號","121.484506666667","25.1870016666667","6501000","淡水區"
"251004","443-VK","2018/10/08 17:59:06","新北市淡水區民權路20號","121.45957","25.1380933333333","6501000","淡水區"
"251006","561-UM","2018/10/08 17:59:17","新北市淡水區真理街2號","121.438823333333","25.1730866666667","6501000","淡水區"
"251009","575-R6","2018/10/08 17:59:12","新北市淡水區中山路189號","121.441356666667","25.1744416666667","6501000","淡水區"
"251011","650-BX","2018/10/08 17:59:23","新北市淡水區三空泉5-1號","121.477891666667","25.1617466666667","6501000","淡水區"
"251002","672-BX","2018/10/08 17:59:15","新北市淡水區中正東路6號","121.447055","25.1670716666667","6501000","淡水區"
"251003","766-UM","2018/10/08 17:59:14","新北市淡水區大忠街47號","121.444701666667","25.176415","6501000","淡水區"
"207003","681-TV","2018/10/08 17:59:14","新北市萬里區港東路野柳風景區攤販50號","121.691618333333","25.2059666666667","6502800","萬里區"
"207004","225-TW","2018/10/08 17:59:19","新北市萬里區中幅里中福路48號","121.683196666667","25.174015","6502800","萬里區"
"252002","178-VK","2018/10/08 17:59:07","新北市三芝區中山路二段29號","121.502788333333","25.255365","6502100","三芝區"
"252001","292-VK","2018/10/08 17:59:22","新北市三芝區中興街二段2號","121.498416666667","25.2566216666667","6502100","三芝區"
"237004","KEA-2597","2018/10/08 17:59:20","新北市三峽區中園街213號","121.367001666667","24.920415","6500900","三峽區"
"237007","153-BY","2018/10/08 17:59:19","新北市三峽區中園街88號","121.367381666667","24.923825","6500900","三峽區"
"237009","210-TH","2018/10/08 17:59:22","新北市三峽區文化路248號","121.367301666667","24.9360016666667","6500900","三峽區"
"237013","252-BX","2018/10/08 17:59:10","新北市三峽區介壽路一段135號","121.376228333333","24.931715","6500900","三峽區"
"237008","302-VK","2018/10/08 17:59:17","新北市三峽區白雞22-1號","121.368255","24.9127666666667","6500900","三峽區"
"237014","433-BY","2018/10/08 17:59:09","新北市三峽區復興路101巷1弄75號","121.37118","24.9375033333333","6500900","三峽區"
"237006","5529-G3","2018/10/08 17:59:12","新北市三峽區介壽路二段167號","121.394741666667","24.93589","6500900","三峽區"
"237011","KEA-2596","2018/10/08 17:59:10","新北市三峽區光明路76號","121.375361666667","24.9288983333333","6500900","三峽區"
"237015","649-BX","2018/10/08 17:59:01","新北市三峽區紫微路139號","121.406363333333","24.9114166666667","6500900","三峽區"
"237010","706-TV","2018/10/08 17:59:21","新北市三峽區仁愛街18號","121.368298333333","24.9325383333333","6500900","三峽區"
"237005","AKY-6261","2018/10/08 17:59:10","新北市三峽區復興路235號","121.368235","24.938665","6500900","三峽區"
"236069","105-UM","2018/10/08 17:59:23","新北市土城區城林路6巷80號","121.438448333333","24.97974","6501300","土城區"
"236042","107-UM","2018/10/08 17:59:06","新北市土城區城林路6巷80號","121.438463333333","24.9797833333333","6501300","土城區"
"236078","166-UM","2018/10/08 17:59:12","新北市土城區永寧路95號","121.429303333333","24.9559916666667","6501300","土城區"
"236030","253-BX","2018/10/08 17:59:22","新北市土城區城林路6巷80號","121.438663333333","24.9796666666667","6501300","土城區"
"236026","269-VK","2018/10/08 17:59:17","新北市土城區承天路18號","121.4394","24.9634716666667","6501300","土城區"
"236014","270-VK","2018/10/08 17:59:14","新北市土城區城林路6巷80號","121.43852","24.9795966666667","6501300","土城區"
"236039","271-VK","2018/10/08 17:59:12","新北市土城區金城路一段112號","121.446341666667","24.9758366666667","6501300","土城區"
"236020","401-BY","2018/10/08 17:59:07","新北市土城區城林路6巷80號","121.438465","24.97974","6501300","土城區"
"236059","912-UM","2018/10/08 17:59:08","新北市土城區中央路三段244巷5號","121.427775","24.96426","6501300","土城區"
"236048","913-UM","2018/10/08 17:59:22","新北市土城區城林路6巷80號","121.438665","24.9796466666667","6501300","土城區"
"236063","915-UM","2018/10/08 17:59:16","新北市土城區城林路6巷80號","121.438685","24.9796883333333","6501300","土城區"
"236055","AAC-216","2018/10/08 17:59:09","新北市土城區城林路6巷80號","121.43847","24.97961","6501300","土城區"
"242036","AAC-296","2018/10/08 17:59:16","新北市新莊區後港一路71號","121.42677","25.02666","6500500","新莊區"
"242058","986-R7","2018/10/08 17:59:08","新北市新莊區新北大道七段295號","121.412408333333","25.0276633333333","6500500","新莊區"
"242056","751-BX","2018/10/08 17:59:15","新北市新莊區豐年街124巷22號","121.445453333333","25.0299483333333","6500500","新莊區"
"242029","705-TV","2018/10/08 17:59:22","新北市新莊區中平路77號","121.444701666667","25.0451266666667","6500500","新莊區"
"242027","615-BX","2018/10/08 17:59:05","新北市新莊區思源路373號","121.459836666667","25.0510533333333","6500500","新莊區"
"242025","613-BX","2018/10/08 17:59:19","新北市新莊區五工路58號","121.458808333333","25.0628366666667","6500500","新莊區"
"242044","566-BX","2018/10/08 17:59:10","新北市新莊區雙鳳路80號","121.414988333333","25.02768","6500500","新莊區"
"242048","497-BY","2018/10/08 17:59:12","新北市新莊區後港二路10號","121.422836666667","25.0241116666667","6500500","新莊區"
"242011","442-UM","2018/10/08 17:59:05","新北市新莊區中港路643號","121.451066666667","25.054675","6500500","新莊區"
"242053","441-UM","2018/10/08 17:59:11","新北市新莊區西盛街395巷37弄12號","121.428708333333","25.0117883333333","6500500","新莊區"
"242039","415-TV","2018/10/08 17:59:24","新北市新莊區民安路144巷7號","121.424215","25.0251383333333","6500500","新莊區"
"242009","413-TV","2018/10/08 17:59:22","新北市新莊區中華路二段250號","121.45268","25.052915","6500500","新莊區"
"242046","400-BY","2018/10/08 17:59:15","新北市新莊區福營路184號","121.431301666667","25.03078","6500500","新莊區"
"242023","362-BY","2018/10/08 17:59:17","新北市新莊區福壽街65號","121.458248333333","25.0492883333333","6500500","新莊區"
"242060","353-BY","2018/10/08 17:59:05","新北市新莊區新樹路341號","121.433041666667","25.0185866666667","6500500","新莊區"
"242042","133-UY","2018/10/08 17:59:13","新北市新莊區中正路723-9號","121.423011666667","25.0291216666667","6500500","新莊區"
"242034","135-UY","2018/10/08 17:59:21","新北市新莊區福海街27號","121.445175","25.03391","6500500","新莊區"
"242013","173-VK","2018/10/08 17:59:21","新北市新莊區中和街125巷1號","121.44715","25.0486","6500500","新莊區"
"242019","175-VK","2018/10/08 17:59:22","新北市新莊區明中街51巷4號","121.45653","25.039425","6500500","新莊區"
"242007","176-VK","2018/10/08 17:59:22","新北市新莊區自信街20號","121.45389","25.048175","6500500","新莊區"
"242017","346-TH","2018/10/08 17:59:16","新北市新莊區永樂街182號","121.448311666667","25.04469","6500500","新莊區"
"242002","347-TH","2018/10/08 17:59:16","新北市新莊區中正路153-2號","121.45594","25.036785","6500500","新莊區"
"242031","348-TH","2018/10/08 17:59:20","新北市新莊區新泰路306號","121.44541","25.0410433333333","6500500","新莊區"
"242004","349-TH","2018/10/08 17:59:21","新北市新莊區自由街6號","121.455818333333","25.0478816666667","6500500","新莊區"
"242021","350-TH","2018/10/08 17:59:13","新北市新莊區建興街67號","121.449956666667","25.037985","6500500","新莊區"
"242015","351-TH","2018/10/08 17:59:06","新北市新莊區中平路87巷3號","121.444313333333","25.0456983333333","6500500","新莊區"
"238015","755-BX","2018/10/08 17:59:22","新北市樹林區大安路307巷2弄2號","121.418018333333","24.99209","6500700","樹林區"
"238023","601-UM","2018/10/08 17:59:13","新北市樹林區龍興街46巷18號","121.402395","25.0153233333333","6500700","樹林區"
"238019","599-UM","2018/10/08 17:59:16","新北市樹林區八德街321-1號","121.419405","24.9742216666667","6500700","樹林區"
"238018","571-TV","2018/10/08 17:59:04","新北市樹林區樹新路108號","121.429771666667","24.9979983333333","6500700","樹林區"
"238022","KEA-2213","2018/10/08 17:59:18","新北市樹林區太平路150巷34號","121.4177","24.9776316666667","6500700","樹林區"
"238021","KEA-2539","2018/10/08 17:59:06","新北市樹林區柑園街一段33巷21號","121.404845","24.9579","6500700","樹林區"
"238025","303-VK","2018/10/08 17:59:16","新北市樹林區三俊街104號","121.414656666667","25.0155833333333","6500700","樹林區"
"238017","283-BY","2018/10/08 17:59:02","新北市樹林區中正路837號","121.40919","25.0175033333333","6500700","樹林區"
"238014","282-BY","2018/10/08 17:59:13","新北市樹林區大安路145巷5號","121.422406666667","24.9966483333333","6500700","樹林區"
"238020","268-VK","2018/10/08 17:59:21","新北市新莊區龍安路254巷18-1號","121.420593333333","25.0184916666667","6500700","樹林區"
"238026","172-UY","2018/10/08 17:59:18","新北市樹林區中洲街51巷2號","121.396781666667","24.9710483333333","6500700","樹林區"
"238016","169-UY","2018/10/08 17:59:09","新北市樹林區育英街135巷1弄2號","121.419625","24.9888866666667","6500700","樹林區"
"239007","AAC-297","2018/10/08 17:59:22","新北市鶯歌區鶯桃路45-2號","121.342136666667","24.9516716666667","6500800","鶯歌區"
"239006","891-R6","2018/10/08 17:59:22","新北市鶯歌區鶯桃路455巷2弄1號","121.331956666667","24.9653433333333","6500800","鶯歌區"
"239008","527-UM","2018/10/08 17:59:19","新北市鶯歌區香賓街11巷18號","121.336228333333","24.9798266666667","6500800","鶯歌區"
"239005","526-UM","2018/10/08 17:59:08","新北市鶯歌區鶯桃路658巷47-2號","121.330396666667","24.96997","6500800","鶯歌區"
"239001","417-VK","2018/10/08 17:59:21","新北市鶯歌區中正三路215號","121.335226666667","24.9392933333333","6500800","鶯歌區"
"239003","360-BY","2018/10/08 17:59:09","新北市鶯歌區永吉街25號","121.335898333333","24.9576083333333","6500800","鶯歌區"
"239002","359-BY","2018/10/08 17:59:16","新北市鶯歌區中山路249巷26號","121.34751","24.9565333333333","6500800","鶯歌區"
"221008","489-VK","2018/10/08 17:59:13","新北市汐止區明峰街13號","121.635096666667","25.0712883333333","6501100","汐止區"
"221036","130-UY","2018/10/08 17:59:17","新北市汐止區大同路三段62巷1號","121.667635","25.0770733333333","6501100","汐止區"
"221015","131-UY","2018/10/08 17:59:07","新北市汐止區長江街303號","121.66585","25.08133","6501100","汐止區"
"221010","269-BY","2018/10/08 17:59:07","新北市汐止區汐萬路二段245巷37號","121.643883333333","25.0876866666667","6501100","汐止區"
"221012","278-VK","2018/10/08 17:59:08","新北市汐止區長興街二段2巷1號","121.67212","25.0807383333333","6501100","汐止區"
"221023","279-VK","2018/10/08 17:59:23","新北市汐止區明峰街115號","121.63122","25.0709833333333","6501100","汐止區"
"221032","280-BY","2018/10/08 17:59:19","新北市汐止區橫科路73巷2-2號","121.619425","25.0507383333333","6501100","汐止區"
"221027","281-BY","2018/10/08 17:59:06","新北市汐止區大同路二段370號","121.65777","25.06714","6501100","汐止區"
"221029","298-VK","2018/10/08 17:59:21","新北市汐止區樟樹二路328號","121.64142","25.070315","6501100","汐止區"
"221021","299-VK","2018/10/08 17:59:17","新北市汐止區新興路12號","121.656256666667","25.0647383333333","6501100","汐止區"
"221031","353-TW","2018/10/08 17:59:11","新北市汐止區中興路145號","121.631383333333","25.0658316666667","6501100","汐止區"
"221035","622-UM","2018/10/08 17:59:03","新北市汐止區汐萬路一段115巷34號","121.653556666667","25.0703466666667","6501100","汐止區"
"221025","623-UM","2018/10/08 17:59:17","新北市汐止區仁愛路10號","121.659338333333","25.0636183333333","6501100","汐止區"
"221038","646-BX","2018/10/08 17:59:17","新北市汐止區龍安路171號","121.65371","25.063215","6501100","汐止區"
"221002","707-TV","2018/10/08 17:59:17","新北市汐止區中興路31號","121.634758333333","25.061835","6501100","汐止區"
"221018","753-BX","2018/10/08 17:59:22","新北市汐止區忠孝東路348號","121.66556","25.0697483333333","6501100","汐止區"
"242050","281-VK","2018/10/08 17:59:17","新北市新莊區龍安路500號","121.426601666667","25.0170816666667","6500500","新莊區"
"235061","KEA-2875","2018/10/08 17:59:14","新北市中和區員山路36巷16-2號","121.485116666667","24.9918366666667","6500300","中和區"
