"lineid","car","time","location","longitude","latitude","cityid","cityname"
"234026","9371-KE","2018/10/08 18:09:10","新北市永和區秀朗路一段10巷21號","121.513305","25.006225","6500400","永和區"
"249005","172-UM","2018/10/08 18:09:04","新北市八里區荖阡坑路15-40號","121.401656666667","25.1398616666667","6502300","八里區"
"249001","173-UM","2018/10/08 18:09:17","新北市八里區龍米路二段28號","121.448653333333","25.139755","6502300","八里區"
"249004","303-UY","2018/10/08 18:09:05","新北市八里區龍米路二段200巷3號","121.433741666667","25.15876","6502300","八里區"
"249002","305-UY","2018/10/08 18:09:20","新北市八里區龍米路一段356巷46號","121.452126666667","25.1303983333333","6502300","八里區"
"249003","593-UM","2018/10/08 18:09:12","新北市八里區中華路二段165巷19弄22號","121.410383333333","25.1516283333333","6502300","八里區"
"248016","026-BX","2018/10/08 18:09:05","新北市五股區成泰路三段146號","121.444355","25.0898533333333","6501500","五股區"
"248006","077-UY","2018/10/08 18:09:08","新北市五股區中興路二段85號","121.460721666667","25.077245","6501500","五股區"
"248008","095-VK","2018/10/08 18:08:17","新北市蘆洲區永安南路二段356號","121.456198333333","25.0828266666667","6501500","五股區"
"248012","247-BX","2018/10/08 18:09:07","新北市五股區芳洲路65號","121.442108333333","25.0843866666667","6501500","五股區"
"248014","261-SL","2018/10/08 18:09:14","新北市五股區成泰路一段237-9號","121.436546666667","25.0802183333333","6501500","五股區"
"248004","677-BX","2018/10/08 18:09:08","新北市五股區中興路四段56號","121.437713333333","25.0831016666667","6501500","五股區"
"248002","678-BX","2018/10/08 18:09:07","新北市五股區新五路二段259號","121.442411666667","25.0847766666667","6501500","五股區"
"248010","682-TV","2018/10/08 18:09:23","新北市五股區成泰路一段212號","121.436375","25.0792216666667","6501500","五股區"
"232011","375-UM","2018/10/08 18:09:05","新北市坪林區國中路8號","121.713081666667","24.940345","6502000","坪林區"
"244023","069-UM","2018/10/08 18:09:23","新北市林口區東湖路153巷9號","121.382688333333","25.072795","6501700","林口區"
"244007","080-UY","2018/10/08 18:09:24","新北市林口區林口路113巷57號","121.3878","25.079675","6501700","林口區"
"244019","403-UM","2018/10/08 18:09:14","新北市林口區麗園路62號","121.373148333333","25.0694666666667","6501700","林口區"
"244013","KEA-2802","2018/10/08 18:09:10","新北市林口區中山路130號","121.392196666667","25.0786816666667","6501700","林口區"
"244017","485-VK","2018/10/08 18:09:10","新北市林口區八德路32號","121.367751666667","25.0667416666667","6501700","林口區"
"244009","656-BX","2018/10/08 18:09:17","新北市林口區中山路299號","121.383983333333","25.080365","6501700","林口區"
"244011","701-TV","2018/10/08 18:09:18","新北市林口區中山路1號","121.396763333333","25.078","6501700","林口區"
"244025","837-TS","2018/10/08 18:09:02","新北市林口區南勢六街18號","121.357073333333","25.0706183333333","6501700","林口區"
"244021","838-TS","2018/10/08 18:09:13","新北市林口區自強五街21號","121.399323333333","25.0761533333333","6501700","林口區"
"243013","AAD-798","2018/10/08 18:09:04","新北市泰山區南林路99巷8-1號","121.41621","25.0495666666667","6501600","泰山區"
"222003","436-BY","2018/10/08 18:09:11","新北市深坑區阿柔洋49號","121.611615","24.9972466666667","6501800","深坑區"
"222002","659-BX","2018/10/08 18:09:14","新北市深坑區文化街52號","121.61904","25.00177","6501800","深坑區"
"231059","001-UM","2018/10/08 18:09:12","新北市新店區安華路28-1號","121.519466666667","24.96079","6500600","新店區"
"231041","002-UM","2018/10/08 18:09:16","新北市新店區安華路28-1號","121.51977","24.9608583333333","6500600","新店區"
"231040","047-UY","2018/10/08 18:09:19","新北市新店區安一路一段1-1號","121.519121666667","24.9610766666667","6500600","新店區"
"231044","106-UY","2018/10/08 18:09:11","新北市新店區安華路30巷1號","121.519436666667","24.959745","6500600","新店區"
"231046","107-UY","2018/10/08 18:09:08","新北市新店區直潭七街60號","121.532236666667","24.9398533333333","6500600","新店區"
"231047","187-VK","2018/10/08 18:09:11","新北市新店區安一路一段1-1號","121.519558333333","24.9610816666667","6500600","新店區"
"231062","188-VK","2018/10/08 18:09:14","新北市新店區安一路一段1-1號","121.519403333333","24.9613366666667","6500600","新店區"
"231052","189-VK","2018/10/08 18:09:11","新北市新店區安一路一段1-1號","121.519713333333","24.9610766666667","6500600","新店區"
"231054","KEA-2219","2018/10/08 18:09:16","新北市新店區安一路一段1-1號","121.519856666667","24.9611983333333","6500600","新店區"
"231057","256-BX","2018/10/08 18:09:15","新北市新店區安一路一段1-1號","121.519611666667","24.961085","6500600","新店區"
"231050","AAD-862","2018/10/08 18:09:21","新北市新店區安一路一段1-1號","121.519873333333","24.961225","6500600","新店區"
"231058","3713-VJ","2018/10/08 18:09:03","新北市新店區安華路28-1號","121.519213333333","24.9606683333333","6500600","新店區"
"231066","4716-K9","2018/10/08 18:09:20","新北市新店區安一路一段1-1號","121.519311666667","24.9612883333333","6500600","新店區"
"231056","4715-K9","2018/10/08 18:09:21","新北市新店區安康路一段94-1號","121.527691666667","24.96215","6500600","新店區"
"231065","512-UM","2018/10/08 18:09:12","新北市新店區安一路一段1-1號","121.51938","24.96128","6500600","新店區"
"231049","513-UM","2018/10/08 18:09:12","新北市新店區安一路一段1-1號","121.519641666667","24.961095","6500600","新店區"
"231045","617-UM","2018/10/08 18:09:14","新北市新店區安華路28-1號","121.51932","24.9607883333333","6500600","新店區"
"231061","619-UM","2018/10/08 18:09:07","新北市新店區安華路28-1號","121.519588333333","24.9608383333333","6500600","新店區"
"231060","897-TW","2018/10/08 18:09:12","新北市新店區安華路28-1號","121.519773333333","24.9607516666667","6500600","新店區"
"231055","AKT-0513","2018/10/08 18:09:15","新北市新店區安一路一段1-1號","121.51974","24.9615","6500600","新店區"
"251014","742-BX","2018/10/08 18:09:05","新北市淡水區南平15號","121.488435","25.2190933333333","6501000","淡水區"
"241033","AAC-255","2018/10/08 18:09:06","新北市三重區中興北街141號","121.469015","25.051835","6500200","三重區"
"235066","003-UY","2018/10/08 18:09:07","新北市中和區圓通路76號","121.500108333333","24.9971266666667","6500300","中和區"
"235064","005-UY","2018/10/08 18:09:11","新北市中和區中正路173號","121.497611666667","24.993595","6500300","中和區"
"235063","006-UY","2018/10/08 18:09:06","新北市中和區員山路36巷16-3號","121.485018333333","24.9912833333333","6500300","中和區"
"235056","096-UM","2018/10/08 18:09:22","新北市中和區連城路469巷10號","121.483528333333","24.9953916666667","6500300","中和區"
"235039","097-UM","2018/10/08 18:09:19","新北市中和區和城路一段271巷1號","121.485548333333","24.991895","6500300","中和區"
"235065","098-UM","2018/10/08 18:09:16","新北市中和區莊敬路49巷18號","121.501778333333","25.00623","6500300","中和區"
"235040","150-BY","2018/10/08 18:09:13","新北市中和區錦和路350-1號","121.490523333333","24.9935583333333","6500300","中和區"
"235058","151-BY","2018/10/08 18:09:07","新北市中和區圓通路367巷62-5號","121.492495","24.9829733333333","6500300","中和區"
"235055","183-VK","2018/10/08 18:09:03","新北市中和區員山路36巷16-3號","121.484656666667","24.9909666666667","6500300","中和區"
"235038","185-VK","2018/10/08 18:09:23","新北市中和區景平路180號","121.516555","24.9921183333333","6500300","中和區"
"235067","255-BX","2018/10/08 18:09:18","新北市中和區和城路一段271巷1號","121.485651666667","24.9917583333333","6500300","中和區"
"235042","KEA-2878","2018/10/08 18:09:05","新北市中和區景平路257號","121.508536666667","24.9928516666667","6500300","中和區"
"247012","KEA-2869","2018/10/08 18:09:00","新北市蘆洲區民族路96號","121.478093333333","25.08511","6501400","蘆洲區"
"235050","4979-A6","2018/10/08 18:09:12","新北市中和區錦和路350-1號","121.490231666667","24.9935516666667","6500300","中和區"
"235045","565-BX","2018/10/08 18:09:10","新北市中和區錦和路350-1號","121.490528333333","24.9935733333333","6500300","中和區"
"235054","640-BX","2018/10/08 18:09:15","新北市中和區莒光路203號","121.472408333333","24.9986516666667","6500300","中和區"
"235062","800-TS","2018/10/08 18:09:23","新北市中和區民樂路65號","121.483848333333","25.0013433333333","6500300","中和區"
"235057","801-TS","2018/10/08 18:09:04","新北市中和區中正路637巷60弄61號","121.485558333333","24.993125","6500300","中和區"
"235041","802-TS","2018/10/08 18:09:22","新北市中和區和城路一段271巷1號","121.485446666667","24.9917133333333","6500300","中和區"
"235052","805-TS","2018/10/08 18:09:06","新北市中和區中正路269號","121.495813333333","24.9935433333333","6500300","中和區"
"235048","896-TW","2018/10/08 18:09:05","新北市中和區員山路36巷16-2號","121.485261666667","24.9916783333333","6500300","中和區"
"235053","900-TW","2018/10/08 18:09:15","新北市中和區員山路36巷16-3號","121.485003333333","24.991785","6500300","中和區"
"235051","157-BY","2018/10/08 18:09:21","新北市中和區板南路100號","121.503731666667","24.992425","6500300","中和區"
"235037","AAC-213","2018/10/08 18:09:18","新北市中和區景平路149號","121.513723333333","24.9922316666667","6500300","中和區"
"247004","002-UY","2018/10/08 17:50:49","新北市五股區中興路三段2巷10號","121.448625","25.08176","6501400","蘆洲區"
"226004","312-R5","2018/10/08 18:09:23","新北市平溪區白石里白石腳21號","121.720586666667","25.0216566666667","6502400","平溪區"
"235047","251-BX","2018/10/08 18:09:09","新北市中和區中正路171號","121.497828333333","24.99358","6500300","中和區"
"228003","097-TW","2018/10/08 18:09:10","新北市貢寮區真理里美艷山街6-2號","121.928878333333","25.06073","6502600","貢寮區"
"228002","663-BX","2018/10/08 18:09:12","新北市貢寮區福連里馬崗街1號","121.997226666667","25.0169566666667","6502600","貢寮區"
"228001","670-TC","2018/10/08 18:09:06","新北市貢寮區真理里新港街26巷55弄2-1號","121.927358333333","25.0528483333333","6502600","貢寮區"
"224006","676-BX","2018/10/08 18:09:03","新北市瑞芳區中山路87號","121.80374","25.1062216666667","6501200","瑞芳區"
"224002","639-TC","2018/10/08 18:09:13","新北市瑞芳區三爪子坑路199號","121.811436666667","25.10577","6501200","瑞芳區"
"224008","285-BY","2018/10/08 18:09:19","新北市瑞芳區員山子路3-9號","121.820798333333","25.103495","6501200","瑞芳區"
"224007","275-VK","2018/10/08 18:09:06","新北市瑞芳區四腳亭坑路8號","121.777731666667","25.1096866666667","6501200","瑞芳區"
"224009","273-VK","2018/10/08 18:09:14","新北市瑞芳區金光路250號","121.854871666667","25.1064333333333","6501200","瑞芳區"
"224005","271-BY","2018/10/08 18:09:03","新北市瑞芳區深澳路57號","121.817645","25.1293833333333","6501200","瑞芳區"
"227001","642-TC","2018/10/08 18:09:04","新北市雙溪區共和里東榮街52號","121.866363333333","25.0336966666667","6502500","雙溪區"
"253006","032-BX","2018/10/08 18:09:20","新北市石門區老梅路52巷25弄2-1號","121.546713333333","25.287275","6502200","石門區"
"253005","295-VK","2018/10/08 18:09:05","新北市石門區福安街25號","121.568785","25.2924683333333","6502200","石門區"
"222001","KEA-2212","2018/10/08 18:09:15","新北市深坑區北深路二段184號","121.61407","25.0022983333333","6501800","深坑區"
"208002","KEA-2872","2018/10/08 18:09:22","新北市金山區三界壇路99巷19號","121.620168333333","25.2275483333333","6502700","金山區"
"208003","665-BX","2018/10/08 18:09:06","新北市金山區磺港里磺港路24-1號","121.649683333333","25.229965","6502700","金山區"
"208001","761-BX","2018/10/08 18:09:15","新北市金山區磺港里磺港路117號","121.645986666667","25.22638","6502700","金山區"
"251005","010-UM","2018/10/08 18:09:07","新北市淡水區水源街一段141號","121.447233333333","25.171915","6501000","淡水區"
"251001","011-UM","2018/10/08 18:09:24","新北市淡水區自立路10號","121.463083333333","25.1297933333333","6501000","淡水區"
"251013","KEA-2871","2018/10/08 18:09:08","新北市淡水區竹圍子9-6號","121.476633333333","25.1926916666667","6501000","淡水區"
"251016","179-VK","2018/10/08 18:09:11","新北市淡水區下圭柔山15-2號","121.453286666667","25.2023466666667","6501000","淡水區"
"251015","180-VK","2018/10/08 18:09:09","新北市淡水區興福寮88巷1號","121.48539","25.164945","6501000","淡水區"
"251008","181-VK","2018/10/08 18:09:12","新北市淡水區坪頂路70巷41號","121.460698333333","25.160405","6501000","淡水區"
"251010","413-VK","2018/10/08 18:09:18","新北市淡水區中正路二段50巷10號","121.419878333333","25.1832783333333","6501000","淡水區"
"251012","441-VK","2018/10/08 18:09:24","新北市淡水區北新路三段173號","121.492483333333","25.19228","6501000","淡水區"
"251004","443-VK","2018/10/08 18:09:06","新北市淡水區民權路187巷54號","121.461375","25.133815","6501000","淡水區"
"251006","561-UM","2018/10/08 18:09:17","新北市淡水區真理街3巷21-1號","121.437718333333","25.1763266666667","6501000","淡水區"
"251009","575-R6","2018/10/08 18:09:12","新北市淡水區大忠街34巷19號","121.443995","25.1758083333333","6501000","淡水區"
"251011","650-BX","2018/10/08 18:09:03","新北市淡水區三空泉5號","121.476856666667","25.16148","6501000","淡水區"
"251002","672-BX","2018/10/08 18:09:15","新北市淡水區中正東路一段127巷2號","121.455516666667","25.159255","6501000","淡水區"
"251003","766-UM","2018/10/08 18:09:14","新北市淡水區大忠街113巷24號","121.447428333333","25.1774783333333","6501000","淡水區"
"207003","681-TV","2018/10/08 18:09:14","新北市萬里區野柳里港西路10號","121.685091666667","25.20408","6502800","萬里區"
"207004","225-TW","2018/10/08 18:09:19","新北市萬里區中幅里中福路106號","121.676541666667","25.169435","6502800","萬里區"
"252002","178-VK","2018/10/08 18:09:07","新北市三芝區中山路二段38號","121.502978333333","25.2551166666667","6502100","三芝區"
"252003","249-BX","2018/10/08 18:09:10","新北市三芝區埔坪里埔頭坑41號","121.504685","25.2637133333333","6502100","三芝區"
"252001","292-VK","2018/10/08 18:09:22","新北市三芝區中興街二段2號","121.498403333333","25.25664","6502100","三芝區"
"237004","KEA-2597","2018/10/08 18:09:20","新北市三峽區大埔路150-2號","121.364768333333","24.8982883333333","6500900","三峽區"
"237007","153-BY","2018/10/08 18:09:19","新北市三峽區中正路二段318號","121.365865","24.9109566666667","6500900","三峽區"
"237009","210-TH","2018/10/08 18:09:22","新北市三峽區復興路303巷1弄10號","121.365908333333","24.9383366666667","6500900","三峽區"
"237013","252-BX","2018/10/08 18:09:10","新北市三峽區長泰街38號","121.378491666667","24.9321483333333","6500900","三峽區"
"237008","302-VK","2018/10/08 18:09:17","新北市三峽區白雞44-48號","121.377628333333","24.9105233333333","6500900","三峽區"
"237014","433-BY","2018/10/08 18:09:09","新北市三峽區和平街66號","121.370385","24.9380116666667","6500900","三峽區"
"237006","5529-G3","2018/10/08 18:09:12","新北市三峽區溪東路235號","121.40651","24.932595","6500900","三峽區"
"237011","KEA-2596","2018/10/08 18:09:10","新北市三峽區大同路34號","121.37737","24.9289683333333","6500900","三峽區"
"237015","649-BX","2018/10/08 18:09:22","新北市三峽區紫新路32巷1號","121.42235","24.921895","6500900","三峽區"
"237010","706-TV","2018/10/08 18:09:21","新北市三峽區中園街20號","121.368293333333","24.9270366666667","6500900","三峽區"
"237005","AKY-6261","2018/10/08 18:09:10","新北市三峽區文化路65巷2號","121.371956666667","24.9356633333333","6500900","三峽區"
"236069","105-UM","2018/10/08 18:09:03","新北市土城區明德路一段375-1號","121.454743333333","24.978185","6501300","土城區"
"236042","107-UM","2018/10/08 18:09:06","新北市土城區中華路二段2號","121.43943","24.9796033333333","6501300","土城區"
"236078","166-UM","2018/10/08 18:09:15","新北市土城區永寧路32巷5號","121.42905","24.9605283333333","6501300","土城區"
"236030","253-BX","2018/10/08 18:09:02","新北市土城區城林路6巷80號","121.438663333333","24.9796666666667","6501300","土城區"
"236026","269-VK","2018/10/08 18:09:17","新北市土城區承天路18號","121.439525","24.9634816666667","6501300","土城區"
"236014","270-VK","2018/10/08 18:09:14","新北市土城區裕民路172號","121.452466666667","24.985415","6501300","土城區"
"236039","271-VK","2018/10/08 18:09:12","新北市土城區青雲路449號","121.458993333333","24.974935","6501300","土城區"
"236020","401-BY","2018/10/08 18:09:07","新北市土城區城林路6巷80號","121.438446666667","24.97974","6501300","土城區"
"236059","912-UM","2018/10/08 18:09:07","新北市土城區中央路四段196-1號","121.416228333333","24.9576666666667","6501300","土城區"
"236048","913-UM","2018/10/08 18:09:22","新北市土城區金城路二段20號","121.449678333333","24.9776383333333","6501300","土城區"
"236063","915-UM","2018/10/08 18:09:16","新北市土城區中正路75號","121.44516","24.9756866666667","6501300","土城區"
"236055","AAC-216","2018/10/08 18:09:09","新北市土城區中華路二段92號","121.438208333333","24.97475","6501300","土城區"
"242036","AAC-296","2018/10/08 18:09:11","新北市新莊區後港一路20號","121.424978333333","25.0259866666667","6500500","新莊區"
"242058","986-R7","2018/10/08 18:09:12","新北市新莊區壽山路162號","121.415175","25.03114","6500500","新莊區"
"242056","751-BX","2018/10/08 18:09:15","新北市新莊區瓊林路36-4號","121.448113333333","25.030875","6500500","新莊區"
"242029","705-TV","2018/10/08 18:09:22","新北市新莊區中平路135號","121.444553333333","25.04833","6500500","新莊區"
"242027","615-BX","2018/10/08 18:09:05","新北市新莊區幸福路557號","121.454448333333","25.0492733333333","6500500","新莊區"
"242025","613-BX","2018/10/08 18:09:19","新北市新莊區五權一路120號","121.460035","25.0681433333333","6500500","新莊區"
"242044","566-BX","2018/10/08 18:09:10","新北市新莊區中正路力行巷34號","121.416348333333","25.0266033333333","6500500","新莊區"
"242048","497-BY","2018/10/08 18:09:12","新北市新莊區富國路107號","121.423426666667","25.0249533333333","6500500","新莊區"
"242011","442-UM","2018/10/08 18:09:05","新北市新莊區中榮街56巷12號","121.449243333333","25.0536383333333","6500500","新莊區"
"242053","441-UM","2018/10/08 18:09:11","新北市新莊區西盛街417巷22號","121.428091666667","25.01168","6500500","新莊區"
"242039","415-TV","2018/10/08 18:09:24","新北市新莊區民安西路88巷17號","121.425948333333","25.0199966666667","6500500","新莊區"
"242009","413-TV","2018/10/08 18:09:02","新北市新莊區中華路二段212號","121.452923333333","25.0525333333333","6500500","新莊區"
"242046","400-BY","2018/10/08 18:09:15","新北市新莊區中正路655號","121.429165","25.03009","6500500","新莊區"
"242023","362-BY","2018/10/08 18:09:17","新北市新莊區幸福路914號","121.442605","25.048935","6500500","新莊區"
"242060","353-BY","2018/10/08 18:09:23","新北市新莊區新樹路93號","121.437716666667","25.02729","6500500","新莊區"
"242042","133-UY","2018/10/08 18:09:13","新北市新莊區中正路694巷24號","121.418198333333","25.0287833333333","6500500","新莊區"
"242034","135-UY","2018/10/08 18:09:21","新北市新莊區新豐街65號","121.446345","25.033485","6500500","新莊區"
"242019","175-VK","2018/10/08 18:09:22","新北市新莊區公園路90號","121.450471666667","25.0398116666667","6500500","新莊區"
"242007","176-VK","2018/10/08 18:09:10","新北市新莊區自強街37巷14弄13號","121.454088333333","25.04694","6500500","新莊區"
"242002","347-TH","2018/10/08 18:09:16","新北市新莊區新莊路52號","121.457941666667","25.0368116666667","6500500","新莊區"
"242031","348-TH","2018/10/08 18:09:20","新北市新莊區新泰路277巷22號","121.444698333333","25.0403366666667","6500500","新莊區"
"242004","349-TH","2018/10/08 18:09:21","新北市新莊區中安街27號","121.452833333333","25.046315","6500500","新莊區"
"242021","350-TH","2018/10/08 18:09:13","新北市新莊區新興街52號","121.450733333333","25.0374616666667","6500500","新莊區"
"242015","351-TH","2018/10/08 18:09:06","新北市新莊區中平路152巷46號","121.44673","25.04739","6500500","新莊區"
"238015","755-BX","2018/10/08 18:09:07","新北市樹林區文德街17號","121.418723333333","24.9917416666667","6500700","樹林區"
"238023","601-UM","2018/10/08 18:09:09","新北市樹林區三福街67巷5號","121.407965","25.0158766666667","6500700","樹林區"
"238019","599-UM","2018/10/08 18:09:16","新北市樹林區水源街58號","121.425676666667","24.9809633333333","6500700","樹林區"
"238018","571-TV","2018/10/08 18:09:04","新北市樹林區博愛街115號","121.426425","24.9906683333333","6500700","樹林區"
"238022","KEA-2213","2018/10/08 18:09:18","新北市樹林區太平路150巷1號","121.418598333333","24.9777516666667","6500700","樹林區"
"238021","KEA-2539","2018/10/08 18:09:02","新北市樹林區柑園街二段18號","121.387808333333","24.95573","6500700","樹林區"
"238025","303-VK","2018/10/08 18:09:16","新北市樹林區保安街二段73號","121.416013333333","25.0008083333333","6500700","樹林區"
"238017","283-BY","2018/10/08 18:09:22","新北市樹林區中正路669號","121.412135","25.0132616666667","6500700","樹林區"
"238014","282-BY","2018/10/08 18:09:13","新北市樹林區千歲街61巷40弄17號","121.426098333333","24.9992133333333","6500700","樹林區"
"238020","268-VK","2018/10/08 18:09:21","新北市樹林區俊興街298號","121.41849","25.0176983333333","6500700","樹林區"
"238026","172-UY","2018/10/08 18:09:18","新北市樹林區育德街38-8號","121.39004","24.9694283333333","6500700","樹林區"
"238016","169-UY","2018/10/08 18:09:09","新北市樹林區文化街40號","121.418628333333","24.98805","6500700","樹林區"
"239007","AAC-297","2018/10/08 18:09:22","新北市鶯歌區育英街98號","121.347316666667","24.9519533333333","6500800","鶯歌區"
"239006","891-R6","2018/10/08 18:09:22","新北市鶯歌區鶯桃路365巷21號","121.332883333333","24.96285","6500800","鶯歌區"
"239008","527-UM","2018/10/08 18:09:19","新北市鶯歌區朝陽街26巷1號","121.337053333333","24.9773783333333","6500800","鶯歌區"
"239005","526-UM","2018/10/08 18:09:08","新北市鶯歌區大湖路361巷81-1號","121.33291","24.9748583333333","6500800","鶯歌區"
"239001","417-VK","2018/10/08 18:09:21","新北市鶯歌區國中街11號","121.342153333333","24.9430416666667","6500800","鶯歌區"
"239003","360-BY","2018/10/08 18:09:09","新北市鶯歌區鶯桃路379號","121.333668333333","24.963505","6500800","鶯歌區"
"239002","359-BY","2018/10/08 18:09:16","新北市鶯歌區中山路182號","121.348563333333","24.9570866666667","6500800","鶯歌區"
"221008","489-VK","2018/10/08 18:09:13","新北市汐止區康寧街315號","121.627085","25.0679133333333","6501100","汐止區"
"221036","130-UY","2018/10/08 18:09:17","新北市汐止區大同路三段95號","121.668075","25.077455","6501100","汐止區"
"221015","131-UY","2018/10/08 18:09:07","新北市汐止區鄉長路二段29-1號","121.6683","25.08304","6501100","汐止區"
"221010","269-BY","2018/10/08 18:09:07","新北市汐止區祥雲街2號","121.64573","25.0896266666667","6501100","汐止區"
"221012","278-VK","2018/10/08 18:09:07","新北市汐止區保一街81-1號","121.674778333333","25.0803316666667","6501100","汐止區"
"221023","279-VK","2018/10/08 18:09:23","新北市汐止區民族五街69號","121.628163333333","25.0704166666667","6501100","汐止區"
"221032","280-BY","2018/10/08 18:09:09","新北市汐止區力行街14號","121.61705","25.0509033333333","6501100","汐止區"
"221027","281-BY","2018/10/08 18:09:06","新北市汐止區大同路二段534號","121.661316666667","25.0686233333333","6501100","汐止區"
"221029","298-VK","2018/10/08 18:09:20","新北市汐止區樟樹二路132號","121.63991","25.0656233333333","6501100","汐止區"
"221021","299-VK","2018/10/08 18:09:17","新北市汐止區復興路8號","121.655545","25.0645916666667","6501100","汐止區"
"221031","353-TW","2018/10/08 18:09:11","新北市汐止區中興路200號","121.631388333333","25.0659366666667","6501100","汐止區"
"221035","622-UM","2018/10/08 18:09:23","新北市汐止區汐萬路一段39號","121.655281666667","25.0688183333333","6501100","汐止區"
"221025","623-UM","2018/10/08 18:09:17","新北市汐止區秀峰路147號","121.660505","25.0621316666667","6501100","汐止區"
"221038","646-BX","2018/10/08 18:09:17","新北市汐止區南興路83巷18號","121.65372","25.058765","6501100","汐止區"
"221002","707-TV","2018/10/08 18:09:17","新北市汐止區福德一路201巷8號","121.63549","25.065375","6501100","汐止區"
"221018","753-BX","2018/10/08 18:09:02","新北市汐止區招商街19巷25號","121.667515","25.0681633333333","6501100","汐止區"
"242050","281-VK","2018/10/08 18:09:18","新北市新莊區民本街25巷15號","121.429075","25.019485","6500500","新莊區"
"235061","KEA-2875","2018/10/08 18:09:14","新北市中和區民享街494號","121.469743333333","24.99218","6500300","中和區"
