"lineid","car","time","location","longitude","latitude","cityid","cityname"
"234007","207-UY","2018/10/08 18:19:17","新北市永和區福和路1號","121.52594","25.0095133333333","6500400","永和區"
"234042","862-TW","2018/10/08 18:19:17","新北市永和區福和路1號","121.526501666667","25.0096883333333","6500400","永和區"
"234026","9371-KE","2018/10/08 18:19:10","新北市永和區豫溪街42巷4號","121.5155","25.0095883333333","6500400","永和區"
"249005","172-UM","2018/10/08 18:19:04","新北市八里區荖阡坑路15號","121.40124","25.1401133333333","6502300","八里區"
"249001","173-UM","2018/10/08 18:19:14","新北市八里區龍米路一段135號","121.452123333333","25.12691","6502300","八里區"
"249004","303-UY","2018/10/08 18:19:05","新北市八里區龍米路二段232巷1弄1號","121.430821666667","25.1593616666667","6502300","八里區"
"249002","305-UY","2018/10/08 18:19:20","新北市八里區龍形二街20號","121.4506","25.1328","6502300","八里區"
"249003","593-UM","2018/10/08 18:19:12","新北市八里區松子腳3-2號","121.402983333333","25.144315","6502300","八里區"
"248016","026-BX","2018/10/08 18:19:05","新北市五股區成泰路三段477巷9號","121.4499","25.0988833333333","6501500","五股區"
"248006","077-UY","2018/10/08 18:19:08","新北市五股區中興路一段152號","121.464441666667","25.073835","6501500","五股區"
"248008","095-VK","2018/10/08 18:19:17","新北市五股區更洲路32巷8弄14號","121.459235","25.0796366666667","6501500","五股區"
"248019","225-UY","2018/10/08 18:19:20","新北市五股區御史路205-1號","121.431443333333","25.100385","6501500","五股區"
"248012","247-BX","2018/10/08 18:19:07","新北市五股區御史路1巷75號","121.441191666667","25.0904","6501500","五股區"
"248014","261-SL","2018/10/08 18:19:14","新北市五股區自強路19巷11號","121.434576666667","25.073675","6501500","五股區"
"248004","677-BX","2018/10/08 18:19:08","新北市五股區成泰路二段151號","121.439275","25.085795","6501500","五股區"
"248002","678-BX","2018/10/08 18:19:07","新北市五股區西雲路66號","121.44363","25.091615","6501500","五股區"
"248010","682-TV","2018/10/08 18:19:03","新北市五股區成泰路一段139巷1弄2號","121.435113333333","25.0728766666667","6501500","五股區"
"244023","069-UM","2018/10/08 18:19:03","新北市林口區仁愛路二段11號","121.385856666667","25.0762016666667","6501700","林口區"
"244007","080-UY","2018/10/08 18:19:24","新北市林口區後湖32-1號","121.386501666667","25.0957333333333","6501700","林口區"
"244019","403-UM","2018/10/08 18:19:14","新北市林口區忠孝路580巷13號","121.37517","25.0674616666667","6501700","林口區"
"244013","KEA-2802","2018/10/08 18:19:10","新北市林口區佳林路101巷15號","121.386855","25.080035","6501700","林口區"
"244017","485-VK","2018/10/08 18:19:09","新北市林口區公園路40號","121.367131666667","25.0679966666667","6501700","林口區"
"244009","656-BX","2018/10/08 18:19:17","新北市林口區民生路140號","121.379003333333","25.088055","6501700","林口區"
"244011","701-TV","2018/10/08 18:19:23","新北市林口區仁愛路一段270號","121.393831666667","25.0760266666667","6501700","林口區"
"244025","837-TS","2018/10/08 18:19:22","新北市林口區南勢四街196巷17號","121.356878333333","25.0730066666667","6501700","林口區"
"244021","838-TS","2018/10/08 18:19:13","新北市林口區自強一街47號","121.399118333333","25.0776516666667","6501700","林口區"
"243013","AAD-798","2018/10/08 18:18:04","新北市泰山區致遠新村55-1號","121.416578333333","25.0427516666667","6501600","泰山區"
"222003","436-BY","2018/10/08 18:19:11","新北市深坑區旺耽路67號","121.626271666667","25.0029833333333","6501800","深坑區"
"222002","659-BX","2018/10/08 18:19:14","新北市深坑區文山路一段62巷33號","121.621463333333","25.00059","6501800","深坑區"
"231059","001-UM","2018/10/08 18:19:12","新北市新店區安華路28-1號","121.519498333333","24.96084","6500600","新店區"
"231041","002-UM","2018/10/08 18:19:16","新北市新店區安華路28-1號","121.519811666667","24.960805","6500600","新店區"
"231040","047-UY","2018/10/08 18:19:19","新北市新店區安華路28-1號","121.51919","24.9609","6500600","新店區"
"231044","106-UY","2018/10/08 18:19:11","新北市新店區安華路28-1號","121.5196","24.9607583333333","6500600","新店區"
"231046","107-UY","2018/10/08 18:19:08","新北市新店區直潭七街60號","121.532256666667","24.9397966666667","6500600","新店區"
"231047","187-VK","2018/10/08 18:19:11","新北市新店區安一路一段1-1號","121.519595","24.9612","6500600","新店區"
"231062","188-VK","2018/10/08 18:19:14","新北市新店區安一路一段1-1號","121.51921","24.9612616666667","6500600","新店區"
"231052","189-VK","2018/10/08 18:19:11","新北市新店區安康路一段84號","121.528095","24.9619133333333","6500600","新店區"
"231054","KEA-2219","2018/10/08 18:19:16","新北市新店區安一路一段1-1號","121.519873333333","24.9611316666667","6500600","新店區"
"231057","256-BX","2018/10/08 18:19:15","新北市新店區安一路一段1-1號","121.519615","24.9611","6500600","新店區"
"231042","268-BY","2018/10/08 18:19:21","新北市新店區安華路28-1號","121.51945","24.9607433333333","6500600","新店區"
"231051","278-BY","2018/10/08 18:19:09","新北市新店區安華路28-1號","121.519513333333","24.9609983333333","6500600","新店區"
"231050","AAD-862","2018/10/08 18:19:21","新北市新店區安一路一段1-1號","121.520031666667","24.961125","6500600","新店區"
"231058","3713-VJ","2018/10/08 18:19:23","新北市新店區環河路17號","121.537635","24.9613716666667","6500600","新店區"
"231066","4716-K9","2018/10/08 18:19:20","新北市新店區安一路一段1-1號","121.519303333333","24.96131","6500600","新店區"
"231056","4715-K9","2018/10/08 18:19:21","新北市新店區中央路2號","121.53385","24.9787566666667","6500600","新店區"
"231067","4772-VM","2018/10/08 18:19:15","新北市新店區安華路28-1號","121.51924","24.9606583333333","6500600","新店區"
"231065","512-UM","2018/10/08 18:19:12","新北市新店區安一路一段1-1號","121.51933","24.961305","6500600","新店區"
"231049","513-UM","2018/10/08 18:19:11","新北市新店區安一路一段1-1號","121.51967","24.9610883333333","6500600","新店區"
"231063","616-UM","2018/10/08 18:19:09","新北市新店區安華路1-1號","121.519493333333","24.96035","6500600","新店區"
"231045","617-UM","2018/10/08 18:19:14","新北市新店區安華路28-1號","121.519471666667","24.960905","6500600","新店區"
"231061","619-UM","2018/10/08 18:19:07","新北市新店區安華路28-1號","121.519555","24.9608266666667","6500600","新店區"
"231064","719-UM","2018/10/08 18:19:11","新北市新店區安一路一段1-1號","121.51949","24.9612983333333","6500600","新店區"
"231060","897-TW","2018/10/08 18:19:12","新北市新店區安華路28-1號","121.51954","24.9607283333333","6500600","新店區"
"231043","899-TW","2018/10/08 18:19:09","新北市新店區安華路28-1號","121.519071666667","24.9607016666667","6500600","新店區"
"231055","AKT-0513","2018/10/08 18:19:15","新北市新店區中正路128巷9弄1號","121.542435","24.9719133333333","6500600","新店區"
"251014","742-BX","2018/10/08 18:19:05","新北市淡水區崙頂14號","121.491158333333","25.2217866666667","6501000","淡水區"
"235066","003-UY","2018/10/08 18:19:07","新北市中和區中山路二段120號","121.502753333333","25.0037216666667","6500300","中和區"
"235064","005-UY","2018/10/08 18:19:11","新北市中和區圓通路162-5號","121.497498333333","24.9951283333333","6500300","中和區"
"235063","006-UY","2018/10/08 18:19:06","新北市中和區中正路525號","121.48792","24.99367","6500300","中和區"
"235056","096-UM","2018/10/08 18:19:22","新北市板橋區民生路一段8號","121.47851","25.0112283333333","6500300","中和區"
"235039","097-UM","2018/10/08 18:19:19","新北市中和區景平路408-1號","121.508565","24.993125","6500300","中和區"
"235065","098-UM","2018/10/08 18:19:16","新北市中和區莊敬路49巷18號","121.50166","25.0060633333333","6500300","中和區"
"235040","150-BY","2018/10/08 18:19:13","新北市中和區保健路46巷26弄24號","121.508018333333","24.995565","6500300","中和區"
"235058","151-BY","2018/10/08 18:19:07","新北市中和區圓通路435巷3-7號","121.48866","24.9872616666667","6500300","中和區"
"235055","183-VK","2018/10/08 18:19:23","新北市中和區連城路523巷13弄2號","121.481688333333","24.9935683333333","6500300","中和區"
"235038","185-VK","2018/10/08 18:19:22","新北市中和區自立路171號","121.52306","24.9923683333333","6500300","中和區"
"235049","186-VK","2018/10/08 18:19:11","新北市中和區中正路637巷52弄1號","121.485425","24.9934116666667","6500300","中和區"
"235067","255-BX","2018/10/08 18:19:18","新北市中和區員山路36巷16-2號","121.48537","24.991395","6500300","中和區"
"235072","301-VK","2018/10/08 18:19:12","新北市中和區錦和路158號","121.489788333333","24.9959683333333","6500300","中和區"
"235043","352-BY","2018/10/08 18:19:11","新北市中和區景平路381號","121.503966666667","24.9932283333333","6500300","中和區"
"235042","KEA-2878","2018/10/08 18:19:25","新北市中和區大仁街20巷25弄23號","121.518801666667","24.99362","6500300","中和區"
"247012","KEA-2869","2018/10/08 18:19:20","新北市五股區芳洲九路36號","121.447818333333","25.0878716666667","6501400","蘆洲區"
"235050","4979-A6","2018/10/08 18:19:20","新北市中和區捷運路61巷11號","121.509051666667","24.98952","6500300","中和區"
"235069","4980-A6","2018/10/08 18:19:19","新北市中和區錦和路178號","121.48994","24.9954916666667","6500300","中和區"
"235070","558-UM","2018/10/08 18:19:08","新北市中和區景平路477號","121.500168333333","24.99711","6500300","中和區"
"235045","565-BX","2018/10/08 18:19:10","新北市中和區景安路200巷3弄1號","121.50365","24.9915083333333","6500300","中和區"
"235054","640-BX","2018/10/08 18:19:15","新北市中和區莒光路203號","121.472411666667","24.9988433333333","6500300","中和區"
"235046","733-UM","2018/10/08 18:19:14","新北市中和區中正路637巷60弄61號","121.485506666667","24.993035","6500300","中和區"
"235062","800-TS","2018/10/08 18:19:03","新北市中和區橋和路121號","121.491926666667","25.005775","6500300","中和區"
"235057","801-TS","2018/10/08 18:19:24","新北市中和區民安街133號","121.47599","24.9998783333333","6500300","中和區"
"235041","802-TS","2018/10/08 18:19:22","新北市中和區中正路395號","121.489536666667","24.9936133333333","6500300","中和區"
"235052","805-TS","2018/10/08 18:19:06","新北市中和區興南路一段86號","121.509866666667","24.989335","6500300","中和區"
"235048","896-TW","2018/10/08 18:19:05","新北市中和區中正路395號","121.489705","24.9935116666667","6500300","中和區"
"235053","900-TW","2018/10/08 18:19:15","新北市中和區連城路523巷13弄10號","121.481948333333","24.9935866666667","6500300","中和區"
"235060","911-UM","2018/10/08 18:19:07","新北市中和區員山路127號","121.480958333333","24.9955783333333","6500300","中和區"
"235051","157-BY","2018/10/08 18:19:21","新北市中和區忠孝街79號","121.512098333333","24.98526","6500300","中和區"
"235037","AAC-213","2018/10/08 18:19:18","新北市中和區景德街30號","121.518223333333","24.9914066666667","6500300","中和區"
"220065","072-UY","2018/10/08 18:19:14","新北市板橋區華東街1-9號","121.448158333333","24.9949133333333","6500100","板橋區"
"220069","AAD-861","2018/10/08 18:19:04","新北市板橋區華東街1-10號","121.448673333333","24.9949916666667","6500100","板橋區"
"247004","002-UY","2018/10/08 17:50:49","新北市五股區中興路三段2巷10號","121.448625","25.08176","6501400","蘆洲區"
"226004","312-R5","2018/10/08 18:19:15","新北市平溪區薯榔里雙菁路94號","121.713966666667","25.02122","6502400","平溪區"
"235047","251-BX","2018/10/08 18:19:09","新北市中和區南山路250巷2號","121.507693333333","24.98905","6500300","中和區"
"228003","097-TW","2018/10/08 18:19:10","新北市貢寮區和美里和美街63號","121.922493333333","25.070895","6502600","貢寮區"
"228002","663-BX","2018/10/08 18:19:12","新北市貢寮區福連里福興街39-3號","121.993065","25.0125166666667","6502600","貢寮區"
"228001","670-TC","2018/10/08 18:19:06","新北市貢寮區真理里新港街26巷55弄2-1號","121.927366666667","25.05288","6502600","貢寮區"
"224006","676-BX","2018/10/08 18:19:23","新北市瑞芳區三爪子坑路106巷1-10號","121.808311666667","25.1052833333333","6501200","瑞芳區"
"224002","639-TC","2018/10/08 18:19:13","新北市瑞芳區三爪子坑路149巷32號","121.811818333333","25.106595","6501200","瑞芳區"
"224008","285-BY","2018/10/08 18:19:19","新北市瑞芳區逢甲路15號","121.809793333333","25.1086633333333","6501200","瑞芳區"
"224007","275-VK","2018/10/08 18:19:06","新北市瑞芳區大埔路61號","121.764358333333","25.101945","6501200","瑞芳區"
"224009","273-VK","2018/10/08 18:19:14","新北市瑞芳區祈堂路239號","121.856293333333","25.1090783333333","6501200","瑞芳區"
"224005","271-BY","2018/10/08 18:19:23","新北市瑞芳區建基路二段5號","121.809625","25.1323116666667","6501200","瑞芳區"
"227001","642-TC","2018/10/08 18:19:04","新北市雙溪區共和里中山路2號","121.863795","25.0337766666667","6502500","雙溪區"
"227008","400-TW","2018/10/08 18:19:02","新北市雙溪區牡丹里牡丹73號","121.851705","25.0593466666667","6502500","雙溪區"
"253006","032-BX","2018/10/08 18:19:19","新北市石門區老梅路99號","121.546761666667","25.289255","6502200","石門區"
"253005","295-VK","2018/10/08 18:19:25","新北市石門區中央路22號","121.567866666667","25.29259","6502200","石門區"
"222001","KEA-2212","2018/10/08 18:19:15","新北市深坑區北深路二段51號","121.618975","25.0039666666667","6501800","深坑區"
"208002","KEA-2872","2018/10/08 18:19:22","新北市金山區清泉里清水路60巷10號","121.63324","25.2342916666667","6502700","金山區"
"208003","665-BX","2018/10/08 18:19:15","新北市金山區民生路160號","121.64691","25.2230216666667","6502700","金山區"
"208001","761-BX","2018/10/08 18:19:15","新北市金山區民生路45號","121.642085","25.2210566666667","6502700","金山區"
"251005","010-UM","2018/10/08 18:19:07","新北市淡水區水源街一段122巷37號","121.44709","25.1704783333333","6501000","淡水區"
"251001","011-UM","2018/10/08 18:19:24","新北市淡水區自強路108-19號","121.461623333333","25.13138","6501000","淡水區"
"251013","KEA-2871","2018/10/08 18:19:08","新北市淡水區行忠路590號","121.468011666667","25.1991916666667","6501000","淡水區"
"251016","179-VK","2018/10/08 18:19:11","新北市淡水區淡金路三段228巷24號","121.449758333333","25.2049166666667","6501000","淡水區"
"251015","180-VK","2018/10/08 18:19:09","新北市淡水區興福寮88巷1號","121.485376666667","25.1649583333333","6501000","淡水區"
"251008","181-VK","2018/10/08 18:19:12","新北市淡水區水源街二段229號","121.46059","25.1763733333333","6501000","淡水區"
"251010","413-VK","2018/10/08 18:19:18","新北市淡水區淡海路188號","121.420335","25.185195","6501000","淡水區"
"251012","441-VK","2018/10/08 18:19:21","新北市淡水區北新路二段77-5號","121.48046","25.1855333333333","6501000","淡水區"
"251004","443-VK","2018/10/08 18:19:06","新北市淡水區民族路102號","121.462538333333","25.135315","6501000","淡水區"
"251006","561-UM","2018/10/08 18:19:17","新北市淡水區新民街78號","121.438785","25.1765033333333","6501000","淡水區"
"251011","650-BX","2018/10/08 18:19:03","新北市淡水區坪頂路55號","121.45855","25.16274","6501000","淡水區"
"251002","672-BX","2018/10/08 18:19:15","新北市淡水區中正東路一段38號","121.452641666667","25.162285","6501000","淡水區"
"251003","766-UM","2018/10/08 18:19:14","新北市淡水區北新路180號","121.449465","25.1787116666667","6501000","淡水區"
"207003","681-TV","2018/10/08 18:19:19","新北市萬里區野柳里港東新村1-1號","121.686073333333","25.2030783333333","6502800","萬里區"
"207004","225-TW","2018/10/08 18:19:19","新北市萬里區中幅里中福路131-4號","121.674745","25.1654233333333","6502800","萬里區"
"252002","178-VK","2018/10/08 18:19:07","新北市三芝區中山路二段39號","121.502943333333","25.2551183333333","6502100","三芝區"
"252003","249-BX","2018/10/08 18:19:10","新北市三芝區錫板里南勢崗8號","121.47918","25.261835","6502100","三芝區"
"252001","292-VK","2018/10/08 18:19:02","新北市三芝區中興街二段2號","121.498381666667","25.256625","6502100","三芝區"
"237004","KEA-2597","2018/10/08 18:19:20","新北市三峽區大埔路222號","121.374073333333","24.8917416666667","6500900","三峽區"
"237007","153-BY","2018/10/08 18:19:19","新北市三峽區中正路二段414號","121.365088333333","24.908385","6500900","三峽區"
"237009","210-TH","2018/10/08 18:19:02","新北市三峽區大仁路9號","121.366591666667","24.9375933333333","6500900","三峽區"
"237013","252-BX","2018/10/08 18:19:10","新北市三峽區永安街37號","121.376473333333","24.9304183333333","6500900","三峽區"
"237012","275-BY","2018/10/08 18:19:07","新北市三峽區民生街1巷5-26號","121.378596666667","24.935685","6500900","三峽區"
"237008","302-VK","2018/10/08 18:19:17","新北市三峽區白雞68-25號","121.39218","24.9091416666667","6500900","三峽區"
"237014","433-BY","2018/10/08 18:19:09","新北市三峽區復興路110巷1弄2號","121.372776666667","24.938175","6500900","三峽區"
"237006","5529-G3","2018/10/08 18:19:12","新北市三峽區溪東路235號","121.40646","24.9326266666667","6500900","三峽區"
"237011","KEA-2596","2018/10/08 18:19:10","新北市三峽區溪東路43號","121.400495","24.9348533333333","6500900","三峽區"
"237015","649-BX","2018/10/08 18:19:22","新北市三峽區紫微路42-1號","121.42254","24.9199216666667","6500900","三峽區"
"237010","706-TV","2018/10/08 18:19:01","新北市三峽區民族街17號","121.369363333333","24.93086","6500900","三峽區"
"237005","AKY-6261","2018/10/08 18:19:10","新北市三峽區秀川街26巷3號","121.371536666667","24.9343266666667","6500900","三峽區"
"236069","105-UM","2018/10/08 18:19:03","新北市土城區永豐路236號","121.467275","24.98098","6501300","土城區"
"236042","107-UM","2018/10/08 18:19:16","新北市土城區裕生路21巷2弄32號","121.447905","24.986115","6501300","土城區"
"236078","166-UM","2018/10/08 18:18:52","新北市土城區永安街115巷36號","121.428846666667","24.96303","6501300","土城區"
"236030","253-BX","2018/10/08 18:19:02","新北市土城區順風路31號","121.44074","24.97671","6501300","土城區"
"236026","269-VK","2018/10/08 18:19:17","新北市土城區承天路20號","121.43957","24.9633966666667","6501300","土城區"
"236014","270-VK","2018/10/08 18:19:14","新北市土城區青雲路39巷7號","121.460291666667","24.98739","6501300","土城區"
"236039","271-VK","2018/10/08 18:18:52","新北市土城區青雲路451巷8弄19號","121.459483333333","24.9740766666667","6501300","土城區"
"236020","401-BY","2018/10/08 18:19:07","新北市土城區明德路一段385-1號","121.452771666667","24.9797566666667","6501300","土城區"
"236059","912-UM","2018/10/08 18:19:20","新北市土城區中央路四段307-3號","121.410791666667","24.951555","6501300","土城區"
"236048","913-UM","2018/10/08 18:19:22","新北市土城區明德路一段375-1號","121.454743333333","24.9781966666667","6501300","土城區"
"236063","915-UM","2018/10/08 18:19:16","新北市土城區金城路三段189-2號","121.469858333333","24.9888366666667","6501300","土城區"
"236055","AAC-216","2018/10/08 18:19:09","新北市土城區中華路二段92號","121.438231666667","24.9747466666667","6501300","土城區"
"242058","986-R7","2018/10/08 18:19:10","新北市新莊區新北大道七段772號","121.41285","25.0249516666667","6500500","新莊區"
"242056","751-BX","2018/10/08 18:19:15","新北市新莊區瓊林路38-7號","121.448313333333","25.0304633333333","6500500","新莊區"
"242027","615-BX","2018/10/08 18:19:04","新北市泰山區泰林路一段2-1號","121.441961666667","25.0479383333333","6500500","新莊區"
"242025","613-BX","2018/10/08 18:19:19","新北市新莊區五權一路12巷12號","121.457225","25.0645133333333","6500500","新莊區"
"242044","566-BX","2018/10/08 18:19:20","新北市新莊區鳳山街56巷35號","121.413681666667","25.0266933333333","6500500","新莊區"
"242011","442-UM","2018/10/08 18:19:06","新北市新莊區中榮街39號","121.449875","25.0527283333333","6500500","新莊區"
"242053","441-UM","2018/10/08 18:19:11","新北市新莊區民安西路458號","121.431286666667","25.00818","6500500","新莊區"
"242039","415-TV","2018/10/08 18:19:24","新北市新莊區新樹路210號","121.433708333333","25.0204416666667","6500500","新莊區"
"242009","413-TV","2018/10/08 18:19:02","新北市新莊區中華路二段13號","121.453753333333","25.0456133333333","6500500","新莊區"
"242046","400-BY","2018/10/08 18:18:55","新北市新莊區福營路336號","121.421666666667","25.026765","6500500","新莊區"
"242060","353-BY","2018/10/08 18:19:04","新北市新莊區後港一路141號","121.43033","25.027615","6500500","新莊區"
"242042","133-UY","2018/10/08 18:19:13","新北市新莊區天祥街90號","121.415348333333","25.0295083333333","6500500","新莊區"
"242002","347-TH","2018/10/08 18:19:17","新北市新莊區碧江街18-3號","121.45528","25.03455","6500500","新莊區"
"242031","348-TH","2018/10/08 18:19:20","新北市新莊區新泰路255巷51號","121.443983333333","25.03948","6500500","新莊區"
"242021","350-TH","2018/10/08 18:19:13","新北市新莊區新泰路253號","121.446108333333","25.03987","6500500","新莊區"
"242015","351-TH","2018/10/08 18:19:06","新北市新莊區中和街63號","121.447515","25.0472166666667","6500500","新莊區"
"238015","755-BX","2018/10/08 18:19:22","新北市樹林區文化街79巷1號","121.416791666667","24.98908","6500700","樹林區"
"238023","601-UM","2018/10/08 18:19:09","新北市樹林區忠愛街1號","121.409541666667","25.01549","6500700","樹林區"
"238019","599-UM","2018/10/08 18:19:16","新北市樹林區國凱街136巷29弄16號","121.423986666667","24.9795366666667","6500700","樹林區"
"238018","571-TV","2018/10/08 18:19:19","新北市樹林區保安街一段16巷39號","121.428675","24.9947683333333","6500700","樹林區"
"238024","5061-A6","2018/10/08 18:19:18","新北市樹林區中山路一段276號","121.420491666667","24.987075","6500700","樹林區"
"238025","303-VK","2018/10/08 18:19:16","新北市樹林區保安二街61號","121.424406666667","24.9945816666667","6500700","樹林區"
"238017","283-BY","2018/10/08 18:19:22","新北市樹林區光榮街3巷1號","121.413128333333","25.0039833333333","6500700","樹林區"
"238014","282-BY","2018/10/08 18:19:12","新北市樹林區大安路113號","121.422636666667","24.9977183333333","6500700","樹林區"
"238020","268-VK","2018/10/08 18:19:23","新北市樹林區三俊街65巷22號","121.41336","25.0171133333333","6500700","樹林區"
"238026","172-UY","2018/10/08 18:19:18","新北市樹林區佳園路一段73號","121.393505","24.9700916666667","6500700","樹林區"
"238016","169-UY","2018/10/08 18:19:09","新北市樹林區文化街25巷2號","121.418961666667","24.987255","6500700","樹林區"
"239007","AAC-297","2018/10/08 18:19:22","新北市鶯歌區重慶街67號","121.34939","24.951725","6500800","鶯歌區"
"239006","891-R6","2018/10/08 18:19:22","新北市鶯歌區德昌街5號","121.333733333333","24.96059","6500800","鶯歌區"
"239008","527-UM","2018/10/08 18:19:19","新北市鶯歌區國際一路179號","121.33627","24.9765516666667","6500800","鶯歌區"
"239005","526-UM","2018/10/08 18:19:15","新北市鶯歌區鶯桃路668巷74-1號","121.329973333333","24.9717883333333","6500800","鶯歌區"
"239001","417-VK","2018/10/08 18:19:21","新北市鶯歌區國中街106號","121.340221666667","24.9404016666667","6500800","鶯歌區"
"239003","360-BY","2018/10/08 18:19:09","新北市鶯歌區福安街58號","121.335563333333","24.9651833333333","6500800","鶯歌區"
"239002","359-BY","2018/10/08 18:19:16","新北市鶯歌區中正一路47號","121.352306666667","24.9537633333333","6500800","鶯歌區"
"239004","193-VK","2018/10/08 18:19:11","新北市鶯歌區尖山路137巷13號","121.347191666667","24.9482466666667","6500800","鶯歌區"
"221008","489-VK","2018/10/08 18:19:13","新北市汐止區康寧街753巷2弄14號","121.63967","25.0741633333333","6501100","汐止區"
"221036","130-UY","2018/10/08 18:19:17","新北市汐止區長興街一段53號","121.670526666667","25.0795583333333","6501100","汐止區"
"221015","131-UY","2018/10/08 18:19:07","新北市汐止區鄉長路二段23巷15號","121.667813333333","25.082725","6501100","汐止區"
"221010","269-BY","2018/10/08 18:19:07","新北市汐止區汐萬路二段286號","121.645046666667","25.0902616666667","6501100","汐止區"
"221012","278-VK","2018/10/08 18:19:07","新北市汐止區保一街24號","121.673938333333","25.0805066666667","6501100","汐止區"
"221023","279-VK","2018/10/08 18:19:23","新北市汐止區明峰街194號","121.627983333333","25.069505","6501100","汐止區"
"221032","280-BY","2018/10/08 18:19:19","新北市汐止區民權街二段101號","121.61886","25.0472433333333","6501100","汐止區"
"221027","281-BY","2018/10/08 18:19:07","新北市汐止區和平街6巷1弄2號","121.66344","25.071275","6501100","汐止區"
"221029","298-VK","2018/10/08 18:19:20","新北市汐止區汐萬路一段301號","121.649478333333","25.075825","6501100","汐止區"
"221021","299-VK","2018/10/08 18:19:17","新北市汐止區大同路二段184巷11號","121.653515","25.0635416666667","6501100","汐止區"
"221031","353-TW","2018/10/08 18:19:11","新北市汐止區大同路一段160號","121.633418333333","25.0568333333333","6501100","汐止區"
"221035","622-UM","2018/10/08 18:19:23","新北市汐止區大同路二段187巷2弄1號","121.652196666667","25.0649583333333","6501100","汐止區"
"221025","623-UM","2018/10/08 18:19:17","新北市汐止區勤進路12巷27號","121.659135","25.0623733333333","6501100","汐止區"
"221038","646-BX","2018/10/08 18:19:17","新北市汐止區仁愛路180號","121.664921666667","25.065735","6501100","汐止區"
"221002","707-TV","2018/10/08 18:19:17","新北市汐止區福德一路201巷29號","121.635796666667","25.0646883333333","6501100","汐止區"
"221018","753-BX","2018/10/08 18:19:02","新北市汐止區茄苳路72巷9號","121.666693333333","25.0701083333333","6501100","汐止區"
"242050","281-VK","2018/10/08 18:19:17","新北市新莊區民本街1號","121.427458333333","25.01994","6500500","新莊區"
"220054","741-BX","2018/10/08 18:19:13","新北市板橋區華東街1-9號","121.448091666667","24.9949066666667","6500100","板橋區"
"235061","KEA-2875","2018/10/08 18:19:14","新北市中和區國光街2巷1號","121.472376666667","25.0002966666667","6500300","中和區"
