"lineid","car","time","location","longitude","latitude","cityid","cityname"
"234046","148-BY","2018/10/08 18:29:13","新北市永和區福和路1號","121.525958333333","25.009685","6500400","永和區"
"234007","207-UY","2018/10/08 18:29:17","新北市永和區仁愛路278號","121.503843333333","25.0082083333333","6500400","永和區"
"234081","298-R6","2018/10/08 18:29:20","新北市永和區福和路1號","121.52613","25.0097766666667","6500400","永和區"
"234086","338-UY","2018/10/08 18:29:03","新北市永和區福和路127號","121.521515","25.0078383333333","6500400","永和區"
"234017","745-BX","2018/10/08 18:29:08","新北市永和區福和路1號","121.526375","25.0095883333333","6500400","永和區"
"234013","KEA-2591","2018/10/08 18:29:07","新北市永和區環河西路一段107號","121.510956666667","25.01756","6500400","永和區"
"234042","862-TW","2018/10/08 18:29:16","新北市永和區福和路239號","121.518391666667","25.0074166666667","6500400","永和區"
"234026","9371-KE","2018/10/08 18:29:20","新北市永和區永貞路417巷26號","121.505835","25.0090333333333","6500400","永和區"
"249005","172-UM","2018/10/08 18:29:24","新北市八里區長坑口47-8號","121.39082","25.1341666666667","6502300","八里區"
"249001","173-UM","2018/10/08 18:29:14","新北市八里區龍米路一段132號","121.453033333333","25.1254716666667","6502300","八里區"
"249004","303-UY","2018/10/08 18:29:25","新北市八里區忠孝路71-1號","121.42658","25.160385","6502300","八里區"
"249002","305-UY","2018/10/08 18:29:20","新北市八里區龍形三街17號","121.44869","25.1316916666667","6502300","八里區"
"249003","593-UM","2018/10/08 18:29:12","新北市八里區中山路三段380號","121.36886","25.1362533333333","6502300","八里區"
"248016","026-BX","2018/10/08 18:29:05","新北市五股區凌雲路一段83巷22弄1號","121.449858333333","25.1007483333333","6501500","五股區"
"248006","077-UY","2018/10/08 18:29:08","新北市五股區四維路23號","121.467076666667","25.0705916666667","6501500","五股區"
"248008","095-VK","2018/10/08 18:29:17","新北市五股區四維路185巷42弄1號","121.46364","25.0768466666667","6501500","五股區"
"248019","225-UY","2018/10/08 18:29:20","新北市五股區御史路300號","121.416903333333","25.10918","6501500","五股區"
"248012","247-BX","2018/10/08 18:29:25","新北市五股區御史路29號","121.441995","25.0914333333333","6501500","五股區"
"248014","261-SL","2018/10/08 18:29:14","新北市五股區自強路130號","121.432293333333","25.07141","6501500","五股區"
"248004","677-BX","2018/10/08 18:29:08","新北市五股區六合街3號","121.431961666667","25.0884983333333","6501500","五股區"
"248002","678-BX","2018/10/08 18:29:07","新北市五股區西雲路138-1號","121.445593333333","25.0942233333333","6501500","五股區"
"248010","682-TV","2018/10/08 18:29:03","新北市五股區明德路12巷1號","121.433298333333","25.071615","6501500","五股區"
"234077","969-R7","2018/10/08 18:29:08","新北市永和區豫溪街217巷25號","121.524286666667","25.0100883333333","6500400","永和區"
"244023","069-UM","2018/10/08 18:29:23","新北市林口區四維路245巷26號","121.382535","25.0752633333333","6501700","林口區"
"244007","080-UY","2018/10/08 18:29:04","新北市林口區後湖29-2號","121.387278333333","25.099475","6501700","林口區"
"244019","403-UM","2018/10/08 18:29:24","新北市林口區忠孝路622巷15號","121.378423333333","25.06708","6501700","林口區"
"244013","KEA-2802","2018/10/08 18:29:10","新北市林口區中山路260號","121.384888333333","25.0797766666667","6501700","林口區"
"244017","485-VK","2018/10/08 18:29:09","新北市林口區八德路78號","121.3656","25.0655283333333","6501700","林口區"
"244009","656-BX","2018/10/08 18:29:17","新北市林口區民生路164號","121.379595","25.087915","6501700","林口區"
"244011","701-TV","2018/10/08 18:29:17","新北市林口區中山路140-1號","121.391575","25.0786766666667","6501700","林口區"
"244025","837-TS","2018/10/08 18:29:22","新北市林口區南勢里53-6號","121.355043333333","25.0748816666667","6501700","林口區"
"244021","838-TS","2018/10/08 18:29:13","新北市林口區自強四街4號","121.398916666667","25.07687","6501700","林口區"
"243013","AAD-798","2018/10/08 18:28:34","新北市泰山區明志路三段206巷3號","121.423306666667","25.037925","6501600","泰山區"
"243012","646-TV","2018/10/08 18:29:19","新北市泰山區泰林路二段408號","121.427465","25.0643283333333","6501600","泰山區"
"222003","436-BY","2018/10/08 18:29:11","新北市深坑區文山路一段28-1號","121.630785","25.005375","6501800","深坑區"
"222002","659-BX","2018/10/08 18:29:14","新北市深坑區雲鄉路157號","121.621361666667","24.99814","6501800","深坑區"
"231059","001-UM","2018/10/08 18:29:12","新北市新店區安一路一段1-1號","121.519476666667","24.96107","6500600","新店區"
"231041","002-UM","2018/10/08 18:29:16","新北市新店區安華路28-1號","121.519633333333","24.96077","6500600","新店區"
"231040","047-UY","2018/10/08 18:29:19","新北市新店區安一路一段1-1號","121.519233333333","24.9610883333333","6500600","新店區"
"231044","106-UY","2018/10/08 18:29:11","新北市新店區安一路一段1-1號","121.5197","24.9616216666667","6500600","新店區"
"231046","107-UY","2018/10/08 18:29:08","新北市新店區直潭七街60號","121.532263333333","24.9397833333333","6500600","新店區"
"231047","187-VK","2018/10/08 18:29:11","新北市新店區安一路一段1-1號","121.519608333333","24.9610533333333","6500600","新店區"
"231062","188-VK","2018/10/08 18:29:14","新北市新店區安一路一段1-1號","121.519206666667","24.9615066666667","6500600","新店區"
"231052","189-VK","2018/10/08 18:29:20","新北市新店區新烏路一段50-23號","121.545715","24.94942","6500600","新店區"
"231054","KEA-2219","2018/10/08 18:29:16","新北市新店區安一路一段1-1號","121.519866666667","24.9611416666667","6500600","新店區"
"231057","256-BX","2018/10/08 18:29:15","新北市新店區環河路29巷1號","121.537041666667","24.9613716666667","6500600","新店區"
"231042","268-BY","2018/10/08 18:29:21","新北市新店區安華路28-1號","121.51941","24.9606433333333","6500600","新店區"
"231051","278-BY","2018/10/08 18:29:09","新北市新店區安華路28-1號","121.519643333333","24.960945","6500600","新店區"
"231050","AAD-862","2018/10/08 18:29:21","新北市新店區安一路一段1-1號","121.519945","24.9611166666667","6500600","新店區"
"231058","3713-VJ","2018/10/08 18:29:03","新北市新店區新店後街86號","121.537601666667","24.9548266666667","6500600","新店區"
"231066","4716-K9","2018/10/08 18:29:20","新北市新店區安一路一段1-1號","121.519371666667","24.9614233333333","6500600","新店區"
"231056","4715-K9","2018/10/08 18:29:22","新北市新店區二十張路66號","121.536631666667","24.980085","6500600","新店區"
"231067","4772-VM","2018/10/08 18:29:15","新北市新店區安華路28-1號","121.519218333333","24.96062","6500600","新店區"
"231065","512-UM","2018/10/08 18:29:12","新北市新店區安一路一段1-1號","121.51934","24.96135","6500600","新店區"
"231049","513-UM","2018/10/08 18:29:11","新北市新店區安一路一段1-1號","121.519675","24.961115","6500600","新店區"
"231063","616-UM","2018/10/08 18:29:09","新北市新店區安華路1-1號","121.51944","24.9604933333333","6500600","新店區"
"231045","617-UM","2018/10/08 18:29:14","新北市新店區安一路一段1-1號","121.519391666667","24.961015","6500600","新店區"
"231061","619-UM","2018/10/08 18:29:07","新北市新店區安華路28-1號","121.519628333333","24.9608833333333","6500600","新店區"
"231064","719-UM","2018/10/08 18:29:11","新北市新店區安一路一段1-1號","121.519388333333","24.9612016666667","6500600","新店區"
"231060","897-TW","2018/10/08 18:29:12","新北市新店區安華路28-1號","121.519681666667","24.9608483333333","6500600","新店區"
"231043","899-TW","2018/10/08 18:29:09","新北市新店區安華路28-1號","121.519213333333","24.9608333333333","6500600","新店區"
"231055","AKT-0513","2018/10/08 18:29:15","新北市新店區中央路185-2號","121.536938333333","24.96902","6500600","新店區"
"251014","742-BX","2018/10/08 18:29:05","新北市淡水區番社前25-1號","121.494848333333","25.2145383333333","6501000","淡水區"
"235066","003-UY","2018/10/08 18:29:07","新北市中和區中山路二段120號","121.502758333333","25.003765","6500300","中和區"
"235064","005-UY","2018/10/08 18:29:11","新北市中和區連城路139巷66號","121.496805","24.996785","6500300","中和區"
"235063","006-UY","2018/10/08 18:29:06","新北市中和區中正路504號","121.488738333333","24.9945533333333","6500300","中和區"
"235056","096-UM","2018/10/08 18:29:02","新北市板橋區三民路二段220巷19號","121.477906666667","25.011425","6500300","中和區"
"235039","097-UM","2018/10/08 18:29:19","新北市中和區安平路192號","121.513243333333","24.999235","6500300","中和區"
"235065","098-UM","2018/10/08 18:29:16","新北市中和區莊敬路49巷20弄24號","121.50285","25.0058533333333","6500300","中和區"
"235040","150-BY","2018/10/08 18:29:13","新北市中和區安平路59號","121.509576666667","24.9951633333333","6500300","中和區"
"235058","151-BY","2018/10/08 18:29:07","新北市中和區圓通路369巷30弄86號","121.48865","24.9850016666667","6500300","中和區"
"235055","183-VK","2018/10/08 18:29:23","新北市中和區莒光路169號","121.472795","24.9999133333333","6500300","中和區"
"235038","185-VK","2018/10/08 18:29:23","新北市中和區自立路147號","121.522635","24.993025","6500300","中和區"
"235049","186-VK","2018/10/08 18:29:18","新北市中和區景安路142號","121.50505","24.9941766666667","6500300","中和區"
"235067","255-BX","2018/10/08 18:29:18","新北市中和區連城路318號","121.483505","24.996015","6500300","中和區"
"235044","293-VK","2018/10/08 18:29:12","新北市中和區復興路348號","121.499943333333","24.9904016666667","6500300","中和區"
"235072","301-VK","2018/10/08 18:29:12","新北市中和區連城路165號","121.495591666667","24.9985816666667","6500300","中和區"
"235043","352-BY","2018/10/08 18:29:11","新北市中和區景平路267號","121.50818","24.9930033333333","6500300","中和區"
"235042","KEA-2878","2018/10/08 18:29:05","新北市中和區自立路56巷21號","121.522401666667","24.9915966666667","6500300","中和區"
"247012","KEA-2869","2018/10/08 18:29:20","新北市八里區下罟子17號","121.382281666667","25.14425","6501400","蘆洲區"
"235050","4979-A6","2018/10/08 18:29:12","新北市中和區興南路一段8號","121.511525","24.9913433333333","6500300","中和區"
"235069","4980-A6","2018/10/08 18:29:19","新北市中和區連城路127巷31號","121.497261666667","24.9975","6500300","中和區"
"235070","558-UM","2018/10/08 18:29:08","新北市中和區安和路159號","121.50604","24.9972883333333","6500300","中和區"
"235045","565-BX","2018/10/08 18:29:10","新北市中和區南山路236巷24弄38號","121.504801666667","24.9887983333333","6500300","中和區"
"235054","640-BX","2018/10/08 18:29:15","新北市中和區民享街92號","121.474886666667","24.9998883333333","6500300","中和區"
"235046","733-UM","2018/10/08 18:29:14","新北市中和區板南路100號","121.50371","24.992405","6500300","中和區"
"235062","800-TS","2018/10/08 18:29:23","新北市中和區景平路989巷4號","121.495501666667","25.0052833333333","6500300","中和區"
"235057","801-TS","2018/10/08 18:29:04","新北市中和區民安街65巷2號","121.478625","24.999685","6500300","中和區"
"235041","802-TS","2018/10/08 18:29:22","新北市中和區景安路44號","121.506985","24.9981533333333","6500300","中和區"
"235052","805-TS","2018/10/08 18:29:06","新北市中和區興南路二段133號","121.505243333333","24.9841516666667","6500300","中和區"
"235048","896-TW","2018/10/08 18:29:05","新北市中和區中正路79號","121.500813333333","24.99341","6500300","中和區"
"235053","900-TW","2018/10/08 18:29:15","新北市中和區民享街465號","121.47008","24.9920416666667","6500300","中和區"
"235060","911-UM","2018/10/08 18:29:07","新北市中和區台新街23號","121.47986","25.0052416666667","6500300","中和區"
"235051","157-BY","2018/10/08 18:29:21","新北市中和區興南路二段142巷37弄1號","121.502275","24.984675","6500300","中和區"
"235037","AAC-213","2018/10/08 18:29:18","新北市中和區景新街383巷50號","121.514435","24.9909616666667","6500300","中和區"
"220035","015-TV","2018/10/08 18:29:15","新北市板橋區南雅南路二段11-5號","121.453958333333","25.002295","6500100","板橋區"
"220065","072-UY","2018/10/08 18:29:13","新北市板橋區四川路一段387號","121.457573333333","24.998905","6500100","板橋區"
"220086","073-UY","2018/10/08 18:29:15","新北市板橋區華東街1-10號","121.448261666667","24.9950466666667","6500100","板橋區"
"220069","AAD-861","2018/10/08 18:29:24","新北市板橋區華東街1-10號","121.448686666667","24.9950316666667","6500100","板橋區"
"226004","312-R5","2018/10/08 18:29:15","新北市平溪區靜安路二段250號","121.725005","25.02195","6502400","平溪區"
"235047","251-BX","2018/10/08 18:29:09","新北市中和區南山路250巷2號","121.507721666667","24.9889816666667","6500300","中和區"
"228003","097-TW","2018/10/08 18:29:10","新北市貢寮區和美里和美街43-1號","121.914253333333","25.0912916666667","6502600","貢寮區"
"228002","663-BX","2018/10/08 18:29:12","新北市貢寮區福連里香蘭街16-2號","121.981963333333","25.0222783333333","6502600","貢寮區"
"228001","670-TC","2018/10/08 18:29:06","新北市貢寮區仁理村仁和路166號","121.923385","25.0521966666667","6502600","貢寮區"
"224006","676-BX","2018/10/08 18:29:23","新北市瑞芳區明燈路二段38號","121.810105","25.10761","6501200","瑞芳區"
"224002","639-TC","2018/10/08 18:29:13","新北市瑞芳區三爪子坑路29巷42號","121.813721666667","25.106675","6501200","瑞芳區"
"224008","285-BY","2018/10/08 18:29:19","新北市瑞芳區岳王路1巷27號","121.80599","25.1104716666667","6501200","瑞芳區"
"224007","275-VK","2018/10/08 18:29:06","新北市瑞芳區大埔路國宅新村30-1號","121.764663333333","25.10022","6501200","瑞芳區"
"224009","273-VK","2018/10/08 18:29:14","新北市瑞芳區祈堂路2號","121.859296666667","25.11153","6501200","瑞芳區"
"224005","271-BY","2018/10/08 18:29:23","新北市瑞芳區台電新村51號","121.811941666667","25.1272366666667","6501200","瑞芳區"
"227001","642-TC","2018/10/08 18:29:04","新北市雙溪區共和里中山路59號","121.868765","25.03126","6502500","雙溪區"
"227008","400-TW","2018/10/08 18:29:21","新北市雙溪區牡丹里牡丹131號","121.850906666667","25.0592516666667","6502500","雙溪區"
"253006","032-BX","2018/10/08 18:29:19","新北市石門區公地20-1號","121.54575","25.2901266666667","6502200","石門區"
"253005","295-VK","2018/10/08 18:29:25","新北市石門區老崩山10-5號","121.552691666667","25.291055","6502200","石門區"
"222001","KEA-2212","2018/10/08 18:29:15","新北市深坑區北深路一段210號","121.63282","25.0108816666667","6501800","深坑區"
"208002","KEA-2872","2018/10/08 18:29:02","新北市金山區磺清路135號","121.63938","25.2273316666667","6502700","金山區"
"208003","665-BX","2018/10/08 18:29:06","新北市金山區中山路183號","121.638336666667","25.2209766666667","6502700","金山區"
"208001","761-BX","2018/10/08 18:29:15","新北市金山區中山路186號","121.638095","25.2213033333333","6502700","金山區"
"251005","010-UM","2018/10/08 18:29:07","新北市淡水區公明街89號","121.444486666667","25.168225","6501000","淡水區"
"251001","011-UM","2018/10/08 18:29:24","新北市淡水區自強路371號","121.464503333333","25.1332983333333","6501000","淡水區"
"251013","KEA-2871","2018/10/08 18:29:08","新北市淡水區椿子林19-1號","121.480405","25.20397","6501000","淡水區"
"251016","179-VK","2018/10/08 18:29:11","新北市淡水區下圭柔山114-5號","121.4465","25.2109883333333","6501000","淡水區"
"251015","180-VK","2018/10/08 18:29:09","新北市淡水區興福寮88巷216號","121.486026666667","25.1666133333333","6501000","淡水區"
"251008","181-VK","2018/10/08 18:29:13","新北市淡水區北投子87-3號","121.469058333333","25.178485","6501000","淡水區"
"251010","413-VK","2018/10/08 18:29:18","新北市淡水區沙崙路151巷12弄12號","121.423961666667","25.1839766666667","6501000","淡水區"
"251012","441-VK","2018/10/08 18:29:21","新北市淡水區北新路一段157號","121.458716666667","25.182295","6501000","淡水區"
"251004","443-VK","2018/10/08 18:29:06","新北市淡水區民族路89號","121.462751666667","25.1339433333333","6501000","淡水區"
"251006","561-UM","2018/10/08 18:29:17","新北市淡水區新生街51巷45號","121.44128","25.1761383333333","6501000","淡水區"
"251011","650-BX","2018/10/08 18:29:23","新北市淡水區中正東路8-8號","121.44788","25.16661","6501000","淡水區"
"251002","672-BX","2018/10/08 18:29:15","新北市淡水區竿蓁二街19巷1號","121.453221666667","25.1631633333333","6501000","淡水區"
"251003","766-UM","2018/10/08 18:29:14","新北市淡水區北新路169巷16號","121.449733333333","25.1800516666667","6501000","淡水區"
"207003","681-TV","2018/10/08 18:29:14","新北市萬里區野柳里港東路162-15號","121.690485","25.2040983333333","6502800","萬里區"
"207004","225-TW","2018/10/08 18:29:19","新北市萬里區萬里里瑪鋉路218號","121.689128333333","25.1801","6502800","萬里區"
"252002","178-VK","2018/10/08 18:29:07","新北市三芝區中山路二段39號","121.502945","25.2550966666667","6502100","三芝區"
"252003","249-BX","2018/10/08 18:29:10","新北市三芝區後厝里北勢子41-3號","121.472148333333","25.2527883333333","6502100","三芝區"
"252001","292-VK","2018/10/08 18:29:22","新北市三芝區中興街二段6號","121.498453333333","25.256495","6502100","三芝區"
"237004","KEA-2597","2018/10/08 18:29:20","新北市三峽區五寮81號","121.359521666667","24.858615","6500900","三峽區"
"237007","153-BY","2018/10/08 18:29:19","新北市三峽區中正路三段70巷48號","121.355288333333","24.904695","6500900","三峽區"
"237009","210-TH","2018/10/08 18:29:22","新北市三峽區民權街231號","121.368085","24.9278866666667","6500900","三峽區"
"237013","252-BX","2018/10/08 18:29:09","新北市三峽區光明路69巷25號","121.376551666667","24.9291433333333","6500900","三峽區"
"237012","275-BY","2018/10/08 18:29:06","新北市三峽區三樹路76號","121.378091666667","24.93844","6500900","三峽區"
"237008","302-VK","2018/10/08 18:29:17","新北市三峽區白雞68-223號","121.390648333333","24.908995","6500900","三峽區"
"237014","433-BY","2018/10/08 18:29:09","新北市三峽區文化路39號","121.372625","24.9361166666667","6500900","三峽區"
"237006","5529-G3","2018/10/08 18:29:12","新北市三峽區溪東路238巷11號","121.408141666667","24.931045","6500900","三峽區"
"237011","KEA-2596","2018/10/08 18:29:10","新北市三峽區溪東路271號","121.408763333333","24.931515","6500900","三峽區"
"237015","649-BX","2018/10/08 18:29:21","新北市三峽區竹崙路149號","121.434128333333","24.9078966666667","6500900","三峽區"
"237010","706-TV","2018/10/08 18:29:21","新北市三峽區中山路246號","121.362213333333","24.93749","6500900","三峽區"
"237005","AKY-6261","2018/10/08 18:29:10","新北市三峽區民族街5巷58號","121.369733333333","24.93214","6500900","三峽區"
"236069","105-UM","2018/10/08 18:29:07","新北市土城區永豐路255巷21弄1號","121.475005","24.973945","6501300","土城區"
"236042","107-UM","2018/10/08 18:29:06","新北市土城區學成路91巷12號","121.450525","24.9880366666667","6501300","土城區"
"236078","166-UM","2018/10/08 18:29:12","新北市土城區中央路四段27巷10弄2號","121.424765","24.96182","6501300","土城區"
"236030","253-BX","2018/10/08 18:29:22","新北市土城區水源街83號","121.439616666667","24.9765083333333","6501300","土城區"
"236026","269-VK","2018/10/08 18:29:17","新北市土城區南天母路18-3號","121.448225","24.9531066666667","6501300","土城區"
"236014","270-VK","2018/10/08 18:29:14","新北市土城區青雲路39巷7號","121.460315","24.987405","6501300","土城區"
"236039","271-VK","2018/10/08 18:29:12","新北市土城區青雲路369號","121.458891666667","24.9764483333333","6501300","土城區"
"236020","401-BY","2018/10/08 18:29:07","新北市土城區永豐路202巷14號","121.466236666667","24.9833583333333","6501300","土城區"
"236059","912-UM","2018/10/08 18:29:07","新北市土城區中央路四段139-1號","121.415775","24.9572616666667","6501300","土城區"
"236048","913-UM","2018/10/08 18:29:22","新北市土城區青雲路463號","121.45864","24.9742866666667","6501300","土城區"
"236063","915-UM","2018/10/08 18:29:16","新北市土城區延壽路77巷6弄9號","121.468478333333","24.9926366666667","6501300","土城區"
"236055","AAC-216","2018/10/08 18:29:18","新北市土城區中華路二段61號","121.439456666667","24.9787","6501300","土城區"
"242058","986-R7","2018/10/08 18:29:08","桃園市龜山區萬壽路一段78號","121.408275","25.01909","6500500","新莊區"
"242056","751-BX","2018/10/08 18:29:15","新北市新莊區瓊林南路61-71號","121.43935","25.0186266666667","6500500","新莊區"
"242025","613-BX","2018/10/08 18:29:19","新北市新莊區中央路230號","121.454565","25.05975","6500500","新莊區"
"242044","566-BX","2018/10/08 18:28:30","新北市新莊區龍安路101號","121.41625","25.0223983333333","6500500","新莊區"
"242011","442-UM","2018/10/08 18:29:05","新北市新莊區中港路615巷8號","121.450886666667","25.053375","6500500","新莊區"
"242053","441-UM","2018/10/08 18:29:11","新北市新莊區樹新路120巷42號","121.430013333333","24.9959916666667","6500500","新莊區"
"242009","413-TV","2018/10/08 18:29:22","新北市泰山區磚雅厝3號","121.442123333333","25.04159","6500500","新莊區"
"242046","400-BY","2018/10/08 18:28:55","新北市新莊區中正路654號","121.421288333333","25.0284616666667","6500500","新莊區"
"242060","353-BY","2018/10/08 18:29:19","新北市新莊區民安路188巷3弄1號","121.425085","25.0234066666667","6500500","新莊區"
"242042","133-UY","2018/10/08 18:29:13","新北市新莊區天祥街121巷7號","121.414403333333","25.0294083333333","6500500","新莊區"
"238015","755-BX","2018/10/08 18:29:22","新北市樹林區復興路390巷17號","121.414668333333","24.98569","6500700","樹林區"
"238023","601-UM","2018/10/08 18:29:09","新北市樹林區三福街114號","121.40653","25.0163166666667","6500700","樹林區"
"238019","599-UM","2018/10/08 18:29:16","新北市樹林區中華路190號","121.4119","24.9806266666667","6500700","樹林區"
"238018","571-TV","2018/10/08 18:29:04","新北市樹林區樹新路50巷28號","121.429625","24.9969533333333","6500700","樹林區"
"238024","5061-A6","2018/10/08 18:29:18","新北市樹林區中山路一段31號","121.424676666667","24.992895","6500700","樹林區"
"238025","303-VK","2018/10/08 18:29:16","新北市樹林區中山路二段139號","121.406408333333","24.9790533333333","6500700","樹林區"
"238014","282-BY","2018/10/08 18:29:12","新北市樹林區中山路三段34號","121.395226666667","24.972705","6500700","樹林區"
"238020","268-VK","2018/10/08 18:29:21","新北市樹林區三龍街28-3號","121.411561666667","25.0179133333333","6500700","樹林區"
"238026","172-UY","2018/10/08 18:29:18","新北市樹林區八德街626號","121.397016666667","24.9697","6500700","樹林區"
"238016","169-UY","2018/10/08 18:29:09","新北市樹林區文化街27號","121.41918","24.9875","6500700","樹林區"
"239007","AAC-297","2018/10/08 18:29:22","新北市鶯歌區中山路7號","121.35281","24.9570266666667","6500800","鶯歌區"
"239006","891-R6","2018/10/08 18:29:02","新北市鶯歌區中山路129號","121.349455","24.95696","6500800","鶯歌區"
"239008","527-UM","2018/10/08 18:29:19","新北市鶯歌區國際一路179號","121.336255","24.9765266666667","6500800","鶯歌區"
"239005","526-UM","2018/10/08 18:29:08","新北市鶯歌區鶯桃路668巷52弄6號","121.329443333333","24.9705333333333","6500800","鶯歌區"
"239001","417-VK","2018/10/08 18:29:20","新北市鶯歌區國中街197號","121.338206666667","24.9391783333333","6500800","鶯歌區"
"239003","360-BY","2018/10/08 18:29:09","新北市鶯歌區永和街94號","121.334113333333","24.9687516666667","6500800","鶯歌區"
"239002","359-BY","2018/10/08 18:29:16","新北市鶯歌區中正一路481號","121.372746666667","24.9593266666667","6500800","鶯歌區"
"239004","193-VK","2018/10/08 18:29:11","新北市鶯歌區尖山路174巷35弄5號","121.344145","24.9485216666667","6500800","鶯歌區"
"221008","489-VK","2018/10/08 18:29:13","新北市汐止區康寧街901號","121.65148","25.0750566666667","6501100","汐止區"
"221036","130-UY","2018/10/08 18:29:17","新北市汐止區南昌街31號","121.663138333333","25.0691766666667","6501100","汐止區"
"221015","131-UY","2018/10/08 18:29:07","新北市汐止區鄉友街44號","121.669005","25.08159","6501100","汐止區"
"221010","269-BY","2018/10/08 18:29:07","新北市汐止區瑞松街10號","121.645198333333","25.10481","6501100","汐止區"
"221012","278-VK","2018/10/08 18:29:07","新北市汐止區保長路35巷15弄6號","121.673155","25.0802333333333","6501100","汐止區"
"221023","279-VK","2018/10/08 18:29:03","新北市汐止區康寧街399號","121.629731666667","25.0678433333333","6501100","汐止區"
"221032","280-BY","2018/10/08 18:29:09","新北市汐止區福山街60巷1號","121.617761666667","25.0466616666667","6501100","汐止區"
"221027","281-BY","2018/10/08 18:29:06","新北市汐止區和平街46巷24號","121.662613333333","25.0721666666667","6501100","汐止區"
"221029","298-VK","2018/10/08 18:29:20","新北市汐止區連峰街1巷5號","121.645895","25.075995","6501100","汐止區"
"221021","299-VK","2018/10/08 18:29:17","新北市汐止區新台五路一段162號","121.654375","25.0625266666667","6501100","汐止區"
"221031","353-TW","2018/10/08 18:29:11","新北市汐止區光復街7巷7號","121.639413333333","25.0588566666667","6501100","汐止區"
"221035","622-UM","2018/10/08 18:29:23","新北市汐止區大同路二段163號","121.651181666667","25.064635","6501100","汐止區"
"221025","623-UM","2018/10/08 18:29:17","新北市汐止區仁愛路119巷1號","121.662483333333","25.063605","6501100","汐止區"
"221038","646-BX","2018/10/08 18:29:17","新北市汐止區新昌路85號","121.664048333333","25.06916","6501100","汐止區"
"221002","707-TV","2018/10/08 18:29:17","新北市汐止區福德一路153號","121.636485","25.066645","6501100","汐止區"
"221018","753-BX","2018/10/08 18:29:23","新北市汐止區茄苳路128巷2號","121.668275","25.0702583333333","6501100","汐止區"
"220082","610-BX","2018/10/08 18:29:06","新北市板橋區華東街1-9號","121.448243333333","24.9949216666667","6500100","板橋區"
"220071","283-VK","2018/10/08 18:29:25","新北市板橋區華東街1-9號","121.448113333333","24.9948783333333","6500100","板橋區"
"220083","286-VK","2018/10/08 18:29:10","新北市板橋區華東街1-10號","121.448376666667","24.99508","6500100","板橋區"
"220084","296-UM","2018/10/08 18:29:07","新北市板橋區華東街1-9號","121.448143333333","24.9949333333333","6500100","板橋區"
"220057","686-BX","2018/10/08 18:29:21","新北市板橋區華東街1-9號","121.448198333333","24.994935","6500100","板橋區"
"220077","687-BX","2018/10/08 18:29:09","新北市板橋區華東街1-10號","121.448366666667","24.9949783333333","6500100","板橋區"
"220054","741-BX","2018/10/08 18:29:13","新北市板橋區華東街1-9號","121.448085","24.99491","6500100","板橋區"
"220064","806-UM","2018/10/08 18:29:18","新北市板橋區華東街1-10號","121.44854","24.9949066666667","6500100","板橋區"
"220074","895-R6","2018/10/08 18:29:14","新北市板橋區華東街1-9號","121.448183333333","24.9949833333333","6500100","板橋區"
"235068","KEA-2873","2018/10/08 18:29:13","新北市中和區中正路395號","121.48958","24.9935166666667","6500300","中和區"
"235061","KEA-2875","2018/10/08 18:29:14","新北市中和區民享街88巷16號","121.47379","25.0005016666667","6500300","中和區"
