"lineid","car","time","location","longitude","latitude","cityid","cityname"
"234046","148-BY","2018/10/08 18:49:12","新北市永和區秀朗路二段126巷28號","121.52471","25.0010116666667","6500400","永和區"
"234007","207-UY","2018/10/08 18:49:17","新北市永和區文化路48號","121.514681666667","25.0151733333333","6500400","永和區"
"234081","298-R6","2018/10/08 18:49:20","新北市永和區永利路112號","121.521335","25.00324","6500400","永和區"
"234038","336-UY","2018/10/08 18:49:20","新北市永和區成功路一段70號","121.526885","25.0036133333333","6500400","永和區"
"234064","337-UY","2018/10/08 18:49:12","新北市永和區福和路1號","121.525608333333","25.0094933333333","6500400","永和區"
"234086","338-UY","2018/10/08 18:49:03","新北市永和區中正路39-1號","121.514386666667","24.99604","6500400","永和區"
"234070","552-UM","2018/10/08 18:49:21","新北市永和區竹林路96巷7號","121.519155","25.0120716666667","6500400","永和區"
"234017","745-BX","2018/10/08 18:49:08","新北市永和區永和路二段299號","121.515975","25.0163383333333","6500400","永和區"
"234030","746-BX","2018/10/08 18:49:07","新北市永和區得和路327號","121.523473333333","24.9996533333333","6500400","永和區"
"234054","KEA-2590","2018/10/08 18:49:15","新北市永和區豫溪街215巷25號","121.523565","25.0103783333333","6500400","永和區"
"234013","KEA-2591","2018/10/08 18:49:07","新北市永和區仁愛路202巷42號","121.508898333333","25.0133333333333","6500400","永和區"
"234061","AAD-866","2018/10/08 18:49:20","新北市永和區福和路311-1號","121.516228333333","25.00694","6500400","永和區"
"234042","862-TW","2018/10/08 18:49:17","新北市永和區永貞路308號","121.511853333333","25.0048833333333","6500400","永和區"
"234050","863-TW","2018/10/08 18:49:16","新北市永和區環河東路二段56號","121.523601666667","25.0115683333333","6500400","永和區"
"234026","9371-KE","2018/10/08 18:49:10","新北市永和區秀朗路一段10巷19號","121.513495","25.00618","6500400","永和區"
"234011","9373-KE","2018/10/08 18:49:09","新北市永和區文化路124號","121.513088333333","25.0154066666667","6500400","永和區"
"249005","172-UM","2018/10/08 18:49:24","新北市八里區長道坑16-1號","121.395463333333","25.117015","6502300","八里區"
"249001","173-UM","2018/10/08 18:49:13","新北市八里區龍米路二段16號","121.448961666667","25.13912","6502300","八里區"
"248016","026-BX","2018/10/08 18:49:05","新北市五股區凌雲路一段149巷42號","121.44859","25.100905","6501500","五股區"
"248006","077-UY","2018/10/08 18:49:08","新北市五股區四維路38號","121.46724","25.0716183333333","6501500","五股區"
"248008","095-VK","2018/10/08 18:49:17","新北市五股區中興路一段128巷15號","121.465446666667","25.07434","6501500","五股區"
"248019","225-UY","2018/10/08 18:49:20","新北市五股區民義路二段66-3號","121.406061666667","25.108675","6501500","五股區"
"248012","247-BX","2018/10/08 18:49:07","新北市五股區成泰路二段147巷5-17號","121.437076666667","25.0883966666667","6501500","五股區"
"248014","261-SL","2018/10/08 18:49:13","新北市五股區民義路一段107巷21號","121.432921666667","25.0850683333333","6501500","五股區"
"248004","677-BX","2018/10/08 18:49:08","新北市五股區民義路二段89號","121.408243333333","25.1062033333333","6501500","五股區"
"248002","678-BX","2018/10/08 18:49:07","新北市五股區成泰路三段437號","121.449831666667","25.097915","6501500","五股區"
"248010","682-TV","2018/10/08 18:49:23","新北市五股區水碓五路81號","121.429956666667","25.0719266666667","6501500","五股區"
"234023","9380-KE","2018/10/08 18:49:04","新北市永和區竹林路119巷45號","121.521975","25.0118966666667","6500400","永和區"
"234077","969-R7","2018/10/08 18:49:07","新北市永和區中正路2巷29弄13號","121.513693333333","24.9941","6500400","永和區"
"234067","AAC-212","2018/10/08 18:49:24","新北市永和區永和路一段36號","121.513065","25.00512","6500400","永和區"
"234003","AAC-295","2018/10/08 18:49:11","新北市永和區中正路613號","121.51629","25.00975","6500400","永和區"
"232011","375-UM","2018/10/08 18:49:12","新北市坪林區坪林街81號","121.711636666667","24.9369333333333","6502000","坪林區"
"244023","069-UM","2018/10/08 18:49:23","新北市林口區中山路555號","121.380776666667","25.081075","6501700","林口區"
"244019","403-UM","2018/10/08 18:49:14","新北市林口區麗園二街76號","121.382066666667","25.0679866666667","6501700","林口區"
"244013","KEA-2802","2018/10/08 18:49:10","新北市林口區麗園一街6巷6-2號","121.375395","25.0704783333333","6501700","林口區"
"244017","485-VK","2018/10/08 18:49:09","新北市林口區文化二路一段68巷14號","121.36616","25.0684183333333","6501700","林口區"
"244009","656-BX","2018/10/08 18:49:17","新北市林口區竹林路446號","121.388351666667","25.085315","6501700","林口區"
"244011","701-TV","2018/10/08 18:49:17","新北市林口區中正路41巷13號","121.395611666667","25.0766316666667","6501700","林口區"
"244025","837-TS","2018/10/08 18:49:22","新北市林口區文化北路一段472號","121.365743333333","25.07738","6501700","林口區"
"243013","AAD-798","2018/10/08 18:28:34","新北市泰山區明志路三段206巷3號","121.423306666667","25.037925","6501600","泰山區"
"243009","297-R6","2018/10/08 18:49:18","新北市泰山區黎明路25號","121.421793333333","25.0608466666667","6501600","泰山區"
"243016","KEA-2801","2018/10/08 18:49:18","新北市泰山區明志路二段137號","121.427603333333","25.05073","6501600","泰山區"
"243015","421-VK","2018/10/08 18:49:16","新北市泰山區美寧街57巷36號","121.429201666667","25.065185","6501600","泰山區"
"243012","646-TV","2018/10/08 18:49:19","新北市泰山區福興街22號","121.434238333333","25.057685","6501600","泰山區"
"243014","680-BX","2018/10/08 18:49:07","新北市泰山區黎明路25號","121.422195","25.060675","6501600","泰山區"
"222003","436-BY","2018/10/08 18:49:11","新北市深坑區深南路51-1號","121.62136","25.0102316666667","6501800","深坑區"
"222002","659-BX","2018/10/08 18:49:14","新北市深坑區文山路一段69號","121.626943333333","25.0018683333333","6501800","深坑區"
"231059","001-UM","2018/10/08 18:49:12","新北市新店區安華路28-1號","121.519508333333","24.96096","6500600","新店區"
"231041","002-UM","2018/10/08 18:49:16","新北市新店區安華路28-1號","121.519526666667","24.960795","6500600","新店區"
"231040","047-UY","2018/10/08 18:49:19","新北市新店區環河路29巷1號","121.536263333333","24.9611666666667","6500600","新店區"
"231044","106-UY","2018/10/08 18:49:11","新北市新店區寶中路72號","121.547928333333","24.9805483333333","6500600","新店區"
"231046","107-UY","2018/10/08 18:49:08","新北市新店區直潭路41號","121.533685","24.9425966666667","6500600","新店區"
"231047","187-VK","2018/10/08 18:49:11","新北市新店區北新路一段89號","121.53853","24.96169","6500600","新店區"
"231062","188-VK","2018/10/08 18:49:14","新北市新店區安一路一段1-1號","121.519278333333","24.96143","6500600","新店區"
"231052","189-VK","2018/10/08 18:49:11","新北市新店區新烏路一段127-1號","121.546856666667","24.9367466666667","6500600","新店區"
"231054","KEA-2219","2018/10/08 18:49:16","新北市新店區環河路2號","121.53848","24.9617466666667","6500600","新店區"
"231042","268-BY","2018/10/08 18:49:21","新北市新店區安康路一段96號","121.527575","24.9622766666667","6500600","新店區"
"231051","278-BY","2018/10/08 18:49:09","新北市新店區中央路69號","121.532425","24.976875","6500600","新店區"
"231050","AAD-862","2018/10/08 18:49:21","新北市新店區安康路一段44號","121.530773333333","24.9610083333333","6500600","新店區"
"231058","3713-VJ","2018/10/08 18:49:23","新北市新店區北宜路一段108號","121.53914","24.9553033333333","6500600","新店區"
"231066","4716-K9","2018/10/08 18:49:20","新北市新店區安一路一段1-1號","121.519401666667","24.9613","6500600","新店區"
"231056","4715-K9","2018/10/08 18:49:21","新北市新店區大同街44號","121.538703333333","24.9808016666667","6500600","新店區"
"231067","4772-VM","2018/10/08 18:49:15","新北市新店區安華路28-1號","121.519041666667","24.9606283333333","6500600","新店區"
"231065","512-UM","2018/10/08 18:49:12","新北市新店區安忠路205巷8號","121.508555","24.95468","6500600","新店區"
"231049","513-UM","2018/10/08 18:49:11","新北市新店區環河路113-1號","121.530833333333","24.9713516666667","6500600","新店區"
"231063","616-UM","2018/10/08 18:49:09","新北市新店區安華路28-1號","121.519415","24.9605566666667","6500600","新店區"
"231045","617-UM","2018/10/08 18:49:14","新北市新店區安一路一段1-1號","121.519701666667","24.9615866666667","6500600","新店區"
"231061","619-UM","2018/10/08 18:49:07","新北市新店區安華路28-1號","121.519566666667","24.96095","6500600","新店區"
"231064","719-UM","2018/10/08 18:49:11","新北市新店區安一路一段1-1號","121.519565","24.96148","6500600","新店區"
"231060","897-TW","2018/10/08 18:49:12","新北市新店區安華路28-1號","121.519545","24.9608733333333","6500600","新店區"
"231043","899-TW","2018/10/08 18:49:09","新北市新店區安康路一段355-10號","121.52085","24.963825","6500600","新店區"
"231055","AKT-0513","2018/10/08 18:49:22","新北市新店區北新路一段271巷26號","121.540113333333","24.9672333333333","6500600","新店區"
"251014","742-BX","2018/10/08 18:49:26","新北市淡水區崙頂4-1號","121.493701666667","25.224045","6501000","淡水區"
"241035","462-BY","2018/10/08 18:49:26","新北市三重區重新路四段121號","121.484488333333","25.05222","6500200","三重區"
"235066","003-UY","2018/10/08 18:49:07","新北市中和區水源路18巷4弄11號","121.503938333333","25.00288","6500300","中和區"
"235064","005-UY","2018/10/08 18:49:11","新北市中和區連城路75巷2-11號","121.497701666667","24.9993983333333","6500300","中和區"
"235063","006-UY","2018/10/08 18:49:06","新北市中和區錦和路91-1號","121.489985","24.995715","6500300","中和區"
"235056","096-UM","2018/10/08 18:49:22","新北市中和區員山路524號","121.478838333333","25.0096616666667","6500300","中和區"
"235039","097-UM","2018/10/08 18:49:19","新北市中和區安樂路217巷58號","121.51313","24.9977183333333","6500300","中和區"
"235065","098-UM","2018/10/08 18:49:16","新北市中和區中山路二段2巷45弄14號","121.501901666667","25.0068533333333","6500300","中和區"
"235040","150-BY","2018/10/08 18:49:13","新北市中和區安平路36巷5號","121.510275","24.994885","6500300","中和區"
"235058","151-BY","2018/10/08 18:49:07","新北市中和區連城路532巷3-1號","121.475446666667","24.99183","6500300","中和區"
"235055","183-VK","2018/10/08 18:49:03","新北市中和區民生街57號","121.469456666667","25.0050733333333","6500300","中和區"
"235038","185-VK","2018/10/08 18:49:23","新北市中和區大仁街40號","121.518036666667","24.9939833333333","6500300","中和區"
"235049","186-VK","2018/10/08 18:49:11","新北市中和區景安路132巷16號","121.504226666667","24.9942216666667","6500300","中和區"
"235067","255-BX","2018/10/08 18:49:18","新北市中和區中山路二段449巷1弄11號","121.48399","25.0039766666667","6500300","中和區"
"235044","293-VK","2018/10/08 18:49:12","新北市中和區中興街154號","121.499873333333","24.99188","6500300","中和區"
"235072","301-VK","2018/10/08 18:49:12","新北市永和區中山路一段331號","121.506021666667","25.00625","6500300","中和區"
"235043","352-BY","2018/10/08 18:49:11","新北市中和區景平路2-1號","121.525556666667","24.99042","6500300","中和區"
"235042","KEA-2878","2018/10/08 18:49:05","新北市中和區秀朗路三段70巷52號","121.524981666667","24.9943416666667","6500300","中和區"
"247012","KEA-2869","2018/10/08 18:48:40","新北市八里區荖阡坑路28-2號","121.402766666667","25.1280633333333","6501400","蘆洲區"
"235050","4979-A6","2018/10/08 18:49:12","新北市中和區忠孝街62巷9弄12號","121.513085","24.9840133333333","6500300","中和區"
"235069","4980-A6","2018/10/08 18:49:19","新北市中和區中和路139號","121.501953333333","24.9998583333333","6500300","中和區"
"235070","558-UM","2018/10/08 18:49:08","新北市中和區中和路163號","121.502845","24.999835","6500300","中和區"
"235045","565-BX","2018/10/08 18:49:10","新北市中和區捷運路129號","121.507041666667","24.9908633333333","6500300","中和區"
"235054","640-BX","2018/10/08 18:49:15","新北市中和區莒光路129巷1弄8-4號","121.473053333333","25.0022066666667","6500300","中和區"
"235046","733-UM","2018/10/08 18:49:14","新北市中和區仁愛街36巷55號","121.511453333333","24.9862533333333","6500300","中和區"
"235062","800-TS","2018/10/08 18:49:23","新北市中和區中山路二段312巷45弄1號","121.494866666667","25.0045483333333","6500300","中和區"
"235057","801-TS","2018/10/08 18:49:04","新北市中和區民安街25巷2弄1號","121.480518333333","25.0002616666667","6500300","中和區"
"235041","802-TS","2018/10/08 18:49:22","新北市中和區宜安路118巷24號","121.51095","24.9987516666667","6500300","中和區"
"235052","805-TS","2018/10/08 18:49:06","新北市中和區興南路二段399巷98-1號","121.500101666667","24.9775583333333","6500300","中和區"
"235048","896-TW","2018/10/08 18:49:05","新北市中和區興南路二段49-6號","121.507376666667","24.9852466666667","6500300","中和區"
"235053","900-TW","2018/10/08 18:49:15","新北市中和區華福街44號","121.466445","24.9965916666667","6500300","中和區"
"235060","911-UM","2018/10/08 18:49:07","新北市中和區中山路三段210號","121.471461666667","25.006445","6500300","中和區"
"235051","157-BY","2018/10/08 18:49:21","新北市中和區忠孝街106巷22號","121.512791666667","24.98436","6500300","中和區"
"235037","AAC-213","2018/10/08 18:49:18","新北市中和區秀朗路三段128巷1弄2號","121.524581666667","24.9923683333333","6500300","中和區"
"235059","AAC-215","2018/10/08 18:49:22","新北市中和區圓通路393巷16號","121.489786666667","24.98864","6500300","中和區"
"220035","015-TV","2018/10/08 18:49:15","新北市板橋區中正路275巷68號","121.45274","25.017895","6500100","板橋區"
"220065","072-UY","2018/10/08 18:49:13","新北市板橋區民族路151巷52號","121.470146666667","25.00843","6500100","板橋區"
"220086","073-UY","2018/10/08 18:49:15","新北市板橋區大智街71巷28弄2號","121.453071666667","25.0146516666667","6500100","板橋區"
"220106","075-UY","2018/10/08 18:49:11","新北市板橋區民生路二段161巷9號","121.470276666667","25.0196533333333","6500100","板橋區"
"220069","AAD-861","2018/10/08 18:49:04","新北市板橋區南雅南路一段1巷35號","121.457731666667","25.0064283333333","6500100","板橋區"
"226004","312-R5","2018/10/08 18:48:35","新北市平溪區平溪里三坑路49-1號","121.731406666667","25.0337616666667","6502400","平溪區"
"235047","251-BX","2018/10/08 18:49:09","新北市中和區興南路二段34巷56弄2號","121.504898333333","24.9853366666667","6500300","中和區"
"228003","097-TW","2018/10/08 18:49:10","新北市貢寮區和美里龍洞街35-2號","121.916783333333","25.11171","6502600","貢寮區"
"228002","663-BX","2018/10/08 18:49:12","新北市貢寮區福隆里東興街6-11號","121.950765","25.0210683333333","6502600","貢寮區"
"228001","670-TC","2018/10/08 18:49:06","新北市貢寮區仁理村研海街12-1號","121.923818333333","25.05173","6502600","貢寮區"
"224010","AGQ-8101","2018/10/08 18:46:28","新北市瑞芳區烏勢巷145號","121.847986666667","25.109325","6501200","瑞芳區"
"224006","676-BX","2018/10/08 18:49:23","新北市瑞芳區中正路63-1號","121.806241666667","25.1074466666667","6501200","瑞芳區"
"224002","639-TC","2018/10/08 18:49:13","新北市瑞芳區八分寮路12號","121.795666666667","25.09005","6501200","瑞芳區"
"224008","285-BY","2018/10/08 18:49:19","新北市瑞芳區逢甲路277號","121.801526666667","25.111945","6501200","瑞芳區"
"224007","275-VK","2018/10/08 18:49:06","新北市瑞芳區大埔路東泰新村2號","121.761288333333","25.101205","6501200","瑞芳區"
"224009","273-VK","2018/10/08 18:49:14","新北市瑞芳區洞頂路148號","121.857878333333","25.1169233333333","6501200","瑞芳區"
"224005","271-BY","2018/10/08 18:49:03","新北市瑞芳區瑞濱路1-8號","121.828355","25.1215566666667","6501200","瑞芳區"
"227001","642-TC","2018/10/08 18:49:24","新北市雙溪區平林里梅竹蹊28號","121.861623333333","25.0360316666667","6502500","雙溪區"
"227008","400-TW","2018/10/08 18:49:02","新北市雙溪區牡丹里聖南31-1號","121.855538333333","25.05432","6502500","雙溪區"
"253006","032-BX","2018/10/08 18:49:19","新北市石門區下員坑15號","121.511626666667","25.2849716666667","6502200","石門區"
"253005","295-VK","2018/10/08 18:49:05","新北市石門區中山路28-3號","121.565693333333","25.2898433333333","6502200","石門區"
"222001","KEA-2212","2018/10/08 18:49:15","新北市深坑區松柏街30巷2號","121.638645","25.0112366666667","6501800","深坑區"
"208002","KEA-2872","2018/10/08 18:49:22","新北市金山區仁愛路37-10號","121.63606","25.2191733333333","6502700","金山區"
"208003","665-BX","2018/10/08 18:49:06","新北市金山區中山路346號","121.633411666667","25.2253316666667","6502700","金山區"
"208001","761-BX","2018/10/08 18:49:15","新北市金山區文化三路66巷1號","121.634161666667","25.2256366666667","6502700","金山區"
"251005","010-UM","2018/10/08 18:49:07","新北市淡水區中正路18巷6號","121.43763","25.172815","6501000","淡水區"
"251001","011-UM","2018/10/08 18:49:04","新北市淡水區自強路108-1號","121.461755","25.1306166666667","6501000","淡水區"
"251013","KEA-2871","2018/10/08 18:49:08","新北市淡水區小坑子頭2-1號","121.482428333333","25.212815","6501000","淡水區"
"251016","179-VK","2018/10/08 18:48:51","新北市淡水區下圭柔山71-3號","121.447005","25.2061983333333","6501000","淡水區"
"251015","180-VK","2018/10/08 18:49:09","新北市淡水區興福寮88巷1-10號","121.487238333333","25.16644","6501000","淡水區"
"251008","181-VK","2018/10/08 18:49:12","新北市淡水區崁頂78-5號","121.429303333333","25.207305","6501000","淡水區"
"251010","413-VK","2018/10/08 18:49:18","新北市淡水區沙崙路9號","121.421075","25.1812366666667","6501000","淡水區"
"251012","441-VK","2018/10/08 18:49:21","新北市淡水區中山北路一段245號","121.444553333333","25.180225","6501000","淡水區"
"251007","442-VK","2018/10/08 18:49:14","新北市淡水區中正東路二段143巷2弄1號","121.460975","25.1472916666667","6501000","淡水區"
"251004","443-VK","2018/10/08 18:49:06","新北市淡水區民權路41號","121.459851666667","25.140295","6501000","淡水區"
"251009","575-R6","2018/10/08 18:49:20","新北市淡水區重建街218號","121.441271666667","25.1748316666667","6501000","淡水區"
"251011","650-BX","2018/10/08 18:49:23","新北市淡水區學府路53號","121.447991666667","25.1693183333333","6501000","淡水區"
"251002","672-BX","2018/10/08 18:49:15","新北市淡水區學府路67號","121.448313333333","25.1697416666667","6501000","淡水區"
"251003","766-UM","2018/10/08 18:49:14","新北市淡水區中山北路一段186巷27弄1-1號","121.446315","25.1787216666667","6501000","淡水區"
"207003","681-TV","2018/10/08 18:49:14","新北市萬里區野柳里八斗60號","121.660376666667","25.2072283333333","6502800","萬里區"
"207004","225-TW","2018/10/08 18:49:19","新北市萬里區萬里里獅頭路23號","121.69323","25.1782916666667","6502800","萬里區"
"252002","178-VK","2018/10/08 18:49:07","新北市三芝區中正路一段112號","121.50483","25.25638","6502100","三芝區"
"252003","249-BX","2018/10/08 18:49:10","新北市三芝區後厝里大片頭76號","121.459245","25.2456933333333","6502100","三芝區"
"252001","292-VK","2018/10/08 18:49:22","新北市三芝區中正路三段9號","121.502913333333","25.2539466666667","6502100","三芝區"
"237004","KEA-2597","2018/10/08 18:49:20","新北市三峽區插角117號","121.408483333333","24.8703933333333","6500900","三峽區"
"237007","153-BY","2018/10/08 18:49:19","新北市三峽區中正路二段409號","121.363335","24.9069916666667","6500900","三峽區"
"237013","252-BX","2018/10/08 18:49:09","新北市三峽區光明路69巷25號","121.376586666667","24.9291833333333","6500900","三峽區"
"237012","275-BY","2018/10/08 18:49:06","新北市三峽區三樹路360號","121.383636666667","24.9435833333333","6500900","三峽區"
"237008","302-VK","2018/10/08 18:49:17","新北市三峽區白雞33-51號","121.370371666667","24.9129516666667","6500900","三峽區"
"237014","433-BY","2018/10/08 18:49:09","新北市三峽區復興路480巷50號","121.360213333333","24.9403","6500900","三峽區"
"237006","5529-G3","2018/10/08 18:49:12","新北市三峽區溪東路315巷37號","121.411978333333","24.9309066666667","6500900","三峽區"
"237011","KEA-2596","2018/10/08 18:49:10","新北市三峽區溪東路187號","121.403846666667","24.933755","6500900","三峽區"
"237015","649-BX","2018/10/08 18:49:21","新北市三峽區安坑13-3號","121.443215","24.9264216666667","6500900","三峽區"
"237010","706-TV","2018/10/08 18:49:21","新北市三峽區復興路449號","121.362618333333","24.9384716666667","6500900","三峽區"
"237005","AKY-6261","2018/10/08 18:49:10","新北市三峽區中山路110號","121.365808333333","24.9356733333333","6500900","三峽區"
"236069","105-UM","2018/10/08 18:49:23","新北市土城區永豐路192號","121.466271666667","24.9837916666667","6501300","土城區"
"236042","107-UM","2018/10/08 18:49:05","新北市土城區裕民路138號","121.451551666667","24.986135","6501300","土城區"
"236078","166-UM","2018/10/08 18:49:12","新北市土城區中央路四段185巷46號","121.416178333333","24.9558433333333","6501300","土城區"
"236030","253-BX","2018/10/08 18:49:22","新北市土城區忠義路26巷19號","121.43986","24.9698416666667","6501300","土城區"
"236026","269-VK","2018/10/08 18:49:21","新北市土城區興城路48號","121.441348333333","24.9726316666667","6501300","土城區"
"236014","270-VK","2018/10/08 18:49:14","新北市土城區金城路二段354巷4號","121.460961666667","24.984955","6501300","土城區"
"236039","271-VK","2018/10/08 18:49:19","新北市土城區仁愛路48-10號","121.462141666667","24.9788516666667","6501300","土城區"
"236020","401-BY","2018/10/08 18:49:07","新北市土城區延吉街253巷17號","121.467993333333","24.98417","6501300","土城區"
"236059","912-UM","2018/10/08 18:49:21","新北市土城區金城路二段8-1號","121.44901","24.9771033333333","6501300","土城區"
"236048","913-UM","2018/10/08 18:49:22","新北市土城區青雲路8-2號","121.460221666667","24.9891283333333","6501300","土城區"
"236063","915-UM","2018/10/08 18:49:16","新北市土城區延和路256號","121.469925","24.98943","6501300","土城區"
"236055","AAC-216","2018/10/08 18:49:18","新北市土城區裕民路198號","121.45315","24.984815","6501300","土城區"
"242058","986-R7","2018/10/08 18:49:08","新北市新莊區中正路692-8號","121.419913333333","25.0284033333333","6500500","新莊區"
"242053","441-UM","2018/10/08 18:49:11","新北市樹林區中山路三段214號","121.379768333333","24.9676133333333","6500500","新莊區"
"238023","601-UM","2018/10/08 18:49:09","新北市樹林區工興街14巷1號","121.398938333333","25.0136183333333","6500700","樹林區"
"238019","599-UM","2018/10/08 18:49:16","新北市樹林區中華路190-16號","121.411706666667","24.980575","6500700","樹林區"
"238018","571-TV","2018/10/08 18:46:25","新北市樹林區太平路48號","121.418985","24.9825183333333","6500700","樹林區"
"238024","5061-A6","2018/10/08 18:49:18","新北市樹林區太平路235-1號","121.419095","24.974075","6500700","樹林區"
"238022","KEA-2213","2018/10/08 18:49:22","新北市樹林區東大街1-5號","121.413351666667","24.9764683333333","6500700","樹林區"
"238021","KEA-2539","2018/10/08 18:49:05","新北市樹林區西圳街二段30號","121.388628333333","24.96179","6500700","樹林區"
"238025","303-VK","2018/10/08 18:49:15","新北市樹林區中山路三段22號","121.3956","24.9729316666667","6500700","樹林區"
"238014","282-BY","2018/10/08 18:49:12","新北市樹林區大安路586號","121.411745","24.983525","6500700","樹林區"
"238020","268-VK","2018/10/08 18:49:21","新北市樹林區俊英街280號","121.423841666667","25.013115","6500700","樹林區"
"238026","172-UY","2018/10/08 18:49:18","新北市樹林區信和街90號","121.38889","24.973355","6500700","樹林區"
"238016","169-UY","2018/10/08 18:49:09","新北市樹林區文化街23號","121.419265","24.987645","6500700","樹林區"
"239007","AAC-297","2018/10/08 18:49:02","新北市鶯歌區成功街20巷19號","121.359236666667","24.9577833333333","6500800","鶯歌區"
"239006","891-R6","2018/10/08 18:49:22","新北市鶯歌區中山路292號","121.343791666667","24.95701","6500800","鶯歌區"
"239008","527-UM","2018/10/08 18:49:19","新北市鶯歌區國際一路179號","121.336211666667","24.9765033333333","6500800","鶯歌區"
"239005","526-UM","2018/10/08 18:49:19","新北市鶯歌區鳳吉二街113號","121.329065","24.97515","6500800","鶯歌區"
"239001","417-VK","2018/10/08 18:49:20","新北市鶯歌區尖山埔路二段23號","121.342473333333","24.9490333333333","6500800","鶯歌區"
"239003","360-BY","2018/10/08 18:49:09","新北市鶯歌區鶯桃路660號","121.329178333333","24.9692316666667","6500800","鶯歌區"
"239002","359-BY","2018/10/08 18:49:16","新北市鶯歌區中山路194號","121.348058333333","24.9570766666667","6500800","鶯歌區"
"239004","193-VK","2018/10/08 18:48:51","新北市鶯歌區中正三路156巷8-10號","121.332431666667","24.941055","6500800","鶯歌區"
"221008","489-VK","2018/10/08 18:49:21","新北市汐止區康寧街901號","121.651341666667","25.0750066666667","6501100","汐止區"
"221036","130-UY","2018/10/08 18:49:16","新北市汐止區忠孝東路314巷15號","121.664506666667","25.068685","6501100","汐止區"
"221015","131-UY","2018/10/08 18:49:07","新北市汐止區鄉長路一段275號","121.668355","25.0786433333333","6501100","汐止區"
"221010","269-BY","2018/10/08 18:49:07","新北市汐止區康寧街901號","121.65172","25.0749033333333","6501100","汐止區"
"221012","278-VK","2018/10/08 18:49:07","新北市汐止區汐萬路一段256巷3號","121.652653333333","25.0744733333333","6501100","汐止區"
"221023","279-VK","2018/10/08 18:49:23","新北市汐止區伯爵街1巷12號","121.641378333333","25.0751333333333","6501100","汐止區"
"221032","280-BY","2018/10/08 18:49:09","新北市汐止區橫科路322巷24弄6-1號","121.620296666667","25.0502033333333","6501100","汐止區"
"221027","281-BY","2018/10/08 18:49:06","新北市汐止區汐萬路一段256巷3號","121.652485","25.0746","6501100","汐止區"
"221029","298-VK","2018/10/08 18:49:20","新北市汐止區工建路62號","121.64062","25.0630866666667","6501100","汐止區"
"221021","299-VK","2018/10/08 18:49:17","新北市汐止區汐萬路一段208號","121.652083333333","25.0723266666667","6501100","汐止區"
"221031","353-TW","2018/10/08 18:49:11","新北市汐止區福德一路300巷31號","121.630475","25.06426","6501100","汐止區"
"221035","622-UM","2018/10/08 18:49:03","新北市汐止區水源路一段2號","121.65697","25.0671783333333","6501100","汐止區"
"221025","623-UM","2018/10/08 18:49:17","新北市汐止區仁愛路113巷7號","121.662116666667","25.06374","6501100","汐止區"
"221038","646-BX","2018/10/08 18:49:17","新北市汐止區汐萬路一段256巷3號","121.653333333333","25.0746566666667","6501100","汐止區"
"221002","707-TV","2018/10/08 18:49:17","新北市汐止區大同路一段89號","121.623745","25.0548533333333","6501100","汐止區"
"221018","753-BX","2018/10/08 18:49:22","新北市汐止區茄苳路277號","121.67237","25.0680216666667","6501100","汐止區"
"220079","145-BY","2018/10/08 18:49:17","新北市板橋區民權路202巷7弄2號","121.460036666667","25.0147816666667","6500100","板橋區"
"220080","200-UY","2018/10/08 18:49:18","新北市板橋區大觀路二段265巷60弄23號","121.44209","24.9979133333333","6500100","板橋區"
"220082","610-BX","2018/10/08 18:49:06","新北市板橋區篤行路三段95號","121.426413333333","24.9847916666667","6500100","板橋區"
"220101","245-BX","2018/10/08 18:49:24","新北市板橋區民生路二段120號","121.470385","25.0198883333333","6500100","板橋區"
"220056","276-BY","2018/10/08 18:49:09","新北市板橋區信義路65號","121.457085","24.995555","6500100","板橋區"
"220072","277-BY","2018/10/08 18:49:20","新北市板橋區大觀路三段36巷4號","121.433825","24.9958516666667","6500100","板橋區"
"220094","283-UM","2018/10/08 18:49:13","新北市板橋區莊敬路208巷8弄9號","121.47048","25.0202933333333","6500100","板橋區"
"220071","283-VK","2018/10/08 18:49:05","新北市板橋區忠孝路176巷23號","121.465263333333","25.001745","6500100","板橋區"
"220083","286-VK","2018/10/08 18:49:10","新北市板橋區僑中二街156號","121.444763333333","25.0041183333333","6500100","板橋區"
"220081","287-VK","2018/10/08 18:49:17","新北市板橋區光華街13巷26號","121.453446666667","25.011435","6500100","板橋區"
"220090","288-VK","2018/10/08 18:49:08","新北市板橋區民生路二段161巷9號","121.470275","25.01969","6500100","板橋區"
"220061","293-UM","2018/10/08 18:49:23","新北市板橋區民生路二段56-6號","121.470841666667","25.0186066666667","6500100","板橋區"
"220053","295-UM","2018/10/08 18:49:16","新北市板橋區介壽街119號","121.470461666667","25.0185683333333","6500100","板橋區"
"220084","296-UM","2018/10/08 18:49:18","新北市板橋區大觀路二段150巷57-1號","121.441533333333","25.0001933333333","6500100","板橋區"
"220075","303-R5","2018/10/08 18:49:20","新北市板橋區南興路56-2號","121.45433","25.0072833333333","6500100","板橋區"
"220062","305-R5","2018/10/08 18:49:08","新北市板橋區中山路二段23號","121.472401666667","25.01524","6500100","板橋區"
"220089","487-VK","2018/10/08 18:48:56","新北市板橋區民生路二段161巷1號","121.47019","25.020065","6500100","板橋區"
"220088","491-VK","2018/10/08 18:49:20","新北市板橋區民生路二段175號","121.469855","25.0201983333333","6500100","板橋區"
"220103","561-BX","2018/10/08 18:49:16","新北市板橋區民生路二段89-6號","121.470851666667","25.0192583333333","6500100","板橋區"
"220063","609-BX","2018/10/08 18:49:09","新北市板橋區民生路二段123號","121.47062","25.0184983333333","6500100","板橋區"
"220057","686-BX","2018/10/08 18:49:21","新北市板橋區南雅南路一段1巷35號","121.457648333333","25.0064683333333","6500100","板橋區"
"220077","687-BX","2018/10/08 18:49:09","新北市板橋區龍興街103巷1號","121.444461666667","25.0033016666667","6500100","板橋區"
"220093","689-BX","2018/10/08 18:49:18","新北市板橋區民生路二段161巷1號","121.470283333333","25.0199266666667","6500100","板橋區"
"220054","741-BX","2018/10/08 18:49:22","新北市板橋區館前東路26-4號","121.460451666667","25.0071183333333","6500100","板橋區"
"220102","KEA-2699","2018/10/08 18:49:19","新北市板橋區民生路二段161巷1號","121.470145","25.0200133333333","6500100","板橋區"
"220064","806-UM","2018/10/08 18:49:18","新北市板橋區民生路二段5號","121.47282","25.015775","6500100","板橋區"
"220055","827-TW","2018/10/08 18:49:19","新北市板橋區中山路一段160-5號","121.466136666667","25.0120216666667","6500100","板橋區"
"220067","829-TW","2018/10/08 18:49:15","新北市板橋區三民路二段正隆巷75號","121.475915","25.0129416666667","6500100","板橋區"
"220068","830-TW","2018/10/08 18:48:01","新北市板橋區三民路一段129-2號","121.479415","25.0206966666667","6500100","板橋區"
"220096","831-TW","2018/10/08 18:49:10","新北市板橋區民生路二段161巷1號","121.470058333333","25.0199983333333","6500100","板橋區"
"220074","895-R6","2018/10/08 18:49:14","新北市板橋區府中路75號","121.457606666667","25.0093683333333","6500100","板橋區"
"220073","985-R7","2018/10/08 18:49:20","新北市板橋區光華街1號","121.454195","25.0111466666667","6500100","板橋區"
"220070","AAC-253","2018/10/08 18:49:23","新北市板橋區四川路一段30號","121.459538333333","25.0061733333333","6500100","板橋區"
"235068","KEA-2873","2018/10/08 18:49:13","新北市中和區中正路211巷13弄7號","121.497126666667","24.993245","6500300","中和區"
"235061","KEA-2875","2018/10/08 18:49:15","新北市中和區民治街132巷1號","121.475281666667","25.002375","6500300","中和區"
