"lineid","car","time","location","longitude","latitude","cityid","cityname"
"234081","298-R6","2018/10/08 20:29:20","新北市永和區國中路146號","121.523093333333","25.0069416666667","6500400","永和區"
"234038","336-UY","2018/10/08 20:29:20","新北市永和區民樂街31巷19弄5號","121.528378333333","25.002165","6500400","永和區"
"234064","337-UY","2018/10/08 20:29:12","新北市永和區中正路419號","121.517106666667","25.005015","6500400","永和區"
"234086","338-UY","2018/10/08 20:29:23","新北市永和區永和路二段183號","121.515405","25.0134633333333","6500400","永和區"
"234070","552-UM","2018/10/08 20:29:21","新北市永和區永亨路49號","121.520303333333","25.0064866666667","6500400","永和區"
"234030","746-BX","2018/10/08 20:29:26","新北市永和區民族街81巷48號","121.519906666667","24.9965166666667","6500400","永和區"
"234054","KEA-2590","2018/10/08 20:29:15","新北市永和區環河東路一段64號","121.519086666667","25.0168983333333","6500400","永和區"
"234013","KEA-2591","2018/10/08 20:29:26","新北市永和區保生路55號","121.504906666667","25.0103933333333","6500400","永和區"
"234061","AAD-866","2018/10/08 20:29:20","新北市永和區安樂路194巷39弄6號","121.51635","25.0014416666667","6500400","永和區"
"234042","862-TW","2018/10/08 20:29:16","新北市永和區安樂路274號","121.514471666667","25.0042133333333","6500400","永和區"
"234050","863-TW","2018/10/08 20:29:17","新北市永和區新生路147巷2弄12號","121.5073","25.014645","6500400","永和區"
"249001","173-UM","2018/10/08 20:29:14","新北市八里區下罟子5-11號","121.386828333333","25.1422616666667","6502300","八里區"
"249004","303-UY","2018/10/08 20:29:08","新北市八里區中山路一段300號","121.413415","25.1593283333333","6502300","八里區"
"249002","305-UY","2018/10/08 20:29:20","新北市八里區龍米路二段58-1號","121.448156666667","25.141025","6502300","八里區"
"249003","593-UM","2018/10/08 20:29:18","新北市八里區華峰一街42號","121.398545","25.14635","6502300","八里區"
"248002","678-BX","2018/10/08 20:29:27","新北市五股區成泰路三段45號","121.44258","25.089135","6501500","五股區"
"234023","9380-KE","2018/10/08 20:29:24","新北市永和區博愛街32巷10號","121.518771666667","25.0155183333333","6500400","永和區"
"234074","AAC-211","2018/10/08 20:29:14","新北市永和區豫溪街191巷7弄13號","121.523416666667","25.0107616666667","6500400","永和區"
"234067","AAC-212","2018/10/08 20:29:04","新北市中和區保平路231號","121.508013333333","25.004445","6500400","永和區"
"243009","297-R6","2018/10/08 20:29:18","新北市泰山區泰林路二段438號","121.426558333333","25.0641933333333","6501600","泰山區"
"243016","KEA-2801","2018/10/08 20:29:26","新北市泰山區明志路二段201號","121.427445","25.049095","6501600","泰山區"
"243015","421-VK","2018/10/08 20:29:16","新北市泰山區泰林路二段124號","121.43453","25.059435","6501600","泰山區"
"243011","KEA-2215","2018/10/08 20:29:13","新北市泰山區台麗街2號","121.424233333333","25.0383233333333","6501600","泰山區"
"243010","KEA-2216","2018/10/08 20:29:20","新北市泰山區明志路二段237巷32號","121.428095","25.0480083333333","6501600","泰山區"
"243012","646-TV","2018/10/08 20:29:18","新北市泰山區忠孝街19巷3-1號","121.427451666667","25.0657883333333","6501600","泰山區"
"243014","680-BX","2018/10/08 20:29:07","新北市泰山區橫窠雅8-12號","121.416456666667","25.0663183333333","6501600","泰山區"
"222003","436-BY","2018/10/08 20:29:14","新北市深坑區深坑街39號","121.615585","25.0019533333333","6501800","深坑區"
"222002","659-BX","2018/10/08 20:28:54","新北市深坑區萬福路16巷36-1號","121.612253333333","25.0084766666667","6501800","深坑區"
"231059","001-UM","2018/10/08 20:29:12","新北市新店區安德街169號","121.508563333333","24.95917","6500600","新店區"
"231041","002-UM","2018/10/08 20:29:18","新北市新店區中正路508號","121.533793333333","24.98294","6500600","新店區"
"231040","047-UY","2018/10/08 20:29:19","新北市新店區中正路289號","121.537358333333","24.9745233333333","6500600","新店區"
"231044","106-UY","2018/10/08 20:29:11","新北市新店區建國路147號","121.53892","24.9788116666667","6500600","新店區"
"231047","187-VK","2018/10/08 20:29:11","新北市新店區寶慶街58巷21-1號","121.54201","24.9872416666667","6500600","新店區"
"231062","188-VK","2018/10/08 20:29:13","新北市新店區安泰路7巷16號","121.485711666667","24.95099","6500600","新店區"
"231052","189-VK","2018/10/08 20:29:10","新北市新店區松林路38號","121.546313333333","24.9102266666667","6500600","新店區"
"231054","KEA-2219","2018/10/08 20:29:16","新北市新店區檳榔路109號","121.544516666667","24.961625","6500600","新店區"
"231057","256-BX","2018/10/08 20:29:13","新北市新店區花園五路二段1號","121.553516666667","24.93413","6500600","新店區"
"231042","268-BY","2018/10/08 20:29:21","新北市新店區中興路二段239號","121.547513333333","24.97555","6500600","新店區"
"231051","278-BY","2018/10/08 20:29:09","新北市新店區中央七街40號","121.528873333333","24.975735","6500600","新店區"
"231050","AAD-862","2018/10/08 20:29:21","新北市新店區建興街9巷1號","121.539883333333","24.9763","6500600","新店區"
"231058","3713-VJ","2018/10/08 20:29:22","新北市新店區平等街48巷21號","121.535263333333","24.973475","6500600","新店區"
"231066","4716-K9","2018/10/08 20:29:20","新北市新店區安興路105-1號","121.514695","24.9777583333333","6500600","新店區"
"231056","4715-K9","2018/10/08 20:29:21","新北市新店區民生路75巷225號","121.531968333333","24.981915","6500600","新店區"
"231067","4772-VM","2018/10/08 20:29:15","新北市新店區安華路28-1號","121.519775","24.96085","6500600","新店區"
"231065","512-UM","2018/10/08 20:29:12","新北市新店區安祥路102巷42弄67號","121.486215","24.963255","6500600","新店區"
"231049","513-UM","2018/10/08 20:29:20","新北市新店區永業路81巷3弄2號","121.530038333333","24.9490566666667","6500600","新店區"
"231063","616-UM","2018/10/08 20:29:09","新北市新店區玫瑰路4-1號","121.493571666667","24.9514","6500600","新店區"
"231045","617-UM","2018/10/08 20:29:14","新北市新店區新坡一街2號","121.548278333333","24.9605533333333","6500600","新店區"
"231061","619-UM","2018/10/08 20:29:07","新北市新店區新和街36號","121.519311666667","24.9849016666667","6500600","新店區"
"231068","718-UY","2018/10/08 20:29:21","新北市新店區中興路三段221號","121.543328333333","24.98284","6500600","新店區"
"231064","719-UM","2018/10/08 20:29:19","新北市新店區永安街74巷2號","121.519711666667","24.9864333333333","6500600","新店區"
"231060","897-TW","2018/10/08 20:29:15","新北市新店區安康路三段549號","121.476465","24.94439","6500600","新店區"
"231043","899-TW","2018/10/08 20:29:20","新北市新店區建國路99巷1號","121.54039","24.9770783333333","6500600","新店區"
"241028","022-UY","2018/10/08 20:29:13","新北市三重區光興街67號","121.498018333333","25.0600766666667","6500200","三重區"
"241008","059-VK","2018/10/08 20:29:11","新北市三重區力行路二段90號","121.481956666667","25.0743133333333","6500200","三重區"
"241022","060-VK","2018/10/08 20:29:19","新北市三重區中正北路20巷9號","121.48793","25.063035","6500200","三重區"
"241003","061-VK","2018/10/08 20:29:22","新北市三重區富華街81號","121.491845","25.083935","6500200","三重區"
"241015","062-VK","2018/10/08 20:29:07","新北市三重區長元街2-2號","121.498746666667","25.065865","6500200","三重區"
"241017","063-VK","2018/10/08 20:29:12","新北市三重區自強路一段290號","121.49147","25.06828","6500200","三重區"
"241024","065-VK","2018/10/08 20:29:15","新北市三重區忠孝路三段15巷28號","121.480415","25.067865","6500200","三重區"
"241026","066-VK","2018/10/08 20:29:13","新北市三重區福德南路56號","121.50325","25.0619833333333","6500200","三重區"
"241002","090-VK","2018/10/08 20:29:11","新北市三重區仁義街211巷17號","121.497611666667","25.0821483333333","6500200","三重區"
"251014","742-BX","2018/10/08 20:29:25","新北市淡水區石頭厝9-3號","121.458186666667","25.2366066666667","6501000","淡水區"
"241005","262-UM","2018/10/08 20:29:12","新北市三重區仁愛街502號","121.488086666667","25.0822216666667","6500200","三重區"
"241011","265-UM","2018/10/08 20:29:26","新北市三重區龍門路27號","121.49558","25.0720066666667","6500200","三重區"
"241016","266-UM","2018/10/08 20:29:14","新北市三重區正義北路110號","121.496833333333","25.0651233333333","6500200","三重區"
"241009","267-UM","2018/10/08 20:29:25","新北市三重區永福街67號","121.480353333333","25.0776883333333","6500200","三重區"
"241018","268-UM","2018/10/08 20:29:11","新北市三重區雙園街43號","121.49531","25.067655","6500200","三重區"
"241032","269-UM","2018/10/08 20:29:10","新北市三重區重陽路一段120巷37號","121.485013333333","25.0602116666667","6500200","三重區"
"241013","270-UM","2018/10/08 20:29:19","新北市三重區溪尾街5巷44號","121.493043333333","25.0747783333333","6500200","三重區"
"241025","271-UM","2018/10/08 20:29:12","新北市三重區頂崁街210巷27號","121.475793333333","25.068205","6500200","三重區"
"241007","398-BY","2018/10/08 20:29:24","新北市三重區三和路四段101巷26號","121.489208333333","25.0771783333333","6500200","三重區"
"241035","462-BY","2018/10/08 20:29:25","新北市三重區重新路二段46-7號","121.498425","25.062225","6500200","三重區"
"241004","475-VK","2018/10/08 20:29:21","新北市三重區溪尾街221號","121.488321666667","25.0810766666667","6500200","三重區"
"241020","478-VK","2018/10/08 20:29:17","新北市三重區重陽路四段146號","121.492963333333","25.07174","6500200","三重區"
"241030","480-VK","2018/10/08 20:29:18","新北市三重區成功路60號","121.488685","25.0509766666667","6500200","三重區"
"241014","543-UM","2018/10/08 20:29:21","新北市三重區長壽街120巷10-1號","121.502123333333","25.0692516666667","6500200","三重區"
"241023","545-UM","2018/10/08 20:29:15","新北市三重區自由街6號","121.48015","25.0663066666667","6500200","三重區"
"241001","547-UM","2018/10/08 20:29:22","新北市三重區自強路四段22號","121.488673333333","25.0764766666667","6500200","三重區"
"241019","KEA-2593","2018/10/08 20:29:13","新北市三重區重陽路四段81號","121.492596666667","25.0710116666667","6500200","三重區"
"241006","AAD-863","2018/10/08 20:29:10","新北市三重區車路頭街139巷14號","121.484286666667","25.07618","6500200","三重區"
"241031","743-BX","2018/10/08 20:29:14","新北市三重區三寧街22號","121.489545","25.0599283333333","6500200","三重區"
"241012","941-UM","2018/10/08 20:29:13","新北市三重區龍濱路269號","121.501456666667","25.07291","6500200","三重區"
"241029","942-UM","2018/10/08 20:29:19","新北市三重區集美街225號","121.492066666667","25.0550916666667","6500200","三重區"
"241033","AAC-255","2018/10/08 20:29:12","新北市三重區五谷王北街82號","121.476001666667","25.0527283333333","6500200","三重區"
"235049","186-VK","2018/10/08 20:29:11","新北市新店區車子路115-11號","121.506713333333","24.9544283333333","6500300","中和區"
"247012","KEA-2869","2018/10/08 20:29:24","新北市蘆洲區復興路226號","121.479141666667","25.0893166666667","6501400","蘆洲區"
"235050","4979-A6","2018/10/08 20:29:12","新北市中和區景新街162號","121.505725","24.9971466666667","6500300","中和區"
"235069","4980-A6","2018/10/08 20:29:19","新北市中和區中正路450號","121.490883333333","24.99418","6500300","中和區"
"235059","AAC-215","2018/10/08 20:29:22","新北市中和區員山路22號","121.483278333333","24.9842683333333","6500300","中和區"
"247002","893-R6","2018/10/08 20:29:22","新北市蘆洲區長安街361巷26號","121.455976666667","25.08767","6501400","蘆洲區"
"247016","546-UM","2018/10/08 20:29:24","新北市蘆洲區光華路96號","121.467443333333","25.08262","6501400","蘆洲區"
"247024","500-BY","2018/10/08 20:29:10","新北市蘆洲區長興路50巷8號","121.464751666667","25.0844366666667","6501400","蘆洲區"
"247004","341-TH","2018/10/08 20:29:08","新北市蘆洲區長安街299巷42號","121.456655","25.0845833333333","6501400","蘆洲區"
"247014","339-TH","2018/10/08 20:29:15","新北市蘆洲區中山二路44號","121.473983333333","25.08214","6501400","蘆洲區"
"247006","337-TH","2018/10/08 20:29:22","新北市蘆洲區和平路121巷8弄37號","121.46599","25.0806066666667","6501400","蘆洲區"
"247020","057-VK","2018/10/08 20:29:04","新北市蘆洲區仁愛街136號","121.468943333333","25.0945116666667","6501400","蘆洲區"
"247010","056-VK","2018/10/08 20:29:17","新北市蘆洲區集賢路300號","121.48142","25.0851116666667","6501400","蘆洲區"
"247018","007-UY","2018/10/08 20:29:12","新北市蘆洲區民族路314巷3弄13號","121.476943333333","25.0906133333333","6501400","蘆洲區"
"247022","001-UY","2018/10/08 20:29:21","新北市蘆洲區中正路198號","121.466826666667","25.0883416666667","6501400","蘆洲區"
"222001","KEA-2212","2018/10/08 20:29:15","新北市深坑區北深路三段329號","121.597201666667","25.005025","6501800","深坑區"
"251001","011-UM","2018/10/08 20:29:04","新北市淡水區淡金路一段571號","121.45266","25.180745","6501000","淡水區"
"251013","KEA-2871","2018/10/08 20:29:08","新北市淡水區後坑子5號","121.463326666667","25.206735","6501000","淡水區"
"251016","179-VK","2018/10/08 20:29:11","新北市淡水區新埔子11-7號","121.447456666667","25.2285116666667","6501000","淡水區"
"251015","180-VK","2018/10/08 20:29:08","新北市淡水區淡金路四段542巷17號","121.452723333333","25.2270733333333","6501000","淡水區"
"251008","181-VK","2018/10/08 20:29:13","新北市淡水區淡海路180巷12-3號","121.420436666667","25.184475","6501000","淡水區"
"251010","413-VK","2018/10/08 20:29:18","新北市淡水區沙崙路181巷15號","121.423983333333","25.1843166666667","6501000","淡水區"
"251012","441-VK","2018/10/08 20:29:21","新北市淡水區頂田寮路29號","121.455205","25.2164216666667","6501000","淡水區"
"251006","561-UM","2018/10/08 20:29:17","新北市淡水區商工路296號","121.46084","25.1858466666667","6501000","淡水區"
"251002","672-BX","2018/10/08 20:29:14","新北市淡水區中正路39號","121.442185","25.16954","6501000","淡水區"
"251003","766-UM","2018/10/08 20:29:14","新北市淡水區新生街108巷2號","121.4401","25.1747466666667","6501000","淡水區"
"207004","225-TW","2018/10/08 20:29:19","新北市萬里區北基里忠三街18號","121.684793333333","25.1756866666667","6502800","萬里區"
"252002","178-VK","2018/10/08 20:29:07","新北市三芝區淡金路二段47-2號","121.503696666667","25.260545","6502100","三芝區"
"252001","292-VK","2018/10/08 20:29:22","新北市三芝區中山路一段35號","121.500643333333","25.2580083333333","6502100","三芝區"
"237007","153-BY","2018/10/08 20:29:19","新北市樹林區柑園街二段247巷17號","121.37554","24.94943","6500900","三峽區"
"242036","AAC-296","2018/10/08 20:29:25","新北市新莊區後港一路56巷5弄1號","121.426598333333","25.02592","6500500","新莊區"
"242058","986-R7","2018/10/08 20:29:08","新北市新莊區四維路201號","121.42196","25.0205633333333","6500500","新莊區"
"242056","751-BX","2018/10/08 20:29:24","新北市新莊區新莊路751巷49號","121.442823333333","25.0315533333333","6500500","新莊區"
"242029","705-TV","2018/10/08 20:29:17","新北市新莊區中華路二段149號","121.452845","25.051365","6500500","新莊區"
"242027","615-BX","2018/10/08 20:29:18","新北市新莊區思源路259號","121.459663333333","25.0474433333333","6500500","新莊區"
"242025","613-BX","2018/10/08 20:29:25","新北市新莊區五工三路62巷17號","121.460173333333","25.0649316666667","6500500","新莊區"
"242044","566-BX","2018/10/08 20:29:06","新北市新莊區中正路新建巷53號","121.414678333333","25.021465","6500500","新莊區"
"242048","497-BY","2018/10/08 20:29:12","新北市新莊區龍安路249巷1號","121.419128333333","25.0210816666667","6500500","新莊區"
"242011","442-UM","2018/10/08 20:29:16","新北市新莊區中義街48號","121.449465","25.0511766666667","6500500","新莊區"
"242053","441-UM","2018/10/08 20:29:11","新北市新莊區民安西路229巷10號","121.4267","25.0141833333333","6500500","新莊區"
"242039","415-TV","2018/10/08 20:29:23","新北市新莊區成功街11號","121.425821666667","25.021695","6500500","新莊區"
"242009","413-TV","2018/10/08 20:29:07","新北市新莊區幸福路64巷3弄8號","121.45677","25.0500766666667","6500500","新莊區"
"242046","400-BY","2018/10/08 20:29:18","新北市新莊區中正路新雅巷2弄15號","121.417833333333","25.02496","6500500","新莊區"
"242023","362-BY","2018/10/08 20:29:19","新北市新莊區化成路287號","121.466061666667","25.054905","6500500","新莊區"
"242060","353-BY","2018/10/08 20:29:11","新北市新莊區新樹路244巷69號","121.431061666667","25.019715","6500500","新莊區"
"242042","133-UY","2018/10/08 20:29:12","新北市新莊區中正路694巷47號","121.417851666667","25.029125","6500500","新莊區"
"242034","135-UY","2018/10/08 20:29:20","新北市新莊區中正路334巷8號","121.44573","25.035275","6500500","新莊區"
"242013","173-VK","2018/10/08 20:29:20","新北市新莊區中榮街95號","121.445065","25.0527416666667","6500500","新莊區"
"242019","175-VK","2018/10/08 20:29:09","新北市新莊區民樂街87巷10號","121.457326666667","25.0434366666667","6500500","新莊區"
"242007","176-VK","2018/10/08 20:29:22","新北市新莊區思源路287巷1弄2號","121.459355","25.0479683333333","6500500","新莊區"
"242017","346-TH","2018/10/08 20:29:08","新北市新莊區中港三街25號","121.45042","25.0463533333333","6500500","新莊區"
"242002","347-TH","2018/10/08 20:29:21","新北市新莊區中正路育農巷1號","121.456948333333","25.037915","6500500","新莊區"
"242031","348-TH","2018/10/08 20:29:25","新北市新莊區三和路58-3號","121.437525","25.0397516666667","6500500","新莊區"
"242004","349-TH","2018/10/08 20:29:21","新北市新莊區化成路389巷20號","121.464405","25.0583266666667","6500500","新莊區"
"242021","350-TH","2018/10/08 20:29:24","新北市新莊區公園路24號","121.448453333333","25.0391516666667","6500500","新莊區"
"242015","351-TH","2018/10/08 20:29:15","新北市新莊區中平路46巷29號","121.445981666667","25.043845","6500500","新莊區"
"221008","489-VK","2018/10/08 20:29:21","新北市汐止區康寧街241號","121.624446666667","25.0667916666667","6501100","汐止區"
"221036","130-UY","2018/10/08 20:29:16","新北市汐止區新台五路二段122號","121.663436666667","25.0662866666667","6501100","汐止區"
"221015","131-UY","2018/10/08 20:29:27","新北市汐止區建成路160巷23號","121.661766666667","25.073945","6501100","汐止區"
"221010","269-BY","2018/10/08 20:29:06","新北市汐止區八連路一段207號","121.641296666667","25.080585","6501100","汐止區"
"221012","278-VK","2018/10/08 20:29:07","新北市汐止區大同路三段186號","121.6745","25.0745866666667","6501100","汐止區"
"221023","279-VK","2018/10/08 20:29:23","新北市汐止區湖東街5巷112-1號","121.63533","25.0743883333333","6501100","汐止區"
"221032","280-BY","2018/10/08 20:29:09","新北市汐止區弘道街53巷15號","121.618708333333","25.0491316666667","6501100","汐止區"
"221027","281-BY","2018/10/08 20:29:20","新北市汐止區中正路223號","121.658066666667","25.06883","6501100","汐止區"
"221029","298-VK","2018/10/08 20:29:20","新北市汐止區樟樹一路129巷32號","121.640608333333","25.0651866666667","6501100","汐止區"
"221021","299-VK","2018/10/08 20:29:17","新北市汐止區水源路一段286號","121.654176666667","25.05819","6501100","汐止區"
"221031","353-TW","2018/10/08 20:29:11","新北市汐止區中興路110巷36號","121.634331666667","25.0646666666667","6501100","汐止區"
"221035","622-UM","2018/10/08 20:29:22","新北市汐止區長江街101-5號","121.65879","25.0730366666667","6501100","汐止區"
"221025","623-UM","2018/10/08 20:29:20","新北市汐止區水源路二段88巷1弄1號","121.656303333333","25.0558916666667","6501100","汐止區"
"221038","646-BX","2018/10/08 20:29:17","新北市汐止區水源路一段56-1號","121.657108333333","25.0653866666667","6501100","汐止區"
"221002","707-TV","2018/10/08 20:29:17","新北市汐止區福德二路47號","121.63434","25.0672433333333","6501100","汐止區"
"221018","753-BX","2018/10/08 20:29:22","新北市汐止區茄安路35號","121.673406666667","25.0681016666667","6501100","汐止區"
"220083","286-VK","2018/10/08 20:29:10","新北市板橋區僑中二街104巷39號","121.444541666667","25.0081233333333","6500100","板橋區"
"220061","293-UM","2018/10/08 20:29:22","新北市板橋區文華街3巷1號","121.457373333333","25.0005883333333","6500100","板橋區"
"242050","281-VK","2018/10/08 20:29:17","新北市新莊區民安西路250號","121.425983333333","25.0136666666667","6500500","新莊區"
"220089","487-VK","2018/10/08 20:29:27","新北市板橋區四維路355號","121.462231666667","25.030105","6500100","板橋區"
"220103","561-BX","2018/10/08 20:29:26","新北市板橋區漢生東路33巷10號","121.465728333333","25.0172033333333","6500100","板橋區"
"220102","KEA-2699","2018/10/08 20:29:20","新北市板橋區民生路二段171號","121.46965","25.0200983333333","6500100","板橋區"
"220070","AAC-253","2018/10/08 20:29:23","新北市泰山區楓里路12號","121.441935","25.05923","6500100","板橋區"
