"lineid","car","time","location","longitude","latitude","cityid","cityname"
"234081","298-R6","2018/10/08 20:39:20","新北市永和區永貞路78號","121.520268333333","25.0050283333333","6500400","永和區"
"234030","746-BX","2018/10/08 20:39:06","新北市中和區景平路1號","121.525671666667","24.9901266666667","6500400","永和區"
"234061","AAD-866","2018/10/08 20:39:20","新北市永和區秀朗路一段175號","121.516978333333","25.0036716666667","6500400","永和區"
"234042","862-TW","2018/10/08 20:39:16","新北市永和區中正路560號","121.517186666667","25.005895","6500400","永和區"
"249001","173-UM","2018/10/08 20:39:14","新北市八里區中山路三段409號","121.368733333333","25.13585","6502300","八里區"
"249004","303-UY","2018/10/08 20:39:08","新北市八里區中山路一段157巷13號","121.41301","25.1583366666667","6502300","八里區"
"249002","305-UY","2018/10/08 20:39:20","新北市八里區龍米路二段148-1號","121.43758","25.1553616666667","6502300","八里區"
"249003","593-UM","2018/10/08 20:39:18","新北市八里區中山路二段466巷36弄20號","121.398355","25.1492616666667","6502300","八里區"
"248002","678-BX","2018/10/08 20:39:07","新北市五股區新五路三段2號","121.444598333333","25.087885","6501500","五股區"
"234023","9380-KE","2018/10/08 20:39:24","新北市永和區竹林路30-1號","121.517048333333","25.0146783333333","6500400","永和區"
"234074","AAC-211","2018/10/08 20:39:14","新北市永和區竹林路119巷16號","121.521016666667","25.0114216666667","6500400","永和區"
"243009","297-R6","2018/10/08 20:39:18","新北市泰山區泰林路三段301巷51號","121.41344","25.0683433333333","6501600","泰山區"
"243011","KEA-2215","2018/10/08 20:39:13","新北市泰山區公園路60號","121.42601","25.055605","6501600","泰山區"
"243012","646-TV","2018/10/08 20:39:18","新北市泰山區泰林路三段745巷145號","121.404116666667","25.0700516666667","6501600","泰山區"
"243014","680-BX","2018/10/08 20:39:27","新北市泰山區泰林路三段745巷145號","121.405486666667","25.0676716666667","6501600","泰山區"
"222003","436-BY","2018/10/08 20:39:14","新北市深坑區阿柔洋17-1號","121.612846666667","24.9992783333333","6501800","深坑區"
"222002","659-BX","2018/10/08 20:39:14","新北市深坑區萬福路43號","121.59937","25.006805","6501800","深坑區"
"231059","001-UM","2018/10/08 20:39:16","新北市新店區僑信路132巷23號","121.500045","24.9454516666667","6500600","新店區"
"231041","002-UM","2018/10/08 20:39:16","新北市新店區中正路696號","121.533985","24.9905066666667","6500600","新店區"
"231040","047-UY","2018/10/08 20:39:19","新北市新店區中正路266號","121.539031666667","24.9735166666667","6500600","新店區"
"231044","106-UY","2018/10/08 20:39:11","新北市新店區建國路291巷1號","121.537021666667","24.985575","6500600","新店區"
"231047","187-VK","2018/10/08 20:39:11","新北市新店區寶慶街35巷1弄7號","121.543463333333","24.9866083333333","6500600","新店區"
"231062","188-VK","2018/10/08 20:39:13","新北市新店區安泰路60巷134弄66號","121.483446666667","24.9434316666667","6500600","新店區"
"231052","189-VK","2018/10/08 20:39:10","新北市新店區廣興路7-10號","121.545696666667","24.9117116666667","6500600","新店區"
"231054","KEA-2219","2018/10/08 20:39:25","新北市新店區行政街26號","121.542883333333","24.96558","6500600","新店區"
"231057","256-BX","2018/10/08 20:39:13","新北市新店區花園六路二段9-2號","121.555698333333","24.932885","6500600","新店區"
"231042","268-BY","2018/10/08 20:39:21","新北市新店區寶橋路230號","121.551541666667","24.9788583333333","6500600","新店區"
"231051","278-BY","2018/10/08 20:39:09","新北市新店區中央八街128號","121.525123333333","24.9784333333333","6500600","新店區"
"231050","AAD-862","2018/10/08 20:39:21","新北市新店區中正路263-5號","121.538185","24.973965","6500600","新店區"
"231058","3713-VJ","2018/10/08 20:39:22","新北市新店區平等街55號","121.53614","24.9728183333333","6500600","新店區"
"231066","4716-K9","2018/10/08 20:39:20","新北市新店區安興路105-1號","121.514686666667","24.9777633333333","6500600","新店區"
"231056","4715-K9","2018/10/08 20:39:21","新北市新店區中央七街61巷6號","121.528495","24.9764466666667","6500600","新店區"
"231067","4772-VM","2018/10/08 20:39:15","新北市新店區安華路28-1號","121.519773333333","24.9608266666667","6500600","新店區"
"231065","512-UM","2018/10/08 20:39:20","新北市新店區安祥路102巷113號","121.48652","24.9642233333333","6500600","新店區"
"231049","513-UM","2018/10/08 20:39:11","新北市新店區永業路81巷5弄22號","121.530858333333","24.9494833333333","6500600","新店區"
"231063","616-UM","2018/10/08 20:39:09","新北市新店區玫瑰路4-1號","121.493573333333","24.9513933333333","6500600","新店區"
"231045","617-UM","2018/10/08 20:39:14","新北市新店區長春路48號","121.550576666667","24.957695","6500600","新店區"
"231061","619-UM","2018/10/08 20:39:07","新北市新店區新和街36號","121.51929","24.98489","6500600","新店區"
"231068","718-UY","2018/10/08 20:39:21","新北市新店區寶慶街35巷3弄2號","121.543176666667","24.9860116666667","6500600","新店區"
"231064","719-UM","2018/10/08 20:39:11","新北市新店區安和路三段175號","121.515665","24.9863583333333","6500600","新店區"
"231060","897-TW","2018/10/08 20:39:12","新北市新店區安康路三段738號","121.47386","24.9419483333333","6500600","新店區"
"231043","899-TW","2018/10/08 20:39:09","新北市新店區建國路2號","121.539811666667","24.9732716666667","6500600","新店區"
"241028","022-UY","2018/10/08 20:39:13","新北市三重區光興街91號","121.49735","25.0599483333333","6500200","三重區"
"241008","059-VK","2018/10/08 20:39:11","新北市三重區下竹圍街42-1號","121.481051666667","25.074875","6500200","三重區"
"241022","060-VK","2018/10/08 20:39:19","新北市三重區中山路33巷27-5號","121.487905","25.062045","6500200","三重區"
"241003","061-VK","2018/10/08 20:39:22","新北市三重區富華街179號","121.493691666667","25.085225","6500200","三重區"
"241015","062-VK","2018/10/08 20:39:07","新北市三重區文化北路103號","121.497925","25.0684133333333","6500200","三重區"
"241017","063-VK","2018/10/08 20:39:12","新北市三重區安慶街272號","121.490626666667","25.0675533333333","6500200","三重區"
"241024","065-VK","2018/10/08 20:39:15","新北市三重區忠孝路三段32號","121.481245","25.0667033333333","6500200","三重區"
"241026","066-VK","2018/10/08 20:39:13","新北市三重區和平街1號","121.500061666667","25.0623316666667","6500200","三重區"
"241002","090-VK","2018/10/08 20:39:11","新北市三重區仁義街167巷11號","121.497488333333","25.0817366666667","6500200","三重區"
"251014","742-BX","2018/10/08 20:39:05","新北市淡水區公埔子25號","121.470203333333","25.2316633333333","6501000","淡水區"
"241005","262-UM","2018/10/08 20:39:12","新北市三重區碧華街384號","121.49133","25.084555","6500200","三重區"
"241011","265-UM","2018/10/08 20:39:25","新北市三重區龍門路150號","121.498581666667","25.0730483333333","6500200","三重區"
"241016","266-UM","2018/10/08 20:39:14","新北市三重區自強路一段220號","121.494226666667","25.0666366666667","6500200","三重區"
"241009","267-UM","2018/10/08 20:39:25","新北市三重區碧華街55號","121.484708333333","25.0812683333333","6500200","三重區"
"241018","268-UM","2018/10/08 20:39:11","新北市三重區自強路一段179號","121.492328333333","25.06779","6500200","三重區"
"241032","269-UM","2018/10/08 20:39:10","新北市三重區重陽路一段120巷37號","121.485023333333","25.0602216666667","6500200","三重區"
"241013","270-UM","2018/10/08 20:39:19","新北市三重區三和路四段83號","121.489295","25.0753166666667","6500200","三重區"
"241025","271-UM","2018/10/08 20:39:12","新北市三重區頂崁街210巷28弄13號","121.47578","25.0669833333333","6500200","三重區"
"241007","398-BY","2018/10/08 20:39:18","新北市三重區自強路四段20號","121.488578333333","25.076415","6500200","三重區"
"241035","462-BY","2018/10/08 20:39:25","新北市三重區正義北路253號","121.495535","25.0695716666667","6500200","三重區"
"241004","475-VK","2018/10/08 20:39:16","新北市三重區仁愛街406巷3號","121.490603333333","25.0812383333333","6500200","三重區"
"241020","478-VK","2018/10/08 20:39:17","新北市三重區忠孝路一段101號","121.489443333333","25.0721633333333","6500200","三重區"
"241030","480-VK","2018/10/08 20:39:18","新北市三重區成功路73巷16號","121.489238333333","25.0519616666667","6500200","三重區"
"241014","543-UM","2018/10/08 20:39:22","新北市三重區三和路二段119號","121.498851666667","25.06913","6500200","三重區"
"241023","545-UM","2018/10/08 20:39:15","新北市三重區自由街32號","121.479243333333","25.0667366666667","6500200","三重區"
"241001","547-UM","2018/10/08 20:39:26","新北市三重區自強路三段110巷21號","121.486165","25.074565","6500200","三重區"
"241019","KEA-2593","2018/10/08 20:39:13","新北市三重區大智街133號","121.490975","25.0703733333333","6500200","三重區"
"241006","AAD-863","2018/10/08 20:39:10","新北市三重區車路頭街139巷14號","121.484298333333","25.0761866666667","6500200","三重區"
"241031","743-BX","2018/10/08 20:39:14","新北市三重區重陽路一段113巷1弄49號","121.488091666667","25.05859","6500200","三重區"
"241012","941-UM","2018/10/08 20:39:13","新北市三重區秀江街31號","121.502076666667","25.0729233333333","6500200","三重區"
"241029","942-UM","2018/10/08 20:39:19","新北市三重區集美街126巷26號","121.49005","25.05387","6500200","三重區"
"241033","AAC-255","2018/10/08 20:39:12","新北市三重區光復路二段87巷28號","121.474543333333","25.0579683333333","6500200","三重區"
"235049","186-VK","2018/10/08 20:39:11","新北市中和區中正路653號","121.485168333333","24.9960966666667","6500300","中和區"
"247012","KEA-2869","2018/10/08 20:39:24","新北市蘆洲區中興街117-1號","121.482163333333","25.0892383333333","6501400","蘆洲區"
"235069","4980-A6","2018/10/08 20:39:19","新北市中和區連城路347巷16弄5號","121.48829","24.9948316666667","6500300","中和區"
"235059","AAC-215","2018/10/08 20:39:25","新北市中和區員山路57號","121.480813333333","24.9933916666667","6500300","中和區"
"247002","893-R6","2018/10/08 20:39:22","新北市蘆洲區長安街375巷35號","121.45556","25.0879933333333","6501400","蘆洲區"
"247016","546-UM","2018/10/08 20:39:24","新北市蘆洲區中山二路273號","121.469643333333","25.07941","6501400","蘆洲區"
"247024","500-BY","2018/10/08 20:39:10","新北市蘆洲區長樂路18號","121.463948333333","25.0849","6501400","蘆洲區"
"247004","341-TH","2018/10/08 20:39:08","新北市蘆洲區長安街297號","121.458081666667","25.0848416666667","6501400","蘆洲區"
"247014","339-TH","2018/10/08 20:39:15","新北市蘆洲區中山一路225號","121.473833333333","25.080835","6501400","蘆洲區"
"247006","337-TH","2018/10/08 20:39:22","新北市蘆洲區和平路128號","121.467273333333","25.080335","6501400","蘆洲區"
"247020","057-VK","2018/10/08 20:39:24","新北市蘆洲區民族路426號","121.473723333333","25.0918066666667","6501400","蘆洲區"
"247022","001-UY","2018/10/08 20:39:19","新北市蘆洲區中正路243巷7弄21號","121.467743333333","25.0855816666667","6501400","蘆洲區"
"222001","KEA-2212","2018/10/08 20:39:15","新北市深坑區北深路三段209號","121.600626666667","25.003935","6501800","深坑區"
"251001","011-UM","2018/10/08 20:39:24","新北市淡水區淡金路一段69號","121.458823333333","25.173075","6501000","淡水區"
"251013","KEA-2871","2018/10/08 20:39:08","新北市淡水區下圭柔山28巷29號","121.458275","25.2038133333333","6501000","淡水區"
"251016","179-VK","2018/10/08 20:39:11","新北市淡水區後洲子8-2號","121.44966","25.2240183333333","6501000","淡水區"
"251015","180-VK","2018/10/08 20:39:08","新北市淡水區淡金路四段542巷17號","121.452715","25.2270716666667","6501000","淡水區"
"251010","413-VK","2018/10/08 20:39:18","新北市淡水區沙崙路181巷15號","121.423953333333","25.1843333333333","6501000","淡水區"
"251012","441-VK","2018/10/08 20:39:21","新北市淡水區興仁路105號","121.451591666667","25.2181416666667","6501000","淡水區"
"251007","442-VK","2018/10/08 20:37:14","新北市淡水區新市一路三段151號","121.44837","25.1835083333333","6501000","淡水區"
"251006","561-UM","2018/10/08 20:39:17","新北市淡水區商工路30號","121.447281666667","25.18826","6501000","淡水區"
"251002","672-BX","2018/10/08 20:39:14","新北市淡水區中正路38-1號","121.443701666667","25.1692333333333","6501000","淡水區"
"251003","766-UM","2018/10/08 20:39:14","新北市淡水區新民街152巷6弄22號","121.438713333333","25.178535","6501000","淡水區"
"252002","178-VK","2018/10/08 20:39:07","新北市三芝區淡金路二段47-2號","121.50368","25.2605666666667","6502100","三芝區"
"252001","292-VK","2018/10/08 20:39:22","新北市三芝區長安街49號","121.501298333333","25.2564333333333","6502100","三芝區"
"237007","153-BY","2018/10/08 20:38:39","新北市樹林區中山路三段214號","121.379645","24.967615","6500900","三峽區"
"242036","AAC-296","2018/10/08 20:39:05","新北市新莊區建國二路56號","121.432451666667","25.0249383333333","6500500","新莊區"
"242058","986-R7","2018/10/08 20:39:07","新北市新莊區四維路123-1號","121.423","25.022905","6500500","新莊區"
"242056","751-BX","2018/10/08 20:39:14","新北市新莊區瓊泰路2巷8號","121.445008333333","25.0291366666667","6500500","新莊區"
"242029","705-TV","2018/10/08 20:39:17","新北市新莊區昌隆街31號","121.454896666667","25.0510233333333","6500500","新莊區"
"242027","615-BX","2018/10/08 20:39:18","新北市新莊區新莊路91號","121.457951666667","25.0362466666667","6500500","新莊區"
"242025","613-BX","2018/10/08 20:39:10","新北市新莊區化成路579巷1號","121.46436","25.066035","6500500","新莊區"
"242044","566-BX","2018/10/08 20:39:06","新北市新莊區中正路新生巷85弄1號","121.417138333333","25.0217466666667","6500500","新莊區"
"242048","497-BY","2018/10/08 20:39:13","新北市新莊區中正路671號","121.426625","25.0301116666667","6500500","新莊區"
"242011","442-UM","2018/10/08 20:39:25","新北市新莊區中榮街122巷1號","121.446586666667","25.05305","6500500","新莊區"
"242053","441-UM","2018/10/08 20:39:11","新北市新莊區西盛街324巷19號","121.427248333333","25.01474","6500500","新莊區"
"242039","415-TV","2018/10/08 20:39:07","新北市新莊區民安路377-1號","121.431621666667","25.0230233333333","6500500","新莊區"
"242009","413-TV","2018/10/08 20:39:27","新北市新莊區幸福路562號","121.454478333333","25.0494833333333","6500500","新莊區"
"242046","400-BY","2018/10/08 20:39:17","新北市新莊區裕民街59號","121.418746666667","25.0244933333333","6500500","新莊區"
"242023","362-BY","2018/10/08 20:39:19","新北市新莊區復興路三段73號","121.462658333333","25.0444933333333","6500500","新莊區"
"242060","353-BY","2018/10/08 20:39:11","新北市新莊區新樹路262號","121.432665","25.0148266666667","6500500","新莊區"
"242042","133-UY","2018/10/08 20:39:12","新北市新莊區天祥街47巷21號","121.416301666667","25.0280783333333","6500500","新莊區"
"242034","135-UY","2018/10/08 20:39:25","新北市新莊區中正路423-2號","121.444355","25.03433","6500500","新莊區"
"242013","173-VK","2018/10/08 20:39:20","新北市新莊區中和街175巷11號","121.447245","25.0506483333333","6500500","新莊區"
"242019","175-VK","2018/10/08 20:39:19","新北市新莊區中港路五守新村1巷5號","121.455338333333","25.0382433333333","6500500","新莊區"
"242002","347-TH","2018/10/08 20:39:21","新北市新莊區中港路五守新村37巷2號","121.454651666667","25.0388816666667","6500500","新莊區"
"242031","348-TH","2018/10/08 20:39:25","新北市新莊區中正路508巷18-6號","121.43811","25.0350783333333","6500500","新莊區"
"242004","349-TH","2018/10/08 20:39:21","新北市新莊區思源路379號","121.459918333333","25.05127","6500500","新莊區"
"242021","350-TH","2018/10/08 20:39:24","新北市新莊區中華路一段73號","121.452273333333","25.04021","6500500","新莊區"
"242015","351-TH","2018/10/08 20:39:15","新北市新莊區中和街32號","121.448246666667","25.0437833333333","6500500","新莊區"
"221008","489-VK","2018/10/08 20:39:21","新北市汐止區康寧街511號","121.633053333333","25.06862","6501100","汐止區"
"221036","130-UY","2018/10/08 20:39:16","新北市汐止區新昌路62號","121.663328333333","25.0686533333333","6501100","汐止區"
"221015","131-UY","2018/10/08 20:39:27","新北市汐止區建成路21號","121.664338333333","25.07261","6501100","汐止區"
"221023","279-VK","2018/10/08 20:39:23","新北市汐止區民族二街30巷16號","121.634258333333","25.0717533333333","6501100","汐止區"
"221032","280-BY","2018/10/08 20:39:09","新北市汐止區民權街二段35-1號","121.619926666667","25.050265","6501100","汐止區"
"221027","281-BY","2018/10/08 20:39:06","新北市汐止區大同路二段567號","121.662911666667","25.0698","6501100","汐止區"
"221029","298-VK","2018/10/08 20:39:27","新北市汐止區大同路一段513號","121.645388333333","25.0622166666667","6501100","汐止區"
"221021","299-VK","2018/10/08 20:39:17","新北市汐止區水源路一段284號","121.65422","25.0582866666667","6501100","汐止區"
"221031","353-TW","2018/10/08 20:39:11","新北市汐止區中興路62號","121.635175","25.0613766666667","6501100","汐止區"
"221035","622-UM","2018/10/08 20:39:22","新北市汐止區長江街101-5號","121.658763333333","25.0730816666667","6501100","汐止區"
"221025","623-UM","2018/10/08 20:39:17","新北市汐止區水源路二段185號","121.657823333333","25.053515","6501100","汐止區"
"221038","646-BX","2018/10/08 20:39:17","新北市汐止區汐萬路一段212號","121.652","25.07244","6501100","汐止區"
"221002","707-TV","2018/10/08 20:39:17","新北市汐止區福德二路163號","121.631056666667","25.0652083333333","6501100","汐止區"
"221018","753-BX","2018/10/08 20:39:22","新北市汐止區茄苳路225巷11弄2號","121.671465","25.0693366666667","6501100","汐止區"
"220083","286-VK","2018/10/08 20:39:10","新北市板橋區僑中二街112巷13號","121.44494","25.0071466666667","6500100","板橋區"
"242050","281-VK","2018/10/08 20:39:17","新北市新莊區民安西路173巷18號","121.427286666667","25.0158966666667","6500500","新莊區"
"220103","561-BX","2018/10/08 20:39:16","新北市板橋區漢生東路53巷14-1號","121.466445","25.017105","6500100","板橋區"
"220070","AAC-253","2018/10/08 20:38:03","新北市五股區中直路21號","121.421846666667","25.1117333333333","6500100","板橋區"
