"lineid","car","time","location","longitude","latitude","cityid","cityname"
"234040","862-TW","2018/10/08 22:00:51","新北市永和區福和路1號","121.526396666667","25.0097533333333","6500400","永和區"
"251005","010-UM","2018/10/08 22:09:27","新北市淡水區鄧公路19號","121.451371666667","25.1700316666667","6501000","淡水區"
"251008","181-VK","2018/10/08 22:09:12","新北市淡水區學府路104號","121.44988","25.17177","6501000","淡水區"
"251010","413-VK","2018/10/08 22:09:17","新北市淡水區沙崙路200號","121.42472","25.18391","6501000","淡水區"
"251007","442-VK","2018/10/08 22:09:14","新北市淡水區北新路180號","121.449446666667","25.1787116666667","6501000","淡水區"
"251004","443-VK","2018/10/08 22:09:20","新北市淡水區民族路33號","121.462273333333","25.1357916666667","6501000","淡水區"
"251011","650-BX","2018/10/08 22:09:20","新北市淡水區水碓街7號","121.443166666667","25.17714","6501000","淡水區"
