"lineid","car","time","location","longitude","latitude","cityid","cityname"
"234040","862-TW","2018/10/08 22:00:51","新北市永和區福和路1號","121.526396666667","25.0097533333333","6500400","永和區"
"247007","336-TH","2018/10/08 22:29:12","新北市五股區中興路三段2巷10號","121.449175","25.080815","6501400","蘆洲區"
"247004","002-UY","2018/10/08 22:18:55","新北市五股區中興路三段2巷10號","121.448678333333","25.08163","6501400","蘆洲區"
"251008","181-VK","2018/10/08 22:29:12","新北市淡水區學府路104號","121.449876666667","25.1718016666667","6501000","淡水區"
"251010","413-VK","2018/10/08 22:29:17","新北市淡水區沙崙路200號","121.424683333333","25.1839216666667","6501000","淡水區"
"251007","442-VK","2018/10/08 22:29:14","新北市淡水區北新路180號","121.449263333333","25.1787716666667","6501000","淡水區"
"251004","443-VK","2018/10/08 22:29:20","新北市淡水區民族路33號","121.462208333333","25.1357766666667","6501000","淡水區"
"251011","650-BX","2018/10/08 22:29:20","新北市淡水區水碓街15-1號","121.443221666667","25.177225","6501000","淡水區"
