"lineid","car","time","location","longitude","latitude","cityid","cityname"
"248005","653-BX","2018/07/14 08:45:56","新北市五股區明德路12巷3號","121.433273333333","25.07181","6501500","五股區"
"244005","248-BX","2018/07/14 08:49:42","新北市林口區瑞平里9鄰66號","121.345168333333","25.126985","6501700","林口區"
"222004","289-BY","2018/07/14 08:49:36","新北市深坑區王軍寮15號","121.613748333333","24.981815","6501800","深坑區"
"231020","189-VK","2018/07/14 08:48:59","新北市新店區新潭路三段220號","121.503803333333","24.9043533333333","6500600","新店區"
"231008","192-VK","2018/07/14 08:49:40","新北市新店區新烏路三段寶島巷4號","121.551411666667","24.899445","6500600","新店區"
"235001","611-BX","2018/07/14 08:49:42","新北市中和區華安街19巷24號","121.467865","24.9979566666667","6500300","中和區"
"226005","5620-A6","2018/07/14 08:49:33","新北市平溪區十分里十分街212號","121.779358333333","25.044465","6502400","平溪區"
"226007","7418-A5","2018/07/14 08:49:42","新北市平溪區東勢里芊蓁坑30號","121.727518333333","24.9791","6502400","平溪區"
"226003","AGD-0702","2018/07/14 08:49:39","新北市平溪區十分里十分街246號","121.777565","25.0444666666667","6502400","平溪區"
"223006","022-BY","2018/07/14 08:49:32","新北市深坑區北深路一段249巷17-1號","121.62632","25.0028366666667","6501900","石碇區"
"223003","205-TH","2018/07/14 08:49:41","新北市石碇區北宜路五段53號","121.632231666667","24.9520466666667","6501900","石碇區"
"223008","406-TH","2018/07/14 08:49:44","新北市石碇區光明路13號","121.680061666667","25.0336183333333","6501900","石碇區"
"223001","592-UM","2018/07/14 08:49:37","新北市石碇區北宜路五段十股寮巷9號","121.642743333333","24.9531766666667","6501900","石碇區"
"223004","660-BX","2018/07/14 08:49:35","新北市石碇區崩山53號","121.682401666667","24.96873","6501900","石碇區"
"223007","661-BX","2018/07/14 08:49:29","新北市石碇區碇南路二段鹿窟巷2號","121.67336","25.030065","6501900","石碇區"
"223005","677-TV","2018/07/14 08:47:24","新北市石碇區崩山53號","121.68237","24.968915","6501900","石碇區"
"227006","030-BX","2018/07/14 08:49:35","新北市雙溪區上林里內平林100-1號","121.825766666667","25.025245","6502500","雙溪區"
"252004","249-BX","2018/07/14 08:49:40","新北市三芝區興華里田心子18-3號","121.494388333333","25.20294","6502100","三芝區"
"252007","AAC-283","2018/07/14 08:49:38","新北市三芝區後厝里北勢子35號","121.477985","25.246295","6502100","三芝區"
"237001","159-UY","2018/07/14 08:49:36","新北市三峽區大觀路315號","121.37318","24.9475666666667","6500900","三峽區"
"236011","165-UM","2018/07/14 08:49:28","新北市土城區金城路二段48號","121.45182","24.978895","6501300","土城區"
"236002","339-SR","2018/07/14 08:49:36","新北市土城區中央路三段42號","121.437336666667","24.96791","6501300","土城區"
"236006","498-BY","2018/07/14 08:49:38","新北市土城區承天路4巷10-1號","121.438025","24.9590616666667","6501300","土城區"
