"lineid","car","time","location","longitude","latitude","cityid","cityname"
"248005","653-BX","2018/07/14 09:09:18","新北市五股區水碓路12號","121.433843333333","25.07238","6501500","五股區"
"244005","248-BX","2018/07/14 09:09:42","新北市八里區中華路三段185號","121.39195","25.1281483333333","6501700","林口區"
"222004","289-BY","2018/07/14 09:07:56","新北市深坑區大崙尾1-1號","121.615645","24.97517","6501800","深坑區"
"231020","189-VK","2018/07/14 09:05:59","新北市新店區新潭路三段256號","121.508368333333","24.90396","6500600","新店區"
"231008","192-VK","2018/07/14 09:09:40","新北市新店區廣興路60巷1-1號","121.539311666667","24.914315","6500600","新店區"
"235001","611-BX","2018/07/14 09:09:42","新北市中和區中山路三段120-13號","121.47467","25.0091433333333","6500300","中和區"
"226007","7418-A5","2018/07/14 09:09:42","新北市平溪區東勢里芊蓁林9-1號","121.735633333333","24.98767","6502400","平溪區"
"226003","AGD-0702","2018/07/14 09:09:39","新北市平溪區望古里望古坑26號","121.763341666667","25.0343816666667","6502400","平溪區"
"223006","022-BY","2018/07/14 09:09:32","新北市石碇區碇坪路一段121號","121.665135","24.9873166666667","6501900","石碇區"
"223003","205-TH","2018/07/14 09:09:41","新北市石碇區二格路9號","121.6253","24.9629433333333","6501900","石碇區"
"223008","406-TH","2018/07/14 09:07:44","新北市石碇區光明路耳空龜巷12-2號","121.69179","25.03415","6501900","石碇區"
"223001","592-UM","2018/07/14 09:09:37","新北市石碇區北宜路四段25號","121.622096666667","24.9577166666667","6501900","石碇區"
"223004","660-BX","2018/07/14 09:09:35","新北市石碇區碇坪路一段282號","121.67643","24.9769666666667","6501900","石碇區"
"223007","661-BX","2018/07/14 09:06:49","新北市石碇區光明路耳空龜巷12號","121.691676666667","25.0358583333333","6501900","石碇區"
"223005","677-TV","2018/07/14 09:09:33","新北市石碇區大崙8號","121.684335","24.9794033333333","6501900","石碇區"
"227006","030-BX","2018/07/14 09:09:35","新北市雙溪區長源里內柑腳16-1號","121.80208","25.0174933333333","6502500","雙溪區"
"252004","249-BX","2018/07/14 09:09:40","新北市淡水區大埤頭1-2號","121.492798333333","25.1946466666667","6502100","三芝區"
"252007","AAC-283","2018/07/14 09:09:38","新北市三芝區古庄里四棧橋24號","121.48688","25.2604083333333","6502100","三芝區"
"237001","159-UY","2018/07/14 09:09:36","新北市三峽區國際二街21-5號","121.37322","24.9436566666667","6500900","三峽區"
"236011","165-UM","2018/07/14 09:09:28","新北市土城區中山路55號","121.422985","24.9633833333333","6501300","土城區"
"236002","339-SR","2018/07/14 09:09:36","新北市土城區學府路一段238號","121.451771666667","24.98479","6501300","土城區"
"236006","498-BY","2018/07/14 09:09:42","新北市土城區中央路三段126巷12號","121.434675","24.9668033333333","6501300","土城區"
