"lineid","car","time","location","longitude","latitude","cityid","cityname"
"248005","653-BX","2018/07/14 10:19:38","新北市五股區中興路二段37巷24號","121.460708333333","25.0750433333333","6501500","五股區"
"231020","189-VK","2018/07/14 10:19:39","新北市新店區新潭路三段215巷25號","121.508166666667","24.9040933333333","6500600","新店區"
"231008","192-VK","2018/07/14 10:19:40","新北市新店區小坑一路35巷1號","121.529265","24.91056","6500600","新店區"
"227006","030-BX","2018/07/14 10:19:35","新北市雙溪區長源里柑腳18號","121.804641666667","25.0143283333333","6502500","雙溪區"
"252007","AAC-283","2018/07/14 10:19:38","新北市三芝區古庄里古庄99-3號","121.494208333333","25.267805","6502100","三芝區"
