"lineid","car","time","location","longitude","latitude","cityid","cityname"
"234044","148-BY","2018/07/14 12:49:32","新北市永和區秀朗路二段124-3號","121.524803333333","25.00154","6500400","永和區"
"234070","149-BY","2018/07/14 12:49:41","新北市永和區環河東路三段40號","121.526631666667","25.0066466666667","6500400","永和區"
"234005","207-UY","2018/07/14 12:49:38","新北市永和區文化路164號","121.512188333333","25.01538","6500400","永和區"
"234078","298-R6","2018/07/14 12:49:49","新北市永和區林森路112巷9弄1號","121.522275","25.0043033333333","6500400","永和區"
"234036","336-UY","2018/07/14 12:49:32","新北市永和區成功路一段36號","121.52701","25.004515","6500400","永和區"
"234062","337-UY","2018/07/14 12:49:31","新北市永和區福和路1號","121.526271666667","25.0099233333333","6500400","永和區"
"234068","552-UM","2018/07/14 12:49:45","新北市永和區竹林路155號","121.520515","25.0103983333333","6500400","永和區"
"234084","553-UM","2018/07/14 12:49:38","新北市永和區中正路77號","121.515076666667","24.9968416666667","6500400","永和區"
"234015","745-BX","2018/07/14 12:49:33","新北市永和區永和路二段393-1號","121.515588333333","25.0165933333333","6500400","永和區"
"234028","746-BX","2018/07/14 12:49:48","新北市永和區得和路321號","121.523385","24.9995566666667","6500400","永和區"
"234052","KEA-2590","2018/07/14 12:49:36","新北市永和區豫溪街191巷1弄3號","121.523085","25.01049","6500400","永和區"
"234012","KEA-2591","2018/07/14 12:49:43","新北市永和區保福路二段133巷37號","121.509016666667","25.0133266666667","6500400","永和區"
"234060","AAD-866","2018/07/14 12:49:39","新北市永和區福和路175號","121.519916666667","25.0076283333333","6500400","永和區"
"234066","847-RS","2018/07/14 12:49:46","新北市永和區永和路一段22號","121.513008333333","25.0048566666667","6500400","永和區"
"234040","862-TW","2018/07/14 12:49:42","新北市永和區永貞路308號","121.511863333333","25.0048683333333","6500400","永和區"
"234048","863-TW","2018/07/14 12:49:40","新北市永和區環河東路二段54號","121.523493333333","25.0118133333333","6500400","永和區"
"234025","9371-KE","2018/07/14 12:49:33","新北市永和區中正路657號","121.514965","25.0101883333333","6500400","永和區"
"234010","9373-KE","2018/07/14 12:49:38","新北市永和區保福路二段158巷1號","121.509145","25.0150966666667","6500400","永和區"
"248017","225-UY","2018/07/14 12:49:33","新北市五股區中興路二段83巷26-6號","121.46002","25.075265","6501500","五股區"
"234022","9380-KE","2018/07/14 12:49:52","新北市永和區竹林路119巷22弄37號","121.52249","25.01125","6500400","永和區"
"234076","969-R7","2018/07/14 12:49:38","新北市永和區中正路4號","121.512405","24.9935516666667","6500400","永和區"
"234001","AAC-295","2018/07/14 12:49:50","新北市永和區中正路539號","121.51682","25.00792","6500400","永和區"
"231005","001-UM","2018/07/14 12:49:39","新北市新店區安華路28-1號","121.519508333333","24.9608916666667","6500600","新店區"
"231028","046-UY","2018/07/14 12:49:43","新北市新店區安華路28-1號","121.519586666667","24.96099","6500600","新店區"
"231010","107-UY","2018/07/14 12:49:36","新北市新店區安一路一段1-1號","121.519476666667","24.96123","6500600","新店區"
"231036","110-UY","2018/07/14 12:49:43","新北市新店區安一路一段1-1號","121.519336666667","24.96123","6500600","新店區"
"231012","187-VK","2018/07/14 12:49:38","新北市新店區安一路一段1-1號","121.519541666667","24.9611616666667","6500600","新店區"
"231023","KEA-2219","2018/07/14 12:49:38","新北市新店區安一路一段1-1號","121.519886666667","24.9611383333333","6500600","新店區"
"231003","268-BY","2018/07/14 12:49:29","新北市新店區安華路28-1號","121.51943","24.960735","6500600","新店區"
"231018","278-BY","2018/07/14 12:49:47","新北市新店區安華路8號","121.520255","24.9621283333333","6500600","新店區"
"231017","AAD-862","2018/07/14 12:49:35","新北市新店區安華路30巷1號","121.51947","24.9596683333333","6500600","新店區"
"231037","4716-K9","2018/07/14 12:49:35","新北市新店區安一路一段1-1號","121.519435","24.9611716666667","6500600","新店區"
"231034","616-UM","2018/07/14 12:49:41","新北市新店區安華路28-1號","121.519566666667","24.9608566666667","6500600","新店區"
"231030","619-UM","2018/07/14 12:49:43","新北市新店區安華路28-1號","121.519466666667","24.9609666666667","6500600","新店區"
"231035","719-UM","2018/07/14 12:49:33","新北市新店區安一路一段1-1號","121.519548333333","24.9614183333333","6500600","新店區"
"231020","719-UY","2018/07/14 12:49:36","新北市新店區安一路一段1-1號","121.519275","24.9612583333333","6500600","新店區"
"231033","720-UM","2018/07/14 12:49:47","新北市新店區安一路一段1-1號","121.519275","24.96122","6500600","新店區"
"231029","897-TW","2018/07/14 12:49:42","新北市新店區安華路28-1號","121.51951","24.960765","6500600","新店區"
"235029","098-UM","2018/07/14 12:49:37","新北市中和區錦和路216號","121.490516666667","24.99409","6500300","中和區"
"235022","151-BY","2018/07/14 12:49:36","新北市中和區員山路36巷16-2號","121.485266666667","24.9917666666667","6500300","中和區"
"235002","185-VK","2018/07/14 12:49:35","新北市中和區中正路637巷52弄1號","121.485433333333","24.9934666666667","6500300","中和區"
"235031","255-BX","2018/07/14 12:49:46","新北市中和區新民街90號","121.481695","25.007625","6500300","中和區"
"235001","611-BX","2018/07/14 12:49:41","新北市中和區錦和路350-1號","121.490736666667","24.9935083333333","6500300","中和區"
"235035","783-BX","2018/07/14 12:49:42","新北市中和區員山路36巷16-2號","121.48529","24.991525","6500300","中和區"
"228005","097-TW","2018/07/14 12:49:46","新北市貢寮區福連里福連街34-1號","121.988656666667","25.0111066666667","6502600","貢寮區"
"228004","212-TW","2018/07/14 12:49:42","新北市貢寮區吉林里內寮街20-1號","121.889878333333","24.9947283333333","6502600","貢寮區"
"207002","749-BX","2018/07/14 12:49:40","新北市萬里區雙興里二坪路32號","121.644691666667","25.1687066666667","6502800","萬里區"
"207001","662-BX","2018/07/14 12:49:39","新北市萬里區萬里里獅頭路22-1號","121.693021666667","25.1782766666667","6502800","萬里區"
"236006","498-BY","2018/07/14 12:49:38","新北市土城區永寧路51號","121.429865","24.9615016666667","6501300","土城區"
"221032","280-BY","2018/07/14 12:49:40","新北市汐止區大同路二段537號","121.662001666667","25.0691216666667","6501100","汐止區"
"235032","KEA-2873","2018/07/14 12:49:40","新北市中和區員山路36巷16-2號","121.485301666667","24.9914683333333","6500300","中和區"
