"lineid","car","time","location","longitude","latitude","cityid","cityname"
"234044","148-BY","2018/07/14 12:59:32","新北市永和區得和路373巷16弄1號","121.525081666667","25.0003016666667","6500400","永和區"
"234070","149-BY","2018/07/14 12:59:41","新北市永和區民生路67巷21號","121.523876666667","24.9973833333333","6500400","永和區"
"234005","207-UY","2018/07/14 12:59:38","新北市永和區永和路二段48號","121.51479","25.0107083333333","6500400","永和區"
"234078","298-R6","2018/07/14 12:59:48","新北市永和區永亨路83號","121.521773333333","25.0056783333333","6500400","永和區"
"234036","336-UY","2018/07/14 12:59:32","新北市永和區成功路二段207號","121.526528333333","24.9959733333333","6500400","永和區"
"234062","337-UY","2018/07/14 12:59:37","新北市永和區秀朗路一段205號","121.519076666667","25.00329","6500400","永和區"
"234068","552-UM","2018/07/14 12:59:45","新北市永和區中興街84巷8號","121.518523333333","25.0116566666667","6500400","永和區"
"234084","553-UM","2018/07/14 12:59:38","新北市永和區永寧街129巷2號","121.518055","25.0054016666667","6500400","永和區"
"234015","745-BX","2018/07/14 12:59:33","新北市永和區永和路二段299號","121.516038333333","25.0161316666667","6500400","永和區"
"234028","746-BX","2018/07/14 12:59:48","新北市永和區秀朗路二段291號","121.52616","24.9979416666667","6500400","永和區"
"234052","KEA-2590","2018/07/14 12:59:36","新北市永和區竹林路64號","121.518336666667","25.0134966666667","6500400","永和區"
"234012","KEA-2591","2018/07/14 12:59:43","新北市永和區信義路17巷8號","121.51387","25.011735","6500400","永和區"
"234060","AAD-866","2018/07/14 12:59:41","新北市永和區福和路301號","121.51642","25.0072283333333","6500400","永和區"
"234066","847-RS","2018/07/14 12:59:46","新北市永和區自由街58號","121.513943333333","25.0060216666667","6500400","永和區"
"234040","862-TW","2018/07/14 12:59:49","新北市永和區永貞路308號","121.511861666667","25.0048683333333","6500400","永和區"
"234048","863-TW","2018/07/14 12:59:40","新北市永和區文化路194號","121.510848333333","25.0162183333333","6500400","永和區"
"234025","9371-KE","2018/07/14 12:59:33","新北市永和區水源街2巷20號","121.512216666667","25.0057383333333","6500400","永和區"
"234010","9373-KE","2018/07/14 12:59:38","新北市永和區文化路113巷19號","121.51324","25.014055","6500400","永和區"
"248017","225-UY","2018/07/14 12:59:33","新北市五股區中興路二段83巷26-6號","121.460075","25.0752216666667","6501500","五股區"
"234022","9380-KE","2018/07/14 12:59:34","新北市永和區竹林路75巷25弄3號","121.520316666667","25.01421","6500400","永和區"
"234076","969-R7","2018/07/14 12:59:38","新北市永和區民享街10號","121.515266666667","24.9953733333333","6500400","永和區"
"234072","AAC-211","2018/07/14 12:59:31","新北市永和區環河東路二段100號","121.524126666667","25.0103333333333","6500400","永和區"
"234001","AAC-295","2018/07/14 12:59:30","新北市永和區永平路30號","121.513175","25.0087783333333","6500400","永和區"
"231005","001-UM","2018/07/14 12:59:39","新北市新店區安華路28-1號","121.519496666667","24.96087","6500600","新店區"
"231028","046-UY","2018/07/14 12:59:43","新北市新店區安華路28-1號","121.519608333333","24.9609466666667","6500600","新店區"
"231001","047-UY","2018/07/14 12:59:43","新北市新店區安華路28-1號","121.519366666667","24.9608833333333","6500600","新店區"
"231010","107-UY","2018/07/14 12:59:36","新北市新店區安一路一段1-1號","121.519493333333","24.9614433333333","6500600","新店區"
"231036","110-UY","2018/07/14 12:59:43","新北市新店區安一路一段1-1號","121.519375","24.9612266666667","6500600","新店區"
"231012","187-VK","2018/07/14 12:59:38","新北市新店區安一路一段1-1號","121.519603333333","24.9611616666667","6500600","新店區"
"231023","KEA-2219","2018/07/14 12:59:38","新北市新店區安一路一段1-1號","121.519843333333","24.961145","6500600","新店區"
"231003","268-BY","2018/07/14 12:59:49","新北市新店區安華路28-1號","121.519386666667","24.9605833333333","6500600","新店區"
"231018","278-BY","2018/07/14 12:59:47","新北市新店區安華路15-2號","121.520703333333","24.9622916666667","6500600","新店區"
"231017","AAD-862","2018/07/14 12:59:35","新北市新店區安一路一段1-1號","121.51987","24.9611266666667","6500600","新店區"
"231037","4716-K9","2018/07/14 12:59:35","新北市新店區安一路一段1-1號","121.51941","24.9611683333333","6500600","新店區"
"231013","513-UM","2018/07/14 12:59:41","新北市新店區安一路一段1-1號","121.51972","24.9612616666667","6500600","新店區"
"231034","616-UM","2018/07/14 12:59:41","新北市新店區安華路28-1號","121.519413333333","24.9606183333333","6500600","新店區"
"231030","619-UM","2018/07/14 12:59:43","新北市新店區安華路28-1號","121.519626666667","24.960805","6500600","新店區"
"231035","719-UM","2018/07/14 12:59:33","新北市新店區安一路一段1-1號","121.51948","24.961185","6500600","新店區"
"231020","719-UY","2018/07/14 12:59:36","新北市新店區安一路一段1-1號","121.519331666667","24.961175","6500600","新店區"
"231033","720-UM","2018/07/14 12:59:47","新北市新店區安一路一段1-1號","121.519393333333","24.96113","6500600","新店區"
"231029","897-TW","2018/07/14 12:59:42","新北市新店區安華路28-1號","121.51956","24.96072","6500600","新店區"
"231024","AKT-0513","2018/07/14 12:59:44","新北市新店區安華路1-1號","121.519445","24.96053","6500600","新店區"
"235030","003-UY","2018/07/14 12:59:50","新北市中和區員山路36巷16-2號","121.485181666667","24.9916066666667","6500300","中和區"
"235028","005-UY","2018/07/14 12:59:33","新北市中和區中正路637巷52弄1號","121.485503333333","24.9936216666667","6500300","中和區"
"235027","006-UY","2018/07/14 12:59:47","新北市中和區員山路36巷16-3號","121.484986666667","24.9912783333333","6500300","中和區"
"235029","098-UM","2018/07/14 12:59:37","新北市中和區福祥路135號","121.498188333333","25.0075","6500300","中和區"
"235022","151-BY","2018/07/14 12:59:37","新北市中和區錦和路350-1號","121.490561666667","24.9935533333333","6500300","中和區"
"235002","185-VK","2018/07/14 12:59:35","新北市中和區景平路315號","121.506261666667","24.9932683333333","6500300","中和區"
"235031","255-BX","2018/07/14 12:59:46","新北市中和區中山路二段550號","121.483903333333","25.0053483333333","6500300","中和區"
"235006","KEA-2878","2018/07/14 12:59:31","新北市中和區中正路637巷52弄1號","121.485495","24.9933966666667","6500300","中和區"
"235001","611-BX","2018/07/14 12:59:41","新北市中和區民安街178號","121.476856666667","25.0000866666667","6500300","中和區"
"235018","640-BX","2018/07/14 12:59:43","新北市土城區金城路三段216號","121.47213","24.9901466666667","6500300","中和區"
"235035","783-BX","2018/07/14 12:59:42","新北市中和區新生街287號","121.483791666667","24.9974333333333","6500300","中和區"
"235026","800-TS","2018/07/14 12:59:44","新北市中和區中正路637巷52弄1號","121.485568333333","24.9933433333333","6500300","中和區"
"235017","900-TW","2018/07/14 12:59:30","新北市中和區員山路36巷16-2號","121.484956666667","24.99195","6500300","中和區"
"235001","AAC-213","2018/07/14 12:59:45","新北市中和區錦和路350-1號","121.49055","24.9935683333333","6500300","中和區"
"228005","097-TW","2018/07/14 12:59:46","新北市貢寮區福隆里東興街10-1號","121.950855","25.0190566666667","6502600","貢寮區"
"228004","212-TW","2018/07/14 12:59:42","新北市貢寮區吉林里內寮街19號","121.887181666667","24.9878866666667","6502600","貢寮區"
"253002","637-UY","2018/07/14 12:59:45","新北市石門區石門街1號","121.5661","25.291345","6502200","石門區"
"253004","8270-PC","2018/07/14 12:59:48","新北市石門區中山路64-1號","121.567346666667","25.2905","6502200","石門區"
"207002","749-BX","2018/07/14 12:59:40","新北市萬里區雙興里大坪路37-4號","121.62929","25.169415","6502800","萬里區"
"252005","073-UM","2018/07/14 12:59:39","新北市三芝區埔坪里埔頭坑107號","121.504828333333","25.2616166666667","6502100","三芝區"
"207001","662-BX","2018/07/14 12:59:39","新北市萬里區萬里里獅頭路22-1號","121.693068333333","25.1781533333333","6502800","萬里區"
"236006","498-BY","2018/07/14 12:59:38","新北市土城區亞洲路32巷6號","121.43577","24.9744583333333","6501300","土城區"
"221032","280-BY","2018/07/14 12:59:40","新北市汐止區建成路57巷1號","121.662418333333","25.072665","6501100","汐止區"
"235032","KEA-2873","2018/07/14 12:59:40","新北市中和區員山路36巷16-3號","121.485193333333","24.9912416666667","6500300","中和區"
