"lineid","car","time","location","longitude","latitude","cityid","cityname"
"234044","148-BY","2018/07/14 13:59:33","新北市永和區成功路一段16巷2號","121.526825","25.0054416666667","6500400","永和區"
"234070","149-BY","2018/07/14 13:59:41","新北市永和區民治街68號","121.517828333333","24.99806","6500400","永和區"
"234005","207-UY","2018/07/14 13:59:38","新北市中和區中和路302號","121.508926666667","24.9998116666667","6500400","永和區"
"234078","298-R6","2018/07/14 13:59:46","新北市永和區永利路75巷6號","121.522028333333","25.0037383333333","6500400","永和區"
"234036","336-UY","2018/07/14 13:59:32","新北市永和區成功路二段152-2號","121.526485","24.9966966666667","6500400","永和區"
"234062","337-UY","2018/07/14 13:59:38","新北市永和區中正路368巷1弄45號","121.519203333333","25.0010633333333","6500400","永和區"
"234068","552-UM","2018/07/14 13:59:45","新北市永和區國光路39-2號","121.519131666667","25.00806","6500400","永和區"
"234084","553-UM","2018/07/14 13:59:38","新北市永和區福和路98號","121.522303333333","25.00803","6500400","永和區"
"234015","745-BX","2018/07/14 13:59:36","新北市永和區文化路146號","121.512601666667","25.015305","6500400","永和區"
"234028","746-BX","2018/07/14 13:59:48","新北市永和區四維街65號","121.525763333333","24.9978616666667","6500400","永和區"
"234052","KEA-2590","2018/07/14 13:59:36","新北市永和區竹林路39巷42弄1號","121.520186666667","25.015235","6500400","永和區"
"234012","KEA-2591","2018/07/14 13:59:43","新北市永和區保生路55號","121.504693333333","25.0106516666667","6500400","永和區"
"234060","AAD-866","2018/07/14 13:59:39","新北市永和區中正路151巷14號","121.515561666667","24.9988933333333","6500400","永和區"
"234066","847-RS","2018/07/14 13:59:46","新北市永和區永貞路358號","121.510228333333","25.0066283333333","6500400","永和區"
"234040","862-TW","2018/07/14 13:59:47","新北市永和區中和路335巷18弄30號","121.508093333333","25.000455","6500400","永和區"
"234048","863-TW","2018/07/14 13:59:40","新北市永和區保安路246號","121.506383333333","25.0128216666667","6500400","永和區"
"234010","9373-KE","2018/07/14 13:59:38","新北市永和區仁愛路352巷94號","121.501175","25.00805","6500400","永和區"
"248017","225-UY","2018/07/14 13:59:33","新北市五股區民義路一段287巷2-6號","121.423501666667","25.09026","6501500","五股區"
"234022","9380-KE","2018/07/14 13:59:52","新北市永和區永和路二段271號","121.515921666667","25.01542","6500400","永和區"
"234076","969-R7","2018/07/14 13:59:37","新北市永和區民權路58巷2弄1號","121.519575","24.99834","6500400","永和區"
"234072","AAC-211","2018/07/14 13:59:50","新北市永和區豫溪街134號","121.520976666667","25.010355","6500400","永和區"
"234001","AAC-295","2018/07/14 13:59:50","新北市永和區福和路330號","121.515446666667","25.0073116666667","6500400","永和區"
"244005","248-BX","2018/07/14 13:59:43","新北市林口區竹林路418巷8號","121.389678333333","25.08478","6501700","林口區"
"231005","001-UM","2018/07/14 13:59:39","新北市新店區中興路三段221號","121.543213333333","24.98266","6500600","新店區"
"231002","002-UM","2018/07/14 13:59:37","新北市新店區中正路650號","121.533938333333","24.989325","6500600","新店區"
"231027","0291-UT","2018/07/14 13:59:36","新北市新店區北宜路一段39巷20號","121.53877","24.958485","6500600","新店區"
"231028","046-UY","2018/07/14 13:59:43","新北市新店區安和路三段46號","121.517976666667","24.981725","6500600","新店區"
"231001","047-UY","2018/07/14 13:59:43","新北市新店區三民路45號","121.53712","24.9708883333333","6500600","新店區"
"231010","107-UY","2018/07/14 13:59:36","新北市新店區環河路180-3號","121.53534","24.9692033333333","6500600","新店區"
"231036","110-UY","2018/07/14 13:59:48","新北市新店區安祥路106-19號","121.476251666667","24.9603066666667","6500600","新店區"
"231012","187-VK","2018/07/14 13:59:38","新北市新店區德正街27巷36號","121.545855","24.971345","6500600","新店區"
"231023","KEA-2219","2018/07/14 13:59:38","新北市新店區文中路45號","121.539608333333","24.9566716666667","6500600","新店區"
"231026","256-BX","2018/07/14 13:59:43","新北市新店區安一路一段1-1號","121.519446666667","24.9615","6500600","新店區"
"231003","268-BY","2018/07/14 13:59:29","新北市新店區中興路一段110號","121.541203333333","24.9622266666667","6500600","新店區"
"231018","278-BY","2018/07/14 13:59:42","新北市新店區中央路133巷18號","121.53096","24.97338","6500600","新店區"
"231017","AAD-862","2018/07/14 13:59:35","新北市新店區北宜路二段150號","121.557738333333","24.9533533333333","6500600","新店區"
"231004","355-BY","2018/07/14 13:59:39","新北市新店區寶橋路56號","121.546056666667","24.97538","6500600","新店區"
"231038","3712-VJ","2018/07/14 13:59:40","新北市新店區安華路30巷1號","121.519638333333","24.9593233333333","6500600","新店區"
"231037","4716-K9","2018/07/14 13:59:35","新北市新店區安康路三段165巷2弄10號","121.489158333333","24.9513233333333","6500600","新店區"
"231025","4715-K9","2018/07/14 13:59:34","新北市新店區中正路328巷42弄10號","121.538481666667","24.976035","6500600","新店區"
"231013","513-UM","2018/07/14 13:59:42","新北市新店區明德路68號","121.541591666667","24.9796916666667","6500600","新店區"
"231034","616-UM","2018/07/14 13:59:41","新北市新店區達觀路12號","121.505655","24.9404216666667","6500600","新店區"
"231006","617-UM","2018/07/14 13:59:33","新北市新店區北宜路二段211號","121.5532","24.9533166666667","6500600","新店區"
"231030","619-UM","2018/07/14 13:59:43","新北市新店區安和路一段2-1號","121.517085","24.9646066666667","6500600","新店區"
"231035","719-UM","2018/07/14 13:59:33","新北市新店區安康路二段1-5號","121.517053333333","24.9638716666667","6500600","新店區"
"231020","719-UY","2018/07/14 13:59:36","新北市新店區新烏路二段50巷1號","121.5474","24.92801","6500600","新店區"
"231033","720-UM","2018/07/14 13:59:47","新北市新店區華城路14號","121.529241666667","24.957625","6500600","新店區"
"231029","897-TW","2018/07/14 13:59:42","新北市新店區安康路二段3-3號","121.515953333333","24.9636766666667","6500600","新店區"
"231024","AKT-0513","2018/07/14 13:59:44","新北市新店區中央二街68號","121.526081666667","24.9746933333333","6500600","新店區"
"235030","003-UY","2018/07/14 13:59:50","新北市中和區水源路6巷6號","121.503523333333","25.00343","6500300","中和區"
"235028","005-UY","2018/07/14 13:59:32","新北市中和區泰和街30巷7號","121.499278333333","25.0006716666667","6500300","中和區"
"235027","006-UY","2018/07/14 13:59:47","新北市中和區中正路548號","121.487153333333","24.9943833333333","6500300","中和區"
"235020","096-UM","2018/07/14 13:59:48","新北市中和區中正路1230號","121.4791","25.011015","6500300","中和區"
"235003","097-UM","2018/07/14 13:59:39","新北市中和區秀朗路三段177號","121.524308333333","24.9910633333333","6500300","中和區"
"235029","098-UM","2018/07/14 13:59:37","新北市中和區中山路二段2巷89號","121.500686666667","25.007755","6500300","中和區"
"235004","150-BY","2018/07/14 13:59:38","新北市中和區保健路46巷23號","121.509016666667","24.9961516666667","6500300","中和區"
"235022","151-BY","2018/07/14 13:59:36","新北市中和區連城路518巷8號","121.476558333333","24.9925333333333","6500300","中和區"
"235019","183-VK","2018/07/14 13:59:48","新北市中和區德光路104號","121.468305","25.0033183333333","6500300","中和區"
"235002","185-VK","2018/07/14 13:59:35","新北市中和區立人街24-4號","121.51885","24.99424","6500300","中和區"
"235013","186-VK","2018/07/14 13:59:45","新北市中和區景安路167巷5號","121.505778333333","24.9946933333333","6500300","中和區"
"235031","255-BX","2018/07/14 13:59:45","新北市中和區新生街264號","121.48373","24.9971883333333","6500300","中和區"
"235008","293-VK","2018/07/14 13:59:39","新北市中和區中興街161巷1弄2號","121.500366666667","24.9909283333333","6500300","中和區"
"235036","301-VK","2018/07/14 13:59:48","新北市中和區中山路二段95號","121.503388333333","25.0041583333333","6500300","中和區"
"235007","352-BY","2018/07/14 13:59:47","新北市中和區成功路1巷4號","121.526468333333","24.994415","6500300","中和區"
"235006","KEA-2878","2018/07/14 13:59:31","新北市中和區秀朗路三段128巷1弄7-5號","121.524198333333","24.99179","6500300","中和區"
"247009","KEA-2869","2018/07/14 13:59:44","新北市蘆洲區集賢路224巷25號","121.481645","25.087025","6501400","蘆洲區"
"235014","4979-A6","2018/07/14 13:59:43","新北市中和區華新街50巷4號","121.507726666667","24.9840066666667","6500300","中和區"
"235033","4980-A6","2018/07/14 13:59:40","新北市中和區圓通路109巷1弄6號","121.499978333333","24.9963983333333","6500300","中和區"
"235034","558-UM","2018/07/14 13:59:47","新北市中和區中和路170號","121.504561666667","24.9997633333333","6500300","中和區"
"235009","565-BX","2018/07/14 13:59:33","新北市中和區景新街467巷20弄94號","121.51458","24.98743","6500300","中和區"
"235018","640-BX","2018/07/14 13:59:43","新北市中和區國光街107巷2弄29號","121.469431666667","24.9990066666667","6500300","中和區"
"235024","647-TV","2018/07/14 13:59:42","新北市中和區民治街11巷1號","121.475201666667","25.00432","6500300","中和區"
"235011","732-UM","2018/07/14 13:59:33","新北市中和區興南路二段54巷2-8號","121.506055","24.98556","6500300","中和區"
"235010","733-UM","2018/07/14 13:59:40","新北市中和區興南路一段135巷22弄4號","121.509131666667","24.9868666666667","6500300","中和區"
"235035","783-BX","2018/07/14 13:59:42","新北市中和區建三路24號","121.486145","25.0021733333333","6500300","中和區"
"235026","800-TS","2018/07/14 13:59:44","新北市中和區中山路二段366巷34號","121.491676666667","25.0049566666667","6500300","中和區"
"235021","801-TS","2018/07/14 13:59:36","新北市中和區民利街40巷1弄12號","121.478958333333","24.99899","6500300","中和區"
"235005","802-TS","2018/07/14 13:59:46","新北市中和區永貞路239巷13號","121.512741666667","25.0030783333333","6500300","中和區"
"235016","805-TS","2018/07/14 13:59:46","新北市中和區興南路二段261巷6-3號","121.502586666667","24.9796083333333","6500300","中和區"
"235012","896-TW","2018/07/14 13:59:36","新北市中和區華新街33號","121.507723333333","24.98474","6500300","中和區"
"235017","900-TW","2018/07/14 13:59:50","新北市中和區和平路200巷35弄1號","121.46537","24.9945583333333","6500300","中和區"
"235015","157-BY","2018/07/14 13:59:50","新北市中和區忠孝街13號","121.510025","24.982785","6500300","中和區"
"235001","AAC-213","2018/07/14 13:59:45","新北市中和區秀朗路三段10巷37弄1號","121.524186666667","24.9960916666667","6500300","中和區"
"235023","AAC-215","2018/07/14 13:59:50","新北市中和區圓通路369巷14弄20號","121.490448333333","24.987905","6500300","中和區"
"220016","013-TV","2018/07/14 13:59:43","新北市板橋區三民路一段31巷9-2號","121.479623333333","25.0231933333333","6500100","板橋區"
"220028","015-TV","2018/07/14 13:59:33","新北市板橋區合宜一路1-5號","121.442581666667","24.9970183333333","6500100","板橋區"
"220013","072-UY","2018/07/14 13:59:47","新北市板橋區民族路277號","121.471058333333","25.0066716666667","6500100","板橋區"
"220034","073-UY","2018/07/14 13:59:38","新北市板橋區中正路236巷34號","121.457003333333","25.01918","6500100","板橋區"
"220105","075-UY","2018/07/14 13:59:37","新北市板橋區莒光路18號","121.469875","25.0246466666667","6500100","板橋區"
"220017","AAD-861","2018/07/14 13:59:34","新北市板橋區華興街73-1號","121.457055","25.0050233333333","6500100","板橋區"
"247013","546-UM","2018/07/14 13:59:35","新北市蘆洲區中正路187號","121.468655","25.0855683333333","6501400","蘆洲區"
"247003","337-TH","2018/07/14 13:59:43","新北市蘆洲區長榮路39號","121.463218333333","25.08261","6501400","蘆洲區"
"247005","336-TH","2018/07/14 13:59:45","新北市蘆洲區九芎街167巷6號","121.464776666667","25.07861","6501400","蘆洲區"
"247017","057-VK","2018/07/14 13:59:46","新北市蘆洲區民族路327巷77號","121.475405","25.0896","6501400","蘆洲區"
"247007","053-VK","2018/07/14 13:59:50","新北市三重區永安北路一段105-1號","121.480018333333","25.07937","6501400","蘆洲區"
"247001","002-UY","2018/07/14 13:59:36","新北市蘆洲區三民路603號","121.460671666667","25.09365","6501400","蘆洲區"
"247019","001-UY","2018/07/14 13:59:41","新北市蘆洲區民族路422巷88-1號","121.473425","25.0939183333333","6501400","蘆洲區"
"228005","097-TW","2018/07/14 13:59:06","新北市貢寮區美豐里雞母嶺街52-1號","121.889358333333","25.068125","6502600","貢寮區"
"228004","212-TW","2018/07/14 13:59:02","新北市貢寮區龍崗里嵩陽街55號","121.907215","25.016585","6502600","貢寮區"
"253003","6232-TK","2018/07/14 13:59:42","新北市石門區阿里磅9號","121.583455","25.2681183333333","6502200","石門區"
"253001","6251-TK","2018/07/14 13:59:35","新北市石門區八甲53號","121.520111666667","25.275735","6502200","石門區"
"253002","637-UY","2018/07/14 13:51:45","新北市石門區尖山湖18號","121.558575","25.2471033333333","6502200","石門區"
"253004","8270-PC","2018/07/14 13:59:34","新北市石門區草埔尾15-1號","121.601801666667","25.2644","6502200","石門區"
"207002","749-BX","2018/07/14 13:58:40","新北市萬里區溪底里烏塗炭9號","121.637345","25.15167","6502800","萬里區"
"252005","073-UM","2018/07/14 13:59:39","新北市三芝區圓山里二坪頂78號","121.541936666667","25.2460416666667","6502100","三芝區"
"207001","662-BX","2018/07/14 13:58:39","新北市萬里區磺潭里清水13號","121.636368333333","25.2012666666667","6502800","萬里區"
"236068","105-UM","2018/07/14 13:59:34","新北市土城區金城路一段86號","121.444796666667","24.9734333333333","6501300","土城區"
"236074","166-UM","2018/07/14 13:59:34","新北市土城區永寧路32巷10弄8號","121.429051666667","24.9609966666667","6501300","土城區"
"236029","253-BX","2018/07/14 13:59:38","新北市土城區興城路98號","121.440548333333","24.9716083333333","6501300","土城區"
"236024","269-VK","2018/07/14 13:59:32","新北市土城區承天路31號","121.4369","24.9651816666667","6501300","土城區"
"236013","270-VK","2018/07/14 13:59:41","新北市土城區城林路6巷80號","121.438441666667","24.9797516666667","6501300","土城區"
"236032","271-VK","2018/07/14 13:59:42","新北市土城區城林路6巷80號","121.438471666667","24.9798483333333","6501300","土城區"
"236017","401-BY","2018/07/14 13:59:44","新北市土城區城林路6巷80號","121.438638333333","24.979705","6501300","土城區"
"236006","498-BY","2018/07/14 13:59:38","新北市土城區中華路一段10-1號","121.448043333333","24.9907366666667","6501300","土城區"
"236040","752-BX","2018/07/14 13:59:47","新北市土城區城林路6巷80號","121.438586666667","24.9797883333333","6501300","土城區"
"236057","912-UM","2018/07/14 13:59:43","新北市土城區中央路三段238-4號","121.428308333333","24.9643916666667","6501300","土城區"
"236045","913-UM","2018/07/14 13:59:36","新北市土城區城林路6巷80號","121.43848","24.9796733333333","6501300","土城區"
"236060","915-UM","2018/07/14 13:59:37","新北市土城區中華路二段2號","121.43897","24.9797933333333","6501300","土城區"
"236054","AAC-216","2018/07/14 13:59:45","新北市土城區中華路二段62號","121.43898","24.9768833333333","6501300","土城區"
"220030","610-BX","2018/07/14 13:59:48","新北市板橋區滿平街123號","121.428655","24.9883966666667","6500100","板橋區"
"220050","245-BX","2018/07/14 13:59:47","新北市板橋區文化路二段182巷21號","121.472455","25.0267833333333","6500100","板橋區"
"220040","267-BY","2018/07/14 13:59:53","新北市板橋區雙十路二段47巷5-1號","121.476181666667","25.0260033333333","6500100","板橋區"
"220004","276-BY","2018/07/14 13:59:51","新北市板橋區信義路148號","121.4589","24.99196","6500100","板橋區"
"220020","277-BY","2018/07/14 13:59:39","新北市板橋區金門街369巷29號","121.428973333333","24.9844466666667","6500100","板橋區"
"220019","283-VK","2018/07/14 13:59:48","新北市板橋區和平路239號","121.465238333333","24.99873","6500100","板橋區"
"220043","285-UM","2018/07/14 13:59:45","新北市板橋區文化路二段39號","121.468893333333","25.0249833333333","6500100","板橋區"
"220001","285-VK","2018/07/14 13:59:50","新北市板橋區中山路二段89巷66號","121.47363","25.0176033333333","6500100","板橋區"
"220031","286-VK","2018/07/14 13:59:38","新北市板橋區龍興街101巷6號","121.444148333333","25.0032716666667","6500100","板橋區"
"220029","287-VK","2018/07/14 13:59:47","新北市板橋區光華街39巷4號","121.45354","25.0132133333333","6500100","板橋區"
"220039","288-VK","2018/07/14 13:59:32","新北市板橋區互助街25巷9號","121.46313","25.027095","6500100","板橋區"
"220009","293-UM","2018/07/14 13:59:41","新北市板橋區永豐街120巷3號","121.476606666667","25.0205833333333","6500100","板橋區"
"220032","296-UM","2018/07/14 13:59:38","新北市板橋區篤行路一段16號","121.431276666667","24.9954366666667","6500100","板橋區"
"220023","303-R5","2018/07/14 13:59:49","新北市板橋區南雅西路二段222號","121.452073333333","25.01545","6500100","板橋區"
"220010","305-R5","2018/07/14 13:59:42","新北市中和區環中路120號","121.48193","25.0124466666667","6500100","板橋區"
"220041","307-R5","2018/07/14 13:59:39","新北市板橋區文化路一段104巷1弄20號","121.465498333333","25.01789","6500100","板橋區"
"220047","317-R6","2018/07/14 13:59:42","新北市板橋區民有街38號","121.465988333333","25.0257","6500100","板橋區"
"220012","486-VK","2018/07/14 13:59:48","新北市板橋區板新路215號","121.46834","25.01594","6500100","板橋區"
"220037","491-VK","2018/07/14 13:59:49","新北市板橋區文化路二段26號","121.468866666667","25.024525","6500100","板橋區"
"220104","560-BX","2018/07/14 13:59:42","新北市板橋區中正路379巷3弄1號","121.45328","25.021135","6500100","板橋區"
"220052","561-BX","2018/07/14 13:59:49","新北市板橋區縣民大道二段279號","121.469988333333","25.01788","6500100","板橋區"
"220027","568-UM","2018/07/14 13:59:39","新北市板橋區民權路256號","121.458283333333","25.015065","6500100","板橋區"
"220011","609-BX","2018/07/14 13:59:29","新北市板橋區中山路二段114號","121.476011666667","25.0167716666667","6500100","板橋區"
"220005","686-BX","2018/07/14 13:59:43","新北市板橋區館前東路76號","121.461483333333","25.00729","6500100","板橋區"
"220042","689-BX","2018/07/14 13:59:45","新北市板橋區民生路三段142號","121.466233333333","25.027145","6500100","板橋區"
"220002","741-BX","2018/07/14 13:59:37","新北市板橋區重慶路93巷20號","121.462905","25.0057766666667","6500100","板橋區"
"220051","KEA-2699","2018/07/14 13:59:34","新北市板橋區懷德街235巷2-1號","121.481365","25.0281633333333","6500100","板橋區"
"220025","806-UM","2018/07/14 13:59:45","新北市板橋區大觀路一段38巷2號","121.443673333333","25.004405","6500100","板橋區"
"220003","827-TW","2018/07/14 13:59:46","新北市板橋區中山路一段158號","121.465876666667","25.0118283333333","6500100","板橋區"
"220014","829-TW","2018/07/14 13:59:49","新北市板橋區三民路二段正隆巷12弄10號","121.47795","25.0132983333333","6500100","板橋區"
"220045","830-TW","2018/07/14 13:59:35","新北市板橋區莒光路77號","121.47168","25.0242683333333","6500100","板橋區"
"220038","833-TW","2018/07/14 13:59:47","新北市板橋區文聖街23號","121.47589","25.0319933333333","6500100","板橋區"
"220022","895-R6","2018/07/14 13:59:43","新北市板橋區館前西路148號","121.455866666667","25.0083066666667","6500100","板橋區"
"220021","985-R7","2018/07/14 13:59:34","新北市板橋區西門街2號","121.455863333333","25.0115883333333","6500100","板橋區"
"220046","AAC-210","2018/07/14 13:59:53","新北市板橋區國光路191號","121.461556666667","25.0185566666667","6500100","板橋區"
"220018","AAC-253","2018/07/14 13:59:37","新北市板橋區四川路一段292號","121.458686666667","25.0006233333333","6500100","板橋區"
"235032","KEA-2873","2018/07/14 13:59:40","新北市中和區連勝街38巷16號","121.49788","24.9979066666667","6500300","中和區"
"235025","KEA-2875","2018/07/14 13:59:30","新北市中和區中山路三段81號","121.476006666667","25.0058516666667","6500300","中和區"
