"lineid","car","time","location","longitude","latitude","cityid","cityname"
"234070","149-BY","2018/07/14 14:59:41","新北市八里區中山路三段380號","121.369001666667","25.1360883333333","6500400","永和區"
"234025","9371-KE","2018/07/14 14:59:46","新北市永和區水源街29號","121.511058333333","25.0043266666667","6500400","永和區"
"248017","225-UY","2018/07/14 14:59:34","新北市五股區登林路89-11號","121.423583333333","25.0707916666667","6501500","五股區"
"234072","AAC-211","2018/07/14 14:59:31","新北市五股區中興路三段163號","121.449108333333","25.0802733333333","6500400","永和區"
"231005","001-UM","2018/07/14 14:59:39","新北市新店區復興路27號","121.539056666667","24.9867066666667","6500600","新店區"
"231002","002-UM","2018/07/14 14:59:37","新北市新店區中正路520號","121.53375","24.983675","6500600","新店區"
"231027","0291-UT","2018/07/14 14:59:36","新北市新店區薏仁坑路自強巷6號","121.496621666667","24.95854","6500600","新店區"
"231028","046-UY","2018/07/14 14:59:43","新北市新店區安豐路21號","121.50107","24.95681","6500600","新店區"
"231001","047-UY","2018/07/14 14:59:43","新北市新店區中正路257號","121.538825","24.9735016666667","6500600","新店區"
"231036","110-UY","2018/07/14 14:59:43","新北市新店區安祥路102巷42弄87號","121.486726666667","24.9630033333333","6500600","新店區"
"231012","187-VK","2018/07/14 14:59:38","新北市新店區寶橋路132號","121.54729","24.9761566666667","6500600","新店區"
"231023","KEA-2219","2018/07/14 14:59:38","新北市新店區檳榔路150號","121.544188333333","24.9614116666667","6500600","新店區"
"231026","256-BX","2018/07/14 14:59:41","新北市新店區博愛街1號","121.540553333333","24.97259","6500600","新店區"
"231003","268-BY","2018/07/14 14:59:49","新北市新店區中興路二段100巷2號","121.547303333333","24.9711966666667","6500600","新店區"
"231018","278-BY","2018/07/14 14:59:42","新北市新店區中央五街3-1號","121.530263333333","24.9742866666667","6500600","新店區"
"231017","AAD-862","2018/07/14 14:59:35","新北市新店區銀河路68-1號","121.580295","24.95849","6500600","新店區"
"231004","355-BY","2018/07/14 14:59:39","新北市新店區民族路20號","121.541028333333","24.9788083333333","6500600","新店區"
"231038","3712-VJ","2018/07/14 14:59:40","新北市新店區安華路28-1號","121.5196","24.9608433333333","6500600","新店區"
"231037","4716-K9","2018/07/14 14:59:35","新北市新店區安興路69-1號","121.515676666667","24.9751066666667","6500600","新店區"
"231025","4715-K9","2018/07/14 14:59:54","新北市新店區大同街8巷1號","121.539585","24.9802033333333","6500600","新店區"
"231034","616-UM","2018/07/14 14:59:41","新北市新店區玫瑰路4-1號","121.493603333333","24.9514033333333","6500600","新店區"
"231006","617-UM","2018/07/14 14:59:53","新北市新店區新坡一街72號","121.548913333333","24.964565","6500600","新店區"
"231030","619-UM","2018/07/14 14:59:43","新北市新店區安民街341-1號","121.516853333333","24.9748733333333","6500600","新店區"
"231039","718-UY","2018/07/14 14:59:39","新北市新店區寶中路45-3號","121.545221666667","24.9789866666667","6500600","新店區"
"231035","719-UM","2018/07/14 14:59:33","新北市新店區安和路二段240號","121.516615","24.9784683333333","6500600","新店區"
"231020","719-UY","2018/07/14 14:59:36","新北市新店區新烏路二段198巷2弄6號","121.548133333333","24.9179316666667","6500600","新店區"
"231033","720-UM","2018/07/14 14:59:47","新北市新店區安泰路60巷48號","121.483516666667","24.94654","6500600","新店區"
"231029","897-TW","2018/07/14 14:59:42","新北市新店區錦秀路1-1號","121.478991666667","24.9456583333333","6500600","新店區"
"231024","AKT-0513","2018/07/14 14:59:48","新北市新店區中華路52號","121.539623333333","24.9685216666667","6500600","新店區"
"235030","003-UY","2018/07/14 14:59:37","新北市中和區中山路二段63號","121.50416","25.0047533333333","6500300","中和區"
"235020","096-UM","2018/07/14 14:59:48","新北市中和區漢民路411號","121.472328333333","25.006985","6500300","中和區"
"235003","097-UM","2018/07/14 14:59:40","新北市中和區宜安路52巷5號","121.51211","24.99702","6500300","中和區"
"235029","098-UM","2018/07/14 14:59:37","新北市中和區橋和路310號","121.497188333333","25.0070033333333","6500300","中和區"
"235004","150-BY","2018/07/14 14:59:38","新北市中和區保健路10巷22號","121.507798333333","24.9966283333333","6500300","中和區"
"235022","151-BY","2018/07/14 14:59:36","新北市中和區員山路150巷2弄3號","121.481753333333","24.9982133333333","6500300","中和區"
"235008","293-VK","2018/07/14 14:59:47","新北市中和區中正路65巷2弄2號","121.501245","24.9931633333333","6500300","中和區"
"235036","301-VK","2018/07/14 14:59:47","新北市中和區連城路160-1號","121.494221666667","24.9979266666667","6500300","中和區"
"235007","352-BY","2018/07/14 14:59:47","新北市中和區華新街230號","121.506098333333","24.9817216666667","6500300","中和區"
"235014","4979-A6","2018/07/14 14:59:43","新北市中和區景平路153號","121.5135","24.9917983333333","6500300","中和區"
"235033","4980-A6","2018/07/14 14:59:40","新北市中和區南山路4巷7號","121.501281666667","24.9988066666667","6500300","中和區"
"235034","558-UM","2018/07/14 14:59:47","新北市中和區圓通路138號","121.498346666667","24.99576","6500300","中和區"
"235018","640-BX","2018/07/14 14:59:44","新北市中和區自治街1號","121.474511666667","25.003315","6500300","中和區"
"235010","733-UM","2018/07/14 14:59:39","新北市中和區興南路一段93巷63號","121.51022","24.9870233333333","6500300","中和區"
"235026","800-TS","2018/07/14 14:59:44","新北市中和區立德街13-9號","121.489486666667","25.0066083333333","6500300","中和區"
"235012","896-TW","2018/07/14 14:59:36","新北市中和區忠孝街2-6號","121.509116666667","24.9829166666667","6500300","中和區"
"235017","900-TW","2018/07/14 14:59:50","新北市中和區民德路258號","121.467925","24.9971316666667","6500300","中和區"
"235015","157-BY","2018/07/14 14:59:46","新北市中和區景安路220巷20號","121.502753333333","24.9913516666667","6500300","中和區"
"235001","AAC-213","2018/07/14 14:59:45","新北市中和區自立路99巷24號","121.523383333333","24.9946583333333","6500300","中和區"
"235023","AAC-215","2018/07/14 14:59:30","新北市中和區圓通路335巷4弄19號","121.492526666667","24.9900216666667","6500300","中和區"
"220016","013-TV","2018/07/14 14:59:43","新北市板橋區中山路二段318巷4號","121.480265","25.0191433333333","6500100","板橋區"
"220028","015-TV","2018/07/14 14:59:53","新北市板橋區大觀路二段179巷17號","121.445581666667","24.99996","6500100","板橋區"
"220013","072-UY","2018/07/14 14:59:47","新北市板橋區中山路一段154巷3弄2號","121.465395","25.0104466666667","6500100","板橋區"
"220105","075-UY","2018/07/14 14:59:37","新北市板橋區文聖街13號","121.475588333333","25.032385","6500100","板橋區"
"220017","AAD-861","2018/07/14 14:59:48","新北市板橋區貴興路49號","121.457295","25.0031666666667","6500100","板橋區"
"247005","336-TH","2018/07/14 14:48:25","新北市五股區中興路三段163號","121.449703333333","25.0803366666667","6501400","蘆洲區"
"228004","212-TW","2018/07/14 14:59:42","新北市貢寮區雙玉里田寮洋街25號","121.929353333333","25.0176766666667","6502600","貢寮區"
"253003","6232-TK","2018/07/14 14:59:42","新北市石門區尖子鹿101-1號","121.580091666667","25.29244","6502200","石門區"
"253001","6251-TK","2018/07/14 14:59:35","新北市石門區崁子腳28-1號","121.539366666667","25.28969","6502200","石門區"
"253002","637-UY","2018/07/14 14:59:25","新北市石門區中央路37-5號","121.570431666667","25.2967683333333","6502200","石門區"
"253004","8270-PC","2018/07/14 14:59:34","新北市石門區茂林社區245號","121.593751666667","25.2696566666667","6502200","石門區"
"207002","749-BX","2018/07/14 14:59:40","新北市萬里區崁腳里崁腳路60-1號","121.648183333333","25.1607483333333","6502800","萬里區"
"252005","073-UM","2018/07/14 14:59:39","新北市三芝區埔坪里埔頭坑88號","121.507546666667","25.2541683333333","6502100","三芝區"
"207001","662-BX","2018/07/14 14:59:39","新北市萬里區雙興里麗水路2號","121.653566666667","25.1798783333333","6502800","萬里區"
"236068","105-UM","2018/07/14 14:59:54","新北市土城區裕生路84巷16號","121.446565","24.9856466666667","6501300","土城區"
"236074","166-UM","2018/07/14 14:59:34","新北市土城區大暖坑11-3號","121.419315","24.95496","6501300","土城區"
"236029","253-BX","2018/07/14 14:59:38","新北市土城區中央路二段128號","121.44205","24.977635","6501300","土城區"
"236024","269-VK","2018/07/14 14:59:52","新北市土城區中正路72號","121.444546666667","24.975435","6501300","土城區"
"236013","270-VK","2018/07/14 14:59:41","新北市土城區立德路103號","121.46337","24.98765","6501300","土城區"
"236032","271-VK","2018/07/14 14:59:47","新北市土城區仁愛路8號","121.459923333333","24.98107","6501300","土城區"
"236017","401-BY","2018/07/14 14:59:43","新北市土城區延吉街166號","121.468466666667","24.98534","6501300","土城區"
"236040","752-BX","2018/07/14 14:59:47","新北市土城區學府路一段191號","121.45206","24.984915","6501300","土城區"
"236057","912-UM","2018/07/14 14:59:34","新北市土城區金城路二段188號","121.4536","24.9808783333333","6501300","土城區"
"236045","913-UM","2018/07/14 14:59:36","新北市土城區明德路一段365-1號","121.453661666667","24.9791166666667","6501300","土城區"
"236060","915-UM","2018/07/14 14:59:37","新北市土城區延和路41巷6弄2號","121.466003333333","24.9900133333333","6501300","土城區"
"236054","AAC-216","2018/07/14 14:59:51","新北市土城區學成路130號","121.449175","24.9896066666667","6501300","土城區"
"220030","610-BX","2018/07/14 14:59:45","新北市板橋區篤行路二段126-3號","121.431175","24.9906583333333","6500100","板橋區"
"220050","245-BX","2018/07/14 14:59:44","新北市板橋區莒光路213號","121.474151666667","25.0229383333333","6500100","板橋區"
"220040","267-BY","2018/07/14 14:59:53","新北市板橋區民治街121號","121.478258333333","25.030885","6500100","板橋區"
"220019","283-VK","2018/07/14 14:59:48","新北市板橋區國慶路7-3號","121.458135","24.9953283333333","6500100","板橋區"
"220043","285-UM","2018/07/14 14:59:45","新北市板橋區文德路34號","121.462318333333","25.024415","6500100","板橋區"
"220001","285-VK","2018/07/14 14:59:50","新北市板橋區永豐街100號","121.47599","25.0203916666667","6500100","板橋區"
"220031","286-VK","2018/07/14 14:59:38","新北市板橋區僑中二街90巷14號","121.445691666667","25.009285","6500100","板橋區"
"220029","287-VK","2018/07/14 14:59:47","新北市板橋區僑中一街102巷7弄1號","121.44673","25.012875","6500100","板橋區"
"220039","288-VK","2018/07/14 14:59:52","新北市板橋區幸福路32巷4弄7號","121.461121666667","25.021455","6500100","板橋區"
"220009","293-UM","2018/07/14 14:59:41","新北市板橋區中山路一段2號","121.459826666667","25.0077116666667","6500100","板橋區"
"220041","307-R5","2018/07/14 14:59:39","新北市板橋區裕民街151號","121.458601666667","25.02713","6500100","板橋區"
"220047","317-R6","2018/07/14 14:59:44","新北市板橋區新海路72巷5弄11號","121.46178","25.022475","6500100","板橋區"
"220012","486-VK","2018/07/14 14:59:50","新北市板橋區漢生東路193巷19-4號","121.470803333333","25.012105","6500100","板橋區"
"220037","491-VK","2018/07/14 14:59:49","新北市板橋區懷德街52號","121.47732","25.0325283333333","6500100","板橋區"
"220052","561-BX","2018/07/14 14:59:49","新北市板橋區文化路一段435巷31弄11號","121.46682","25.0229483333333","6500100","板橋區"
"220011","609-BX","2018/07/14 14:59:36","新北市板橋區中山路二段387號","121.48026","25.019335","6500100","板橋區"
"220005","686-BX","2018/07/14 14:59:43","新北市板橋區四川路二段46號","121.45363","24.99531","6500100","板橋區"
"220042","689-BX","2018/07/14 14:59:51","新北市板橋區長江路三段99號","121.474395","25.0343183333333","6500100","板橋區"
"220051","KEA-2699","2018/07/14 14:59:44","新北市板橋區文聖街40號","121.476336666667","25.0312733333333","6500100","板橋區"
"220025","806-UM","2018/07/14 14:59:42","新北市板橋區僑中一街124巷59號","121.446631666667","25.0158166666667","6500100","板橋區"
"220003","827-TW","2018/07/14 14:59:36","新北市板橋區國慶路149巷39號","121.460843333333","24.99808","6500100","板橋區"
"220014","829-TW","2018/07/14 14:59:49","新北市板橋區中山路一段214號","121.470105","25.0139783333333","6500100","板橋區"
"220038","833-TW","2018/07/14 14:59:47","新北市板橋區龍泉街57號","121.457076666667","25.0259433333333","6500100","板橋區"
"220022","895-R6","2018/07/14 14:59:43","新北市板橋區南雅南路一段3巷25-3號","121.457015","25.0058283333333","6500100","板橋區"
"220021","985-R7","2018/07/14 14:59:34","新北市板橋區合宜路117號","121.447828333333","24.9989133333333","6500100","板橋區"
"220046","AAC-210","2018/07/14 14:59:52","新北市板橋區光正街18巷14號","121.462908333333","25.0178183333333","6500100","板橋區"
"220018","AAC-253","2018/07/14 14:59:37","新北市土城區四川路22號","121.455313333333","24.9959666666667","6500100","板橋區"
