"lineid","car","time","location","longitude","latitude","cityid","cityname"
"234070","149-BY","2018/07/14 15:09:41","新北市五股區凌雲路三段24巷19-1號","121.435136666667","25.10717","6500400","永和區"
"248017","225-UY","2018/07/14 15:09:33","新北市五股區登林路116號","121.419306666667","25.0730883333333","6501500","五股區"
"234072","AAC-211","2018/07/14 15:09:50","新北市八里區商港路105巷15-1號","121.391628333333","25.14944","6500400","永和區"
"231005","001-UM","2018/07/14 15:09:39","新北市新店區北新路三段139號","121.54119","24.9831116666667","6500600","新店區"
"231002","002-UM","2018/07/14 15:09:37","新北市新店區中正路683號","121.533981666667","24.9904433333333","6500600","新店區"
"231028","046-UY","2018/07/14 15:09:48","新北市新店區僑信路132巷30號","121.500021666667","24.9455216666667","6500600","新店區"
"231001","047-UY","2018/07/14 15:09:44","新北市新店區中正路190號","121.540726666667","24.972465","6500600","新店區"
"231036","110-UY","2018/07/14 15:09:50","新北市新店區安祥路102巷61號","121.486218333333","24.9638116666667","6500600","新店區"
"231012","187-VK","2018/07/14 15:09:38","新北市新店區寶元路一段65號","121.542136666667","24.98579","6500600","新店區"
"231023","KEA-2219","2018/07/14 15:09:38","新北市新店區檳榔路150號","121.544321666667","24.9615233333333","6500600","新店區"
"231026","256-BX","2018/07/14 15:09:41","新北市新店區建國路78號","121.54057","24.9765116666667","6500600","新店區"
"231003","268-BY","2018/07/14 15:09:49","新北市新店區寶橋路210號","121.550921666667","24.9785033333333","6500600","新店區"
"231018","278-BY","2018/07/14 15:09:42","新北市新店區溪園路453號","121.524876666667","24.9775083333333","6500600","新店區"
"231017","AAD-862","2018/07/14 15:08:15","新北市新店區明山路29號","121.564966666667","24.956785","6500600","新店區"
"231004","355-BY","2018/07/14 15:09:39","新北市新店區建國路29號","121.54019","24.97413","6500600","新店區"
"231038","3712-VJ","2018/07/14 15:09:40","新北市新店區安華路28-1號","121.519671666667","24.96084","6500600","新店區"
"231037","4716-K9","2018/07/14 15:09:34","新北市新店區安興路69-1號","121.515791666667","24.9751266666667","6500600","新店區"
"231025","4715-K9","2018/07/14 15:09:34","新北市新店區二十張路46巷37弄21-1號","121.535738333333","24.98139","6500600","新店區"
"231034","616-UM","2018/07/14 15:09:41","新北市新店區玫瑰路4-1號","121.493625","24.9513966666667","6500600","新店區"
"231006","617-UM","2018/07/14 15:09:34","新北市新店區新坡一街2號","121.548258333333","24.9606583333333","6500600","新店區"
"231030","619-UM","2018/07/14 15:09:43","新北市新店區安民街341-1號","121.516856666667","24.9748816666667","6500600","新店區"
"231039","718-UY","2018/07/14 15:09:39","新北市新店區寶安街35號","121.541911666667","24.982505","6500600","新店區"
"231035","719-UM","2018/07/14 15:09:49","新北市新店區安和路三段120巷20號","121.517891666667","24.98587","6500600","新店區"
"231020","719-UY","2018/07/14 15:09:40","新北市新店區永福路38-1號","121.552898333333","24.9295316666667","6500600","新店區"
"231033","720-UM","2018/07/14 15:09:47","新北市新店區安泰路72號","121.485888333333","24.9462133333333","6500600","新店區"
"231029","897-TW","2018/07/14 15:09:42","新北市新店區安康路三段738號","121.473851666667","24.9419566666667","6500600","新店區"
"231024","AKT-0513","2018/07/14 15:09:44","新北市新店區北新路一段297巷12號","121.54096","24.9677783333333","6500600","新店區"
"235030","003-UY","2018/07/14 15:09:50","新北市中和區水源路127巷11號","121.508033333333","25.0038233333333","6500300","中和區"
"235020","096-UM","2018/07/14 15:09:48","新北市中和區民安街4號","121.480823333333","25.0009733333333","6500300","中和區"
"235003","097-UM","2018/07/14 15:09:39","新北市中和區宜安路81號","121.510905","24.99745","6500300","中和區"
"235004","150-BY","2018/07/14 15:09:38","新北市中和區保健路10巷21弄31號","121.508576666667","24.9977466666667","6500300","中和區"
"235007","352-BY","2018/07/14 15:09:47","新北市中和區興南路二段159巷10號","121.504996666667","24.983285","6500300","中和區"
"235014","4979-A6","2018/07/14 15:09:43","新北市中和區景新街276號","121.51086","24.9923933333333","6500300","中和區"
"235033","4980-A6","2018/07/14 15:09:40","新北市中和區景新街132巷6-3號","121.504831666667","24.9982033333333","6500300","中和區"
"235034","558-UM","2018/07/14 15:09:47","新北市中和區連城路263巷27弄4號","121.492831666667","24.9942866666667","6500300","中和區"
"235018","640-BX","2018/07/14 15:09:43","新北市中和區員山路36巷12號","121.483971666667","24.990825","6500300","中和區"
"235010","733-UM","2018/07/14 15:09:39","新北市中和區忠孝街31巷17號","121.510193333333","24.9834266666667","6500300","中和區"
"235026","800-TS","2018/07/14 15:09:44","新北市中和區永和路171巷3弄7號","121.492725","25.006635","6500300","中和區"
"235012","896-TW","2018/07/14 15:09:46","新北市中和區興南路一段143號","121.508718333333","24.9874166666667","6500300","中和區"
"235023","AAC-215","2018/07/14 15:09:50","新北市中和區圓通路367巷13弄38號","121.493385","24.9879616666667","6500300","中和區"
"220016","013-TV","2018/07/14 15:09:43","新北市板橋區光復街230號","121.484773333333","25.0213616666667","6500100","板橋區"
"220017","AAD-861","2018/07/14 15:09:34","新北市板橋區貴興路115號","121.455781666667","25.0024583333333","6500100","板橋區"
"247005","336-TH","2018/07/14 14:48:25","新北市五股區中興路三段163號","121.449703333333","25.0803366666667","6501400","蘆洲區"
"253003","6232-TK","2018/07/14 15:09:42","新北市石門區小坑12-8號","121.595195","25.2852666666667","6502200","石門區"
"253001","6251-TK","2018/07/14 15:09:35","新北市石門區小坑12-8號","121.595593333333","25.28539","6502200","石門區"
"253002","637-UY","2018/07/14 15:09:45","新北市石門區小坑9號","121.59448","25.2891033333333","6502200","石門區"
"253004","8270-PC","2018/07/14 15:09:34","新北市石門區小坑22號","121.593176666667","25.281075","6502200","石門區"
"207002","749-BX","2018/07/14 15:09:40","新北市萬里區崁腳里內中福路97號","121.65372","25.1639033333333","6502800","萬里區"
"252005","073-UM","2018/07/14 15:09:39","新北市三芝區埔坪里埔頭坑94號","121.50945","25.2502283333333","6502100","三芝區"
"207001","662-BX","2018/07/14 15:09:51","新北市萬里區雙興里麗水路8-1號","121.649875","25.1872183333333","6502800","萬里區"
"236068","105-UM","2018/07/14 15:09:54","新北市土城區學成路106號","121.449936666667","24.98924","6501300","土城區"
"236074","166-UM","2018/07/14 15:09:34","新北市土城區中州路3巷11弄2號","121.414221666667","24.9570516666667","6501300","土城區"
"236029","253-BX","2018/07/14 15:09:38","新北市土城區福祥街91號","121.441345","24.9812683333333","6501300","土城區"
"236024","269-VK","2018/07/14 15:09:52","新北市土城區中央路二段149巷35號","121.443193333333","24.9767583333333","6501300","土城區"
"236013","270-VK","2018/07/14 15:09:41","新北市土城區學府路一段75巷8號","121.456935","24.9879616666667","6501300","土城區"
"236032","271-VK","2018/07/14 15:09:42","新北市土城區仁愛路42號","121.461921666667","24.9793566666667","6501300","土城區"
"236017","401-BY","2018/07/14 15:09:43","新北市土城區延峰街7號","121.468641666667","24.9864833333333","6501300","土城區"
"236040","752-BX","2018/07/14 15:09:47","新北市土城區金城路二段210-1號","121.455605","24.9822883333333","6501300","土城區"
"236057","912-UM","2018/07/14 15:09:34","新北市土城區金城路一段131號","121.444791666667","24.97367","6501300","土城區"
"236045","913-UM","2018/07/14 15:09:40","新北市土城區清水路259號","121.462901666667","24.984325","6501300","土城區"
"236060","915-UM","2018/07/14 15:09:45","新北市土城區延平街31號","121.467996666667","24.9917366666667","6501300","土城區"
"236054","AAC-216","2018/07/14 15:09:50","新北市土城區學府路一段276號","121.450108333333","24.983185","6501300","土城區"
"220050","245-BX","2018/07/14 15:09:33","新北市板橋區莒光路165巷36號","121.474446666667","25.0248516666667","6500100","板橋區"
"220031","286-VK","2018/07/14 15:09:38","新北市板橋區僑中二街100巷24號","121.444988333333","25.0086366666667","6500100","板橋區"
"220009","293-UM","2018/07/14 15:09:41","新北市板橋區四川路一段288號","121.458611666667","25.0008083333333","6500100","板橋區"
"220041","307-R5","2018/07/14 15:09:39","新北市板橋區民權路170巷12號","121.460295","25.0133533333333","6500100","板橋區"
"220037","491-VK","2018/07/14 15:09:49","新北市板橋區文聖街205巷2號","121.479956666667","25.0264483333333","6500100","板橋區"
"220052","561-BX","2018/07/14 15:09:49","新北市板橋區陽明街279巷35號","121.460916666667","25.0255083333333","6500100","板橋區"
"220011","609-BX","2018/07/14 15:09:36","新北市板橋區中山路二段268號","121.479118333333","25.01849","6500100","板橋區"
"220042","689-BX","2018/07/14 15:09:44","新北市板橋區長江路二段279號","121.470233333333","25.03306","6500100","板橋區"
"220051","KEA-2699","2018/07/14 15:09:34","新北市板橋區民治街132號","121.477701666667","25.030875","6500100","板橋區"
"220014","829-TW","2018/07/14 15:09:49","新北市板橋區中山路一段208號","121.469923333333","25.0138533333333","6500100","板橋區"
"220038","833-TW","2018/07/14 15:09:47","新北市板橋區互助街37號","121.461305","25.0267033333333","6500100","板橋區"
"220046","AAC-210","2018/07/14 15:09:52","新北市板橋區光正街45巷2弄4號","121.461636666667","25.01754","6500100","板橋區"
"220018","AAC-253","2018/07/14 15:09:38","新北市板橋區四川路二段245巷46號","121.451838333333","24.99246","6500100","板橋區"
