"lineid","car","time","location","longitude","latitude","cityid","cityname"
"234070","149-BY","2018/07/14 15:19:41","新北市板橋區萬安街85巷2弄12號","121.48456","25.0247983333333","6500400","永和區"
"231005","001-UM","2018/07/14 15:19:39","新北市新店區二十張路59號","121.537623333333","24.9806666666667","6500600","新店區"
"231002","002-UM","2018/07/14 15:19:37","新北市新店區溪園路249號","121.523705","24.9824283333333","6500600","新店區"
"231028","046-UY","2018/07/14 15:19:43","新北市新店區僑信路108巷41號","121.499066666667","24.9463366666667","6500600","新店區"
"231001","047-UY","2018/07/14 15:19:50","新北市新店區北新路一段225號","121.540546666667","24.9653533333333","6500600","新店區"
"231036","110-UY","2018/07/14 15:19:43","新北市新店區安祥路69巷17號","121.481876666667","24.961355","6500600","新店區"
"231012","187-VK","2018/07/14 15:19:41","新北市新店區順安街86號","121.541148333333","24.9867683333333","6500600","新店區"
"231023","KEA-2219","2018/07/14 15:19:38","新北市新店區行政街14巷1號","121.543321666667","24.9660116666667","6500600","新店區"
"231026","256-BX","2018/07/14 15:19:41","新北市新店區中正路263號","121.538533333333","24.97345","6500600","新店區"
"231003","268-BY","2018/07/14 15:19:49","新北市新店區寶橋路192號","121.550536666667","24.9782866666667","6500600","新店區"
"231018","278-BY","2018/07/14 15:19:42","新北市新店區中央七街8號","121.530355","24.9746866666667","6500600","新店區"
"231017","AAD-862","2018/07/14 15:19:35","新北市新店區明山路45號","121.563836666667","24.9560133333333","6500600","新店區"
"231004","355-BY","2018/07/14 15:19:45","新北市新店區建國路30號","121.540481666667","24.9745833333333","6500600","新店區"
"231038","3712-VJ","2018/07/14 15:19:40","新北市新店區安華路28-1號","121.519671666667","24.9608466666667","6500600","新店區"
"231037","4716-K9","2018/07/14 15:19:54","新北市新店區安興路69-1號","121.51585","24.9751816666667","6500600","新店區"
"231025","4715-K9","2018/07/14 15:19:34","新北市新店區環河路103-5號","121.531366666667","24.9708916666667","6500600","新店區"
"231034","616-UM","2018/07/14 15:19:41","新北市新店區如意街3巷2號","121.495506666667","24.9491433333333","6500600","新店區"
"231006","617-UM","2018/07/14 15:19:33","新北市新店區北新路一段183號","121.540081666667","24.9644233333333","6500600","新店區"
"231030","619-UM","2018/07/14 15:19:43","新北市新店區安民街341-1號","121.516883333333","24.9749783333333","6500600","新店區"
"231039","718-UY","2018/07/14 15:19:39","新北市新店區寶元路一段65號","121.54222","24.9858183333333","6500600","新店區"
"231035","719-UM","2018/07/14 15:19:52","新北市新店區安和路三段77號","121.51779","24.98347","6500600","新店區"
"231020","719-UY","2018/07/14 15:19:36","新北市新店區永福路54-2號","121.559291666667","24.9281983333333","6500600","新店區"
"231033","720-UM","2018/07/14 15:19:47","新北市新店區裕合街29號","121.489091666667","24.9499933333333","6500600","新店區"
"231029","897-TW","2018/07/14 15:19:42","新北市新店區安康路三段636號","121.476863333333","24.9446583333333","6500600","新店區"
"231024","AKT-0513","2018/07/14 15:19:44","新北市新店區環河路1-1號","121.537865","24.961565","6500600","新店區"
"241016","266-UM","2018/07/14 15:19:37","新北市三重區重新路四段121號","121.485046666667","25.05239","6500200","三重區"
"241013","270-UM","2018/07/14 15:19:44","新北市三重區重新路四段121號","121.484775","25.0524833333333","6500200","三重區"
"241004","475-VK","2018/07/14 15:19:49","新北市三重區重新路四段121號","121.484953333333","25.0524666666667","6500200","三重區"
"235030","003-UY","2018/07/14 15:19:50","新北市中和區保平路326巷1號","121.507138333333","25.004325","6500300","中和區"
"235007","352-BY","2018/07/14 15:19:47","新北市中和區南山路405號","121.506973333333","24.9899266666667","6500300","中和區"
"235014","4979-A6","2018/07/14 15:19:43","新北市中和區景平路470號","121.505576666667","24.9937583333333","6500300","中和區"
"235033","4980-A6","2018/07/14 15:19:40","新北市中和區圓通路217號","121.496715","24.9943233333333","6500300","中和區"
"235026","800-TS","2018/07/14 15:19:44","新北市中和區建八路141號","121.490265","24.9986616666667","6500300","中和區"
"235012","896-TW","2018/07/14 15:19:36","新北市中和區興南路一段12號","121.511471666667","24.99128","6500300","中和區"
"235023","AAC-215","2018/07/14 15:19:50","新北市中和區圓通路320-1號","121.485346666667","24.9878366666667","6500300","中和區"
"253003","6232-TK","2018/07/14 15:19:42","新北市石門區小坑9號","121.594475","25.2891266666667","6502200","石門區"
"253001","6251-TK","2018/07/14 15:19:35","新北市石門區小坑9號","121.594418333333","25.2890666666667","6502200","石門區"
"253002","637-UY","2018/07/14 15:19:45","新北市石門區小坑9號","121.594198333333","25.2887383333333","6502200","石門區"
"253004","8270-PC","2018/07/14 15:19:34","新北市石門區小坑20-1號","121.595958333333","25.2807383333333","6502200","石門區"
"207002","749-BX","2018/07/14 15:19:40","新北市萬里區崁腳里內中福路38-1號","121.660418333333","25.16368","6502800","萬里區"
"207001","662-BX","2018/07/14 15:19:39","新北市萬里區大鵬里萬里加投14號","121.65079","25.2090283333333","6502800","萬里區"
"236068","105-UM","2018/07/14 15:19:54","新北市土城區裕民路185巷36弄10號","121.454456666667","24.9844766666667","6501300","土城區"
"236074","166-UM","2018/07/14 15:19:54","新北市土城區中州路52巷2弄22號","121.412585","24.95803","6501300","土城區"
"236029","253-BX","2018/07/14 15:19:38","新北市土城區中華路一段205號","121.44288","24.9848783333333","6501300","土城區"
"236024","269-VK","2018/07/14 15:19:32","新北市土城區學府路二段259號","121.445038333333","24.977565","6501300","土城區"
"236013","270-VK","2018/07/14 15:19:53","新北市土城區廣福街23號","121.456911666667","24.9891483333333","6501300","土城區"
"236032","271-VK","2018/07/14 15:19:42","新北市土城區國際路154號","121.467771666667","24.97631","6501300","土城區"
"236017","401-BY","2018/07/14 15:19:44","新北市土城區峰廷街18號","121.468985","24.9872833333333","6501300","土城區"
"236040","752-BX","2018/07/14 15:19:47","新北市土城區學府路一段143巷33號","121.454455","24.9853433333333","6501300","土城區"
"236057","912-UM","2018/07/14 15:19:34","新北市土城區中央路二段330號","121.440208333333","24.9723433333333","6501300","土城區"
"236045","913-UM","2018/07/14 15:19:49","新北市土城區明德路一段289號","121.460315","24.9773266666667","6501300","土城區"
"236060","915-UM","2018/07/14 15:19:37","新北市土城區延和路146巷16號","121.468171666667","24.9895233333333","6501300","土城區"
"236054","AAC-216","2018/07/14 15:19:50","新北市土城區立德路15號","121.461501666667","24.9881716666667","6501300","土城區"
"220050","245-BX","2018/07/14 15:19:53","新北市板橋區莊敬路220巷1號","121.472603333333","25.0214366666667","6500100","板橋區"
"220031","286-VK","2018/07/14 15:19:38","新北市板橋區僑中二街104巷1號","121.445953333333","25.007835","6500100","板橋區"
"220052","561-BX","2018/07/14 15:19:54","新北市板橋區漢生東路31號","121.465311666667","25.0170116666667","6500100","板橋區"
"220042","689-BX","2018/07/14 15:19:53","新北市板橋區長江路一段147號","121.460931666667","25.0302866666667","6500100","板橋區"
"220051","KEA-2699","2018/07/14 15:19:53","新北市板橋區漢生東路83巷2號","121.466931666667","25.0157366666667","6500100","板橋區"
"220014","829-TW","2018/07/14 15:19:49","新北市板橋區民生路二段161巷1號","121.469876666667","25.0199316666667","6500100","板橋區"
"220038","833-TW","2018/07/14 15:19:47","新北市板橋區四維路139號","121.465105","25.0253333333333","6500100","板橋區"
"220018","AAC-253","2018/07/14 15:19:37","新北市板橋區華東街1-10號","121.448606666667","24.994955","6500100","板橋區"
