"lineid","car","time","location","longitude","latitude","cityid","cityname"
"234070","149-BY","2018/07/14 16:19:41","新北市永和區福和路1號","121.526248333333","25.0096866666667","6500400","永和區"
"234042","862-TW","2018/07/14 16:01:50","新北市永和區福和路1號","121.526418333333","25.00971","6500400","永和區"
"231046","107-UY","2018/07/14 16:19:34","新北市新店區灣潭路3-3號","121.538215","24.9508","6500600","新店區"
"231018","278-BY","2018/07/14 16:19:42","新北市新店區中正路700巷82號","121.535886666667","24.993195","6500600","新店區"
"241011","013-R5","2018/07/14 16:19:45","新北市三重區龍濱路196號","121.50104","25.073275","6500200","三重區"
"241028","022-UY","2018/07/14 16:19:46","新北市三重區正義南路169號","121.499026666667","25.0573716666667","6500200","三重區"
"241008","059-VK","2018/07/14 16:19:52","新北市三重區永福街112號","121.479071666667","25.0754383333333","6500200","三重區"
"241022","060-VK","2018/07/14 16:19:48","新北市三重區過圳街31巷2號","121.489123333333","25.0605766666667","6500200","三重區"
"241031","061-VK","2018/07/14 16:19:51","新北市三重區重新路四段140號","121.486593333333","25.056235","6500200","三重區"
"241015","062-VK","2018/07/14 16:19:42","新北市三重區福德北路89號","121.502021666667","25.06609","6500200","三重區"
"241017","063-VK","2018/07/14 16:19:36","新北市三重區大同北路91號","121.4948","25.0636116666667","6500200","三重區"
"241026","066-VK","2018/07/14 16:19:53","新北市三重區正義南路60-6號","121.498485","25.060025","6500200","三重區"
"241002","090-VK","2018/07/14 16:19:40","新北市三重區仁義街101巷2號","121.498103333333","25.0794416666667","6500200","三重區"
"241003","091-VK","2018/07/14 16:19:38","新北市三重區五華街106號","121.492553333333","25.0825616666667","6500200","三重區"
"241024","742-BX","2018/07/14 16:19:42","新北市三重區中正北路145巷3弄9號","121.483631666667","25.06746","6500200","三重區"
"241005","262-UM","2018/07/14 16:19:42","新北市三重區溪尾街305號","121.48755","25.0836733333333","6500200","三重區"
"241016","266-UM","2018/07/14 16:19:37","新北市三重區大仁街37號","121.492936666667","25.0654616666667","6500200","三重區"
"241009","267-UM","2018/07/14 16:19:39","新北市三重區溪尾街196巷4號","121.487788333333","25.0807516666667","6500200","三重區"
"241018","268-UM","2018/07/14 16:19:52","新北市三重區重陽路三段142-1號","121.489351666667","25.067185","6500200","三重區"
"241013","270-UM","2018/07/14 16:19:44","新北市三重區龍門路38號","121.495838333333","25.0724816666667","6500200","三重區"
"241007","398-BY","2018/07/14 16:19:38","新北市三重區三和路四段163巷95號","121.486618333333","25.079545","6500200","三重區"
"241025","413-TH","2018/07/14 16:19:03","新北市三重區中正北路253號","121.475541666667","25.070935","6500200","三重區"
"241004","475-VK","2018/07/14 16:19:49","新北市三重區五華街74號","121.493485","25.081975","6500200","三重區"
"241020","478-VK","2018/07/14 16:19:45","新北市三重區車路頭街4巷14號","121.483333333333","25.0699983333333","6500200","三重區"
"241030","480-VK","2018/07/14 16:19:41","新北市三重區重新路四段121號","121.484965","25.0519183333333","6500200","三重區"
"241014","543-UM","2018/07/14 16:19:53","新北市三重區河邊北街96-1號","121.504063333333","25.069895","6500200","三重區"
"241001","547-UM","2018/07/14 16:19:40","新北市三重區自強路四段107號","121.491448333333","25.0797283333333","6500200","三重區"
"241019","KEA-2593","2018/07/14 16:19:39","新北市三重區重陽路三段192-4號","121.490448333333","25.0685616666667","6500200","三重區"
"241006","AAD-863","2018/07/14 16:19:41","新北市三重區永福街46巷37號","121.482263333333","25.0773666666667","6500200","三重區"
"241023","887-TS","2018/07/14 16:19:37","新北市三重區忠孝路三段47號","121.481001666667","25.066565","6500200","三重區"
"241012","941-UM","2018/07/14 16:19:35","新北市三重區龍門路249號","121.502213333333","25.0741133333333","6500200","三重區"
"241029","942-UM","2018/07/14 16:19:54","新北市三重區環河南路220-8號","121.493361666667","25.0526733333333","6500200","三重區"
"241033","AAC-255","2018/07/14 16:19:55","新北市三重區重新路五段406號","121.475875","25.0476916666667","6500200","三重區"
"224007","275-VK","2018/07/14 16:19:44","新北市瑞芳區大埔路258號","121.760483333333","25.1024333333333","6501200","瑞芳區"
"224005","271-BY","2018/07/14 16:19:49","新北市瑞芳區中山路109號","121.803218333333","25.10633","6501200","瑞芳區"
"227010","642-TC","2018/07/14 16:19:47","新北市雙溪區三港里雙澳路80號","121.883793333333","25.0538816666667","6502500","雙溪區"
"227002","400-TW","2018/07/14 16:19:37","新北市雙溪區上林里內平林80號","121.828325","25.0279383333333","6502500","雙溪區"
"251008","442-VK","2018/07/14 16:19:49","新北市淡水區中正東路二段88巷37號","121.459588333333","25.1467533333333","6501000","淡水區"
