"lineid","car","time","location","longitude","latitude","cityid","cityname"
"234070","149-BY","2018/07/14 16:49:41","新北市永和區福和路1號","121.5262","25.0097866666667","6500400","永和區"
"249005","172-UM","2018/07/14 16:49:55","新北市八里區大堀湖2-3號","121.422318333333","25.1536566666667","6502300","八里區"
"249004","303-UY","2018/07/14 16:49:45","新北市八里區博物館路187號","121.40589","25.1567783333333","6502300","八里區"
"249002","305-UY","2018/07/14 16:49:40","新北市八里區牛寮埔31號","121.42989","25.1457233333333","6502300","八里區"
"249003","593-UM","2018/07/14 16:49:41","新北市八里區中山路二段289號","121.401566666667","25.1486316666667","6502300","八里區"
"231046","107-UY","2018/07/14 16:49:34","新北市新店區灣潭路15-8號","121.540863333333","24.93891","6500600","新店區"
"241011","013-R5","2018/07/14 16:49:45","新北市三重區仁愛街53巷177號","121.500168333333","25.0728166666667","6500200","三重區"
"241028","022-UY","2018/07/14 16:49:40","新北市三重區光興街93號","121.497341666667","25.0599383333333","6500200","三重區"
"241008","059-VK","2018/07/14 16:49:52","新北市三重區永福街179巷28號","121.477941666667","25.07484","6500200","三重區"
"241022","060-VK","2018/07/14 16:49:48","新北市三重區貴陽街47巷2號","121.484901666667","25.0629016666667","6500200","三重區"
"241031","061-VK","2018/07/14 16:49:51","新北市三重區過圳街9號","121.488935","25.058895","6500200","三重區"
"241015","062-VK","2018/07/14 16:49:53","新北市三重區長元西街1號","121.498781666667","25.0656233333333","6500200","三重區"
"241017","063-VK","2018/07/14 16:49:36","新北市三重區國隆路8巷15號","121.493033333333","25.06354","6500200","三重區"
"241026","066-VK","2018/07/14 16:49:53","新北市三重區福德南路50號","121.502971666667","25.0622866666667","6500200","三重區"
"241002","090-VK","2018/07/14 16:49:48","新北市三重區仁義街221號","121.49659","25.08203","6500200","三重區"
"241003","091-VK","2018/07/14 16:49:41","新北市三重區五華街140號","121.491425","25.08395","6500200","三重區"
"241024","742-BX","2018/07/14 16:49:42","新北市三重區中正北路317巷31號","121.475963333333","25.0730616666667","6500200","三重區"
"241005","262-UM","2018/07/14 16:49:42","新北市三重區仁華街78號","121.48481","25.083105","6500200","三重區"
"241016","266-UM","2018/07/14 16:49:37","新北市三重區大同北路135巷27號","121.493693333333","25.064815","6500200","三重區"
"241009","267-UM","2018/07/14 16:49:39","新北市三重區溪尾街206號","121.48805","25.0811966666667","6500200","三重區"
"241018","268-UM","2018/07/14 16:49:52","新北市三重區安樂街76號","121.49494","25.0693616666667","6500200","三重區"
"241032","269-UM","2018/07/14 16:49:38","新北市三重區三光街30巷3號","121.484608333333","25.06041","6500200","三重區"
"241013","270-UM","2018/07/14 16:49:44","新北市三重區仁壽街46號","121.497555","25.073635","6500200","三重區"
"241007","398-BY","2018/07/14 16:49:38","新北市三重區三和路四段181巷18號","121.4833","25.07928","6500200","三重區"
"241025","413-TH","2018/07/14 16:49:38","新北市三重區中正北路510號","121.472525","25.0717366666667","6500200","三重區"
"241004","475-VK","2018/07/14 16:49:49","新北市三重區仁愛街397巷9號","121.491695","25.0812516666667","6500200","三重區"
"241020","478-VK","2018/07/14 16:49:45","新北市三重區忠孝路二段31號","121.486161666667","25.0715166666667","6500200","三重區"
"241030","480-VK","2018/07/14 16:49:41","新北市三重區新興路3號","121.492815","25.053065","6500200","三重區"
"241014","543-UM","2018/07/14 16:49:53","新北市三重區長榮路75號","121.50259","25.06909","6500200","三重區"
"241001","547-UM","2018/07/14 16:49:39","新北市三重區仁政街54巷42號","121.492045","25.0766583333333","6500200","三重區"
"241019","KEA-2593","2018/07/14 16:49:53","新北市三重區三張街149巷10弄11號","121.485976666667","25.0697733333333","6500200","三重區"
"241006","AAD-863","2018/07/14 16:49:41","新北市三重區力行路二段182-3號","121.48337","25.0774666666667","6500200","三重區"
"241023","887-TS","2018/07/14 16:49:57","新北市三重區新北大道一段206巷10號","121.48253","25.062065","6500200","三重區"
"241012","941-UM","2018/07/14 16:49:35","新北市三重區龍門路274巷17號","121.50159","25.0746833333333","6500200","三重區"
"241029","942-UM","2018/07/14 16:49:54","新北市三重區新興路49號","121.491488333333","25.0537283333333","6500200","三重區"
"241033","AAC-255","2018/07/14 16:49:55","新北市三重區中山路234號","121.468225","25.0613616666667","6500200","三重區"
"235046","733-UM","2018/07/14 16:34:34","新北市中和區員山路36巷13號","121.484145","24.9908366666667","6500300","中和區"
"247004","337-TH","2018/07/14 16:49:45","新北市蘆洲區長榮路106號","121.461866666667","25.0839566666667","6501400","蘆洲區"
"247006","336-TH","2018/07/14 16:49:46","新北市蘆洲區永安南路二段132-1號","121.462625","25.0784466666667","6501400","蘆洲區"
"247018","057-VK","2018/07/14 16:49:38","新北市蘆洲區民族路306號","121.477456666667","25.0899516666667","6501400","蘆洲區"
"247008","053-VK","2018/07/14 16:49:44","新北市蘆洲區中山一路195號","121.474371666667","25.0811266666667","6501400","蘆洲區"
"247020","001-UY","2018/07/14 16:49:53","新北市蘆洲區民族路422巷8號","121.47415","25.092055","6501400","蘆洲區"
"228003","097-TW","2018/07/14 16:49:46","新北市貢寮區貢寮里朝陽街1-2號","121.912361666667","25.0212283333333","6502600","貢寮區"
"228002","663-BX","2018/07/14 16:49:47","新北市貢寮區貢寮里長潭街22號","121.896715","25.0233783333333","6502600","貢寮區"
"224006","676-BX","2018/07/14 16:49:50","新北市瑞芳區大寮路356-1號","121.784843333333","25.1032183333333","6501200","瑞芳區"
"224008","285-BY","2018/07/14 16:49:47","新北市瑞芳區中山路87號","121.803761666667","25.1062083333333","6501200","瑞芳區"
"224007","275-VK","2018/07/14 16:49:40","新北市瑞芳區中央路48巷56-6號","121.760488333333","25.103595","6501200","瑞芳區"
"224005","271-BY","2018/07/14 16:49:49","新北市瑞芳區洞頂路157號","121.861363333333","25.12294","6501200","瑞芳區"
"227010","642-TC","2018/07/14 16:49:48","新北市雙溪區牡丹里五分10-1號","121.866366666667","25.0470866666667","6502500","雙溪區"
"227002","400-TW","2018/07/14 16:49:37","新北市雙溪區外柑里外柑腳71號","121.807133333333","25.017595","6502500","雙溪區"
"251013","KEA-2871","2018/07/14 16:49:55","新北市淡水區泉洲厝32號","121.489316666667","25.19258","6501000","淡水區"
"251014","180-VK","2018/07/14 16:49:42","新北市淡水區淡金路四段478號","121.452453333333","25.2239183333333","6501000","淡水區"
"251015","181-VK","2018/07/14 16:49:50","新北市淡水區忠愛街6號","121.460741666667","25.1715766666667","6501000","淡水區"
"251010","413-VK","2018/07/14 16:49:46","新北市淡水區中正路二段31號","121.419568333333","25.1815166666667","6501000","淡水區"
"251012","441-VK","2018/07/14 16:49:43","新北市淡水區中正路二段31號","121.419695","25.181515","6501000","淡水區"
"251008","442-VK","2018/07/14 16:49:49","新北市淡水區樹梅坑32號","121.474511666667","25.14356","6501000","淡水區"
"251005","443-VK","2018/07/14 16:49:41","新北市淡水區中正路二段31號","121.419181666667","25.1818383333333","6501000","淡水區"
"251016","575-R6","2018/07/14 16:49:35","新北市淡水區水頭42號","121.478245","25.1850866666667","6501000","淡水區"
"251007","577-R6","2018/07/14 16:49:52","新北市淡水區中正路28巷1號","121.43318","25.1745283333333","6501000","淡水區"
"251011","650-BX","2018/07/14 16:49:40","新北市淡水區中正路一段17號","121.426478333333","25.1761416666667","6501000","淡水區"
"252002","178-VK","2018/07/14 16:49:49","新北市三芝區忠孝街116號","121.506008333333","25.2574716666667","6502100","三芝區"
"252001","292-VK","2018/07/14 16:49:44","新北市三芝區淡金路二段103號","121.504418333333","25.2613433333333","6502100","三芝區"
"242023","362-BY","2018/07/14 16:49:54","新北市新莊區新泰路255巷83號","121.442178333333","25.03896","6500500","新莊區"
"239007","AAC-297","2018/07/14 16:49:49","新北市鶯歌區二甲路13-16號","121.34502","24.935175","6500800","鶯歌區"
"235061","KEA-2875","2018/07/14 16:41:13","新北市中和區員山路36巷16-2號","121.485336666667","24.9916683333333","6500300","中和區"
