"lineid","car","time","location","longitude","latitude","cityid","cityname"
"234070","149-BY","2018/07/14 16:59:41","新北市永和區福和路1號","121.526335","25.00974","6500400","永和區"
"249005","172-UM","2018/07/14 16:59:35","新北市八里區渡船頭3-7號","121.434156666667","25.1536283333333","6502300","八里區"
"249001","173-UM","2018/07/14 16:59:51","新北市八里區中山路三段106號","121.391031666667","25.1422683333333","6502300","八里區"
"249004","303-UY","2018/07/14 16:59:45","新北市八里區挖子尾街58號","121.41546","25.166255","6502300","八里區"
"249002","305-UY","2018/07/14 16:59:00","新北市八里區牛寮埔22號","121.432533333333","25.1425533333333","6502300","八里區"
"249003","593-UM","2018/07/14 16:59:41","新北市八里區中山路二段301號","121.401135","25.1480416666667","6502300","八里區"
"244025","837-TS","2018/07/14 16:59:45","新北市林口區粉寮路二段128號","121.404291666667","25.090655","6501700","林口區"
"231046","107-UY","2018/07/14 16:59:54","新北市新店區永業路81巷12號","121.531226666667","24.9456716666667","6500600","新店區"
"241011","013-R5","2018/07/14 16:59:45","新北市三重區仁愛街55巷15號","121.498736666667","25.07267","6500200","三重區"
"241028","022-UY","2018/07/14 16:59:40","新北市三重區中正南路50號","121.493948333333","25.059915","6500200","三重區"
"241008","059-VK","2018/07/14 16:59:52","新北市三重區永安北路一段11巷20號","121.477351666667","25.0747833333333","6500200","三重區"
"241022","060-VK","2018/07/14 16:59:53","新北市三重區中華路114號","121.48351","25.06364","6500200","三重區"
"241031","061-VK","2018/07/14 16:59:31","新北市三重區重新路三段115巷8號","121.490416666667","25.0602033333333","6500200","三重區"
"241015","062-VK","2018/07/14 16:59:42","新北市三重區三和路二段19號","121.501188333333","25.066955","6500200","三重區"
"241017","063-VK","2018/07/14 16:59:36","新北市三重區國隆路14號","121.492966666667","25.0638116666667","6500200","三重區"
"241026","066-VK","2018/07/14 16:59:53","新北市三重區文化南路42號","121.500345","25.0602866666667","6500200","三重區"
"241002","090-VK","2018/07/14 16:59:40","新北市三重區仁義街101巷18號","121.498576666667","25.0801983333333","6500200","三重區"
"241003","091-VK","2018/07/14 16:59:38","新北市三重區五華街141巷60號","121.49361","25.0867733333333","6500200","三重區"
"241024","742-BX","2018/07/14 16:59:42","新北市三重區大勇街82巷15弄30號","121.481051666667","25.0718516666667","6500200","三重區"
"241005","262-UM","2018/07/14 16:59:42","新北市三重區仁華街106號","121.48531","25.0831566666667","6500200","三重區"
"241016","266-UM","2018/07/14 16:59:37","新北市三重區大同北路111號","121.49419","25.0642483333333","6500200","三重區"
"241009","267-UM","2018/07/14 16:59:39","新北市三重區仁愛街600巷18號","121.484471666667","25.0804233333333","6500200","三重區"
"241018","268-UM","2018/07/14 16:59:52","新北市三重區六張街126巷4弄4號","121.492306666667","25.0690683333333","6500200","三重區"
"241032","269-UM","2018/07/14 16:59:54","新北市三重區新北大道一段35巷12號","121.485963333333","25.0608466666667","6500200","三重區"
"241013","270-UM","2018/07/14 16:59:44","新北市三重區仁和街97號","121.498035","25.0741283333333","6500200","三重區"
"241007","398-BY","2018/07/14 16:59:38","新北市三重區溪尾街182號","121.488416666667","25.080715","6500200","三重區"
"241025","413-TH","2018/07/14 16:59:54","新北市三重區中正北路508巷11號","121.472723333333","25.0710483333333","6500200","三重區"
"241004","475-VK","2018/07/14 16:59:49","新北市三重區五華街90號","121.492725","25.0821716666667","6500200","三重區"
"241020","478-VK","2018/07/14 16:59:45","新北市三重區後竹圍街175巷3號","121.485891666667","25.0722033333333","6500200","三重區"
"241030","480-VK","2018/07/14 16:59:41","新北市三重區昌隆街57號","121.49112","25.05116","6500200","三重區"
"241014","543-UM","2018/07/14 16:59:53","新北市三重區三和路二段173巷143號","121.50104","25.0706666666667","6500200","三重區"
"241001","547-UM","2018/07/14 16:59:39","新北市三重區仁愛街162號","121.494335","25.076355","6500200","三重區"
"241019","KEA-2593","2018/07/14 16:59:33","新北市三重區自強路二段74巷19號","121.487985","25.06992","6500200","三重區"
"241006","AAD-863","2018/07/14 16:59:41","新北市三重區車路頭街117巷32號","121.485031666667","25.0756616666667","6500200","三重區"
"241023","887-TS","2018/07/14 16:59:57","新北市三重區忠孝路三段126號","121.47984","25.0626233333333","6500200","三重區"
"241012","941-UM","2018/07/14 16:59:55","新北市三重區仁和街157號","121.4995","25.0745933333333","6500200","三重區"
"241029","942-UM","2018/07/14 16:59:54","新北市三重區環河南路220-8號","121.49337","25.0526883333333","6500200","三重區"
"241033","AAC-255","2018/07/14 16:59:55","新北市三重區中興北街271號","121.469215","25.0606766666667","6500200","三重區"
"247010","KEA-2869","2018/07/14 16:59:49","新北市蘆洲區信義路158號","121.47935","25.0835283333333","6501400","蘆洲區"
"235046","733-UM","2018/07/14 16:34:34","新北市中和區員山路36巷13號","121.484145","24.9908366666667","6500300","中和區"
"247024","893-R6","2018/07/14 16:59:48","新北市蘆洲區長興路255號","121.460541666667","25.0875333333333","6501400","蘆洲區"
"247014","546-UM","2018/07/14 16:59:48","新北市蘆洲區中山二路36巷31號","121.474038333333","25.0831783333333","6501400","蘆洲區"
"247004","337-TH","2018/07/14 16:59:45","新北市蘆洲區長安街110號","121.460996666667","25.0815466666667","6501400","蘆洲區"
"247006","336-TH","2018/07/14 16:59:46","新北市蘆洲區長安街111巷26號","121.46054","25.0802533333333","6501400","蘆洲區"
"247018","057-VK","2018/07/14 16:59:38","新北市蘆洲區民族路227巷27號","121.476513333333","25.08881","6501400","蘆洲區"
"247008","053-VK","2018/07/14 16:59:54","新北市蘆洲區信義路56號","121.475405","25.079675","6501400","蘆洲區"
"247016","007-UY","2018/07/14 16:59:43","新北市蘆洲區光華路41巷11號","121.469483333333","25.0826933333333","6501400","蘆洲區"
"247020","001-UY","2018/07/14 16:59:53","新北市蘆洲區民族路422巷82弄14號","121.473941666667","25.0938966666667","6501400","蘆洲區"
"228003","097-TW","2018/07/14 16:59:46","新北市貢寮區福隆里興隆街36號","121.942561666667","25.0165466666667","6502600","貢寮區"
"228001","212-TW","2018/07/14 16:59:54","新北市貢寮區貢寮里朝陽街2號","121.912843333333","25.0215983333333","6502600","貢寮區"
"228002","663-BX","2018/07/14 16:59:46","新北市貢寮區貢寮里朝陽街3號","121.909883333333","25.0211716666667","6502600","貢寮區"
"224006","676-BX","2018/07/14 16:59:50","新北市瑞芳區大寮路14號","121.784398333333","25.0995833333333","6501200","瑞芳區"
"224008","285-BY","2018/07/14 16:59:47","新北市瑞芳區明燈路一段227號","121.818056666667","25.1081366666667","6501200","瑞芳區"
"224007","275-VK","2018/07/14 16:59:40","新北市瑞芳區楓子瀨路18-1號","121.768496666667","25.10307","6501200","瑞芳區"
"224009","273-VK","2018/07/14 16:59:49","新北市瑞芳區濱二路21號","121.836826666667","25.1136066666667","6501200","瑞芳區"
"224005","271-BY","2018/07/14 16:59:29","新北市瑞芳區明里路54號","121.86928","25.1227233333333","6501200","瑞芳區"
"227010","642-TC","2018/07/14 16:59:47","新北市雙溪區牡丹里中正路103號","121.862018333333","25.0479716666667","6502500","雙溪區"
"227002","400-TW","2018/07/14 16:59:37","新北市雙溪區長源里柑腳19號","121.804475","25.014215","6502500","雙溪區"
"251009","008-UM","2018/07/14 16:59:39","新北市淡水區中正路259號","121.43245","25.1746466666667","6501000","淡水區"
"251004","009-UM","2018/07/14 16:59:50","新北市淡水區中正路二段31號","121.419273333333","25.181865","6501000","淡水區"
"251013","KEA-2871","2018/07/14 16:59:35","新北市淡水區泉洲厝32號","121.489295","25.1925816666667","6501000","淡水區"
"251014","180-VK","2018/07/14 16:59:42","新北市淡水區淡金路四段472巷24號","121.452865","25.2239666666667","6501000","淡水區"
"251015","181-VK","2018/07/14 16:59:50","新北市淡水區忠愛街9-1號","121.456783333333","25.1744116666667","6501000","淡水區"
"251010","413-VK","2018/07/14 16:59:46","新北市淡水區新市一路一段99巷37號","121.430075","25.1885783333333","6501000","淡水區"
"251012","441-VK","2018/07/14 16:59:43","新北市淡水區新民街一段117號","121.42831","25.1872966666667","6501000","淡水區"
"251008","442-VK","2018/07/14 16:59:49","新北市淡水區樹梅坑9號","121.472726666667","25.1426766666667","6501000","淡水區"
"251005","443-VK","2018/07/14 16:59:41","新北市淡水區原德路40號","121.442405","25.1722283333333","6501000","淡水區"
"251006","561-UM","2018/07/14 16:59:41","新北市淡水區中正路一段22巷6號","121.42763","25.1757466666667","6501000","淡水區"
"251016","575-R6","2018/07/14 16:59:54","新北市淡水區瓦坑3號","121.477551666667","25.180685","6501000","淡水區"
"251007","577-R6","2018/07/14 16:59:52","新北市淡水區中正東路二段85號","121.459333333333","25.1531566666667","6501000","淡水區"
"251011","650-BX","2018/07/14 16:59:40","新北市淡水區中山路62號","121.443736666667","25.1704716666667","6501000","淡水區"
"252002","178-VK","2018/07/14 16:59:49","新北市三芝區忠孝街145號","121.506278333333","25.2606166666667","6502100","三芝區"
"252001","292-VK","2018/07/14 16:59:44","新北市三芝區淡金路二段43號","121.503185","25.2602216666667","6502100","三芝區"
"242053","751-BX","2018/07/14 16:59:51","新北市新莊區三和路18-23號","121.441771666667","25.038905","6500500","新莊區"
"242025","613-BX","2018/07/14 16:59:39","新北市新莊區新泰路255巷83號","121.442078333333","25.038995","6500500","新莊區"
"242029","612-BX","2018/07/14 16:59:37","新北市新莊區新泰路357巷3弄57號","121.442065","25.0392166666667","6500500","新莊區"
"242036","415-TV","2018/07/14 16:59:38","新北市新莊區新泰路357巷3弄57號","121.441958333333","25.0392766666667","6500500","新莊區"
"242044","400-BY","2018/07/14 16:59:34","新北市新莊區新泰路357巷3弄57號","121.442308333333","25.0395883333333","6500500","新莊區"
"242023","362-BY","2018/07/14 16:59:34","新北市新莊區新泰路357巷3弄57號","121.441995","25.0390716666667","6500500","新莊區"
"242061","353-BY","2018/07/14 16:59:43","新北市新莊區三和路12-21號","121.442195","25.0385983333333","6500500","新莊區"
"242017","175-VK","2018/07/14 16:59:55","新北市新莊區三和路12-21號","121.44194","25.038605","6500500","新莊區"
"242004","176-VK","2018/07/14 16:59:39","新北市新莊區三和路12-21號","121.441961666667","25.0385266666667","6500500","新莊區"
"242021","348-TH","2018/07/14 16:59:51","新北市新莊區新泰路357巷3弄57號","121.44228","25.0396216666667","6500500","新莊區"
"238019","599-UM","2018/07/14 16:59:44","新北市樹林區育德街78-1號","121.387883333333","24.9682766666667","6500700","樹林區"
"238018","571-TV","2018/07/14 16:59:45","新北市樹林區育德街121巷7號","121.389046666667","24.9682133333333","6500700","樹林區"
"238017","283-BY","2018/07/14 16:59:42","新北市樹林區育德街78號","121.38779","24.9683616666667","6500700","樹林區"
"238014","282-BY","2018/07/14 16:59:53","新北市樹林區育德街78-1號","121.38793","24.9681","6500700","樹林區"
"239007","AAC-297","2018/07/14 16:59:49","新北市鶯歌區環河路85號","121.34744","24.9397233333333","6500800","鶯歌區"
"239006","891-R6","2018/07/14 16:59:43","新北市鶯歌區二甲路171號","121.343226666667","24.9363433333333","6500800","鶯歌區"
"239008","527-UM","2018/07/14 16:59:54","新北市鶯歌區環河路155-1號","121.346603333333","24.93876","6500800","鶯歌區"
"239005","526-UM","2018/07/14 16:59:43","新北市鶯歌區二甲路37-5號","121.340736666667","24.9366933333333","6500800","鶯歌區"
"239002","359-BY","2018/07/14 16:59:54","新北市鶯歌區環河路81號","121.349523333333","24.942505","6500800","鶯歌區"
"239004","193-VK","2018/07/14 16:59:48","新北市鶯歌區環河路177-19號","121.345693333333","24.9357916666667","6500800","鶯歌區"
"235061","KEA-2875","2018/07/14 16:41:13","新北市中和區員山路36巷16-2號","121.485336666667","24.9916683333333","6500300","中和區"
