"lineid","car","time","location","longitude","latitude","cityid","cityname"
"234070","149-BY","2018/07/14 17:11:00","新北市永和區福和路1號","121.526263333333","25.0096933333333","6500400","永和區"
"249005","172-UM","2018/07/14 17:19:55","新北市五股區中直路69-6號","121.413885","25.123","6502300","八里區"
"249001","173-UM","2018/07/14 17:19:51","新北市八里區中華路二段165巷3號","121.407645","25.1508616666667","6502300","八里區"
"249004","303-UY","2018/07/14 17:19:45","新北市八里區忠七街6號","121.421071666667","25.15998","6502300","八里區"
"249002","305-UY","2018/07/14 17:19:40","新北市八里區龍米路二段117巷26號","121.444656666667","25.1427483333333","6502300","八里區"
"249003","593-UM","2018/07/14 17:19:41","新北市八里區中山路二段466巷5號","121.398718333333","25.1474533333333","6502300","八里區"
"244007","080-UY","2018/07/14 17:19:50","新北市林口區湖子17-9號","121.385185","25.09151","6501700","林口區"
"244019","403-UM","2018/07/14 17:19:36","新北市林口區公園路233號","121.374191666667","25.0748333333333","6501700","林口區"
"244023","483-VK","2018/07/14 17:19:47","新北市林口區隆林街48-1號","121.387393333333","25.0754","6501700","林口區"
"244017","485-VK","2018/07/14 17:19:47","新北市林口區粉寮路二段167-1號","121.404333333333","25.08827","6501700","林口區"
"244011","657-BX","2018/07/14 17:19:46","新北市林口區粉寮路一段105號","121.39779","25.0802716666667","6501700","林口區"
"244025","837-TS","2018/07/14 17:19:45","新北市林口區仁愛二路96號","121.368583333333","25.075445","6501700","林口區"
"231046","107-UY","2018/07/14 17:19:54","新北市新店區直潭路92號","121.530898333333","24.9375983333333","6500600","新店區"
"241011","013-R5","2018/07/14 17:19:45","新北市三重區龍濱路197號","121.501915","25.071345","6500200","三重區"
"241028","022-UY","2018/07/14 17:19:40","新北市三重區中正南路81號","121.494285","25.0585816666667","6500200","三重區"
"241008","059-VK","2018/07/14 17:19:52","新北市三重區下竹圍街6號","121.480888333333","25.075975","6500200","三重區"
"241022","060-VK","2018/07/14 17:19:54","新北市三重區中正北路64巷21號","121.486086666667","25.06382","6500200","三重區"
"241015","062-VK","2018/07/14 17:19:42","新北市三重區福德北路89號","121.50187","25.0662566666667","6500200","三重區"
"241017","063-VK","2018/07/14 17:19:36","新北市三重區大同北路81號","121.494946666667","25.0637133333333","6500200","三重區"
"241026","066-VK","2018/07/14 17:19:53","新北市三重區福裕街36-3號","121.49891","25.0614983333333","6500200","三重區"
"241002","090-VK","2018/07/14 17:19:40","新北市三重區自強路五段17-1號","121.492926666667","25.080635","6500200","三重區"
"241003","091-VK","2018/07/14 17:19:38","新北市三重區五華街148號","121.491041666667","25.08394","6500200","三重區"
"241024","742-BX","2018/07/14 17:19:42","新北市三重區中正北路193巷1號","121.477188333333","25.0698133333333","6500200","三重區"
"241005","262-UM","2018/07/14 17:19:42","新北市三重區永安北路二段25巷2號","121.48229","25.0817783333333","6500200","三重區"
"241016","266-UM","2018/07/14 17:19:37","新北市三重區大同北路56-1號","121.494223333333","25.063715","6500200","三重區"
"241009","267-UM","2018/07/14 17:19:39","新北市三重區三和路四段163巷83號","121.486156666667","25.0793083333333","6500200","三重區"
"241018","268-UM","2018/07/14 17:19:52","新北市三重區安慶街151號","121.494338333333","25.0688033333333","6500200","三重區"
"241032","269-UM","2018/07/14 17:18:13","新北市三重區中華路20巷6號","121.483026666667","25.0607966666667","6500200","三重區"
"241013","270-UM","2018/07/14 17:19:44","新北市三重區三和路三段107巷6號","121.494538333333","25.0729733333333","6500200","三重區"
"241007","398-BY","2018/07/14 17:19:43","新北市三重區慈愛街28號","121.484906666667","25.0788683333333","6500200","三重區"
"241025","413-TH","2018/07/14 17:19:38","新北市三重區中正北路219號","121.476258333333","25.0701233333333","6500200","三重區"
"241004","475-VK","2018/07/14 17:19:49","新北市三重區五華街112號","121.492211666667","25.082995","6500200","三重區"
"241020","478-VK","2018/07/14 17:19:45","新北市三重區自強路三段71號","121.486871666667","25.0735183333333","6500200","三重區"
"241030","480-VK","2018/07/14 17:19:41","新北市三重區成功路73巷36號","121.489778333333","25.0523883333333","6500200","三重區"
"241014","543-UM","2018/07/14 17:19:53","新北市三重區長榮路6號","121.500048333333","25.06852","6500200","三重區"
"241001","547-UM","2018/07/14 17:19:40","新北市三重區五華街133號","121.491108333333","25.08442","6500200","三重區"
"241019","KEA-2593","2018/07/14 17:19:53","新北市三重區自強路二段74巷6號","121.488308333333","25.0697733333333","6500200","三重區"
"241006","AAD-863","2018/07/14 17:19:41","新北市三重區車路頭街148號","121.483913333333","25.0759983333333","6500200","三重區"
"241023","887-TS","2018/07/14 17:19:37","新北市三重區三民街152號","121.48236","25.0651216666667","6500200","三重區"
"241012","941-UM","2018/07/14 17:19:55","新北市三重區仁昌街109號","121.500195","25.0752133333333","6500200","三重區"
"241029","942-UM","2018/07/14 17:19:54","新北市三重區重安街14號","121.490256666667","25.0581633333333","6500200","三重區"
"241033","AAC-255","2018/07/14 17:19:43","新北市三重區中興北街142號","121.468976666667","25.0562816666667","6500200","三重區"
"247010","KEA-2869","2018/07/14 17:19:42","新北市蘆洲區中山一路120巷7弄1號","121.477426666667","25.0818216666667","6501400","蘆洲區"
"247024","893-R6","2018/07/14 17:19:49","新北市蘆洲區長榮路288號","121.46004","25.0867383333333","6501400","蘆洲區"
"247014","546-UM","2018/07/14 17:19:48","新北市蘆洲區忠孝路12-1號","121.470375","25.08398","6501400","蘆洲區"
"247022","500-BY","2018/07/14 17:19:46","新北市蘆洲區三民路128巷46號","121.470521666667","25.08871","6501400","蘆洲區"
"247004","337-TH","2018/07/14 17:19:45","新北市蘆洲區中原路52號","121.459096666667","25.0824016666667","6501400","蘆洲區"
"247006","336-TH","2018/07/14 17:19:46","新北市蘆洲區永安南路二段132-1號","121.462393333333","25.0785933333333","6501400","蘆洲區"
"247018","057-VK","2018/07/14 17:19:38","新北市蘆洲區民權路82巷5弄11號","121.474655","25.08846","6501400","蘆洲區"
"247008","053-VK","2018/07/14 17:19:45","新北市蘆洲區永安北路一段72巷18號","121.476723333333","25.0771333333333","6501400","蘆洲區"
"247016","007-UY","2018/07/14 17:19:43","新北市蘆洲區正和街96巷54號","121.467455","25.0817133333333","6501400","蘆洲區"
"247002","002-UY","2018/07/14 17:19:37","新北市蘆洲區永樂街38巷33弄19號","121.457286666667","25.0896316666667","6501400","蘆洲區"
"247020","001-UY","2018/07/14 17:19:53","新北市蘆洲區仁愛街20號","121.472288333333","25.0928616666667","6501400","蘆洲區"
"228003","097-TW","2018/07/14 17:19:46","新北市貢寮區福隆里興隆街21-1號","121.943556666667","25.0165683333333","6502600","貢寮區"
"228001","212-TW","2018/07/14 17:19:54","新北市貢寮區仁理村尖山腳街18-3號","121.925483333333","25.04832","6502600","貢寮區"
"228002","663-BX","2018/07/14 17:19:46","新北市貢寮區雙玉里田寮洋街38-1號","121.926723333333","25.0141733333333","6502600","貢寮區"
"224006","676-BX","2018/07/14 17:19:50","新北市瑞芳區傑魚坑路280號","121.78754","25.10658","6501200","瑞芳區"
"224008","285-BY","2018/07/14 17:19:47","新北市瑞芳區侯硐路48號","121.825775","25.0830016666667","6501200","瑞芳區"
"224009","273-VK","2018/07/14 17:19:49","新北市瑞芳區汽車路93-1號","121.843068333333","25.10966","6501200","瑞芳區"
"224005","271-BY","2018/07/14 17:19:49","新北市瑞芳區鼻頭路117號","121.916366666667","25.1223216666667","6501200","瑞芳區"
"227010","642-TC","2018/07/14 17:19:47","新北市雙溪區三貂里定福路4號","121.851611666667","25.0653633333333","6502500","雙溪區"
"227002","400-TW","2018/07/14 17:19:37","新北市雙溪區上林里內平林90號","121.827536666667","25.02747","6502500","雙溪區"
"251009","008-UM","2018/07/14 17:19:39","新北市淡水區三民街20號","121.43904","25.1717733333333","6501000","淡水區"
"251004","009-UM","2018/07/14 17:19:50","新北市淡水區中正東路二段48巷20號","121.457508333333","25.158225","6501000","淡水區"
"251002","012-UM","2018/07/14 17:19:40","新北市淡水區中正路二段31號","121.419423333333","25.1816833333333","6501000","淡水區"
"251013","KEA-2871","2018/07/14 17:19:35","新北市淡水區大埤頭6號","121.4829","25.1973","6501000","淡水區"
"251014","180-VK","2018/07/14 17:19:42","新北市淡水區番子田132號","121.464635","25.2277633333333","6501000","淡水區"
"251015","181-VK","2018/07/14 17:15:29","新北市淡水區樹林口14-2號","121.47887","25.16873","6501000","淡水區"
"251010","413-VK","2018/07/14 17:19:46","新北市淡水區中正路二段305巷44號","121.423888333333","25.191425","6501000","淡水區"
"251012","441-VK","2018/07/14 17:19:43","新北市淡水區中山北路一段158號","121.444263333333","25.177885","6501000","淡水區"
"251008","442-VK","2018/07/14 17:19:49","新北市淡水區大同路233號","121.465586666667","25.1421266666667","6501000","淡水區"
"251005","443-VK","2018/07/14 17:19:41","新北市淡水區鄧公路19號","121.451386666667","25.170035","6501000","淡水區"
"251006","561-UM","2018/07/14 17:19:52","新北市淡水區中山北路一段2號","121.441653333333","25.174595","6501000","淡水區"
"251016","575-R6","2018/07/14 17:19:35","新北市淡水區鄒厝崙7號","121.469816666667","25.1885416666667","6501000","淡水區"
"251007","577-R6","2018/07/14 17:19:52","新北市淡水區民生路47-4號","121.462041666667","25.1380033333333","6501000","淡水區"
"251011","650-BX","2018/07/14 17:19:40","新北市淡水區坪頂路128號","121.465111666667","25.1611616666667","6501000","淡水區"
"251003","673-BX","2018/07/14 17:19:52","新北市淡水區中正路二段31號","121.419571666667","25.1814716666667","6501000","淡水區"
"207003","550-UM","2018/07/14 17:19:43","新北市萬里區萬里里獅頭路23號","121.693203333333","25.1782933333333","6502800","萬里區"
"252002","178-VK","2018/07/14 17:19:49","新北市三芝區忠孝街1-14號","121.505518333333","25.2539516666667","6502100","三芝區"
"252001","292-VK","2018/07/14 17:19:44","新北市三芝區長安街119號","121.498051666667","25.25965","6502100","三芝區"
"237013","252-BX","2018/07/14 17:19:56","新北市三峽區中山路459巷163-3號","121.348941666667","24.9331983333333","6500900","三峽區"
"242058","986-R7","2018/07/14 17:19:50","新北市新莊區中正路400號","121.441618333333","25.033925","6500500","新莊區"
"242053","751-BX","2018/07/14 17:19:51","新北市新莊區瓊林南路77-41號","121.437343333333","25.01295","6500500","新莊區"
"242027","705-TV","2018/07/14 17:19:51","新北市新莊區中港路281號","121.453261666667","25.0437866666667","6500500","新莊區"
"242025","613-BX","2018/07/14 17:19:39","新北市新莊區中港一街153號","121.447566666667","25.0450666666667","6500500","新莊區"
"242029","612-BX","2018/07/14 17:19:37","新北市新莊區幸福路10號","121.45922","25.04956","6500500","新莊區"
"242042","566-BX","2018/07/14 17:19:39","新北市新莊區中正路481號","121.44133","25.0337716666667","6500500","新莊區"
"242046","497-BY","2018/07/14 17:19:53","新北市新莊區新樹路65-5號","121.439443333333","25.0308583333333","6500500","新莊區"
"242039","442-UM","2018/07/14 17:19:37","新北市新莊區新樹路215號","121.4356","25.02343","6500500","新莊區"
"242051","441-UM","2018/07/14 17:19:40","新北市新莊區瓊林南路42巷1-1號","121.435983333333","25.01793","6500500","新莊區"
"242056","440-UM","2018/07/14 17:19:56","新北市新莊區新泰路357巷3弄1號","121.442581666667","25.0414116666667","6500500","新莊區"
"242036","415-TV","2018/07/14 17:19:38","新北市新莊區中正路487號","121.441093333333","25.0336683333333","6500500","新莊區"
"242007","413-TV","2018/07/14 17:19:39","新北市新莊區中港一街161號","121.447321666667","25.0449916666667","6500500","新莊區"
"242044","400-BY","2018/07/14 17:19:54","新北市新莊區民安路33號","121.423348333333","25.0270116666667","6500500","新莊區"
"242023","362-BY","2018/07/14 17:19:54","新北市新莊區中港路315號","121.452675","25.0448","6500500","新莊區"
"242061","353-BY","2018/07/14 17:19:43","新北市新莊區新莊路771巷10號","121.442065","25.031845","6500500","新莊區"
"242009","132-UY","2018/07/14 17:19:43","新北市新莊區新泰路500號","121.442463333333","25.0459783333333","6500500","新莊區"
"242031","135-UY","2018/07/14 17:19:38","新北市新莊區新泰路357巷3弄1號","121.442473333333","25.041615","6500500","新莊區"
"242048","172-VK","2018/07/14 17:19:49","新北市新莊區龍安路252號","121.421161666667","25.01959","6500500","新莊區"
"242017","175-VK","2018/07/14 17:19:54","新北市新莊區中港一街147號","121.447766666667","25.0450533333333","6500500","新莊區"
"242004","176-VK","2018/07/14 17:19:39","新北市新莊區新泰路500號","121.44245","25.0459966666667","6500500","新莊區"
"242011","347-TH","2018/07/14 17:19:48","新北市新莊區新泰路502巷55號","121.444405","25.046415","6500500","新莊區"
"242021","348-TH","2018/07/14 17:19:51","新北市新莊區中港路242號","121.453928333333","25.04324","6500500","新莊區"
"242013","351-TH","2018/07/14 17:19:34","新北市新莊區新泰路357巷3弄1號","121.442326666667","25.0413033333333","6500500","新莊區"
"238015","755-BX","2018/07/14 17:19:47","新北市樹林區大安路267號","121.41907","24.9936833333333","6500700","樹林區"
"238019","599-UM","2018/07/14 17:19:51","新北市樹林區八德街77號","121.419658333333","24.9818933333333","6500700","樹林區"
"238018","571-TV","2018/07/14 17:19:45","新北市樹林區鎮前街277-5號","121.418788333333","24.985375","6500700","樹林區"
"238024","5061-A6","2018/07/14 17:19:50","新北市樹林區保安街一段48巷39號","121.426763333333","24.99568","6500700","樹林區"
"238021","KEA-2539","2018/07/14 17:19:55","新北市樹林區西圳街一段110號","121.39983","24.9639783333333","6500700","樹林區"
"238017","283-BY","2018/07/14 17:19:42","新北市樹林區光武街7-3號","121.415788333333","25.0053283333333","6500700","樹林區"
"238014","282-BY","2018/07/14 17:19:53","新北市樹林區長壽街70巷31弄11號","121.421483333333","24.9948016666667","6500700","樹林區"
"238020","268-VK","2018/07/14 17:19:53","新北市樹林區俊英街32號","121.429056666667","25.0020916666667","6500700","樹林區"
"238026","172-UY","2018/07/14 17:19:46","新北市樹林區中山路二段249巷2號","121.401953333333","24.9758216666667","6500700","樹林區"
"238016","169-UY","2018/07/14 17:19:55","新北市樹林區中山路一段175號","121.421616666667","24.9883833333333","6500700","樹林區"
"239007","AAC-297","2018/07/14 17:19:49","新北市鶯歌區國慶街115巷21號","121.351183333333","24.9545233333333","6500800","鶯歌區"
"239006","891-R6","2018/07/14 17:19:43","新北市鶯歌區福昌街21號","121.33293","24.9608966666667","6500800","鶯歌區"
"239008","527-UM","2018/07/14 17:19:33","新北市鶯歌區西湖街279巷17號","121.340751666667","24.9678416666667","6500800","鶯歌區"
"239005","526-UM","2018/07/14 17:19:43","新北市鶯歌區鶯桃路543號","121.330465","24.96778","6500800","鶯歌區"
"239001","417-VK","2018/07/14 17:19:53","新北市鶯歌區黃厝街35號","121.342806666667","24.9456416666667","6500800","鶯歌區"
"239003","360-BY","2018/07/14 17:19:45","新北市鶯歌區德昌街112號","121.331945","24.9604066666667","6500800","鶯歌區"
"239002","359-BY","2018/07/14 17:19:53","新北市鶯歌區南雅路6號","121.350006666667","24.9544416666667","6500800","鶯歌區"
"239004","193-VK","2018/07/14 17:19:48","新北市鶯歌區文化路226巷7弄5號","121.352181666667","24.9484366666667","6500800","鶯歌區"
"242019","281-VK","2018/07/14 17:19:51","新北市新莊區新泰路502巷18號","121.443011666667","25.0464983333333","6500500","新莊區"
