"lineid","car","time","location","longitude","latitude","cityid","cityname"
"234046","148-BY","2018/07/14 19:59:15","新北市永和區成功路一段95號","121.526883333333","25.0027","6500400","永和區"
"234007","207-UY","2018/07/14 19:59:08","新北市永和區中山路一段240號","121.507436666667","25.007825","6500400","永和區"
"234081","298-R6","2018/07/14 19:59:17","新北市永和區國中路2-1號","121.524005","25.0043516666667","6500400","永和區"
"234038","336-UY","2018/07/14 19:59:26","新北市永和區成功路二段179-1號","121.52658","24.9966366666667","6500400","永和區"
"234064","337-UY","2018/07/14 19:59:12","新北市永和區中正路412巷20弄27號","121.519115","25.001295","6500400","永和區"
"234070","552-UM","2018/07/14 19:59:19","新北市永和區國光路14號","121.519145","25.0083416666667","6500400","永和區"
"234086","553-UM","2018/07/14 19:59:17","新北市永和區福和路5-2號","121.524741666667","25.0086016666667","6500400","永和區"
"234017","745-BX","2018/07/14 19:59:16","新北市永和區文化路53號","121.514305","25.0150783333333","6500400","永和區"
"234030","746-BX","2018/07/14 19:59:21","新北市永和區民生路22巷15號","121.521645","24.9971416666667","6500400","永和區"
"234054","KEA-2590","2018/07/14 19:59:15","新北市永和區博愛街34號","121.51974","25.0159466666667","6500400","永和區"
"234013","KEA-2591","2018/07/14 19:59:16","新北市永和區保生路55號","121.5047","25.010625","6500400","永和區"
"234061","AAD-866","2018/07/14 19:59:14","新北市永和區得和路68號","121.51626","24.999845","6500400","永和區"
"234067","847-RS","2018/07/14 19:59:23","新北市永和區中山路一段275號","121.50712","25.007085","6500400","永和區"
"234042","862-TW","2018/07/14 19:59:26","新北市永和區中和路335巷8號","121.507548333333","25.0000366666667","6500400","永和區"
"234050","863-TW","2018/07/14 19:59:27","新北市永和區保安路145號","121.507158333333","25.0132983333333","6500400","永和區"
"234026","9371-KE","2018/07/14 19:59:18","新北市永和區水源街33巷5號","121.510858333333","25.0041833333333","6500400","永和區"
"234011","9373-KE","2018/07/14 19:59:28","新北市永和區仁愛路352巷120號","121.500255","25.00845","6500400","永和區"
"249005","172-UM","2018/07/14 19:59:15","新北市八里區楓林路2-43號","121.38425","25.1308316666667","6502300","八里區"
"249001","173-UM","2018/07/14 19:59:25","新北市八里區中華路二段310號","121.403886666667","25.14839","6502300","八里區"
"249004","303-UY","2018/07/14 19:59:12","新北市八里區中華路一段333-1號","121.413293333333","25.1538366666667","6502300","八里區"
"249002","305-UY","2018/07/14 19:59:20","新北市八里區龍米路一段65巷2號","121.455543333333","25.1212133333333","6502300","八里區"
"249003","593-UM","2018/07/14 19:59:14","新北市八里區中華路二段560巷3號","121.398655","25.1450833333333","6502300","八里區"
"248016","026-BX","2018/07/14 19:59:23","新北市五股區成泰路三段577巷80弄7號","121.449486666667","25.1043283333333","6501500","五股區"
"248008","095-VK","2018/07/14 19:59:09","新北市五股區四維路30巷17號","121.467966666667","25.0715066666667","6501500","五股區"
"248020","225-UY","2018/07/14 19:59:09","新北市五股區凌雲路三段32-1號","121.431323333333","25.10803","6501500","五股區"
"248012","247-BX","2018/07/14 19:59:26","新北市五股區民義路一段84號","121.436046666667","25.0849216666667","6501500","五股區"
"248014","261-SL","2018/07/14 19:59:24","新北市五股區五福路22巷2號","121.434486666667","25.088915","6501500","五股區"
"248010","272-BY","2018/07/14 19:59:27","新北市五股區登林路33號","121.431471666667","25.0689783333333","6501500","五股區"
"248004","677-BX","2018/07/14 19:59:25","新北市五股區成泰路一段8巷4號","121.435078333333","25.0668433333333","6501500","五股區"
"248002","678-BX","2018/07/14 19:59:26","新北市五股區成泰路三段495-1號","121.451205","25.0999316666667","6501500","五股區"
"234023","9380-KE","2018/07/14 19:59:26","新北市永和區豫溪街57巷15號","121.517358333333","25.0104016666667","6500400","永和區"
"234077","969-R7","2018/07/14 19:59:27","新北市永和區民有街7號","121.51614","24.997005","6500400","永和區"
"234074","AAC-211","2018/07/14 19:59:12","新北市永和區豫溪街213號","121.524245","25.009395","6500400","永和區"
"234003","AAC-295","2018/07/14 19:59:10","新北市永和區中山路一段2號","121.514348333333","25.0104966666667","6500400","永和區"
"243010","267-VK","2018/07/14 19:59:21","新北市泰山區中華街14巷1號","121.42769","25.052415","6501600","泰山區"
"243013","AAD-798","2018/07/14 19:59:18","新北市泰山區應化街7號","121.423856666667","25.043725","6501600","泰山區"
"243009","297-R6","2018/07/14 19:59:21","新北市泰山區楓江路16巷3號","121.433945","25.062075","6501600","泰山區"
"243016","380-SR","2018/07/14 19:59:16","新北市泰山區明志路三段514號","121.420863333333","25.0308766666667","6501600","泰山區"
"243015","421-VK","2018/07/14 19:59:11","新北市泰山區明志路二段214巷16弄9號","121.426841666667","25.0495583333333","6501600","泰山區"
"243011","KEA-2215","2018/07/14 19:59:23","新北市泰山區明志路三段182巷9號","121.423595","25.0389683333333","6501600","泰山區"
"243012","646-TV","2018/07/14 19:59:17","新北市泰山區全興路51號","121.432788333333","25.0582133333333","6501600","泰山區"
"243014","680-BX","2018/07/14 19:59:16","新北市泰山區泰林路二段155號","121.433875","25.0602766666667","6501600","泰山區"
"222002","016-RS","2018/07/14 19:59:25","新北市深坑區北深路二段55巷12弄23號","121.618418333333","25.00309","6501800","深坑區"
"222003","436-BY","2018/07/14 19:59:18","新北市深坑區埔新街14號","121.620763333333","25.00394","6501800","深坑區"
"231044","001-UM","2018/07/14 19:59:13","新北市新店區復興路27號","121.538996666667","24.9866683333333","6500600","新店區"
"231041","002-UM","2018/07/14 19:59:09","新北市新店區中正路356號","121.535738333333","24.9756633333333","6500600","新店區"
"231059","046-UY","2018/07/14 19:59:26","新北市新店區安和路一段21號","121.517026666667","24.9647166666667","6500600","新店區"
"231040","047-UY","2018/07/14 19:59:30","新北市新店區中正路61號","121.544163333333","24.9699533333333","6500600","新店區"
"231065","110-UY","2018/07/14 19:59:11","新北市新店區安祥路109巷3弄6號","121.475235","24.9596333333333","6500600","新店區"
"231048","187-VK","2018/07/14 19:59:11","新北市新店區寶宏路5-1號","121.549318333333","24.976185","6500600","新店區"
"231054","KEA-2219","2018/07/14 19:59:24","新北市新店區光明街149號","121.539493333333","24.9622566666667","6500600","新店區"
"231057","256-BX","2018/07/14 19:59:16","新北市新店區花園二路一段11號","121.555476666667","24.9325283333333","6500600","新店區"
"231042","268-BY","2018/07/14 19:59:13","新北市新店區中興路一段290號","121.545865","24.9690666666667","6500600","新店區"
"231051","278-BY","2018/07/14 19:59:27","新北市新店區中央路206號","121.53039","24.974035","6500600","新店區"
"231050","AAD-862","2018/07/14 19:59:13","新北市新店區北宜路二段581巷1號","121.565936666667","24.9539783333333","6500600","新店區"
"231043","355-BY","2018/07/14 19:59:10","新北市新店區中正路282-11號","121.538478333333","24.9738666666667","6500600","新店區"
"231066","4716-K9","2018/07/14 19:59:13","新北市新店區薏仁坑路自強巷6號","121.49663","24.9583866666667","6500600","新店區"
"231056","4715-K9","2018/07/14 19:59:10","新北市新店區明德路26巷2號","121.542255","24.97779","6500600","新店區"
"231067","4772-VM","2018/07/14 19:59:20","新北市新店區精忠路10-1號","121.53267","24.959085","6500600","新店區"
"231049","513-UM","2018/07/14 19:59:27","新北市新店區明德路83號","121.541478333333","24.978295","6500600","新店區"
"231063","616-UM","2018/07/14 19:59:11","新北市新店區車子路11號","121.503048333333","24.9520116666667","6500600","新店區"
"231045","617-UM","2018/07/14 19:59:14","新北市新店區北宜路二段263號","121.554595","24.9535916666667","6500600","新店區"
"231061","619-UM","2018/07/14 19:59:26","新北市新店區安民街296號","121.517635","24.973555","6500600","新店區"
"231068","718-UY","2018/07/14 19:59:14","新北市新店區安一路一段1-1號","121.519293333333","24.9612616666667","6500600","新店區"
"231064","719-UM","2018/07/14 19:59:25","新北市新店區光華街22號","121.516943333333","24.9692666666667","6500600","新店區"
"231052","719-UY","2018/07/14 19:59:29","新北市新店區新烏路三段229號","121.547131666667","24.896575","6500600","新店區"
"231062","720-UM","2018/07/14 19:59:15","新北市新店區華城路12號","121.529191666667","24.9577316666667","6500600","新店區"
"231060","897-TW","2018/07/14 19:59:26","新北市新店區安康路二段393號","121.494443333333","24.95422","6500600","新店區"
"231055","AKT-0513","2018/07/14 19:59:15","新北市新店區中華路83巷67號","121.538425","24.9674016666667","6500600","新店區"
"241011","013-R5","2018/07/14 19:59:24","新北市三重區三和路二段210號","121.498018333333","25.0694983333333","6500200","三重區"
"241028","022-UY","2018/07/14 19:59:20","新北市三重區重新路三段49號","121.493008333333","25.0612583333333","6500200","三重區"
"241008","059-VK","2018/07/14 19:59:11","新北市三重區永福街179巷1號","121.47878","25.07497","6500200","三重區"
"241022","060-VK","2018/07/14 19:59:07","新北市三重區過圳街31巷2號","121.488938333333","25.0605983333333","6500200","三重區"
"241031","061-VK","2018/07/14 19:59:11","新北市三重區重新路四段144巷27號","121.487073333333","25.0550716666667","6500200","三重區"
"241015","062-VK","2018/07/14 19:59:29","新北市三重區三和路二段8號","121.501055","25.066875","6500200","三重區"
"241017","063-VK","2018/07/14 19:59:16","新北市三重區重陽路三段192-4號","121.490323333333","25.068615","6500200","三重區"
"241026","066-VK","2018/07/14 19:59:31","新北市三重區福德南路20號","121.502746666667","25.0631783333333","6500200","三重區"
"241002","090-VK","2018/07/14 19:59:22","新北市三重區仁愛街265號","121.492921666667","25.078625","6500200","三重區"
"241003","091-VK","2018/07/14 19:59:25","新北市三重區仁愛街418號","121.490496666667","25.08141","6500200","三重區"
"241024","742-BX","2018/07/14 19:59:18","新北市三重區大勇街34號","121.481645","25.0718216666667","6500200","三重區"
"241005","262-UM","2018/07/14 19:59:22","新北市三重區溪尾街325巷32號","121.488665","25.0835266666667","6500200","三重區"
"241009","267-UM","2018/07/14 19:59:19","新北市三重區三和路四段388-2號","121.482045","25.0790366666667","6500200","三重區"
"241018","268-UM","2018/07/14 19:59:12","新北市三重區正義北路244巷37號","121.495076666667","25.0679683333333","6500200","三重區"
"241032","269-UM","2018/07/14 19:59:08","新北市三重區朝陽街4巷1號","121.483621666667","25.0563966666667","6500200","三重區"
"241013","270-UM","2018/07/14 19:59:13","新北市三重區三和路三段139巷7號","121.492966666667","25.0736366666667","6500200","三重區"
"241007","398-BY","2018/07/14 19:59:17","新北市三重區溪尾街160號","121.488733333333","25.08007","6500200","三重區"
"241035","KEA-2210","2018/07/14 19:59:22","新北市三重區重新路二段13巷9號","121.498315","25.062875","6500200","三重區"
"241025","413-TH","2018/07/14 19:59:24","新北市三重區頂崁街210巷26號","121.475985","25.067975","6500200","三重區"
"241004","475-VK","2018/07/14 19:59:28","新北市三重區五華街74號","121.493375","25.082035","6500200","三重區"
"241020","478-VK","2018/07/14 19:59:15","新北市三重區大智街167號","121.489808333333","25.0724583333333","6500200","三重區"
"241030","480-VK","2018/07/14 19:59:21","新北市三重區重新路四段248-1號","121.486221666667","25.05343","6500200","三重區"
"241014","543-UM","2018/07/14 19:59:13","新北市三重區長樂街1號","121.499375","25.0690383333333","6500200","三重區"
"241001","547-UM","2018/07/14 19:59:25","新北市三重區仁愛街283巷39號","121.494416666667","25.07989","6500200","三重區"
"241019","KEA-2593","2018/07/14 19:59:13","新北市三重區重陽路四段25號","121.491281666667","25.0694533333333","6500200","三重區"
"241006","AAD-863","2018/07/14 19:59:21","新北市三重區力行路二段136巷3號","121.48221","25.0757016666667","6500200","三重區"
"241023","887-TS","2018/07/14 19:59:17","新北市三重區大有街1-9號","121.477625","25.0660266666667","6500200","三重區"
"241012","941-UM","2018/07/14 19:59:15","新北市三重區仁厚街49號","121.500378333333","25.076575","6500200","三重區"
"241029","942-UM","2018/07/14 19:59:26","新北市三重區重安街1號","121.489901666667","25.0584683333333","6500200","三重區"
"241033","AAC-255","2018/07/14 19:59:19","新北市三重區中興北街6號","121.469546666667","25.04675","6500200","三重區"
"235066","003-UY","2018/07/14 19:59:22","新北市中和區中山路二段26號","121.504641666667","25.0053783333333","6500300","中和區"
"235056","096-UM","2018/07/14 19:59:26","新北市中和區中山路三段170巷8弄20號","121.472948333333","25.0076333333333","6500300","中和區"
"235039","097-UM","2018/07/14 19:59:25","新北市中和區大勇街25巷54號","121.515188333333","24.9944266666667","6500300","中和區"
"235065","098-UM","2018/07/14 19:59:21","新北市中和區福祥路90巷5號","121.499568333333","25.0058866666667","6500300","中和區"
"235040","150-BY","2018/07/14 19:59:24","新北市中和區保健路19巷25號","121.508553333333","24.9987216666667","6500300","中和區"
"235058","151-BY","2018/07/14 19:59:14","新北市中和區員山路150巷2弄1號","121.481741666667","24.998315","6500300","中和區"
"235049","186-VK","2018/07/14 19:59:30","新北市中和區南華路5號","121.502035","24.9954566666667","6500300","中和區"
"235067","255-BX","2018/07/14 19:59:25","新北市中和區新生街220巷1弄1號","121.483501666667","24.9984783333333","6500300","中和區"
"235044","293-VK","2018/07/14 19:59:08","新北市中和區中正路93號","121.500175","24.99339","6500300","中和區"
"235043","352-BY","2018/07/14 19:59:21","新北市中和區興南路二段159巷25號","121.50541","24.98296","6500300","中和區"
"247010","KEA-2869","2018/07/14 19:59:17","新北市三重區集賢路188號","121.483948333333","25.0880533333333","6501400","蘆洲區"
"235050","4979-A6","2018/07/14 19:59:12","新北市中和區景平路155巷2弄1號","121.513458333333","24.9918316666667","6500300","中和區"
"235069","4980-A6","2018/07/14 19:59:14","新北市中和區南山路8號","121.501875","24.998665","6500300","中和區"
"235070","558-UM","2018/07/14 19:59:13","新北市中和區圓通路200號","121.49619","24.9942883333333","6500300","中和區"
"235054","640-BX","2018/07/14 19:59:21","新北市中和區莒光路141號","121.472553333333","25.0014366666667","6500300","中和區"
"235046","733-UM","2018/07/14 19:59:19","新北市中和區興南路一段93巷58弄3號","121.510616666667","24.985885","6500300","中和區"
"235041","802-TS","2018/07/14 19:59:14","新北市中和區安平路30號","121.50957","24.9946933333333","6500300","中和區"
"235052","805-TS","2018/07/14 19:59:22","新北市中和區華新街30巷4號","121.507296666667","24.9843716666667","6500300","中和區"
"235048","896-TW","2018/07/14 19:59:20","新北市中和區興南路一段18號","121.51129","24.9913416666667","6500300","中和區"
"235053","900-TW","2018/07/14 19:59:19","新北市中和區莒光路203號","121.472368333333","24.9987066666667","6500300","中和區"
"235051","157-BY","2018/07/14 19:59:13","新北市中和區復興路301巷15號","121.501555","24.9898483333333","6500300","中和區"
"235037","AAC-213","2018/07/14 19:59:29","新北市中和區自立路139巷2號","121.52219","24.9936716666667","6500300","中和區"
"235059","AAC-215","2018/07/14 19:59:13","新北市中和區圓通路365號","121.49124","24.989745","6500300","中和區"
"220068","013-TV","2018/07/14 19:59:25","新北市板橋區光復街150號","121.484765","25.01949","6500100","板橋區"
"220080","015-TV","2018/07/14 19:59:23","新北市板橋區大觀路二段161號","121.44541","25.0006516666667","6500100","板橋區"
"220065","072-UY","2018/07/14 19:59:13","新北市板橋區中山路一段156號","121.46486","25.0113983333333","6500100","板橋區"
"220106","075-UY","2018/07/14 19:59:08","新北市板橋區民治街42巷20號","121.478488333333","25.033275","6500100","板橋區"
"220069","AAD-861","2018/07/14 19:59:09","新北市板橋區貴興路63號","121.457205","25.003105","6500100","板橋區"
"247024","893-R6","2018/07/14 19:59:11","新北市蘆洲區光榮路120巷8弄39號","121.464596666667","25.0879883333333","6501400","蘆洲區"
"247014","546-UM","2018/07/14 19:59:23","新北市蘆洲區成功路108號","121.472385","25.0823583333333","6501400","蘆洲區"
"247004","337-TH","2018/07/14 19:35:36","新北市蘆洲區長安街97號","121.4617","25.0807533333333","6501400","蘆洲區"
"247006","336-TH","2018/07/14 19:59:12","新北市蘆洲區九芎街88號","121.465806666667","25.0798816666667","6501400","蘆洲區"
"247018","057-VK","2018/07/14 19:59:22","新北市蘆洲區民族路292號","121.477953333333","25.089645","6501400","蘆洲區"
"247008","053-VK","2018/07/14 19:59:09","新北市蘆洲區信義路111號","121.478325","25.08015","6501400","蘆洲區"
"247016","007-UY","2018/07/14 19:59:20","新北市蘆洲區光華路11號","121.469811666667","25.083465","6501400","蘆洲區"
"247002","002-UY","2018/07/14 19:59:16","新北市蘆洲區長安街278號","121.457481666667","25.0871883333333","6501400","蘆洲區"
"247020","001-UY","2018/07/14 19:59:15","新北市蘆洲區民義街53號","121.472848333333","25.0897883333333","6501400","蘆洲區"
"228003","097-TW","2018/07/14 19:59:26","新北市貢寮區仁理村仁和路164號","121.923233333333","25.05204","6502600","貢寮區"
"224010","AGQ-8101","2018/07/14 19:59:21","新北市瑞芳區輕便路19號","121.847226666667","25.1112316666667","6501200","瑞芳區"
"224002","639-TC","2018/07/14 19:59:22","新北市瑞芳區員山子路員山巷18號","121.816861666667","25.1039316666667","6501200","瑞芳區"
"227010","642-TC","2018/07/14 19:59:27","新北市雙溪區新基里新基南街25號","121.866255","25.0381483333333","6502500","雙溪區"
"227002","400-TW","2018/07/14 19:59:24","新北市雙溪區雙溪里長安街16號","121.865088333333","25.0345883333333","6502500","雙溪區"
"222001","KEA-2212","2018/07/14 19:59:26","新北市深坑區北深路三段170號","121.602273333333","25.0034766666667","6501800","深坑區"
"208002","KEA-2872","2018/07/14 19:59:25","新北市金山區中正路105-1號","121.63276","25.2215983333333","6502700","金山區"
"208003","665-BX","2018/07/14 19:59:20","新北市金山區香園6號","121.634458333333","25.2473","6502700","金山區"
"208001","761-BX","2018/07/14 19:59:14","新北市金山區重和里茅埔頭22號","121.601415","25.2133333333333","6502700","金山區"
"251009","008-UM","2018/07/14 19:59:24","新北市淡水區英專路28巷2弄3號","121.44595","25.1696566666667","6501000","淡水區"
"251004","009-UM","2018/07/14 19:59:10","新北市淡水區民族路110巷38弄11號","121.461095","25.1356916666667","6501000","淡水區"
"251001","011-UM","2018/07/14 19:59:27","新北市淡水區新市二路四段265號","121.445745","25.1924866666667","6501000","淡水區"
"251013","KEA-2871","2018/07/14 19:59:15","新北市淡水區淡金路三段329號","121.44899","25.2062216666667","6501000","淡水區"
"251014","180-VK","2018/07/14 19:59:22","新北市淡水區石頭厝3-2號","121.459268333333","25.2352283333333","6501000","淡水區"
"251015","181-VK","2018/07/14 19:59:29","新北市淡水區商工路169號","121.448175","25.188985","6501000","淡水區"
"251010","413-VK","2018/07/14 19:59:26","新北市淡水區下圭柔山91-2號","121.430508333333","25.20933","6501000","淡水區"
"251012","441-VK","2018/07/14 19:59:23","新北市淡水區下圭柔山93號","121.435948333333","25.2090233333333","6501000","淡水區"
"251008","442-VK","2018/07/14 19:59:29","新北市淡水區淡海路72巷21號","121.424153333333","25.1810966666667","6501000","淡水區"
"251005","443-VK","2018/07/14 19:59:21","新北市淡水區學府路136巷24號","121.451448333333","25.1726816666667","6501000","淡水區"
"251006","561-UM","2018/07/14 19:59:21","新北市淡水區水碓街40巷1號","121.444438333333","25.1772983333333","6501000","淡水區"
"251016","575-R6","2018/07/14 19:59:14","新北市淡水區番子田16-13號","121.453746666667","25.231705","6501000","淡水區"
"251011","650-BX","2018/07/14 19:59:10","新北市淡水區崁頂55-3號","121.442316666667","25.1966116666667","6501000","淡水區"
"251003","673-BX","2018/07/14 19:59:12","新北市淡水區中山北路二段189巷15弄29號","121.443341666667","25.1842066666667","6501000","淡水區"
"207003","550-UM","2018/07/14 19:59:23","新北市萬里區大鵬里萬里加投45-2號","121.641538333333","25.2101116666667","6502800","萬里區"
"207004","225-TW","2018/07/14 19:59:11","新北市萬里區北基里忠二街35號","121.685636666667","25.1757516666667","6502800","萬里區"
"252002","178-VK","2018/07/14 19:59:29","新北市三芝區忠孝街116-3號","121.505511666667","25.25752","6502100","三芝區"
"252001","292-VK","2018/07/14 19:59:23","新北市三芝區公正街9號","121.499775","25.2574866666667","6502100","三芝區"
"237004","KEA-2597","2018/07/14 19:59:16","新北市三峽區添福15-32號","121.372533333333","24.904755","6500900","三峽區"
"237007","153-BY","2018/07/14 19:55:40","新北市三峽區二鬮路19號","121.362586666667","24.9110916666667","6500900","三峽區"
"237009","210-TH","2018/07/14 19:59:18","新北市三峽區民族街78巷20號","121.368095","24.9295933333333","6500900","三峽區"
"237012","275-BY","2018/07/14 19:59:24","新北市三峽區中華路96-2號","121.371241666667","24.9281616666667","6500900","三峽區"
"237008","302-VK","2018/07/14 19:59:18","新北市三峽區中華路73號","121.371918333333","24.93003","6500900","三峽區"
"237006","5529-G3","2018/07/14 19:59:19","新北市三峽區中正路二段168號","121.366006666667","24.9156183333333","6500900","三峽區"
"237016","649-BX","2018/07/14 19:59:11","新北市三峽區成福路197號","121.421671666667","24.9300766666667","6500900","三峽區"
"237005","AKY-6261","2018/07/14 19:59:13","新北市三峽區民生街1巷17號","121.38044","24.9356066666667","6500900","三峽區"
"236070","105-UM","2018/07/14 19:59:23","新北市土城區忠義路77號","121.442973333333","24.96515","6501300","土城區"
"236079","166-UM","2018/07/14 19:59:13","新北市土城區中州路52巷2弄2號","121.413191666667","24.9582083333333","6501300","土城區"
"236030","253-BX","2018/07/14 19:59:21","新北市土城區中央路一段252號","121.444295","24.9846166666667","6501300","土城區"
"236026","269-VK","2018/07/14 19:59:29","新北市土城區員林街1號","121.442275","24.9781883333333","6501300","土城區"
"236014","270-VK","2018/07/14 19:59:25","新北市土城區廣福街123號","121.456251666667","24.9928766666667","6501300","土城區"
"236038","271-VK","2018/07/14 19:59:11","新北市土城區國際路31巷14號","121.465916666667","24.9793233333333","6501300","土城區"
"236021","401-BY","2018/07/14 19:59:24","新北市土城區延吉街63巷8號","121.472551666667","24.9871716666667","6501300","土城區"
"236042","752-BX","2018/07/14 19:59:09","新北市土城區學府路一段143巷6號","121.453886666667","24.9858466666667","6501300","土城區"
"236059","912-UM","2018/07/14 19:59:24","新北市土城區中央路一段269-3號","121.444893333333","24.9851216666667","6501300","土城區"
"236049","913-UM","2018/07/14 19:59:20","新北市土城區金城路三段129號","121.467961666667","24.9880033333333","6501300","土城區"
"236063","915-UM","2018/07/14 19:59:17","新北市土城區金城路三段73巷4弄30號","121.466271666667","24.9882716666667","6501300","土城區"
"236055","AAC-216","2018/07/14 19:59:12","新北市土城區學府路一段81號","121.45674","24.9881333333333","6501300","土城區"
"242034","AAC-296","2018/07/14 19:59:11","新北市新莊區建中街109號","121.446185","25.0365066666667","6500500","新莊區"
"242058","986-R7","2018/07/14 19:59:13","新北市新莊區八德街17號","121.425301666667","25.02265","6500500","新莊區"
"242053","751-BX","2018/07/14 19:59:11","新北市新莊區西盛街416巷2號","121.42724","25.0122416666667","6500500","新莊區"
"242025","613-BX","2018/07/14 19:59:25","新北市新莊區五工一路87巷1號","121.461356666667","25.06723","6500500","新莊區"
"242029","612-BX","2018/07/14 19:59:29","新北市新莊區中平路348號","121.444966666667","25.052875","6500500","新莊區"
"242046","497-BY","2018/07/14 19:59:13","新北市新莊區裕民街19巷4號","121.41969","25.0252666666667","6500500","新莊區"
"242039","442-UM","2018/07/14 19:59:23","新北市新莊區民安路298號","121.428215","25.0218166666667","6500500","新莊區"
"242056","440-UM","2018/07/14 19:59:16","新北市新莊區中正路347巷17弄4號","121.447368333333","25.03433","6500500","新莊區"
"242036","415-TV","2018/07/14 19:59:12","新北市新莊區建安街41巷4號","121.42902","25.025375","6500500","新莊區"
"242007","413-TV","2018/07/14 19:59:18","新北市新莊區思源路678號","121.45972","25.057675","6500500","新莊區"
"242044","400-BY","2018/07/14 19:59:24","新北市新莊區中正路923號","121.410648333333","25.02127","6500500","新莊區"
"242023","362-BY","2018/07/14 19:59:10","新北市新莊區化成路480號","121.466036666667","25.0516533333333","6500500","新莊區"
"242061","353-BY","2018/07/14 19:59:21","新北市新莊區瓊泰路21號","121.444281666667","25.0285816666667","6500500","新莊區"
"242031","135-UY","2018/07/14 19:59:30","新北市新莊區忠孝街29巷39號","121.443503333333","25.0370483333333","6500500","新莊區"
"242048","172-VK","2018/07/14 19:59:09","新北市新莊區富國路109巷2號","121.423833333333","25.02507","6500500","新莊區"
"242017","175-VK","2018/07/14 19:59:14","新北市新莊區中安街3號","121.45284","25.0455083333333","6500500","新莊區"
"242004","176-VK","2018/07/14 19:59:25","新北市新莊區頭前路96號","121.463866666667","25.0525716666667","6500500","新莊區"
"242015","346-TH","2018/07/14 19:59:14","新北市新莊區復興路一段33巷12號","121.44632","25.04245","6500500","新莊區"
"242011","347-TH","2018/07/14 19:59:28","新北市新莊區中港路531巷35號","121.449903333333","25.0514266666667","6500500","新莊區"
"242021","348-TH","2018/07/14 19:59:12","新北市新莊區建中街32巷14號","121.448825","25.0381766666667","6500500","新莊區"
"242002","349-TH","2018/07/14 19:59:17","新北市新莊區新豐街2號","121.449098333333","25.034775","6500500","新莊區"
"242013","351-TH","2018/07/14 19:59:14","新北市新莊區幸福路670巷2弄1號","121.451043333333","25.0495216666667","6500500","新莊區"
"238015","755-BX","2018/07/14 19:57:47","新北市樹林區中山路三段210-2號","121.38058","24.9676333333333","6500700","樹林區"
"238022","KEA-2213","2018/07/14 19:59:25","新北市樹林區八德街1008號","121.39144","24.96864","6500700","樹林區"
"238021","KEA-2539","2018/07/14 19:59:18","新北市樹林區佳園路三段91號","121.388241666667","24.952195","6500700","樹林區"
"238025","303-VK","2018/07/14 19:59:19","新北市樹林區中洲街30巷13弄41號","121.398215","24.972435","6500700","樹林區"
"239006","891-R6","2018/07/14 19:59:23","新北市鶯歌區文化路87號","121.357485","24.955455","6500800","鶯歌區"
"221036","130-UY","2018/07/14 19:59:15","新北市汐止區新台五路二段85巷6號","121.66454","25.067155","6501100","汐止區"
"221015","131-UY","2018/07/14 19:59:28","新北市汐止區建成路18號","121.665005","25.0724666666667","6501100","汐止區"
"221010","269-BY","2018/07/14 19:59:28","新北市汐止區八連路一段87號","121.644683333333","25.080295","6501100","汐止區"
"221012","278-VK","2018/07/14 19:59:25","新北市汐止區汐平路一段36號","121.6822","25.0704866666667","6501100","汐止區"
"221023","279-VK","2018/07/14 19:59:17","新北市汐止區明峰街297巷1號","121.625601666667","25.067915","6501100","汐止區"
"221032","280-BY","2018/07/14 19:59:22","新北市汐止區橫科路18巷9弄1號","121.6179","25.0507566666667","6501100","汐止區"
"221027","281-BY","2018/07/14 19:59:28","新北市汐止區中正路102號","121.661018333333","25.069455","6501100","汐止區"
"221033","297-VK","2018/07/14 19:59:20","新北市汐止區東勢街201巷102號","121.63364","25.0429633333333","6501100","汐止區"
"221029","298-VK","2018/07/14 19:59:11","新北市汐止區樟樹一路135巷25號","121.64108","25.06555","6501100","汐止區"
"221021","299-VK","2018/07/14 19:59:16","新北市汐止區水源路一段138號","121.65615","25.06248","6501100","汐止區"
"221031","353-TW","2018/07/14 19:59:09","新北市汐止區福德一路176巷2號","121.63566","25.0662716666667","6501100","汐止區"
"221008","129-UY","2018/07/14 19:59:08","台北市內湖區康樂街48巷1號","121.618426666667","25.0688933333333","6501100","汐止區"
"221035","622-UM","2018/07/14 19:59:28","新北市汐止區長江街47號","121.655988333333","25.0712983333333","6501100","汐止區"
"221025","623-UM","2018/07/14 19:59:29","新北市汐止區秀峰路97號","121.660051666667","25.0637566666667","6501100","汐止區"
"221038","646-BX","2018/07/14 19:59:27","新北市汐止區忠孝東路510號","121.666796666667","25.07537","6501100","汐止區"
"221018","753-BX","2018/07/14 19:59:28","新北市汐止區茄苳路25號","121.665335","25.0708933333333","6501100","汐止區"
"220101","245-BX","2018/07/14 19:59:18","新北市板橋區莒光路213號","121.474203333333","25.0228566666667","6500100","板橋區"
"220091","267-BY","2018/07/14 19:59:24","新北市板橋區文聖街89巷17號","121.47814","25.0303933333333","6500100","板橋區"
"220072","277-BY","2018/07/14 19:59:24","新北市板橋區金門街121巷10號","121.43352","24.9916333333333","6500100","板橋區"
"220071","283-VK","2018/07/14 19:59:24","新北市板橋區和平路190巷22號","121.464813333333","24.99478","6500100","板橋區"
"220094","285-UM","2018/07/14 19:59:29","新北市板橋區陽明街86號","121.464366666667","25.0228683333333","6500100","板橋區"
"220053","285-VK","2018/07/14 19:59:24","新北市板橋區永豐街143號","121.474943333333","25.0200666666667","6500100","板橋區"
"220083","286-VK","2018/07/14 19:59:23","新北市板橋區僑中二街40號","121.445173333333","25.010855","6500100","板橋區"
"220081","287-VK","2018/07/14 19:59:20","新北市板橋區大觀路一段28巷104號","121.450101666667","25.0111816666667","6500100","板橋區"
"220090","288-VK","2018/07/14 19:59:28","新北市板橋區綠堤街29號","121.45576","25.0264266666667","6500100","板橋區"
"220061","293-UM","2018/07/14 19:59:20","新北市板橋區觀光街90號","121.469433333333","25.0169133333333","6500100","板橋區"
"220084","296-UM","2018/07/14 19:59:25","新北市樹林區博愛街179號","121.424936666667","24.989235","6500100","板橋區"
"242019","281-VK","2018/07/14 19:59:20","新北市新莊區民生街24號","121.456036666667","25.0421866666667","6500500","新莊區"
"220062","305-R5","2018/07/14 19:59:22","新北市板橋區萬安街20巷4弄16號","121.485236666667","25.0229533333333","6500100","板橋區"
"220092","307-R5","2018/07/14 19:59:27","新北市板橋區漢生西路89巷4弄11號","121.461376666667","25.0186416666667","6500100","板橋區"
"220098","317-R6","2018/07/14 19:59:27","新北市板橋區新海路72巷30號","121.462415","25.0224283333333","6500100","板橋區"
"220088","491-VK","2018/07/14 19:59:08","新北市板橋區大同街69號","121.479398333333","25.0279583333333","6500100","板橋區"
"220035","560-BX","2018/07/14 19:59:24","新北市板橋區新生街29巷4弄7號","121.457023333333","25.02183","6500100","板橋區"
"220103","561-BX","2018/07/14 19:59:14","新北市板橋區自由路13號","121.465475","25.0226516666667","6500100","板橋區"
"220079","568-UM","2018/07/14 19:59:11","新北市板橋區南雅西路二段277號","121.451948333333","25.015185","6500100","板橋區"
"220057","686-BX","2018/07/14 19:59:13","新北市板橋區四川路二段119號","121.451353333333","24.9943","6500100","板橋區"
"220093","689-BX","2018/07/14 19:59:28","新北市板橋區長江路三段116號","121.475138333333","25.0342883333333","6500100","板橋區"
"220054","741-BX","2018/07/14 19:59:16","新北市板橋區忠孝路201巷32號","121.465138333333","25.003485","6500100","板橋區"
"220102","KEA-2699","2018/07/14 19:59:20","新北市板橋區仁化街65號","121.475573333333","25.0317516666667","6500100","板橋區"
"220055","827-TW","2018/07/14 19:59:23","新北市板橋區仁愛路86巷13弄1號","121.461093333333","24.9988716666667","6500100","板橋區"
"220067","829-TW","2018/07/14 19:59:23","新北市板橋區漢生東路189號","121.469926666667","25.0116983333333","6500100","板橋區"
"220096","830-TW","2018/07/14 19:59:15","新北市板橋區莒光路122號","121.472703333333","25.023815","6500100","板橋區"
"220089","833-TW","2018/07/14 19:59:14","新北市板橋區新海路403巷16號","121.45796","25.0264683333333","6500100","板橋區"
"220074","895-R6","2018/07/14 19:59:14","新北市板橋區明德街1-4號","121.459923333333","25.010515","6500100","板橋區"
"220073","985-R7","2018/07/14 19:59:21","新北市板橋區南雅西路二段2-1號","121.453173333333","25.00885","6500100","板橋區"
"220097","AAC-210","2018/07/14 19:59:12","新北市板橋區光正街43號","121.461821666667","25.0172283333333","6500100","板橋區"
"220070","AAC-253","2018/07/14 19:59:22","新北市板橋區四川路一段127號","121.459878333333","25.0047766666667","6500100","板橋區"
"235068","KEA-2873","2018/07/14 19:59:30","新北市中和區中山路二段250巷24號","121.497303333333","25.0033483333333","6500300","中和區"
