"lineid","car","time","location","longitude","latitude","cityid","cityname"
"234046","148-BY","2018/07/14 20:09:19","新北市永和區得和路283號","121.522421666667","24.9997483333333","6500400","永和區"
"234007","207-UY","2018/07/14 20:09:28","新北市永和區保順路37巷9號","121.50312","25.0101566666667","6500400","永和區"
"234081","298-R6","2018/07/14 20:09:28","新北市永和區永亨路98號","121.52297","25.004725","6500400","永和區"
"234038","336-UY","2018/07/14 20:09:26","新北市永和區成功路一段79號","121.526903333333","25.0031016666667","6500400","永和區"
"234064","337-UY","2018/07/14 20:09:12","新北市永和區永利路138號","121.521948333333","25.0028866666667","6500400","永和區"
"234070","552-UM","2018/07/14 20:09:26","新北市永和區永貞路10巷7號","121.520173333333","25.0072416666667","6500400","永和區"
"234086","553-UM","2018/07/14 20:09:17","新北市永和區中正路553號","121.51685","25.008315","6500400","永和區"
"234017","745-BX","2018/07/14 20:09:20","新北市永和區文化路95-1號","121.513276666667","25.015215","6500400","永和區"
"234030","746-BX","2018/07/14 20:09:21","新北市永和區民權路49巷5弄30號","121.521918333333","24.9978616666667","6500400","永和區"
"234054","KEA-2590","2018/07/14 20:09:15","新北市永和區博愛街5號","121.516653333333","25.015875","6500400","永和區"
"234013","KEA-2591","2018/07/14 20:09:16","新北市永和區永貞路415號","121.507455","25.0093033333333","6500400","永和區"
"234061","AAD-866","2018/07/14 20:09:14","新北市永和區中正路151巷8弄2號","121.516033333333","24.998575","6500400","永和區"
"234067","847-RS","2018/07/14 20:09:28","新北市永和區保平路214巷10弄2號","121.50935","25.0064033333333","6500400","永和區"
"234042","862-TW","2018/07/14 20:09:27","新北市永和區雙和街64巷22弄5-1號","121.50989","25.0029166666667","6500400","永和區"
"234050","863-TW","2018/07/14 20:09:27","新北市永和區保安路286號","121.504861666667","25.0123716666667","6500400","永和區"
"234026","9371-KE","2018/07/14 20:09:18","新北市永和區中山路一段281巷2弄1號","121.507388333333","25.0065966666667","6500400","永和區"
"234011","9373-KE","2018/07/14 20:09:28","新北市永和區仁愛路352巷126號","121.500128333333","25.008575","6500400","永和區"
"249005","172-UM","2018/07/14 20:09:15","新北市八里區下罟子59號","121.387245","25.1365966666667","6502300","八里區"
"249001","173-UM","2018/07/14 20:09:28","新北市八里區中華路二段312號","121.403828333333","25.1482066666667","6502300","八里區"
"249004","303-UY","2018/07/14 20:09:12","新北市八里區中山路一段400號","121.411598333333","25.1585233333333","6502300","八里區"
"249002","305-UY","2018/07/14 20:09:20","新北市八里區龍米路一段2-1號","121.458203333333","25.114785","6502300","八里區"
"249003","593-UM","2018/07/14 20:09:14","新北市八里區訊塘路88號","121.397608333333","25.1463533333333","6502300","八里區"
"248016","026-BX","2018/07/14 20:09:23","新北市五股區天乙路62號","121.448413333333","25.1046816666667","6501500","五股區"
"248008","095-VK","2018/07/14 20:09:28","新北市三重區中正北路560巷37弄18號","121.469878333333","25.07069","6501500","五股區"
"248020","225-UY","2018/07/14 20:09:09","新北市五股區凌雲路二段10號","121.445615","25.1024733333333","6501500","五股區"
"248012","247-BX","2018/07/14 20:09:26","新北市五股區民義路一段212號","121.430511666667","25.0895","6501500","五股區"
"248014","261-SL","2018/07/14 20:09:24","新北市五股區成泰路三段6-1號","121.441448333333","25.087815","6501500","五股區"
"248010","272-BY","2018/07/14 20:09:09","新北市五股區成泰路一段7巷66號","121.432611666667","25.0678683333333","6501500","五股區"
"248004","677-BX","2018/07/14 20:09:25","新北市五股區成泰路一段194-2號","121.435763333333","25.07818","6501500","五股區"
"248002","678-BX","2018/07/14 20:09:26","新北市五股區成泰路三段323號","121.447958333333","25.0950133333333","6501500","五股區"
"234023","9380-KE","2018/07/14 20:09:26","新北市永和區中正路664號","121.516853333333","25.0087966666667","6500400","永和區"
"234077","969-R7","2018/07/14 20:09:07","新北市永和區民享街23巷5弄8號","121.516118333333","24.9957016666667","6500400","永和區"
"234074","AAC-211","2018/07/14 20:09:12","新北市永和區豫溪街148號","121.52179","25.0103933333333","6500400","永和區"
"234003","AAC-295","2018/07/14 20:09:19","新北市永和區中正路607號","121.516216666667","25.0096","6500400","永和區"
"243010","267-VK","2018/07/14 20:09:18","新北市泰山區明志路二段136巷16號","121.426668333333","25.0514833333333","6501600","泰山區"
"243013","AAD-798","2018/07/14 20:09:18","新北市泰山區明志路三段74巷10號","121.424365","25.041755","6501600","泰山區"
"243009","297-R6","2018/07/14 20:09:12","新北市泰山區泰林路二段142巷6號","121.43472","25.0600283333333","6501600","泰山區"
"243016","380-SR","2018/07/14 20:09:16","新北市泰山區貴陽街4-1號","121.421596666667","25.0332166666667","6501600","泰山區"
"243015","421-VK","2018/07/14 20:09:21","新北市泰山區明志路一段363號","121.430895","25.0581433333333","6501600","泰山區"
"243011","KEA-2215","2018/07/14 20:09:23","新北市泰山區明志路三段182巷46號","121.423063333333","25.0396183333333","6501600","泰山區"
"243012","646-TV","2018/07/14 20:09:27","新北市泰山區楓江路46巷11-3號","121.435491666667","25.0618166666667","6501600","泰山區"
"243014","680-BX","2018/07/14 20:09:16","新北市泰山區明志路一段80號","121.433505","25.06441","6501600","泰山區"
"222002","016-RS","2018/07/14 20:09:25","新北市深坑區北深路三段26號","121.609301666667","25.001185","6501800","深坑區"
"222003","436-BY","2018/07/14 20:09:18","新北市深坑區埔新街65號","121.620185","25.0023233333333","6501800","深坑區"
"231044","001-UM","2018/07/14 20:09:13","新北市新店區寶慶街58巷2號","121.54218","24.9867983333333","6500600","新店區"
"231041","002-UM","2018/07/14 20:09:09","新北市新店區中正路460號","121.534003333333","24.9793816666667","6500600","新店區"
"231059","046-UY","2018/07/14 20:09:26","新北市新店區安成街26號","121.510195","24.96095","6500600","新店區"
"231040","047-UY","2018/07/14 20:09:10","新北市新店區中正路108號","121.54304","24.9706133333333","6500600","新店區"
"231065","110-UY","2018/07/14 20:09:11","新北市新店區安祥路106巷206號","121.474231666667","24.9605116666667","6500600","新店區"
"231048","187-VK","2018/07/14 20:09:11","新北市新店區永華街59號","121.544716666667","24.975585","6500600","新店區"
"231054","KEA-2219","2018/07/14 20:09:29","新北市新店區檳榔路40號","121.541558333333","24.9637216666667","6500600","新店區"
"231057","256-BX","2018/07/14 20:09:16","新北市新店區花園一路一段2號","121.55308","24.9324016666667","6500600","新店區"
"231042","268-BY","2018/07/14 20:09:13","新北市新店區中興路二段89號","121.54702","24.9713416666667","6500600","新店區"
"231051","278-BY","2018/07/14 20:09:27","新北市新店區中央六街3號","121.530395","24.974445","6500600","新店區"
"231050","AAD-862","2018/07/14 20:09:13","新北市新店區北新路一段51號","121.538185","24.959615","6500600","新店區"
"231043","355-BY","2018/07/14 20:09:16","新北市新店區中正路348號","121.536248333333","24.9752816666667","6500600","新店區"
"231066","4716-K9","2018/07/14 20:09:13","新北市新店區柴埕路34-1號","121.513498333333","24.9650416666667","6500600","新店區"
"231056","4715-K9","2018/07/14 20:09:30","新北市新店區中正路275巷19號","121.537105","24.9734016666667","6500600","新店區"
"231067","4772-VM","2018/07/14 20:09:20","新北市新店區安康路一段35號","121.531593333333","24.960805","6500600","新店區"
"231049","513-UM","2018/07/14 20:09:27","新北市新店區北新路二段139巷5號","121.542205","24.9756383333333","6500600","新店區"
"231063","616-UM","2018/07/14 20:09:11","新北市新店區黎明路53巷1號","121.502306666667","24.9486983333333","6500600","新店區"
"231045","617-UM","2018/07/14 20:09:14","新北市新店區北宜路一段152-2號","121.540301666667","24.9537883333333","6500600","新店區"
"231061","619-UM","2018/07/14 20:09:06","新北市新店區安興路87號","121.515201666667","24.9758116666667","6500600","新店區"
"231068","718-UY","2018/07/14 20:09:14","新北市新店區寶高路102巷20號","121.552138333333","24.9734016666667","6500600","新店區"
"231064","719-UM","2018/07/14 20:09:25","新北市新店區安光路13-1號","121.513415","24.9637033333333","6500600","新店區"
"231052","719-UY","2018/07/14 20:09:08","新北市新店區新烏路三段286號","121.54984","24.8983066666667","6500600","新店區"
"231062","720-UM","2018/07/14 20:09:15","新北市新店區安康路二段110號","121.513296666667","24.9628866666667","6500600","新店區"
"231060","897-TW","2018/07/14 20:09:25","新北市新店區安康路三段456號","121.484265","24.95114","6500600","新店區"
"231055","AKT-0513","2018/07/14 20:09:15","新北市新店區中華路42巷10號","121.540361666667","24.9684583333333","6500600","新店區"
"241011","013-R5","2018/07/14 20:09:24","新北市三重區仁愛街32號","121.496366666667","25.0717966666667","6500200","三重區"
"241028","022-UY","2018/07/14 20:09:20","新北市三重區仁化街107號","121.494523333333","25.0580166666667","6500200","三重區"
"241008","059-VK","2018/07/14 20:09:11","新北市三重區永福街197巷35號","121.478271666667","25.0743483333333","6500200","三重區"
"241022","060-VK","2018/07/14 20:09:27","新北市三重區新北大道一段66號","121.487296666667","25.06142","6500200","三重區"
"241031","061-VK","2018/07/14 20:09:11","新北市三重區過圳街9-1號","121.488735","25.0601066666667","6500200","三重區"
"241015","062-VK","2018/07/14 20:09:09","新北市三重區福德北路43號","121.502316666667","25.064925","6500200","三重區"
"241017","063-VK","2018/07/14 20:09:16","新北市三重區自強路一段248號","121.492838333333","25.06738","6500200","三重區"
"241026","066-VK","2018/07/14 20:09:11","新北市三重區福德南路65巷1號","121.502358333333","25.0605133333333","6500200","三重區"
"241002","090-VK","2018/07/14 20:09:21","新北市三重區仁忠街39號","121.495538333333","25.0818366666667","6500200","三重區"
"241003","091-VK","2018/07/14 20:09:25","新北市三重區富華街18號","121.489615","25.082545","6500200","三重區"
"241024","742-BX","2018/07/14 20:09:18","新北市三重區中正北路165巷2號","121.478821666667","25.0694016666667","6500200","三重區"
"241005","262-UM","2018/07/14 20:09:22","新北市三重區溪尾街327號","121.488441666667","25.084825","6500200","三重區"
"241009","267-UM","2018/07/14 20:09:19","新北市三重區永福街125巷2號","121.478791666667","25.077055","6500200","三重區"
"241018","268-UM","2018/07/14 20:09:12","新北市三重區正義北路256巷105號","121.493743333333","25.0679466666667","6500200","三重區"
"241032","269-UM","2018/07/14 20:09:28","新北市三重區捷運路65號","121.483456666667","25.05559","6500200","三重區"
"241013","270-UM","2018/07/14 20:09:13","新北市三重區三和路三段151巷33號","121.493401666667","25.074195","6500200","三重區"
"241007","398-BY","2018/07/14 20:09:17","新北市三重區三和路四段111-10號","121.48659","25.0775733333333","6500200","三重區"
"241035","KEA-2210","2018/07/14 20:09:22","新北市三重區正義北路51號","121.497653333333","25.0641783333333","6500200","三重區"
"241025","413-TH","2018/07/14 20:09:24","新北市三重區中正北路169號","121.478308333333","25.06941","6500200","三重區"
"241004","475-VK","2018/07/14 20:09:28","新北市三重區仁愛街352號","121.49162","25.0801916666667","6500200","三重區"
"241020","478-VK","2018/07/14 20:09:29","新北市三重區大智街179巷13號","121.49035","25.07269","6500200","三重區"
"241030","480-VK","2018/07/14 20:09:21","新北市三重區成功路145巷33號","121.48772","25.0531216666667","6500200","三重區"
"241014","543-UM","2018/07/14 20:09:13","新北市三重區長樂街110號","121.50154","25.0695466666667","6500200","三重區"
"241001","547-UM","2018/07/14 20:09:25","新北市三重區溪尾街24-1號","121.490991666667","25.0763716666667","6500200","三重區"
"241019","KEA-2593","2018/07/14 20:09:13","新北市三重區自強路二段33巷30號","121.4903","25.0697716666667","6500200","三重區"
"241006","AAD-863","2018/07/14 20:09:20","新北市三重區力行路二段170號","121.483173333333","25.0768283333333","6500200","三重區"
"241023","887-TS","2018/07/14 20:09:17","新北市三重區頂崁街220巷2號","121.476961666667","25.0680983333333","6500200","三重區"
"241012","941-UM","2018/07/14 20:09:15","新北市三重區仁福街64巷25號","121.497643333333","25.075455","6500200","三重區"
"241029","942-UM","2018/07/14 20:09:26","新北市三重區光明路32巷26號","121.491933333333","25.0588133333333","6500200","三重區"
"241033","AAC-255","2018/07/14 20:09:19","新北市三重區光復路一段70號","121.471898333333","25.0493233333333","6500200","三重區"
"235066","003-UY","2018/07/14 20:09:22","新北市中和區水源路127巷2號","121.508095","25.003725","6500300","中和區"
"235039","097-UM","2018/07/14 20:09:25","新北市中和區立人街24-5號","121.518905","24.9941716666667","6500300","中和區"
"235065","098-UM","2018/07/14 20:09:21","新北市中和區福祥路66號","121.49926","25.0050116666667","6500300","中和區"
"235040","150-BY","2018/07/14 20:09:24","新北市中和區保健路33巷5號","121.508963333333","24.9979683333333","6500300","中和區"
"247010","KEA-2869","2018/07/14 20:09:17","新北市蘆洲區信義路136號","121.479476666667","25.0829833333333","6501400","蘆洲區"
"235050","4979-A6","2018/07/14 20:09:12","新北市中和區景新街323-3號","121.511385","24.9920083333333","6500300","中和區"
"235069","4980-A6","2018/07/14 20:09:14","新北市中和區景新街64巷11弄9號","121.504561666667","24.9982716666667","6500300","中和區"
"235070","558-UM","2018/07/14 20:09:13","新北市中和區建六路53號","121.485713333333","25.0021666666667","6500300","中和區"
"235048","896-TW","2018/07/14 20:09:20","新北市中和區景新街367號","121.512106666667","24.9906316666667","6500300","中和區"
"235051","157-BY","2018/07/14 20:09:13","新北市中和區復興路274巷20號","121.502806666667","24.99132","6500300","中和區"
"235037","AAC-213","2018/07/14 20:09:09","新北市中和區自立路143號","121.52248","24.993265","6500300","中和區"
"235059","AAC-215","2018/07/14 20:09:13","新北市中和區圓通路335巷39號","121.493935","24.9893033333333","6500300","中和區"
"220068","013-TV","2018/07/14 20:09:25","新北市板橋區中山路二段318巷2弄2號","121.480385","25.0191466666667","6500100","板橋區"
"220069","AAD-861","2018/07/14 20:09:09","新北市板橋區貴興路111號","121.455871666667","25.0025566666667","6500100","板橋區"
"247024","893-R6","2018/07/14 20:09:11","新北市蘆洲區光明路132號","121.46391","25.088325","6501400","蘆洲區"
"247014","546-UM","2018/07/14 20:09:23","新北市蘆洲區中山二路218號","121.469856666667","25.0798933333333","6501400","蘆洲區"
"247006","336-TH","2018/07/14 20:09:12","新北市蘆洲區永安南路二段14號","121.467601666667","25.07674","6501400","蘆洲區"
"247018","057-VK","2018/07/14 20:09:22","新北市蘆洲區民族路314巷24號","121.477935","25.0904966666667","6501400","蘆洲區"
"247008","053-VK","2018/07/14 20:09:09","新北市蘆洲區中山一路197巷1號","121.47449","25.0809116666667","6501400","蘆洲區"
"247016","007-UY","2018/07/14 20:09:20","新北市蘆洲區光華路155號","121.465425","25.0821366666667","6501400","蘆洲區"
"247002","002-UY","2018/07/14 20:08:56","新北市蘆洲區長榮路315號","121.459556666667","25.08659","6501400","蘆洲區"
"247020","001-UY","2018/07/14 20:08:15","新北市蘆洲區民權路106巷5弄7號","121.474255","25.0890566666667","6501400","蘆洲區"
"224010","AGQ-8101","2018/07/14 20:09:02","新北市瑞芳區基山街190號","121.84269","25.1077283333333","6501200","瑞芳區"
"227002","400-TW","2018/07/14 20:09:17","新北市雙溪區牡丹里中正路73號","121.863933333333","25.0447266666667","6502500","雙溪區"
"222001","KEA-2212","2018/07/14 20:09:26","新北市深坑區北深路三段210號","121.601193333333","25.00375","6501800","深坑區"
"208002","KEA-2872","2018/07/14 20:09:25","新北市萬里區大鵬里萬里加投241號","121.64227","25.2166916666667","6502700","金山區"
"208003","665-BX","2018/07/14 20:09:20","新北市金山區海興路1-3號","121.6341","25.2457683333333","6502700","金山區"
"208001","761-BX","2018/07/14 20:09:24","新北市金山區南勢40號","121.629118333333","25.2208283333333","6502700","金山區"
"251009","008-UM","2018/07/14 20:09:19","新北市淡水區清水街5號","121.445055","25.17035","6501000","淡水區"
"251004","009-UM","2018/07/14 20:03:49","新北市淡水區民族路31巷21號","121.461961666667","25.1366583333333","6501000","淡水區"
"251001","011-UM","2018/07/14 20:09:27","新北市淡水區新市二路四段265號","121.44575","25.1924916666667","6501000","淡水區"
"251002","012-UM","2018/07/14 20:09:20","新北市淡水區中正路23巷1號","121.435675","25.173125","6501000","淡水區"
"251013","KEA-2871","2018/07/14 20:09:15","新北市淡水區奎柔山路302號","121.458683333333","25.2051383333333","6501000","淡水區"
"251014","180-VK","2018/07/14 20:09:22","新北市淡水區石頭厝1號","121.458728333333","25.2355116666667","6501000","淡水區"
"251015","181-VK","2018/07/14 20:09:09","新北市淡水區商工路141號","121.447116666667","25.18837","6501000","淡水區"
"251010","413-VK","2018/07/14 20:09:26","新北市淡水區崁頂五路303號","121.424303333333","25.1979733333333","6501000","淡水區"
"251012","441-VK","2018/07/14 20:09:23","新北市淡水區淡金路三段339號","121.448881666667","25.2065733333333","6501000","淡水區"
"251008","442-VK","2018/07/14 20:09:09","新北市淡水區沙崙路131巷11號","121.421928333333","25.1830083333333","6501000","淡水區"
"251005","443-VK","2018/07/14 20:09:21","新北市淡水區忠愛街1號","121.454785","25.171365","6501000","淡水區"
"251006","561-UM","2018/07/14 20:09:21","新北市淡水區北新路141巷29號","121.44819","25.1796416666667","6501000","淡水區"
"251016","575-R6","2018/07/14 20:09:25","新北市淡水區番子田20-4號","121.457681666667","25.2283683333333","6501000","淡水區"
"251003","673-BX","2018/07/14 20:09:12","新北市淡水區中山北路二段189巷15弄29號","121.443358333333","25.1842","6501000","淡水區"
"207003","550-UM","2018/07/14 20:09:23","新北市萬里區大鵬里萬里加投180號","121.642933333333","25.2157333333333","6502800","萬里區"
"207004","225-TW","2018/07/14 20:09:11","新北市萬里區北基里愛三街13號","121.681823333333","25.1767233333333","6502800","萬里區"
"252002","178-VK","2018/07/14 20:09:09","新北市三芝區中正路一段70號","121.503965","25.2577716666667","6502100","三芝區"
"252001","292-VK","2018/07/14 20:09:23","新北市三芝區公正街9號","121.499705","25.2575983333333","6502100","三芝區"
"237006","5529-G3","2018/07/14 20:09:19","新北市三峽區嘉添12號","121.36839","24.911795","6500900","三峽區"
"237016","649-BX","2018/07/14 20:09:11","新北市三峽區溪東路218巷25號","121.407051666667","24.9304683333333","6500900","三峽區"
"237005","AKY-6261","2018/07/14 20:09:13","新北市三峽區三樹路98巷121號","121.38278","24.9385033333333","6500900","三峽區"
"236070","105-UM","2018/07/14 20:09:23","新北市土城區中央路三段147巷2弄15號","121.431966666667","24.96482","6501300","土城區"
"236079","166-UM","2018/07/14 20:09:17","新北市土城區三民路49巷6號","121.419371666667","24.9639916666667","6501300","土城區"
"236030","253-BX","2018/07/14 20:09:21","新北市土城區中央路一段116號","121.446486666667","24.98803","6501300","土城區"
"236026","269-VK","2018/07/14 20:09:21","新北市土城區裕生路106號","121.446618333333","24.9846233333333","6501300","土城區"
"236014","270-VK","2018/07/14 20:09:25","新北市土城區德興街135號","121.455123333333","24.991755","6501300","土城區"
"236038","271-VK","2018/07/14 20:09:11","新北市土城區延吉街363巷10號","121.464228333333","24.9834516666667","6501300","土城區"
"236021","401-BY","2018/07/14 20:09:24","新北市土城區和城路二段255巷140號","121.475925","24.9878066666667","6501300","土城區"
"236042","752-BX","2018/07/14 20:09:10","新北市土城區學成路22巷4號","121.453538333333","24.9873233333333","6501300","土城區"
"236059","912-UM","2018/07/14 20:09:24","新北市土城區中央路二段252號","121.441763333333","24.9746466666667","6501300","土城區"
"236049","913-UM","2018/07/14 20:09:20","新北市土城區明德路一段365-1號","121.453566666667","24.979335","6501300","土城區"
"236063","915-UM","2018/07/14 20:09:17","新北市土城區立德路107號","121.464013333333","24.9876433333333","6501300","土城區"
"236055","AAC-216","2018/07/14 20:09:20","新北市土城區中華路二段56號","121.439063333333","24.9773633333333","6501300","土城區"
"242034","AAC-296","2018/07/14 20:09:23","新北市新莊區建中街81巷10弄14號","121.446736666667","25.0360116666667","6500500","新莊區"
"242058","986-R7","2018/07/14 20:09:12","新北市新莊區八德街105號","121.424188333333","25.021145","6500500","新莊區"
"242053","751-BX","2018/07/14 20:09:11","新北市新莊區西盛街387巷34弄5號","121.428508333333","25.0129516666667","6500500","新莊區"
"242027","705-TV","2018/07/14 20:09:27","新北市新莊區幸福路838號","121.444876666667","25.0491116666667","6500500","新莊區"
"242025","613-BX","2018/07/14 20:09:23","新北市新莊區五權一路12巷25弄16號","121.458361666667","25.0643833333333","6500500","新莊區"
"242029","612-BX","2018/07/14 20:09:29","新北市新莊區中原路486號","121.447105","25.0548983333333","6500500","新莊區"
"242042","566-BX","2018/07/14 20:09:27","新北市新莊區青山路一段179-1號","121.400263333333","25.0304316666667","6500500","新莊區"
"242046","497-BY","2018/07/14 20:09:14","新北市新莊區裕民街103巷9號","121.418966666667","25.02291","6500500","新莊區"
"242039","442-UM","2018/07/14 20:09:17","新北市新莊區龍安路499號","121.42603","25.0180833333333","6500500","新莊區"
"242056","440-UM","2018/07/14 20:09:23","新北市新莊區新莊路649巷15弄20號","121.445328333333","25.0314466666667","6500500","新莊區"
"242036","415-TV","2018/07/14 20:09:12","新北市新莊區建安街9巷16號","121.429665","25.0266133333333","6500500","新莊區"
"242007","413-TV","2018/07/14 20:09:18","新北市新莊區福壽街184巷19號","121.459236666667","25.053155","6500500","新莊區"
"242044","400-BY","2018/07/14 20:09:24","新北市新莊區中正路895-45號","121.412248333333","25.02134","6500500","新莊區"
"242023","362-BY","2018/07/14 20:09:30","新北市新莊區化成路652號","121.46606","25.055645","6500500","新莊區"
"242061","353-BY","2018/07/14 20:09:21","新北市新莊區瓊林路96-5號","121.443973333333","25.0271416666667","6500500","新莊區"
"242009","132-UY","2018/07/14 20:09:18","新北市新莊區昌盛街35巷2弄2號","121.454095","25.0502283333333","6500500","新莊區"
"242031","135-UY","2018/07/14 20:09:18","新北市新莊區義豐街29號","121.441141666667","25.0353366666667","6500500","新莊區"
"242048","172-VK","2018/07/14 20:09:09","新北市新莊區四維路152巷32號","121.421953333333","25.0224733333333","6500500","新莊區"
"242017","175-VK","2018/07/14 20:09:23","新北市新莊區中港一街19號","121.451388333333","25.04557","6500500","新莊區"
"242004","176-VK","2018/07/14 20:09:25","新北市新莊區化成路554巷39號","121.467468333333","25.0541066666667","6500500","新莊區"
"242015","346-TH","2018/07/14 20:09:27","新北市新莊區中平路26巷47號","121.447046666667","25.043445","6500500","新莊區"
"242011","347-TH","2018/07/14 20:09:28","新北市新莊區中信街61號","121.449236666667","25.0508383333333","6500500","新莊區"
"242021","348-TH","2018/07/14 20:09:13","新北市新莊區中興街23號","121.449253333333","25.03648","6500500","新莊區"
"242002","349-TH","2018/07/14 20:09:17","新北市新莊區中正路96號","121.455196666667","25.036675","6500500","新莊區"
"242013","351-TH","2018/07/14 20:09:14","新北市新莊區幸福路678巷3弄1號","121.450263333333","25.0497266666667","6500500","新莊區"
"221036","130-UY","2018/07/14 20:09:28","新北市汐止區新台五路二段39號","121.663116666667","25.0664216666667","6501100","汐止區"
"221015","131-UY","2018/07/14 20:09:18","新北市汐止區建成路35號","121.66383","25.072765","6501100","汐止區"
"221010","269-BY","2018/07/14 20:09:28","新北市汐止區八連路一段530巷50號","121.640931666667","25.0903383333333","6501100","汐止區"
"221012","278-VK","2018/07/14 20:09:25","新北市汐止區汐平路二段44-1號","121.695236666667","25.0650083333333","6501100","汐止區"
"221023","279-VK","2018/07/14 20:09:20","新北市汐止區明峰街298巷1號","121.625358333333","25.0678716666667","6501100","汐止區"
"221032","280-BY","2018/07/14 20:09:22","新北市汐止區弘道街9巷2弄2號","121.617021666667","25.0488316666667","6501100","汐止區"
"221027","281-BY","2018/07/14 20:09:28","新北市汐止區民生街1-1號","121.660185","25.0687483333333","6501100","汐止區"
"221033","297-VK","2018/07/14 20:09:20","新北市汐止區東勢街201巷102號","121.633701666667","25.0429516666667","6501100","汐止區"
"221029","298-VK","2018/07/14 20:09:11","新北市汐止區樟樹一路123巷15號","121.641425","25.0645066666667","6501100","汐止區"
"221021","299-VK","2018/07/14 20:09:16","新北市汐止區連興街126號","121.653843333333","25.0619216666667","6501100","汐止區"
"221031","353-TW","2018/07/14 20:09:29","新北市汐止區中興路214巷7弄2號","121.631448333333","25.0666383333333","6501100","汐止區"
"221008","129-UY","2018/07/14 20:09:28","新北市汐止區忠三街9巷32號","121.624513333333","25.0802716666667","6501100","汐止區"
"221035","622-UM","2018/07/14 20:09:15","新北市汐止區長江街79巷6號","121.657388333333","25.07267","6501100","汐止區"
"221025","623-UM","2018/07/14 20:09:09","新北市汐止區水源路二段34號","121.654885","25.057255","6501100","汐止區"
"221038","646-BX","2018/07/14 20:09:07","新北市汐止區大同路三段66號","121.668043333333","25.0771083333333","6501100","汐止區"
"221002","707-TV","2018/07/14 20:09:24","新北市汐止區中興路62號","121.635338333333","25.06129","6501100","汐止區"
"221018","753-BX","2018/07/14 20:09:28","新北市汐止區茄福街35巷23號","121.673248333333","25.066565","6501100","汐止區"
"220101","245-BX","2018/07/14 20:09:26","新北市板橋區雙十路二段47巷2弄33號","121.475","25.0267616666667","6500100","板橋區"
"220083","286-VK","2018/07/14 20:09:23","新北市板橋區僑中二街90巷22號","121.445266666667","25.0093383333333","6500100","板橋區"
"220081","287-VK","2018/07/14 20:09:20","新北市板橋區僑中一街124巷20弄20號","121.446938333333","25.0139333333333","6500100","板橋區"
"220090","288-VK","2018/07/14 20:09:08","新北市板橋區幸福路32巷42號","121.460598333333","25.0218383333333","6500100","板橋區"
"220061","293-UM","2018/07/14 20:09:20","新北市板橋區中山路一段143號","121.464423333333","25.0113933333333","6500100","板橋區"
"242019","281-VK","2018/07/14 20:09:20","新北市新莊區博愛路1巷2號","121.456536666667","25.0427283333333","6500500","新莊區"
"220092","307-R5","2018/07/14 20:09:21","新北市板橋區民權路97-1號","121.459741666667","25.0128866666667","6500100","板橋區"
"220088","491-VK","2018/07/14 20:09:13","新北市板橋區民治街42巷1號","121.47904","25.03371","6500100","板橋區"
"220103","561-BX","2018/07/14 20:09:14","新北市板橋區陽明街52號","121.465173333333","25.02231","6500100","板橋區"
"220093","689-BX","2018/07/14 20:09:31","新北市板橋區長江路一段144號","121.460913333333","25.030005","6500100","板橋區"
"220102","KEA-2699","2018/07/14 20:09:20","新北市板橋區懷德街76巷11號","121.477616666667","25.0316883333333","6500100","板橋區"
"220055","827-TW","2018/07/14 20:09:23","新北市板橋區仁愛路21號","121.458878333333","24.9994516666667","6500100","板橋區"
"220067","829-TW","2018/07/14 20:09:23","新北市板橋區中山路一段206巷22號","121.470938333333","25.012735","6500100","板橋區"
"220089","833-TW","2018/07/14 20:09:14","新北市板橋區互助街10號","121.463036666667","25.0277366666667","6500100","板橋區"
"220074","895-R6","2018/07/14 20:09:14","新北市板橋區南雅南路一段3巷25-3號","121.456938333333","25.0058883333333","6500100","板橋區"
"220097","AAC-210","2018/07/14 20:09:12","新北市板橋區光正街18巷9號","121.462628333333","25.0175866666667","6500100","板橋區"
"220070","AAC-253","2018/07/14 20:09:15","新北市板橋區四川路二段245巷75-121號","121.452598333333","24.9926883333333","6500100","板橋區"
"235068","KEA-2873","2018/07/14 20:09:00","新北市中和區福祥路85巷5號","121.49864","25.00568","6500300","中和區"
