"lineid","car","time","location","longitude","latitude","cityid","cityname"
"234081","298-R6","2018/07/14 20:39:17","新北市永和區永貞路54號","121.520865","25.0057783333333","6500400","永和區"
"234064","337-UY","2018/07/14 20:39:12","新北市永和區永和路二段190號","121.515516666667","25.013485","6500400","永和區"
"234030","746-BX","2018/07/14 20:39:21","新北市中和區中正路273號","121.495615","24.993875","6500400","永和區"
"234061","AAD-866","2018/07/14 20:39:14","新北市永和區秀朗路一段175號","121.517011666667","25.003675","6500400","永和區"
"234042","862-TW","2018/07/14 20:39:26","新北市永和區安樂路346號","121.514478333333","25.00638","6500400","永和區"
"234050","863-TW","2018/07/14 20:39:27","新北市永和區保安路134號","121.508563333333","25.0154316666667","6500400","永和區"
"249001","173-UM","2018/07/14 20:39:25","新北市八里區中山路三段365號","121.37363","25.137975","6502300","八里區"
"249004","303-UY","2018/07/14 20:39:12","新北市八里區中山路一段157巷19號","121.413111666667","25.1582666666667","6502300","八里區"
"249002","305-UY","2018/07/14 20:39:20","新北市八里區中華路一段98號","121.420275","25.1575816666667","6502300","八里區"
"249003","593-UM","2018/07/14 20:39:14","新北市八里區商港六路55號","121.396636666667","25.1497783333333","6502300","八里區"
"234023","9380-KE","2018/07/14 20:39:26","新北市永和區竹林路39巷20號","121.518778333333","25.0147516666667","6500400","永和區"
"234077","969-R7","2018/07/14 20:39:07","新北市三重區五谷王北街141巷6號","121.478723333333","25.0521466666667","6500400","永和區"
"234074","AAC-211","2018/07/14 20:39:12","新北市永和區竹林路121號","121.520121666667","25.011425","6500400","永和區"
"243010","267-VK","2018/07/14 20:39:18","新北市泰山區公園路88-1號","121.423085","25.0577166666667","6501600","泰山區"
"243009","297-R6","2018/07/14 20:39:12","新北市泰山區泰林路二段542巷1弄6號","121.422663333333","25.0640666666667","6501600","泰山區"
"243011","KEA-2215","2018/07/14 20:39:23","新北市泰山區明志路三段277號","121.423151666667","25.036795","6501600","泰山區"
"243014","680-BX","2018/07/14 20:39:16","新北市泰山區泰林路三段745巷145號","121.405616666667","25.06783","6501600","泰山區"
"222002","016-RS","2018/07/14 20:39:24","新北市深坑區萬福路45號","121.599493333333","25.0068416666667","6501800","深坑區"
"222003","436-BY","2018/07/14 20:39:18","新北市深坑區深坑街163號","121.612866666667","25.0011033333333","6501800","深坑區"
"231044","001-UM","2018/07/14 20:39:13","新北市新店區建國路293巷2號","121.536753333333","24.9861883333333","6500600","新店區"
"231041","002-UM","2018/07/14 20:39:17","新北市新店區中正路698號","121.53402","24.9906666666667","6500600","新店區"
"231059","046-UY","2018/07/14 20:39:31","新北市新店區僑愛一路1號","121.499833333333","24.9449466666667","6500600","新店區"
"231040","047-UY","2018/07/14 20:39:30","新北市新店區中正路268號","121.538986666667","24.9735183333333","6500600","新店區"
"231065","110-UY","2018/07/14 20:39:12","新北市新店區安祥路102巷109號","121.486611666667","24.9641733333333","6500600","新店區"
"231048","187-VK","2018/07/14 20:39:11","新北市新店區寶慶街12-1號","121.543415","24.9867083333333","6500600","新店區"
"231054","KEA-2219","2018/07/14 20:39:29","新北市新店區行政街45號","121.543098333333","24.965565","6500600","新店區"
"231057","256-BX","2018/07/14 20:39:16","新北市新店區花園六路二段9號","121.555636666667","24.9328883333333","6500600","新店區"
"231042","268-BY","2018/07/14 20:39:13","新北市新店區寶橋路230號","121.551488333333","24.9788266666667","6500600","新店區"
"231051","278-BY","2018/07/14 20:39:27","新北市新店區溪園路417號","121.524843333333","24.978995","6500600","新店區"
"231050","AAD-862","2018/07/14 20:39:13","新北市新店區博愛街13巷23號","121.540338333333","24.974115","6500600","新店區"
"231043","355-BY","2018/07/14 20:39:30","新北市新店區建國路29號","121.54019","24.9740833333333","6500600","新店區"
"231058","3713-VJ","2018/07/14 20:39:14","新北市新店區平等街29號","121.53662","24.973595","6500600","新店區"
"231066","4716-K9","2018/07/14 20:39:13","新北市新店區安興路56號","121.516373333333","24.9747266666667","6500600","新店區"
"231056","4715-K9","2018/07/14 20:39:30","新北市新店區中央七街61巷28號","121.529611666667","24.9757983333333","6500600","新店區"
"231067","4772-VM","2018/07/14 20:39:20","新北市新店區安華路28-1號","121.519658333333","24.9607866666667","6500600","新店區"
"231049","513-UM","2018/07/14 20:39:27","新北市新店區永業路81巷5弄21號","121.53073","24.9495216666667","6500600","新店區"
"231063","616-UM","2018/07/14 20:39:11","新北市新店區玫瑰路4-1號","121.493623333333","24.9514016666667","6500600","新店區"
"231045","617-UM","2018/07/14 20:39:14","新北市新店區長春路20-1號","121.549456666667","24.956885","6500600","新店區"
"231061","619-UM","2018/07/14 20:39:26","新北市新店區新和街37號","121.519193333333","24.9850016666667","6500600","新店區"
"231068","718-UY","2018/07/14 20:39:14","新北市新店區寶慶街35巷16弄1號","121.543083333333","24.9861066666667","6500600","新店區"
"231064","719-UM","2018/07/14 20:39:25","新北市新店區安和路三段173號","121.515855","24.986155","6500600","新店區"
"231052","719-UY","2018/07/14 20:39:29","新北市新店區廣興路7-6號","121.546138333333","24.9116583333333","6500600","新店區"
"231062","720-UM","2018/07/14 20:39:20","新北市新店區安泰路60巷55弄172號","121.484755","24.9456983333333","6500600","新店區"
"231060","897-TW","2018/07/14 20:39:25","新北市新店區安康路三段738號","121.473848333333","24.9420033333333","6500600","新店區"
"241011","013-R5","2018/07/14 20:39:24","新北市三重區龍門路184號","121.499403333333","25.0733983333333","6500200","三重區"
"241028","022-UY","2018/07/14 20:39:20","新北市三重區光興街95號","121.497256666667","25.05989","6500200","三重區"
"241008","059-VK","2018/07/14 20:39:11","新北市三重區下竹圍街42-1號","121.481081666667","25.0748716666667","6500200","三重區"
"241022","060-VK","2018/07/14 20:39:27","新北市三重區過圳街27-5號","121.488033333333","25.06236","6500200","三重區"
"241031","061-VK","2018/07/14 20:39:31","新北市三重區重陽路一段43巷30號","121.488273333333","25.058645","6500200","三重區"
"241015","062-VK","2018/07/14 20:39:08","新北市三重區文化北路105號","121.497826666667","25.0685166666667","6500200","三重區"
"241017","063-VK","2018/07/14 20:39:16","新北市三重區安慶街245號","121.490655","25.0677883333333","6500200","三重區"
"241026","066-VK","2018/07/14 20:39:31","新北市三重區文化南路3號","121.500066666667","25.0623783333333","6500200","三重區"
"241002","090-VK","2018/07/14 20:39:21","新北市三重區仁義街167巷22號","121.497761666667","25.0820566666667","6500200","三重區"
"241024","742-BX","2018/07/14 20:39:18","新北市三重區三民街220號","121.480315","25.067115","6500200","三重區"
"241005","262-UM","2018/07/14 20:39:22","新北市三重區碧華街444號","121.493005","25.0859766666667","6500200","三重區"
"241009","267-UM","2018/07/14 20:39:18","新北市三重區碧華街55號","121.484688333333","25.0813666666667","6500200","三重區"
"241018","268-UM","2018/07/14 20:39:26","新北市三重區重陽路三段115號","121.490841666667","25.0686633333333","6500200","三重區"
"241032","269-UM","2018/07/14 20:39:28","新北市三重區重陽路一段120巷48號","121.485056666667","25.0601716666667","6500200","三重區"
"241013","270-UM","2018/07/14 20:39:13","新北市三重區仁愛街131號","121.49559","25.0749133333333","6500200","三重區"
"241007","398-BY","2018/07/14 20:39:17","新北市三重區自強路四段12號","121.488451666667","25.0762233333333","6500200","三重區"
"241035","KEA-2210","2018/07/14 20:39:22","新北市三重區正義北路269號","121.495336666667","25.0699616666667","6500200","三重區"
"241025","413-TH","2018/07/14 20:39:24","新北市三重區頂崁街210巷36號","121.475773333333","25.06804","6500200","三重區"
"241004","475-VK","2018/07/14 20:39:28","新北市三重區仁愛街406巷3號","121.49063","25.0812316666667","6500200","三重區"
"241020","478-VK","2018/07/14 20:39:29","新北市三重區忠孝路一段3號","121.492295","25.07181","6500200","三重區"
"241030","480-VK","2018/07/14 20:39:21","新北市三重區成功路73巷20號","121.48942","25.0520066666667","6500200","三重區"
"241014","543-UM","2018/07/14 20:39:12","新北市三重區介壽路11號","121.498918333333","25.0693066666667","6500200","三重區"
"241001","547-UM","2018/07/14 20:39:25","新北市三重區自強路三段110巷27號","121.485846666667","25.074465","6500200","三重區"
"241019","KEA-2593","2018/07/14 20:39:13","新北市三重區大智街129-1號","121.491298333333","25.0704333333333","6500200","三重區"
"241006","AAD-863","2018/07/14 20:39:21","新北市三重區車路頭街135-1號","121.48436","25.076125","6500200","三重區"
"241023","887-TS","2018/07/14 20:39:17","新北市三重區頂崁街201巷10號","121.478088333333","25.0666066666667","6500200","三重區"
"241012","941-UM","2018/07/14 20:39:14","新北市三重區秀江街26號","121.502436666667","25.0730483333333","6500200","三重區"
"241029","942-UM","2018/07/14 20:39:26","新北市三重區集美街126巷26號","121.490045","25.0538866666667","6500200","三重區"
"241033","AAC-255","2018/07/14 20:39:19","新北市三重區神農街378號","121.474105","25.056085","6500200","三重區"
"247010","KEA-2869","2018/07/14 20:39:17","新北市蘆洲區集賢路406號","121.48012","25.08189","6501400","蘆洲區"
"235069","4980-A6","2018/07/14 20:39:14","新北市中和區中正路586號","121.48595","24.994925","6500300","中和區"
"235037","AAC-213","2018/07/14 20:39:29","新北市八里區中山路三段415號","121.370676666667","25.1371633333333","6500300","中和區"
"247024","893-R6","2018/07/14 20:39:11","新北市蘆洲區長樂路80號","121.462488333333","25.0872416666667","6501400","蘆洲區"
"247014","546-UM","2018/07/14 20:39:23","新北市蘆洲區成功路58號","121.472538333333","25.0803566666667","6501400","蘆洲區"
"247006","336-TH","2018/07/14 20:39:12","新北市蘆洲區和平路136-1號","121.466958333333","25.0806883333333","6501400","蘆洲區"
"247008","053-VK","2018/07/14 20:39:29","新北市蘆洲區集賢路269巷4-1號","121.481453333333","25.0834983333333","6501400","蘆洲區"
"247016","007-UY","2018/07/14 20:39:20","新北市蘆洲區和平路50號","121.470616666667","25.07915","6501400","蘆洲區"
"247020","001-UY","2018/07/14 20:39:17","新北市蘆洲區民族路331號","121.4738","25.0917733333333","6501400","蘆洲區"
"224010","AGQ-8101","2018/07/14 20:32:21","新北市瑞芳區金光路372號","121.84895","25.1109583333333","6501200","瑞芳區"
"222001","KEA-2212","2018/07/14 20:39:29","新北市深坑區北深路三段213號","121.600421666667","25.0037816666667","6501800","深坑區"
"251009","008-UM","2018/07/14 20:39:19","新北市淡水區民權路187巷15號","121.460226666667","25.133485","6501000","淡水區"
"251001","011-UM","2018/07/14 20:39:27","新北市淡水區淡金路一段69號","121.458828333333","25.1730916666667","6501000","淡水區"
"251002","012-UM","2018/07/14 20:39:20","新北市淡水區中正路38-1號","121.443683333333","25.1692516666667","6501000","淡水區"
"251013","KEA-2871","2018/07/14 20:39:15","新北市淡水區下圭柔山28巷6號","121.457273333333","25.2040833333333","6501000","淡水區"
"251014","180-VK","2018/07/14 20:39:22","新北市淡水區公埔子29號","121.463118333333","25.2327216666667","6501000","淡水區"
"251015","181-VK","2018/07/14 20:39:29","新北市淡水區淡金路四段542巷17號","121.452738333333","25.2270766666667","6501000","淡水區"
"251010","413-VK","2018/07/14 20:39:26","新北市淡水區沙崙路181巷15號","121.423985","25.1843383333333","6501000","淡水區"
"251012","441-VK","2018/07/14 20:39:23","新北市淡水區興仁路108號","121.451671666667","25.2181166666667","6501000","淡水區"
"251006","561-UM","2018/07/14 20:39:21","新北市淡水區商工路198巷4號","121.451153333333","25.1873616666667","6501000","淡水區"
"251016","575-R6","2018/07/14 20:39:14","新北市淡水區後洲子8-2號","121.44958","25.224015","6501000","淡水區"
"251007","577-R6","2018/07/14 20:39:31","新北市淡水區忠愛街3-1號","121.457933333333","25.171585","6501000","淡水區"
"251003","673-BX","2018/07/14 20:39:12","新北市淡水區新民街120巷21號","121.43833","25.178075","6501000","淡水區"
"252002","178-VK","2018/07/14 20:39:09","新北市三芝區淡金路二段47-2號","121.50371","25.2605016666667","6502100","三芝區"
"252001","292-VK","2018/07/14 20:39:23","新北市三芝區中山路一段87號","121.501173333333","25.256595","6502100","三芝區"
"237016","649-BX","2018/07/14 20:39:11","新北市三峽區介壽路二段138巷2號","121.394805","24.9355633333333","6500900","三峽區"
"236014","270-VK","2018/07/14 20:39:25","新北市樹林區太平路277號","121.419145","24.9728483333333","6501300","土城區"
"242034","AAC-296","2018/07/14 20:39:15","新北市新莊區中正路334巷15號","121.445688333333","25.0355383333333","6500500","新莊區"
"242058","986-R7","2018/07/14 20:39:12","新北市新莊區四維路177號","121.422271666667","25.021285","6500500","新莊區"
"242053","751-BX","2018/07/14 20:39:10","新北市新莊區西盛街327號","121.428088333333","25.0145983333333","6500500","新莊區"
"242027","705-TV","2018/07/14 20:39:28","新北市新莊區思源路147號","121.459755","25.0442333333333","6500500","新莊區"
"242025","613-BX","2018/07/14 20:39:26","新北市新莊區化成路579巷1號","121.464391666667","25.0660083333333","6500500","新莊區"
"242029","612-BX","2018/07/14 20:39:29","新北市新莊區中華路二段32-1號","121.45365","25.0452","6500500","新莊區"
"242042","566-BX","2018/07/14 20:39:27","新北市新莊區中正路694巷10號","121.418478333333","25.0284383333333","6500500","新莊區"
"242046","497-BY","2018/07/14 20:39:13","新北市新莊區龍安路108號","121.41845","25.02045","6500500","新莊區"
"242039","442-UM","2018/07/14 20:39:25","新北市新莊區瓊林北路55號","121.438668333333","25.0208016666667","6500500","新莊區"
"242051","441-UM","2018/07/14 20:39:19","新北市新莊區民安西路171號","121.426145","25.01598","6500500","新莊區"
"242056","440-UM","2018/07/14 20:39:16","新北市新莊區瓊泰路94巷46號","121.44486","25.0294","6500500","新莊區"
"242036","415-TV","2018/07/14 20:39:12","新北市新莊區建安街16巷2號","121.42848","25.0265566666667","6500500","新莊區"
"242007","413-TV","2018/07/14 20:39:18","新北市新莊區福壽街56號","121.458395","25.0488333333333","6500500","新莊區"
"242044","400-BY","2018/07/14 20:39:24","新北市新莊區龍安路108號","121.41842","25.02049","6500500","新莊區"
"242023","362-BY","2018/07/14 20:39:10","新北市新莊區復興路三段22號","121.46095","25.044305","6500500","新莊區"
"242061","353-BY","2018/07/14 20:39:29","新北市新莊區新樹路260號","121.432721666667","25.0152033333333","6500500","新莊區"
"242009","132-UY","2018/07/14 20:39:18","新北市新莊區福壽街99巷8弄4號","121.456808333333","25.0506733333333","6500500","新莊區"
"242031","135-UY","2018/07/14 20:39:28","新北市新莊區福營路92號","121.436953333333","25.0329083333333","6500500","新莊區"
"242048","172-VK","2018/07/14 20:39:29","新北市新莊區中正路715-1號","121.424351666667","25.0294733333333","6500500","新莊區"
"242017","175-VK","2018/07/14 20:39:14","新北市新莊區新泰路368號","121.444553333333","25.0428283333333","6500500","新莊區"
"242015","346-TH","2018/07/14 20:39:14","新北市新莊區中和街6號","121.448495","25.0429516666667","6500500","新莊區"
"242011","347-TH","2018/07/14 20:39:28","新北市新莊區中榮街122巷1號","121.446495","25.0531066666667","6500500","新莊區"
"242021","348-TH","2018/07/14 20:39:12","新北市新莊區中華路一段102號","121.452358333333","25.0398233333333","6500500","新莊區"
"242002","349-TH","2018/07/14 20:39:17","新北市新莊區明中街43巷29號","121.457061666667","25.0385116666667","6500500","新莊區"
"242013","351-TH","2018/07/14 20:39:14","新北市新莊區中和街175巷11號","121.447183333333","25.0506","6500500","新莊區"
"221036","130-UY","2018/07/14 20:39:15","新北市汐止區新昌路55號","121.663281666667","25.0687566666667","6501100","汐止區"
"221015","131-UY","2018/07/14 20:39:28","新北市汐止區建成路28巷15號","121.66388","25.0729916666667","6501100","汐止區"
"221012","278-VK","2018/07/14 20:39:25","新北市汐止區大同路三段211號","121.672578333333","25.0767483333333","6501100","汐止區"
"221023","279-VK","2018/07/14 20:39:17","新北市汐止區康寧街688號","121.637118333333","25.0718116666667","6501100","汐止區"
"221032","280-BY","2018/07/14 20:39:22","新北市汐止區橫科路52巷9弄7號","121.619168333333","25.0501666666667","6501100","汐止區"
"221027","281-BY","2018/07/14 20:39:28","新北市汐止區大同路二段567號","121.662868333333","25.069915","6501100","汐止區"
"221033","297-VK","2018/07/14 20:39:20","新北市汐止區合順街18巷8弄5號","121.620308333333","25.0419033333333","6501100","汐止區"
"221029","298-VK","2018/07/14 20:39:31","新北市汐止區大同路一段421號","121.642643333333","25.0612016666667","6501100","汐止區"
"221021","299-VK","2018/07/14 20:39:16","新北市汐止區水源路一段282巷1號","121.654031666667","25.0580916666667","6501100","汐止區"
"221031","353-TW","2018/07/14 20:39:29","新北市汐止區中興路27巷21號","121.634108333333","25.0608366666667","6501100","汐止區"
"221008","129-UY","2018/07/14 20:39:08","新北市汐止區翠峰街2巷2號","121.645325","25.0766","6501100","汐止區"
"221035","622-UM","2018/07/14 20:39:15","新北市汐止區長江街101-5號","121.658766666667","25.0731966666667","6501100","汐止區"
"221025","623-UM","2018/07/14 20:39:24","新北市汐止區水源路二段189號","121.657835","25.0529516666667","6501100","汐止區"
"221038","646-BX","2018/07/14 20:39:27","新北市汐止區汐萬路一段221號","121.651933333333","25.0725316666667","6501100","汐止區"
"221002","707-TV","2018/07/14 20:39:24","新北市汐止區福德二路167號","121.630931666667","25.0651583333333","6501100","汐止區"
"221018","753-BX","2018/07/14 20:39:28","新北市汐止區中華街23號","121.667101666667","25.0711683333333","6501100","汐止區"
"220083","286-VK","2018/07/14 20:39:23","新北市板橋區僑中二街116巷15號","121.444935","25.0063066666667","6500100","板橋區"
"242019","281-VK","2018/07/14 20:39:20","新北市新莊區利濟街10號","121.453121666667","25.0336866666667","6500500","新莊區"
"220103","561-BX","2018/07/14 20:39:21","新北市板橋區漢生東路73巷27號","121.467165","25.0170483333333","6500100","板橋區"
"220070","AAC-253","2018/07/14 20:37:52","新北市五股區中直路13-7號","121.42504","25.1103883333333","6500100","板橋區"
