"lineid","car","time","location","longitude","latitude","cityid","cityname"
"234081","298-R6","2018/07/14 20:49:17","新北市永和區永貞路52號","121.520785","25.006215","6500400","永和區"
"234030","746-BX","2018/07/14 20:49:20","新北市新莊區化成路585-13號","121.463103333333","25.0669516666667","6500400","永和區"
"249004","303-UY","2018/07/14 20:49:12","新北市八里區中山路一段63號","121.418303333333","25.1594633333333","6502300","八里區"
"249002","305-UY","2018/07/14 20:49:20","新北市八里區中山路三段363號","121.374706666667","25.138645","6502300","八里區"
"234023","9380-KE","2018/07/14 20:49:26","新北市永和區竹林路25巷34號","121.518201666667","25.01494","6500400","永和區"
"234077","969-R7","2018/07/14 20:49:27","新北市八里區荖阡坑路4-28號","121.398353333333","25.1425466666667","6500400","永和區"
"234074","AAC-211","2018/07/14 20:49:12","新北市永和區環河東路二段36號","121.522765","25.0123633333333","6500400","永和區"
"244018","403-UM","2018/07/14 20:49:16","新北市林口區粉寮69號","121.405075","25.0908333333333","6501700","林口區"
"243011","KEA-2215","2018/07/14 20:49:23","新北市泰山區公園路11號","121.429433333333","25.0540566666667","6501600","泰山區"
"222002","016-RS","2018/07/14 20:49:24","新北市深坑區北深路三段93巷58號","121.603376666667","25.0013283333333","6501800","深坑區"
"222003","436-BY","2018/07/14 20:49:18","新北市深坑區阿柔洋40號","121.610313333333","24.998455","6501800","深坑區"
"231044","001-UM","2018/07/14 20:49:13","新北市新店區民族路243號","121.53644","24.9755283333333","6500600","新店區"
"231059","046-UY","2018/07/14 20:49:26","新北市新店區僑信路132巷38號","121.499735","24.9454716666667","6500600","新店區"
"231040","047-UY","2018/07/14 20:49:10","新北市新店區中正路262巷1弄5號","121.539056666667","24.9738033333333","6500600","新店區"
"231065","110-UY","2018/07/14 20:49:32","新北市新店區安祥路69巷19號","121.481895","24.9613266666667","6500600","新店區"
"231048","187-VK","2018/07/14 20:49:31","新北市新店區寶元路二段1巷2號","121.550723333333","24.9840533333333","6500600","新店區"
"231054","KEA-2219","2018/07/14 20:49:29","新北市新店區中正路75巷71號","121.54306","24.9688683333333","6500600","新店區"
"231057","256-BX","2018/07/14 20:49:16","新北市新店區新烏路一段65號","121.546113333333","24.9435933333333","6500600","新店區"
"231042","268-BY","2018/07/14 20:49:13","新北市新店區寶高路120巷1號","121.55463","24.9760416666667","6500600","新店區"
"231051","278-BY","2018/07/14 20:48:48","新北市新店區民生路156巷72號","121.527758333333","24.9820366666667","6500600","新店區"
"231050","AAD-862","2018/07/14 20:49:13","新北市新店區中正路247巷27弄1號","121.538491666667","24.9723166666667","6500600","新店區"
"231043","355-BY","2018/07/14 20:49:30","新北市新店區博愛街13巷27號","121.540371666667","24.97427","6500600","新店區"
"231058","3713-VJ","2018/07/14 20:49:14","新北市新店區中央路135號","121.530348333333","24.9737216666667","6500600","新店區"
"231066","4716-K9","2018/07/14 20:49:13","新北市新店區安民街133巷26號","121.51537","24.9695783333333","6500600","新店區"
"231056","4715-K9","2018/07/14 20:49:10","新北市新店區安興路33-2號","121.516251666667","24.9706416666667","6500600","新店區"
"231067","4772-VM","2018/07/14 20:49:19","新北市新店區安華路28-1號","121.519645","24.9607716666667","6500600","新店區"
"231049","513-UM","2018/07/14 20:49:27","新北市新店區華潭街26巷1弄1號","121.529473333333","24.9536716666667","6500600","新店區"
"231063","616-UM","2018/07/14 20:49:31","新北市新店區富貴街11巷34號","121.494896666667","24.9483633333333","6500600","新店區"
"231045","617-UM","2018/07/14 20:49:14","新北市新店區北新路一段101號","121.539141666667","24.9621216666667","6500600","新店區"
"231061","619-UM","2018/07/14 20:49:26","新北市新店區新和街52號","121.519671666667","24.9852666666667","6500600","新店區"
"231068","718-UY","2018/07/14 20:49:14","新北市新店區中興路三段220巷19號","121.544948333333","24.9832633333333","6500600","新店區"
"231064","719-UM","2018/07/14 20:48:45","新北市新店區安民街365巷12號","121.515993333333","24.975715","6500600","新店區"
"231052","719-UY","2018/07/14 20:49:09","新北市新店區新烏路二段9號","121.54428","24.9293816666667","6500600","新店區"
"231062","720-UM","2018/07/14 20:49:20","新北市新店區和成街19巷20號","121.487573333333","24.946055","6500600","新店區"
"231060","897-TW","2018/07/14 20:49:25","新北市新店區安康路三段702號","121.47426","24.9423366666667","6500600","新店區"
"241011","013-R5","2018/07/14 20:49:24","新北市三重區龍濱路205巷25號","121.503218333333","25.0720166666667","6500200","三重區"
"241028","022-UY","2018/07/14 20:49:20","新北市三重區中正南路46號","121.493916666667","25.0599666666667","6500200","三重區"
"241008","059-VK","2018/07/14 20:49:31","新北市三重區永福街72巷11號","121.479373333333","25.0767583333333","6500200","三重區"
"241022","060-VK","2018/07/14 20:49:27","新北市三重區重陽路二段19巷15號","121.488091666667","25.0623216666667","6500200","三重區"
"241031","061-VK","2018/07/14 20:49:11","新北市三重區重陽路一段113巷3號","121.487566666667","25.0597866666667","6500200","三重區"
"241015","062-VK","2018/07/14 20:49:28","新北市三重區自強路一段8號","121.49889","25.0683083333333","6500200","三重區"
"241017","063-VK","2018/07/14 20:49:16","新北市三重區民生街23號","121.491645","25.0670566666667","6500200","三重區"
"241026","066-VK","2018/07/14 20:49:11","新北市三重區和平街1號","121.500166666667","25.0623383333333","6500200","三重區"
"241002","090-VK","2018/07/14 20:49:22","新北市三重區仁義街157巷86號","121.498821666667","25.08192","6500200","三重區"
"241024","742-BX","2018/07/14 20:49:18","新北市三重區國道路一段58巷18號","121.481038333333","25.07224","6500200","三重區"
"241005","262-UM","2018/07/14 20:49:22","新北市三重區五華街141巷18號","121.491646666667","25.08522","6500200","三重區"
"241009","267-UM","2018/07/14 20:49:18","新北市三重區三和路四段386-1號","121.482213333333","25.078995","6500200","三重區"
"241018","268-UM","2018/07/14 20:49:22","新北市三重區雙園街103號","121.493748333333","25.0672766666667","6500200","三重區"
"241032","269-UM","2018/07/14 20:49:28","新北市三重區重陽路一段120巷48號","121.485051666667","25.06017","6500200","三重區"
"241013","270-UM","2018/07/14 20:49:12","新北市三重區仁愛街129巷1號","121.495606666667","25.07493","6500200","三重區"
"241007","398-BY","2018/07/14 20:49:17","新北市三重區慈愛街8號","121.484491666667","25.0784566666667","6500200","三重區"
"241035","KEA-2210","2018/07/14 20:49:22","新北市三重區三和路三段8號","121.49713","25.0701016666667","6500200","三重區"
"241025","413-TH","2018/07/14 20:49:24","新北市三重區貴陽街14號","121.4842","25.0618366666667","6500200","三重區"
"241004","475-VK","2018/07/14 20:49:28","新北市三重區分子尾街19號","121.48955","25.0810083333333","6500200","三重區"
"241020","478-VK","2018/07/14 20:49:28","新北市三重區忠孝路一段101號","121.48956","25.0721766666667","6500200","三重區"
"241030","480-VK","2018/07/14 20:49:21","新北市三重區環河南路221巷10號","121.49196","25.0522516666667","6500200","三重區"
"241014","543-UM","2018/07/14 20:49:12","新北市三重區萬全街77號","121.501498333333","25.0703016666667","6500200","三重區"
"241001","547-UM","2018/07/14 20:49:25","新北市三重區三和路四段124號","121.489211666667","25.075165","6500200","三重區"
"241019","KEA-2593","2018/07/14 20:49:13","新北市三重區三張街55號","121.49112","25.071065","6500200","三重區"
"241006","AAD-863","2018/07/14 20:49:20","新北市三重區車路頭街135-1號","121.484328333333","25.0761016666667","6500200","三重區"
"241023","887-TS","2018/07/14 20:49:17","新北市三重區忠孝路三段84巷1號","121.48026","25.0645966666667","6500200","三重區"
"241012","941-UM","2018/07/14 20:49:14","新北市三重區仁信街29號","121.501236666667","25.0755583333333","6500200","三重區"
"241029","942-UM","2018/07/14 20:49:26","新北市三重區重安街14號","121.490323333333","25.0581866666667","6500200","三重區"
"241033","AAC-255","2018/07/14 20:49:19","新北市三重區光復路二段1號","121.472306666667","25.0532866666667","6500200","三重區"
"247010","KEA-2869","2018/07/14 20:49:17","新北市蘆洲區鷺江街76號","121.477001666667","25.0838383333333","6501400","蘆洲區"
"235069","4980-A6","2018/07/14 20:49:14","新北市中和區員山路381巷1弄18號","121.480936666667","25.002195","6500300","中和區"
"247024","893-R6","2018/07/14 20:49:31","新北市蘆洲區長樂路140號","121.462053333333","25.0901616666667","6501400","蘆洲區"
"247014","546-UM","2018/07/14 20:49:23","新北市蘆洲區三民路95號","121.473865","25.0849283333333","6501400","蘆洲區"
"247006","336-TH","2018/07/14 20:49:15","新北市蘆洲區永安南路二段76號","121.464588333333","25.0780933333333","6501400","蘆洲區"
"247008","053-VK","2018/07/14 20:49:29","新北市蘆洲區集賢路269巷7號","121.481793333333","25.083565","6501400","蘆洲區"
"247016","007-UY","2018/07/14 20:49:20","新北市蘆洲區中正路54號","121.470765","25.0828416666667","6501400","蘆洲區"
"247002","002-UY","2018/07/14 20:49:28","新北市蘆洲區長安街240號","121.457633333333","25.0857583333333","6501400","蘆洲區"
"247020","001-UY","2018/07/14 20:49:15","新北市蘆洲區仁愛街64號","121.471461666667","25.0939033333333","6501400","蘆洲區"
"224010","AGQ-8101","2018/07/14 20:49:21","新北市瑞芳區明燈路二段2巷14號","121.814458333333","25.10857","6501200","瑞芳區"
"222001","KEA-2212","2018/07/14 20:49:26","新北市深坑區北深路三段133號","121.603965","25.0024633333333","6501800","深坑區"
"251009","008-UM","2018/07/14 20:49:19","新北市淡水區民權路187巷19號","121.460523333333","25.1334933333333","6501000","淡水區"
"251001","011-UM","2018/07/14 20:49:27","新北市淡水區淡金路一段69號","121.458813333333","25.17309","6501000","淡水區"
"251002","012-UM","2018/07/14 20:49:20","新北市淡水區中正東路6號","121.447008333333","25.16702","6501000","淡水區"
"251013","KEA-2871","2018/07/14 20:49:15","新北市淡水區行忠路169號","121.456453333333","25.2010816666667","6501000","淡水區"
"251014","180-VK","2018/07/14 20:49:22","新北市淡水區公埔子32-8號","121.461643333333","25.23237","6501000","淡水區"
"251015","181-VK","2018/07/14 20:49:09","新北市淡水區淡金路四段542巷17號","121.452736666667","25.2270766666667","6501000","淡水區"
"251010","413-VK","2018/07/14 20:49:05","新北市淡水區沙崙路145號","121.42337","25.1830133333333","6501000","淡水區"
"251012","441-VK","2018/07/14 20:49:23","新北市淡水區淡金路四段514號","121.452051666667","25.22578","6501000","淡水區"
"251016","575-R6","2018/07/14 20:49:14","新北市淡水區後洲子8-2號","121.449686666667","25.2238833333333","6501000","淡水區"
"251007","577-R6","2018/07/14 20:49:12","新北市淡水區鄧公路29巷28號","121.4527","25.1700116666667","6501000","淡水區"
"251011","650-BX","2018/07/14 20:49:10","新北市淡水區新民街一段13號","121.432923333333","25.184735","6501000","淡水區"
"251003","673-BX","2018/07/14 20:49:12","新北市淡水區中山北路一段247巷114號","121.44184","25.1796616666667","6501000","淡水區"
"252002","178-VK","2018/07/14 20:49:29","新北市三芝區淡金路二段91號","121.504125","25.2607333333333","6502100","三芝區"
"236014","270-VK","2018/07/14 20:49:25","新北市樹林區中山路三段214號","121.380228333333","24.9680266666667","6501300","土城區"
"242034","AAC-296","2018/07/14 20:49:11","新北市新莊區中正路419-1號","121.44463","25.0345083333333","6500500","新莊區"
"242058","986-R7","2018/07/14 20:49:12","新北市新莊區四維路123-1號","121.422995","25.0228983333333","6500500","新莊區"
"242053","751-BX","2018/07/14 20:49:31","新北市新莊區民安西路226號","121.425928333333","25.0145283333333","6500500","新莊區"
"242027","705-TV","2018/07/14 20:49:27","新北市新莊區瓊林路9-4號","121.449985","25.0312716666667","6500500","新莊區"
"242029","612-BX","2018/07/14 20:49:09","新北市新莊區新泰路32號","121.449641666667","25.03403","6500500","新莊區"
"242042","566-BX","2018/07/14 20:49:27","新北市新莊區天祥街47巷4弄1號","121.416381666667","25.0283516666667","6500500","新莊區"
"242051","441-UM","2018/07/14 20:49:19","新北市新莊區民安西路50號","121.427423333333","25.02068","6500500","新莊區"
"242036","415-TV","2018/07/14 20:49:12","新北市新莊區中正路517-2號","121.439701666667","25.0334283333333","6500500","新莊區"
"242023","362-BY","2018/07/14 20:49:30","新北市新莊區瓊林路13-5號","121.449016666667","25.0303966666667","6500500","新莊區"
"242061","353-BY","2018/07/14 20:49:21","新北市新莊區新樹路282號","121.432596666667","25.012655","6500500","新莊區"
"242009","132-UY","2018/07/14 20:49:18","新北市新莊區幸福路564巷2弄2號","121.454566666667","25.04954","6500500","新莊區"
"242011","347-TH","2018/07/14 20:49:28","新北市板橋區中正路600號","121.444545","25.0212916666667","6500500","新莊區"
"242002","349-TH","2018/07/14 20:49:26","新北市新莊區中港路五守新村37巷1號","121.454668333333","25.03881","6500500","新莊區"
"221036","130-UY","2018/07/14 20:49:15","新北市汐止區新台五路二段10號","121.660236666667","25.0651566666667","6501100","汐止區"
"221023","279-VK","2018/07/14 20:49:17","新北市汐止區康寧街901號","121.651666666667","25.074905","6501100","汐止區"
"221027","281-BY","2018/07/14 20:49:08","新北市汐止區大同路二段391號","121.657886666667","25.0672583333333","6501100","汐止區"
"221033","297-VK","2018/07/14 20:49:20","台北市南港區合順街8巷7弄38號","121.620246666667","25.0418433333333","6501100","汐止區"
"221035","622-UM","2018/07/14 20:49:15","新北市汐止區汐萬路一段257號","121.65086","25.0739616666667","6501100","汐止區"
"221038","646-BX","2018/07/14 20:49:27","新北市汐止區汐萬路一段256巷1號","121.652038333333","25.0746916666667","6501100","汐止區"
"221002","707-TV","2018/07/14 20:49:26","新北市汐止區福德二路162號","121.630038333333","25.06501","6501100","汐止區"
"221018","753-BX","2018/07/14 20:49:28","新北市汐止區大同路二段403號","121.658135","25.067275","6501100","汐止區"
"220070","AAC-253","2018/07/14 20:49:12","新北市八里區下罟子30-35號","121.367845","25.1351716666667","6500100","板橋區"
"235061","KEA-2875","2018/07/14 20:49:07","新北市中和區中正路458號","121.490563333333","24.99423","6500300","中和區"
