"lineid","car","time","location","longitude","latitude","cityid","cityname"
"234081","298-R6","2018/07/14 21:09:17","新北市五股區成泰路三段544號","121.454541666667","25.10372","6500400","永和區"
"234077","969-R7","2018/07/14 21:09:27","新北市八里區中山路三段409號","121.36872","25.1345883333333","6500400","永和區"
"244018","403-UM","2018/07/14 20:59:17","新北市林口區粉寮69號","121.40508","25.0908216666667","6501700","林口區"
"243006","680-BX","2018/07/14 21:08:00","新北市泰山區黎明路25號","121.422125","25.0606266666667","6501600","泰山區"
"231059","046-UY","2018/07/14 21:09:26","新北市新店區僑義路28號","121.500625","24.949875","6500600","新店區"
"231040","047-UY","2018/07/14 21:09:30","新北市新店區北新路一段351號","121.54184","24.969345","6500600","新店區"
"231065","110-UY","2018/07/14 21:09:32","新北市新店區安祥路69巷89弄27號","121.482548333333","24.9606233333333","6500600","新店區"
"231048","187-VK","2018/07/14 21:09:11","新北市新店區中興路三段162號","121.544613333333","24.9807883333333","6500600","新店區"
"231054","KEA-2219","2018/07/14 21:09:09","新北市新店區大新街7巷7號","121.543661666667","24.9682766666667","6500600","新店區"
"231042","268-BY","2018/07/14 21:09:13","新北市新店區寶興路60巷3號","121.549908333333","24.97181","6500600","新店區"
"231051","278-BY","2018/07/14 21:09:27","新北市新店區中正路700巷26號","121.535348333333","24.9910116666667","6500600","新店區"
"231050","AAD-862","2018/07/14 21:09:13","新北市新店區中華路147號","121.538103333333","24.9703083333333","6500600","新店區"
"231066","4716-K9","2018/07/14 21:09:13","新北市新店區薏仁坑路自強巷1號","121.497466666667","24.9578016666667","6500600","新店區"
"231067","4772-VM","2018/07/14 21:09:19","新北市新店區安德街171號","121.508636666667","24.9590483333333","6500600","新店區"
"231063","616-UM","2018/07/14 21:09:11","新北市新店區玫瑰路61巷2號","121.495993333333","24.9452116666667","6500600","新店區"
"231061","619-UM","2018/07/14 21:09:26","新北市新店區永安街66號","121.519548333333","24.9868316666667","6500600","新店區"
"231060","897-TW","2018/07/14 21:09:25","新北市新店區薏仁坑路自強巷6號","121.496388333333","24.95828","6500600","新店區"
"241011","013-R5","2018/07/14 21:09:24","新北市三重區龍濱路251號","121.501413333333","25.0726066666667","6500200","三重區"
"241028","022-UY","2018/07/14 21:09:20","新北市三重區正義南路60-1號","121.49824","25.0606066666667","6500200","三重區"
"241008","059-VK","2018/07/14 21:09:11","新北市三重區三和路二段121號","121.498688333333","25.06905","6500200","三重區"
"241022","060-VK","2018/07/14 21:09:27","新北市三重區中正北路64巷24號","121.486106666667","25.0637483333333","6500200","三重區"
"241031","061-VK","2018/07/14 21:09:11","新北市三重區重新路五段324號","121.477741666667","25.0484483333333","6500200","三重區"
"241015","062-VK","2018/07/14 21:09:28","新北市三重區三和路一段101號","121.502215","25.06647","6500200","三重區"
"241017","063-VK","2018/07/14 21:09:16","新北市三重區大同北路132巷8號","121.492201666667","25.0646266666667","6500200","三重區"
"241026","066-VK","2018/07/14 21:09:31","新北市三重區同安東街126號","121.499968333333","25.0575533333333","6500200","三重區"
"241002","090-VK","2018/07/14 21:09:21","新北市三重區五華街20號","121.494851666667","25.080395","6500200","三重區"
"241003","091-VK","2018/07/14 21:09:25","新北市三重區仁義街224號","121.494915","25.0846583333333","6500200","三重區"
"241024","742-BX","2018/07/14 21:09:18","新北市三重區國道路一段58巷20號","121.481168333333","25.072155","6500200","三重區"
"241005","262-UM","2018/07/14 21:09:22","新北市三重區五華街180巷19號","121.488065","25.0860166666667","6500200","三重區"
"241009","267-UM","2018/07/14 21:09:18","新北市三重區忠孝路二段122號","121.482971666667","25.0688366666667","6500200","三重區"
"241018","268-UM","2018/07/14 21:09:32","新北市三重區正義北路332-1號","121.49432","25.0705266666667","6500200","三重區"
"241032","269-UM","2018/07/14 21:09:28","新北市三重區新北大道一段252號","121.48011","25.0617866666667","6500200","三重區"
"241013","270-UM","2018/07/14 21:09:12","新北市三重區仁愛街131號","121.49561","25.074895","6500200","三重區"
"241007","398-BY","2018/07/14 21:09:17","新北市三重區三和路四段145巷81號","121.486443333333","25.0786366666667","6500200","三重區"
"241025","413-TH","2018/07/14 21:09:24","新北市三重區忠孝路三段40巷16弄10號","121.48233","25.0668916666667","6500200","三重區"
"241004","475-VK","2018/07/14 21:09:28","新北市三重區仁愛街420號","121.490375","25.08139","6500200","三重區"
"241020","478-VK","2018/07/14 21:09:28","新北市三重區忠孝路二段31號","121.485993333333","25.071095","6500200","三重區"
"241030","480-VK","2018/07/14 21:09:21","新北市三重區五谷王北街20巷15弄1號","121.475075","25.0484316666667","6500200","三重區"
"241014","543-UM","2018/07/14 21:09:13","新北市三重區三和路二段37-7號","121.50131","25.06743","6500200","三重區"
"241001","547-UM","2018/07/14 21:09:25","新北市三重區福隆路103號","121.492446666667","25.0783783333333","6500200","三重區"
"241019","KEA-2593","2018/07/14 21:09:13","新北市三重區自強路二段74巷21號","121.487988333333","25.06984","6500200","三重區"
"241006","AAD-863","2018/07/14 21:09:20","新北市三重區中正北路2號","121.489206666667","25.0631816666667","6500200","三重區"
"241023","887-TS","2018/07/14 21:09:17","新北市三重區洛陽街45巷15號","121.482463333333","25.0636966666667","6500200","三重區"
"241012","941-UM","2018/07/14 21:09:15","新北市三重區仁信街27號","121.501288333333","25.0755316666667","6500200","三重區"
"241029","942-UM","2018/07/14 21:09:26","新北市三重區正義南路111號","121.498243333333","25.058525","6500200","三重區"
"241033","AAC-255","2018/07/14 21:09:19","新北市三重區中興北街289號","121.469048333333","25.06238","6500200","三重區"
"247010","KEA-2869","2018/07/14 21:09:16","新北市蘆洲區三民路26巷22號","121.477308333333","25.0829283333333","6501400","蘆洲區"
"247024","893-R6","2018/07/14 21:09:11","新北市蘆洲區長興路50巷1號","121.463766666667","25.0838016666667","6501400","蘆洲區"
"247014","546-UM","2018/07/14 21:09:22","新北市蘆洲區中央路155號","121.472678333333","25.084675","6501400","蘆洲區"
"247022","500-BY","2018/07/14 21:09:28","新北市蘆洲區民族路544號","121.46789","25.0891283333333","6501400","蘆洲區"
"247006","336-TH","2018/07/14 21:09:12","新北市蘆洲區永安南路二段16巷16號","121.468068333333","25.0776783333333","6501400","蘆洲區"
"247018","057-VK","2018/07/14 21:09:21","新北市蘆洲區民族路408巷7號","121.474766666667","25.091855","6501400","蘆洲區"
"247008","053-VK","2018/07/14 21:09:29","新北市蘆洲區民生街47號","121.475011666667","25.0788183333333","6501400","蘆洲區"
"247016","007-UY","2018/07/14 21:09:20","新北市蘆洲區中正路185巷80弄2號","121.465903333333","25.0841333333333","6501400","蘆洲區"
"247002","002-UY","2018/07/14 21:09:26","新北市蘆洲區長榮路387-1號","121.459038333333","25.0896816666667","6501400","蘆洲區"
"247020","001-UY","2018/07/14 21:09:15","新北市蘆洲區民族路371號","121.471191666667","25.0913516666667","6501400","蘆洲區"
"251009","008-UM","2018/07/14 21:09:19","新北市淡水區民權路187巷74弄9號","121.462093333333","25.1344466666667","6501000","淡水區"
"251001","011-UM","2018/07/14 21:09:27","新北市淡水區新市一路三段6號","121.445003333333","25.1828583333333","6501000","淡水區"
"251002","012-UM","2018/07/14 21:09:20","新北市淡水區水源街一段145號","121.44736","25.17179","6501000","淡水區"
"251013","KEA-2871","2018/07/14 21:09:15","新北市淡水區行忠路328號","121.460498333333","25.199735","6501000","淡水區"
"251014","180-VK","2018/07/14 21:09:22","新北市淡水區六塊厝3號","121.450928333333","25.2403116666667","6501000","淡水區"
"251015","181-VK","2018/07/14 21:09:29","新北市淡水區淡金路四段542巷50號","121.454806666667","25.2268966666667","6501000","淡水區"
"251010","413-VK","2018/07/14 21:09:25","新北市淡水區中正路一段63巷7弄2號","121.423031666667","25.1773133333333","6501000","淡水區"
"251012","441-VK","2018/07/14 21:09:22","新北市淡水區六塊厝15號","121.453623333333","25.2407666666667","6501000","淡水區"
"251005","443-VK","2018/07/14 21:09:21","新北市淡水區博愛街47號","121.446686666667","25.1690716666667","6501000","淡水區"
"251016","575-R6","2018/07/14 21:09:14","新北市淡水區前洲子5-1號","121.443578333333","25.2184616666667","6501000","淡水區"
"251007","577-R6","2018/07/14 21:09:12","新北市淡水區學府路96號","121.449671666667","25.17151","6501000","淡水區"
"251011","650-BX","2018/07/14 21:09:30","新北市淡水區新民街120巷45弄24號","121.437855","25.1797283333333","6501000","淡水區"
"251003","673-BX","2018/07/14 21:09:12","新北市淡水區新春街96號","121.439095","25.1824566666667","6501000","淡水區"
"242034","AAC-296","2018/07/14 21:09:31","新北市板橋區溪城路90-2號","121.428456666667","24.9793516666667","6500500","新莊區"
"242058","986-R7","2018/07/14 21:09:12","新北市樹林區中正路214號","121.420018333333","25.0059866666667","6500500","新莊區"
"242002","349-TH","2018/07/14 21:09:17","新北市新莊區瓊林南路187巷50-16號","121.43632","25.00703","6500500","新莊區"
"220070","AAC-253","2018/07/14 21:09:32","新北市八里區中山路三段409號","121.36836","25.134795","6500100","板橋區"
