"lineid","car","time","location","longitude","latitude","cityid","cityname"
"234081","298-R6","2018/07/14 21:39:17","新北市林口區太平里180號","121.366581666667","25.1345916666667","6500400","永和區"
"234077","969-R7","2018/07/14 21:39:27","新北市板橋區文化路二段652號","121.48002","25.0410716666667","6500400","永和區"
"241005","262-UM","2018/07/14 21:39:22","新北市三重區碧華街1號","121.483545","25.08119","6500200","三重區"
"241018","268-UM","2018/07/14 21:39:32","新北市八里區中山路三段380號","121.369013333333","25.1364033333333","6500200","三重區"
"241006","AAD-863","2018/07/14 21:39:20","新北市八里區中山路三段390號","121.368078333333","25.1352183333333","6500200","三重區"
"247010","KEA-2869","2018/07/14 21:39:16","新北市五股區中直路13-7號","121.424015","25.11082","6501400","蘆洲區"
"251009","008-UM","2018/07/14 21:39:19","新北市淡水區民族路29巷2弄1號","121.46256","25.137215","6501000","淡水區"
"251004","009-UM","2018/07/14 21:39:22","新北市淡水區民生路6號","121.460676666667","25.1378083333333","6501000","淡水區"
"251001","011-UM","2018/07/14 21:39:27","新北市淡水區新市二路三段152號","121.43538","25.1941983333333","6501000","淡水區"
"251002","012-UM","2018/07/14 21:39:20","新北市淡水區學府路156號","121.44659","25.174555","6501000","淡水區"
"251014","180-VK","2018/07/14 21:39:22","新北市淡水區淡金路三段426號","121.450288333333","25.2121","6501000","淡水區"
"251015","181-VK","2018/07/14 21:39:29","新北市淡水區淡金路三段180號","121.448816666667","25.2033133333333","6501000","淡水區"
"251010","413-VK","2018/07/14 21:39:25","新北市淡水區沙崙路232號","121.4255","25.1846016666667","6501000","淡水區"
"251012","441-VK","2018/07/14 21:39:23","新北市淡水區淡金路四段215號","121.451688333333","25.2223433333333","6501000","淡水區"
"251008","442-VK","2018/07/14 21:39:29","新北市淡水區水源街二段48號","121.450586666667","25.17391","6501000","淡水區"
"251005","443-VK","2018/07/14 21:39:21","新北市淡水區英專路101巷22號","121.445028333333","25.1720933333333","6501000","淡水區"
"251006","561-UM","2018/07/14 21:39:21","新北市淡水區中正路5巷9-1號","121.44182","25.1690216666667","6501000","淡水區"
"251016","575-R6","2018/07/14 21:39:14","新北市淡水區淡金路三段342號","121.449215","25.20871","6501000","淡水區"
"251007","577-R6","2018/07/14 21:39:12","新北市淡水區水源街二段194號","121.456873333333","25.1759883333333","6501000","淡水區"
"251011","650-BX","2018/07/14 21:39:30","新北市淡水區新民街322巷1號","121.435351666667","25.1837983333333","6501000","淡水區"
"251003","673-BX","2018/07/14 21:39:31","新北市淡水區新春街46號","121.437501666667","25.181695","6501000","淡水區"
"242034","AAC-296","2018/07/14 21:39:31","新北市板橋區金門街369巷83-1號","121.43055","24.98119","6500500","新莊區"
"220070","AAC-253","2018/07/14 21:39:12","新北市五股區新五路二段279號","121.442851666667","25.08625","6500100","板橋區"
