"lineid","car","time","location","longitude","latitude","cityid","cityname"
"248005","653-BX","2018/03/26 06:59:36","新北市五股區更洲路47號","121.456806666667","25.0790616666667","6501500","五股區"
"232001","290-BY","2018/03/26 06:59:37","新北市坪林區下坑子口15-1號","121.716158333333","24.95095","6502000","坪林區"
"232012","291-BY","2018/03/26 06:59:23","新北市坪林區黃舉皮寮4-4號","121.688373333333","24.9420866666667","6502000","坪林區"
"232010","375-UM","2018/03/26 06:59:37","新北市坪林區水聳淒坑13號","121.719476666667","24.9304066666667","6502000","坪林區"
"232017","705-BZ","2018/03/26 06:59:30","新北市坪林區坪雙路二段2號","121.736296666667","24.9602","6502000","坪林區"
"232005","758-BX","2018/03/26 06:59:30","新北市坪林區魚堀17-8號","121.702986666667","24.9185666666667","6502000","坪林區"
"244001","248-BX","2018/03/26 06:59:21","新北市林口區文化一路二段202號","121.383221666667","25.08079","6501700","林口區"
"243002","KEA-2215","2018/03/26 06:59:18","新北市泰山區黎明路25號","121.42199","25.0608683333333","6501600","泰山區"
"222005","289-BY","2018/03/26 06:59:25","新北市深坑區深坑街75號","121.614638333333","25.0013","6501800","深坑區"
"235001","611-BX","2018/03/26 06:59:31","新北市中和區圓通路367巷4號","121.491391666667","24.9892633333333","6500300","中和區"
"223006","022-BY","2018/03/26 06:59:22","新北市石碇區新興坑1號","121.655766666667","25.0158983333333","6501900","石碇區"
"223001","205-TH","2018/03/26 06:59:33","新北市石碇區石崁39號","121.659175","24.9936333333333","6501900","石碇區"
"223008","406-TH","2018/03/26 06:59:30","新北市石碇區十八重溪86-2號","121.671636666667","25.01012","6501900","石碇區"
"223001","592-UM","2018/03/26 06:59:22","新北市石碇區石崁39號","121.659146666667","24.9936966666667","6501900","石碇區"
"223004","660-BX","2018/03/26 06:59:36","新北市石碇區碇坪路一段56號","121.657015","24.99159","6501900","石碇區"
"223005","677-TV","2018/03/26 06:59:26","新北市石碇區碇坪路一段60號","121.657106666667","24.99154","6501900","石碇區"
"227005","030-BX","2018/03/26 06:59:23","新北市雙溪區新基里自強路5號","121.866331666667","25.0390283333333","6502500","雙溪區"
"252006","073-UM","2018/03/26 06:59:32","新北市三芝區埔坪里埔頭坑44號","121.504616666667","25.2618033333333","6502100","三芝區"
"252004","249-BX","2018/03/26 06:59:26","新北市三芝區埔坪里埔頭坑41號","121.504646666667","25.2645033333333","6502100","三芝區"
"236007","165-UM","2018/03/26 06:59:28","新北市土城區永寧路36-1號","121.428031666667","24.95911","6501300","土城區"
"220064","282-UM","2018/03/26 06:59:21","新北市板橋區國光路67巷1號","121.458976666667","25.0185616666667","6500100","板橋區"
