"lineid","car","time","location","longitude","latitude","cityid","cityname"
"248005","653-BX","2018/04/06 08:49:38","新北市五股區明德路12巷6號","121.4334","25.071885","6501500","五股區"
"222005","289-BY","2018/04/06 08:49:41","新北市深坑區大坪街11號","121.63072","25.02005","6501800","深坑區"
"231007","189-VK","2018/04/06 08:49:49","新北市新店區小坑二路2巷13號","121.532113333333","24.917465","6500600","新店區"
"231009","192-VK","2018/04/06 08:49:47","新北市新店區新烏路三段225號","121.547325","24.896645","6500600","新店區"
"231064","719-UY","2018/04/06 08:49:42","新北市新店區雙峰路62-7號","121.584763333333","24.946325","6500600","新店區"
"220035","015-TV","2018/04/06 08:41:02","新北市板橋區華東街1-10號","121.448545","24.99479","6500100","板橋區"
"226005","5620-A6","2018/04/06 08:49:36","新北市平溪區十分里十分街158號","121.778098333333","25.04339","6502400","平溪區"
"226001","7418-A5","2018/04/06 08:42:08","新北市平溪區東勢里東勢格41號","121.761491666667","24.9898083333333","6502400","平溪區"
"226003","AGD-0702","2018/04/06 08:49:34","新北市平溪區南山里南山坪1號","121.777533333333","25.0428783333333","6502400","平溪區"
"223001","205-TH","2018/04/06 08:49:36","新北市石碇區北宜路六段水底寮巷26號","121.663613333333","24.9433733333333","6501900","石碇區"
"223008","406-TH","2018/04/06 08:49:50","新北市石碇區光明路27號","121.695195","25.0239233333333","6501900","石碇區"
"223001","592-UM","2018/04/06 08:49:33","新北市石碇區北宜路六段水底寮巷7號","121.664846666667","24.9484933333333","6501900","石碇區"
"223004","660-BX","2018/04/06 08:49:23","新北市石碇區崩山53號","121.682368333333","24.9688883333333","6501900","石碇區"
"223007","661-BX","2018/04/06 08:49:51","新北市石碇區光明路28號","121.695285","25.0236966666667","6501900","石碇區"
"223005","677-TV","2018/04/06 08:49:37","新北市石碇區崩山53號","121.68238","24.968885","6501900","石碇區"
"227005","282-VK","2018/04/06 08:49:47","新北市雙溪區泰平里泰平54號","121.82927","24.9761683333333","6502500","雙溪區"
"237001","159-UY","2018/04/06 08:49:36","新北市三峽區大義路398號","121.375653333333","24.94941","6500900","三峽區"
"236010","165-UM","2018/04/06 08:49:46","新北市土城區青雲路369-2號","121.458898333333","24.9754733333333","6501300","土城區"
"236004","339-SR","2018/04/06 08:49:45","新北市土城區學士路37-1號","121.447936666667","24.9801566666667","6501300","土城區"
"236006","498-BY","2018/04/06 08:49:36","新北市土城區承天路4巷25號","121.436823333333","24.9607466666667","6501300","土城區"
"220011","609-BX","2018/04/06 08:30:14","新北市板橋區溪城路90-2號","121.428878333333","24.9800633333333","6500100","板橋區"
