"lineid","car","time","location","longitude","latitude","cityid","cityname"
"248005","653-BX","2018/04/06 08:59:38","新北市五股區明德路12巷6號","121.433355","25.071865","6501500","五股區"
"222005","289-BY","2018/04/06 08:59:41","新北市深坑區大坪街11號","121.630641666667","25.0195533333333","6501800","深坑區"
"231007","189-VK","2018/04/06 08:59:49","新北市新店區新潭路二段66號","121.521203333333","24.9262666666667","6500600","新店區"
"231009","192-VK","2018/04/06 08:59:47","新北市新店區新烏路三段11號","121.55249","24.9060416666667","6500600","新店區"
"231064","719-UY","2018/04/06 08:59:42","新北市新店區雙峰路138號","121.595143333333","24.93869","6500600","新店區"
"220035","015-TV","2018/04/06 08:41:02","新北市板橋區華東街1-10號","121.448545","24.99479","6500100","板橋區"
"226005","5620-A6","2018/04/06 08:59:36","新北市平溪區嶺腳里田子1-3號","121.75079","25.02445","6502400","平溪區"
"226001","7418-A5","2018/04/06 08:42:08","新北市平溪區東勢里東勢格41號","121.761491666667","24.9898083333333","6502400","平溪區"
"226003","AGD-0702","2018/04/06 08:57:54","新北市平溪區南山里南山坪5號","121.76088","25.033535","6502400","平溪區"
"223001","205-TH","2018/04/06 08:59:36","新北市石碇區北宜路六段十三股巷1號","121.648806666667","24.9486283333333","6501900","石碇區"
"223008","406-TH","2018/04/06 08:59:10","新北市石碇區大湖格2-2號","121.705095","25.0156666666667","6501900","石碇區"
"223001","592-UM","2018/04/06 08:59:33","新北市石碇區北宜路五段70號","121.639328333333","24.9521316666667","6501900","石碇區"
"223004","660-BX","2018/04/06 08:59:43","新北市石碇區碇坪路二段65號","121.68522","24.9666316666667","6501900","石碇區"
"223007","661-BX","2018/04/06 08:59:51","新北市石碇區頭5號","121.707673333333","24.9972533333333","6501900","石碇區"
"223005","677-TV","2018/04/06 08:59:37","新北市石碇區碇坪路二段71號","121.685541666667","24.9652333333333","6501900","石碇區"
"227005","282-VK","2018/04/06 08:59:47","新北市雙溪區泰平里料角坑13-1號","121.816758333333","24.9732216666667","6502500","雙溪區"
"237001","159-UY","2018/04/06 08:59:36","新北市三峽區國際一街92號","121.370298333333","24.94153","6500900","三峽區"
"236010","165-UM","2018/04/06 08:59:46","新北市土城區明德路一段398-1號","121.45356","24.97934","6501300","土城區"
"236004","339-SR","2018/04/06 08:59:45","新北市土城區學府路一段141號","121.453605","24.986215","6501300","土城區"
"236006","498-BY","2018/04/06 08:59:36","新北市土城區中央路三段80號","121.436415","24.96712","6501300","土城區"
"220011","609-BX","2018/04/06 08:30:14","新北市板橋區溪城路90-2號","121.428878333333","24.9800633333333","6500100","板橋區"
