"lineid","car","time","location","longitude","latitude","cityid","cityname"
"248005","653-BX","2018/04/06 10:29:44","新北市五股區中興路二段37巷24號","121.46072","25.074965","6501500","五股區"
"231007","189-VK","2018/04/06 10:29:28","新北市新店區小坑三路81號","121.513736666667","24.9086033333333","6500600","新店區"
"231009","192-VK","2018/04/06 10:29:47","新北市新店區小坑一路35巷2號","121.527993333333","24.90915","6500600","新店區"
"231064","719-UY","2018/04/06 10:29:42","新北市新店區安和路一段6-6號","121.517295","24.9653733333333","6500600","新店區"
"220035","015-TV","2018/04/06 10:02:09","新北市板橋區華東街1-10號","121.44859","24.9948516666667","6500100","板橋區"
"227005","282-VK","2018/04/06 10:00:27","新北市雙溪區泰平里灣潭路18號","121.813265","24.92913","6502500","雙溪區"
