"lineid","car","time","location","longitude","latitude","cityid","cityname"
"231007","189-VK","2018/04/06 10:49:48","新北市新店區新潭路二段80號","121.518423333333","24.9250483333333","6500600","新店區"
"231009","192-VK","2018/04/06 10:49:47","新北市新店區松林路16巷41號","121.54513","24.904905","6500600","新店區"
"231064","719-UY","2018/04/06 10:49:42","新北市新店區薏仁坑路6號","121.500285","24.9579833333333","6500600","新店區"
"220035","015-TV","2018/04/06 10:47:54","新北市板橋區華東街1-10號","121.448603333333","24.994795","6500100","板橋區"
"227005","282-VK","2018/04/06 10:49:47","新北市雙溪區泰平里溪尾寮46號","121.821345","24.9689033333333","6502500","雙溪區"
