"lineid","car","time","location","longitude","latitude","cityid","cityname"
"234044","148-BY","2018/04/06 12:59:15","新北市永和區得和路373巷16弄1號","121.525108333333","25.0003583333333","6500400","永和區"
"234068","149-BY","2018/04/06 12:59:19","新北市永和區中興街96號","121.518873333333","25.012125","6500400","永和區"
"234005","207-UY","2018/04/06 12:59:23","新北市永和區中山路一段36號","121.513436666667","25.0106816666667","6500400","永和區"
"234078","298-R6","2018/04/06 12:59:08","新北市永和區永貞路31號","121.520978333333","25.0065783333333","6500400","永和區"
"234036","336-UY","2018/04/06 12:59:18","新北市永和區成功路二段207號","121.526575","24.99595","6500400","永和區"
"234062","337-UY","2018/04/06 12:59:09","新北市永和區中正路578號","121.517065","25.0064966666667","6500400","永和區"
"234084","338-UY","2018/04/06 12:59:15","新北市永和區永寧街129巷2號","121.51803","25.00536","6500400","永和區"
"234015","745-BX","2018/04/06 12:59:16","新北市永和區永和路二段297號","121.516005","25.0160733333333","6500400","永和區"
"234028","746-BX","2018/04/06 12:59:19","新北市永和區四維街38號","121.525448333333","24.9981133333333","6500400","永和區"
"234052","KEA-2590","2018/04/06 12:59:25","新北市永和區竹林路64號","121.518321666667","25.0134716666667","6500400","永和區"
"234012","KEA-2591","2018/04/06 12:59:19","新北市永和區信義路10號","121.51458","25.012175","6500400","永和區"
"234060","AAD-866","2018/04/06 12:59:13","新北市永和區福和路301號","121.516406666667","25.00712","6500400","永和區"
"234040","862-TW","2018/04/06 12:59:15","新北市永和區永貞路271號","121.511676666667","25.0048466666667","6500400","永和區"
"234048","863-TW","2018/04/06 12:59:19","新北市永和區文化路196號","121.510813333333","25.016365","6500400","永和區"
"234025","9371-KE","2018/04/06 12:59:15","新北市永和區永和路一段64號","121.513001666667","25.0059366666667","6500400","永和區"
"234010","9373-KE","2018/04/06 12:59:13","新北市永和區文化路113巷32號","121.51302","25.0140066666667","6500400","永和區"
"248019","225-UY","2018/04/06 12:59:22","新北市五股區中興路二段83巷26-6號","121.46015","25.0752566666667","6501500","五股區"
"234022","9380-KE","2018/04/06 12:59:17","新北市永和區竹林路75巷25弄3號","121.520223333333","25.0141533333333","6500400","永和區"
"234076","969-R7","2018/04/06 12:59:21","新北市永和區智光街126號","121.515056666667","24.9956383333333","6500400","永和區"
"234072","AAC-211","2018/04/06 12:59:23","新北市永和區環河東路二段98號","121.524101666667","25.01036","6500400","永和區"
"234001","AAC-295","2018/04/06 12:59:08","新北市永和區永和路一段176-1號","121.514196666667","25.0088316666667","6500400","永和區"
"231005","001-UM","2018/04/06 12:59:15","新北市新店區安華路28-1號","121.519438333333","24.9609666666667","6500600","新店區"
"231002","002-UM","2018/04/06 12:59:09","新北市新店區安華路28-1號","121.519551666667","24.9608033333333","6500600","新店區"
"231027","0293-UT","2018/04/06 12:52:04","新北市新店區安華路30巷1號","121.519506666667","24.9596766666667","6500600","新店區"
"231028","046-UY","2018/04/06 12:59:15","新北市新店區安華路28-1號","121.519493333333","24.9608","6500600","新店區"
"231001","047-UY","2018/04/06 12:59:24","新北市新店區安華路28-1號","121.519243333333","24.9609516666667","6500600","新店區"
"231022","108-UY","2018/04/06 12:59:13","新北市新店區安華路28-1號","121.519558333333","24.9611783333333","6500600","新店區"
"231016","110-UY","2018/04/06 12:59:17","新北市新店區安華路28-1號","121.519326666667","24.9612633333333","6500600","新店區"
"231012","187-VK","2018/04/06 12:59:09","新北市新店區安華路28-1號","121.519551666667","24.9612016666667","6500600","新店區"
"231010","188-VK","2018/04/06 12:59:15","新北市新店區安華路28-1號","121.519276666667","24.9613633333333","6500600","新店區"
"231023","KEA-2219","2018/04/06 12:59:22","新北市新店區安華路28-1號","121.51966","24.9613316666667","6500600","新店區"
"231018","278-BY","2018/04/06 12:59:25","新北市新店區安華路28-1號","121.51964","24.9611183333333","6500600","新店區"
"231025","4715-K9","2018/04/06 12:59:19","新北市新店區安華路30巷1號","121.519685","24.959665","6500600","新店區"
"231036","512-UM","2018/04/06 12:59:08","新北市新店區安華路28-1號","121.519335","24.961445","6500600","新店區"
"231013","513-UM","2018/04/06 12:59:23","新北市新店區安華路28-1號","121.51958","24.96118","6500600","新店區"
"231003","641-BX","2018/04/06 12:59:25","新北市新店區安華路28-1號","121.519628333333","24.9605766666667","6500600","新店區"
"231003","645-TV","2018/04/06 12:59:18","新北市新店區安華路28-1號","121.519318333333","24.9608033333333","6500600","新店區"
"231035","719-UM","2018/04/06 12:59:29","新北市新店區安華路28-1號","121.519496666667","24.9612283333333","6500600","新店區"
"231032","720-UM","2018/04/06 12:59:25","新北市新店區安康路一段355-3號","121.5194","24.9614983333333","6500600","新店區"
"231004","899-TW","2018/04/06 12:59:19","新北市新店區安華路28-1號","121.519208333333","24.96104","6500600","新店區"
"231024","AKT-0513","2018/04/06 12:59:09","新北市新店區安華路28-1號","121.51945","24.960625","6500600","新店區"
"235029","098-UM","2018/04/06 12:59:25","新北市中和區錦和路174號","121.489938333333","24.9956816666667","6500300","中和區"
"235022","151-BY","2018/04/06 12:59:11","新北市中和區錦和路408號","121.491095","24.9897316666667","6500300","中和區"
"235002","185-VK","2018/04/06 12:59:12","新北市永和區成功路二段136巷3號","121.52616","24.9972216666667","6500300","中和區"
"235031","255-BX","2018/04/06 12:59:18","新北市中和區中正路879號","121.484366666667","25.0040416666667","6500300","中和區"
"235032","377-QA","2018/04/06 12:59:26","新北市中和區員山路36巷16-3號","121.485148333333","24.99122","6500300","中和區"
"235006","551-UM","2018/04/06 12:59:07","新北市中和區錦和路350-1號","121.490405","24.9935966666667","6500300","中和區"
"235011","732-UM","2018/04/06 12:59:16","新北市中和區員山路36巷16-3號","121.484891666667","24.991385","6500300","中和區"
"235035","783-BX","2018/04/06 12:59:25","新北市中和區員山路36巷16-3號","121.48519","24.9911566666667","6500300","中和區"
"235021","801-TS","2018/04/06 12:59:09","新北市中和區員山路36巷16-3號","121.484838333333","24.9917033333333","6500300","中和區"
"235016","805-TS","2018/04/06 12:59:29","新北市中和區員山路36巷13號","121.48415","24.9915066666667","6500300","中和區"
"235015","157-BY","2018/04/06 12:59:18","新北市中和區員山路36巷16-3號","121.484955","24.9913783333333","6500300","中和區"
"220035","015-TV","2018/04/06 12:49:41","新北市板橋區華東街1-10號","121.448611666667","24.994875","6500100","板橋區"
"220034","073-UY","2018/04/06 12:59:15","新北市板橋區華東街1-10號","121.448253333333","24.995075","6500100","板橋區"
"207002","749-BX","2018/04/06 12:59:26","新北市萬里區雙興里大坪路39號","121.625388333333","25.1714933333333","6502800","萬里區"
"207001","662-BX","2018/04/06 12:59:11","新北市萬里區萬里里獅頭路22-1號","121.693038333333","25.1780533333333","6502800","萬里區"
"236006","498-BY","2018/04/06 12:59:17","新北市土城區亞洲路32巷2號","121.435911666667","24.97438","6501300","土城區"
"221032","280-BY","2018/04/06 12:59:09","新北市汐止區建成路57巷22號","121.662316666667","25.07272","6501100","汐止區"
