"lineid","car","time","location","longitude","latitude","cityid","cityname"
"234044","148-BY","2018/04/06 13:39:15","新北市永和區永利路326號","121.525173333333","25.0033766666667","6500400","永和區"
"234068","149-BY","2018/04/06 13:39:19","新北市永和區永和路二段242號","121.515836666667","25.0146366666667","6500400","永和區"
"234005","207-UY","2018/04/06 13:39:23","新北市永和區永和路一段140號","121.514156666667","25.00814","6500400","永和區"
"234078","298-R6","2018/04/06 13:39:25","新北市永和區林森路52號","121.524553333333","25.004485","6500400","永和區"
"234036","336-UY","2018/04/06 13:39:18","新北市永和區民樂街39巷16號","121.528276666667","25.000345","6500400","永和區"
"234062","337-UY","2018/04/06 13:39:09","新北市永和區秀朗路一段192巷6弄12號","121.519041666667","25.00234","6500400","永和區"
"234084","338-UY","2018/04/06 13:39:15","新北市永和區永亨路132號","121.524715","25.0039283333333","6500400","永和區"
"234015","745-BX","2018/04/06 13:39:16","新北市永和區忠孝街26巷27弄1號","121.515246666667","25.0168466666667","6500400","永和區"
"234028","746-BX","2018/04/06 13:39:26","新北市永和區民權路29巷1號","121.520325","24.997805","6500400","永和區"
"234052","KEA-2590","2018/04/06 13:39:25","新北市永和區竹林路39巷26號","121.519041666667","25.0147516666667","6500400","永和區"
"234012","KEA-2591","2018/04/06 13:39:19","新北市永和區永平路238巷12號","121.509503333333","25.0116883333333","6500400","永和區"
"234060","AAD-866","2018/04/06 13:39:26","新北市永和區中正路370號","121.517623333333","25.0008766666667","6500400","永和區"
"234040","862-TW","2018/04/06 13:39:15","新北市永和區中和路597巷4號","121.512218333333","25.00453","6500400","永和區"
"234048","863-TW","2018/04/06 13:39:19","新北市永和區保安路35號","121.509861666667","25.016225","6500400","永和區"
"234025","9371-KE","2018/04/06 13:39:13","新北市永和區保安路292號","121.505001666667","25.0117866666667","6500400","永和區"
"234010","9373-KE","2018/04/06 13:39:13","新北市永和區保福路二段15巷9號","121.510551666667","25.0109366666667","6500400","永和區"
"248019","225-UY","2018/04/06 13:35:02","新北市五股區孝義路98號","121.446163333333","25.11943","6501500","五股區"
"234022","9380-KE","2018/04/06 13:39:17","新北市永和區中正路702巷20弄1號","121.516501666667","25.0105983333333","6500400","永和區"
"234076","969-R7","2018/04/06 13:39:21","新北市永和區得和路233號","121.519991666667","25.0001316666667","6500400","永和區"
"234072","AAC-211","2018/04/06 13:39:23","新北市永和區竹林路211號","121.520711666667","25.0088583333333","6500400","永和區"
"234066","AAC-212","2018/04/06 13:39:20","新北市永和區中山路一段191巷9弄12號","121.509971666667","25.00811","6500400","永和區"
"234001","AAC-295","2018/04/06 13:39:28","新北市永和區永和路一段122號","121.513893333333","25.0077333333333","6500400","永和區"
"231005","001-UM","2018/04/06 13:39:16","新北市新店區寶中路72號","121.547883333333","24.9806","6500600","新店區"
"231002","002-UM","2018/04/06 13:39:29","新北市新店區溪園路403號","121.524006666667","24.9781283333333","6500600","新店區"
"231027","0293-UT","2018/04/06 13:39:25","新北市新店區北宜路一段105巷4弄2-1號","121.540015","24.9554216666667","6500600","新店區"
"231028","046-UY","2018/04/06 13:39:29","新北市新店區安和路一段52巷2號","121.517621666667","24.96619","6500600","新店區"
"231001","047-UY","2018/04/06 13:39:26","新北市新店區中正路366號","121.535161666667","24.9762483333333","6500600","新店區"
"231022","108-UY","2018/04/06 13:39:13","新北市新店區永興路132-3號","121.54483","24.9316616666667","6500600","新店區"
"231016","110-UY","2018/04/06 13:39:17","新北市新店區竹林路2巷15號","121.5504","24.95148","6500600","新店區"
"231012","187-VK","2018/04/06 13:39:29","新北市新店區德正街44號","121.544358333333","24.9714916666667","6500600","新店區"
"231010","188-VK","2018/04/06 13:39:15","新北市新店區中正路307巷15號","121.535853333333","24.97385","6500600","新店區"
"231023","KEA-2219","2018/04/06 13:39:22","新北市新店區新店路190號","121.537146666667","24.9560666666667","6500600","新店區"
"231026","256-BX","2018/04/06 13:39:26","新北市新店區北新路一段309號","121.541535","24.967805","6500600","新店區"
"231018","278-BY","2018/04/06 13:39:20","新北市新店區百忍街22號","121.534303333333","24.9756933333333","6500600","新店區"
"231038","3713-VJ","2018/04/06 13:39:23","新北市新店區安華路30巷1號","121.519581666667","24.9592516666667","6500600","新店區"
"231037","4716-K9","2018/04/06 13:39:11","新北市新店區安康路二段387-1號","121.494645","24.9544366666667","6500600","新店區"
"231025","4715-K9","2018/04/06 13:39:20","新北市新店區中央六街58號","121.527853333333","24.9757833333333","6500600","新店區"
"231036","512-UM","2018/04/06 13:39:27","新北市新店區安祥路147巷33號","121.476678333333","24.9567483333333","6500600","新店區"
"231013","513-UM","2018/04/06 13:39:23","新北市新店區中正路450號","121.534366666667","24.9790866666667","6500600","新店區"
"231006","617-UM","2018/04/06 13:39:22","新北市新店區北宜路一段120號","121.539241666667","24.9551866666667","6500600","新店區"
"231030","619-UM","2018/04/06 13:39:16","新北市新店區安康路一段218號","121.523898333333","24.9635483333333","6500600","新店區"
"231034","641-BX","2018/04/06 13:39:25","新北市新店區車子路110號","121.505213333333","24.9520816666667","6500600","新店區"
"231003","645-TV","2018/04/06 13:39:18","新北市新店區北新路一段98號","121.542328333333","24.9689333333333","6500600","新店區"
"231035","719-UM","2018/04/06 13:39:09","新北市新店區安忠路75號","121.511271666667","24.9572366666667","6500600","新店區"
"231032","720-UM","2018/04/06 13:39:25","新北市新店區安康路一段92-1號","121.527901666667","24.96203","6500600","新店區"
"231029","897-TW","2018/04/06 13:39:18","新北市新店區安康路二段250號","121.50907","24.9591","6500600","新店區"
"231004","899-TW","2018/04/06 13:39:19","新北市新店區北新路二段1號","121.542715","24.9712616666667","6500600","新店區"
"231024","AKT-0513","2018/04/06 13:39:09","新北市新店區華興街4號","121.538095","24.9700016666667","6500600","新店區"
"235030","003-UY","2018/04/06 13:39:30","新北市中和區水源路43號","121.504736666667","25.0036233333333","6500300","中和區"
"235028","005-UY","2018/04/06 13:39:22","新北市中和區連城路127巷29號","121.497341666667","24.9976366666667","6500300","中和區"
"235027","006-UY","2018/04/06 13:39:21","新北市中和區連城路389巷13號","121.48664","24.9950866666667","6500300","中和區"
"235020","096-UM","2018/04/06 13:39:21","新北市中和區員山路466巷21弄16號","121.481","25.0069433333333","6500300","中和區"
"235029","098-UM","2018/04/06 13:39:25","新北市中和區莊敬路33巷19號","121.500433333333","25.0070916666667","6500300","中和區"
"235040","150-BY","2018/04/06 13:39:31","新北市中和區保健路50巷66號","121.509185","24.9952183333333","6500300","中和區"
"235022","151-BY","2018/04/06 13:39:11","新北市中和區員山路37-8號","121.481975","24.9899083333333","6500300","中和區"
"235019","183-VK","2018/04/06 13:39:27","新北市中和區國光街114號","121.469913333333","25.000655","6500300","中和區"
"235002","185-VK","2018/04/06 13:39:28","新北市中和區立人街28號","121.518611666667","24.9941483333333","6500300","中和區"
"235013","186-VK","2018/04/06 13:39:10","新北市中和區明義街11巷10弄1號","121.503791666667","24.9947616666667","6500300","中和區"
"235031","255-BX","2018/04/06 13:21:38","新北市中和區連城路340巷14弄17號","121.482933333333","24.9970466666667","6500300","中和區"
"235008","293-VK","2018/04/06 13:39:09","新北市中和區復興路280巷18弄6號","121.502351666667","24.99166","6500300","中和區"
"235036","301-VK","2018/04/06 13:39:15","新北市中和區中山路二段191號","121.499976666667","25.0027316666667","6500300","中和區"
"235007","352-BY","2018/04/06 13:39:15","新北市中和區景平路149號","121.513928333333","24.992075","6500300","中和區"
"235032","377-QA","2018/04/06 13:39:26","新北市中和區中正路167巷46號","121.498411666667","24.9926583333333","6500300","中和區"
"235025","378-QA","2018/04/06 13:39:30","新北市中和區民享街91號","121.474398333333","25.00143","6500300","中和區"
"235014","4979-A6","2018/04/06 13:39:19","新北市中和區忠孝街136號","121.512041666667","24.9867366666667","6500300","中和區"
"235033","4980-A6","2018/04/06 13:39:26","新北市中和區連城路99巷59號","121.497268333333","24.998535","6500300","中和區"
"235006","551-UM","2018/04/06 13:39:28","新北市中和區成功路127巷21號","121.527088333333","24.9910016666667","6500300","中和區"
"235034","558-UM","2018/04/06 13:39:10","新北市中和區南華路50號","121.504235","24.9966616666667","6500300","中和區"
"235009","565-BX","2018/04/06 13:39:22","新北市中和區南山路236巷51號","121.504908333333","24.9882966666667","6500300","中和區"
"235018","640-BX","2018/04/06 13:39:17","新北市中和區民享街32巷20號","121.472978333333","25.00322","6500300","中和區"
"235011","732-UM","2018/04/06 13:39:16","新北市中和區興南路一段162號","121.508128333333","24.9867316666667","6500300","中和區"
"235010","733-UM","2018/04/06 13:39:14","新北市中和區捷運路8號","121.509766666667","24.98947","6500300","中和區"
"235035","783-BX","2018/04/06 13:39:25","新北市中和區永和路317巷8號","121.48554","25.0110833333333","6500300","中和區"
"235021","801-TS","2018/04/06 13:39:09","新北市中和區民安街42巷28號","121.479303333333","25.0009983333333","6500300","中和區"
"235005","802-TS","2018/04/06 13:39:26","新北市中和區中安街80巷3號","121.511973333333","25.0020516666667","6500300","中和區"
"235016","805-TS","2018/04/06 13:39:08","新北市中和區興南路三段62-1號","121.493026666667","24.97506","6500300","中和區"
"235017","900-TW","2018/04/06 13:39:12","新北市中和區莒光路213號","121.469018333333","24.99467","6500300","中和區"
"235024","911-UM","2018/04/06 13:39:29","新北市中和區員山路449號","121.480605","25.00412","6500300","中和區"
"235015","157-BY","2018/04/06 13:39:18","新北市中和區華新街143巷106弄7號","121.506131666667","24.9788783333333","6500300","中和區"
"235001","AAC-213","2018/04/06 13:39:28","新北市中和區景平路71-6號","121.518308333333","24.9914833333333","6500300","中和區"
"235023","AAC-215","2018/04/06 13:39:14","新北市中和區中正路637巷60弄61號","121.485575","24.9927466666667","6500300","中和區"
"220035","015-TV","2018/04/06 13:39:17","新北市板橋區華東街1-10號","121.448885","24.9949066666667","6500100","板橋區"
"220013","072-UY","2018/04/06 13:39:18","新北市板橋區縣民大道二段1號","121.462315","25.0117433333333","6500100","板橋區"
"220034","073-UY","2018/04/06 13:39:15","新北市板橋區南雅西路二段192巷1弄3號","121.452045","25.0144866666667","6500100","板橋區"
"220014","075-UY","2018/04/06 13:39:16","新北市板橋區民生路二段120號","121.47037","25.01983","6500100","板橋區"
"220017","AAD-861","2018/04/06 13:39:24","新北市板橋區華東街1-10號","121.44834","24.99509","6500100","板橋區"
"247005","336-TH","2018/04/06 13:39:21","新北市五股區中興路四段17號","121.440426666667","25.0822033333333","6501400","蘆洲區"
"247007","056-VK","2018/04/06 13:39:24","新北市蘆洲區國道路二段25號","121.47478","25.0738866666667","6501400","蘆洲區"
"247019","001-UY","2018/04/06 13:39:23","新北市五股區凌雲路一段22巷9號","121.452721666667","25.100705","6501400","蘆洲區"
"235003","251-BX","2018/04/06 13:39:21","新北市中和區景平路278巷14弄1號","121.51378","24.9931966666667","6500300","中和區"
"207002","749-BX","2018/04/06 13:39:26","新北市萬里區崁腳里崁腳路166號","121.645063333333","25.1558183333333","6502800","萬里區"
"207001","662-BX","2018/04/06 13:39:11","新北市萬里區磺潭里公館崙24號","121.63503","25.212985","6502800","萬里區"
"236067","105-UM","2018/04/06 13:39:22","新北市土城區城林路6巷80號","121.438688333333","24.9796866666667","6501300","土城區"
"236077","166-UM","2018/04/06 13:39:14","新北市土城區城林路6巷80號","121.438418333333","24.9797366666667","6501300","土城區"
"236029","253-BX","2018/04/06 13:39:21","新北市土城區城林路6巷80號","121.438446666667","24.979745","6501300","土城區"
"236013","270-VK","2018/04/06 13:39:16","新北市土城區城林路6巷80號","121.438605","24.9797633333333","6501300","土城區"
"236032","271-VK","2018/04/06 13:39:20","新北市土城區城林路6巷80號","121.438536666667","24.9798","6501300","土城區"
"236016","401-BY","2018/04/06 13:39:25","新北市土城區城林路6巷80號","121.43862","24.979695","6501300","土城區"
"236006","498-BY","2018/04/06 13:39:17","新北市土城區學府路二段171-3號","121.446163333333","24.9788366666667","6501300","土城區"
"236060","915-UM","2018/04/06 13:39:24","新北市土城區城林路6巷80號","121.438441666667","24.979755","6501300","土城區"
"221032","280-BY","2018/04/06 13:39:29","新北市汐止區仁愛路10號","121.659306666667","25.0636466666667","6501100","汐止區"
"220027","145-BY","2018/04/06 13:39:21","新北市板橋區南雅西路二段150號","121.451861666667","25.0131866666667","6500100","板橋區"
"220028","200-UY","2018/04/06 13:39:16","新北市板橋區大觀路二段265巷76弄8號","121.442146666667","24.99675","6500100","板橋區"
"220030","610-BX","2018/04/06 13:39:10","新北市板橋區篤行路一段29號","121.431993333333","24.9945783333333","6500100","板橋區"
"220020","277-BY","2018/04/06 13:39:14","新北市板橋區大觀路三段54號","121.433243333333","24.9955433333333","6500100","板橋區"
"220011","280-UM","2018/04/06 13:39:19","新北市板橋區民生路二段161巷5號","121.470183333333","25.019725","6500100","板橋區"
"220025","282-UM","2018/04/06 13:39:25","新北市板橋區大觀路三段212巷36號","121.429583333333","24.993215","6500100","板橋區"
"220019","283-VK","2018/04/06 13:39:26","新北市板橋區四川路二段140巷8號","121.449603333333","24.9932366666667","6500100","板橋區"
"220043","285-UM","2018/04/06 13:39:15","新北市板橋區民生路二段161巷1號","121.470045","25.019825","6500100","板橋區"
"220031","286-VK","2018/04/06 13:39:20","新北市板橋區板城路271號","121.450041666667","24.997995","6500100","板橋區"
"220029","287-VK","2018/04/06 13:39:24","新北市板橋區大觀路二段153巷47號","121.447115","25.0008066666667","6500100","板橋區"
"220009","293-UM","2018/04/06 13:39:15","新北市板橋區民生路二段120號","121.470435","25.0197766666667","6500100","板橋區"
"220032","296-UM","2018/04/06 13:39:08","新北市板橋區大觀路二段179巷33號","121.446336666667","24.9994983333333","6500100","板橋區"
"220023","303-R5","2018/04/06 13:39:23","新北市板橋區華東街260號","121.45261","25.0016183333333","6500100","板橋區"
"220010","305-R5","2018/04/06 13:39:12","新北市板橋區民生路二段120號","121.47052","25.0197216666667","6500100","板橋區"
"220047","317-R6","2018/04/06 13:39:27","新北市板橋區民生路二段161巷1號","121.47019","25.0198516666667","6500100","板橋區"
"220012","486-VK","2018/04/06 13:39:30","新北市板橋區南雅南路一段3巷25-8號","121.456855","25.00571","6500100","板橋區"
"220104","560-BX","2018/04/06 13:39:11","新北市板橋區南雅西路二段145巷10號","121.451555","25.0119816666667","6500100","板橋區"
"220052","561-BX","2018/04/06 13:39:30","新北市板橋區民生路二段161巷1號","121.469836666667","25.0200416666667","6500100","板橋區"
"220004","568-UM","2018/04/06 13:39:29","新北市板橋區四川路二段140巷12號","121.449466666667","24.993275","6500100","板橋區"
"220003","630-UY","2018/04/06 13:39:28","新北市板橋區華東街1-9號","121.448188333333","24.9949733333333","6500100","板橋區"
"220005","686-BX","2018/04/06 13:39:17","新北市板橋區華東街1-9號","121.448198333333","24.9949316666667","6500100","板橋區"
"220002","741-BX","2018/04/06 13:39:23","新北市板橋區華東街1-8號","121.447488333333","24.9950716666667","6500100","板橋區"
"220022","895-R6","2018/04/06 13:39:23","新北市板橋區南雅南路一段76號","121.455283333333","25.0050983333333","6500100","板橋區"
"220021","985-R7","2018/04/06 13:39:15","新北市板橋區南雅南路二段11-5號","121.454103333333","25.0022733333333","6500100","板橋區"
"220018","AAC-253","2018/04/06 13:39:14","新北市板橋區華東街1-9號","121.44827","24.9948883333333","6500100","板橋區"
