"lineid","car","time","location","longitude","latitude","cityid","cityname"
"234044","148-BY","2018/04/06 13:59:23","新北市永和區成功路一段74號","121.526848333333","25.0033583333333","6500400","永和區"
"234068","149-BY","2018/04/06 13:59:19","新北市永和區福和路224號","121.519121666667","25.0078616666667","6500400","永和區"
"234005","207-UY","2018/04/06 13:59:23","新北市中和區中和路300-1號","121.508916666667","24.99975","6500400","永和區"
"234078","298-R6","2018/04/06 13:59:08","新北市永和區永亨路117號","121.523731666667","25.004545","6500400","永和區"
"234036","336-UY","2018/04/06 13:59:18","新北市永和區成功路二段118號","121.52651","24.9978566666667","6500400","永和區"
"234062","337-UY","2018/04/06 13:59:09","新北市永和區中正路412巷20弄27號","121.519155","25.0012633333333","6500400","永和區"
"234084","338-UY","2018/04/06 13:59:15","新北市永和區福和路73號","121.522555","25.0078","6500400","永和區"
"234015","745-BX","2018/04/06 13:59:16","新北市永和區文化路7號","121.515443333333","25.0150266666667","6500400","永和區"
"234028","746-BX","2018/04/06 13:59:19","新北市永和區四維街67號","121.52566","24.9979333333333","6500400","永和區"
"234052","KEA-2590","2018/04/06 13:59:25","新北市永和區竹林路39巷42弄1號","121.520178333333","25.015255","6500400","永和區"
"234012","KEA-2591","2018/04/06 13:59:19","新北市永和區保生路55號","121.504706666667","25.0106283333333","6500400","永和區"
"234060","AAD-866","2018/04/06 13:59:13","新北市永和區中正路151巷14號","121.515583333333","24.9988066666667","6500400","永和區"
"234040","862-TW","2018/04/06 13:59:15","新北市永和區中和路421巷5弄18號","121.50832","25.000645","6500400","永和區"
"234048","863-TW","2018/04/06 13:59:19","新北市永和區保安路260號","121.506001666667","25.0122883333333","6500400","永和區"
"234025","9371-KE","2018/04/06 13:59:13","新北市永和區自由街49號","121.513975","25.0059366666667","6500400","永和區"
"234010","9373-KE","2018/04/06 13:59:13","新北市永和區仁愛路352巷112弄10號","121.501136666667","25.0084933333333","6500400","永和區"
"248019","225-UY","2018/04/06 13:54:47","新北市五股區凌雲路三段57號","121.425325","25.12503","6501500","五股區"
"234022","9380-KE","2018/04/06 13:59:17","新北市永和區永和路二段273號","121.515976666667","25.0155133333333","6500400","永和區"
"234076","969-R7","2018/04/06 13:59:21","新北市永和區民權路58巷2弄1號","121.519591666667","24.9983366666667","6500400","永和區"
"234072","AAC-211","2018/04/06 13:59:26","新北市永和區豫溪街155號","121.521316666667","25.01043","6500400","永和區"
"234066","AAC-212","2018/04/06 13:59:20","新北市永和區永貞路358號","121.510218333333","25.0066316666667","6500400","永和區"
"234001","AAC-295","2018/04/06 13:59:29","新北市永和區福和路316-1號","121.515961666667","25.0074516666667","6500400","永和區"
"231005","001-UM","2018/04/06 13:59:15","新北市新店區中興路三段254號","121.54287","24.9841366666667","6500600","新店區"
"231002","002-UM","2018/04/06 13:59:09","新北市新店區中正路610號","121.534063333333","24.9885183333333","6500600","新店區"
"231027","0293-UT","2018/04/06 13:59:25","新北市新店區中興路一段34號","121.538656666667","24.9586066666667","6500600","新店區"
"231028","046-UY","2018/04/06 13:59:15","新北市新店區安和路三段18號","121.518001666667","24.9811966666667","6500600","新店區"
"231001","047-UY","2018/04/06 13:59:24","新北市新店區三民路43號","121.537165","24.97094","6500600","新店區"
"231022","108-UY","2018/04/06 13:59:13","新北市新店區新烏路二段198巷2弄2號","121.547755","24.917015","6500600","新店區"
"231016","110-UY","2018/04/06 13:59:17","新北市新店區郵政路3巷5號","121.5573","24.9520816666667","6500600","新店區"
"231012","187-VK","2018/04/06 13:59:29","新北市新店區中興路二段81號","121.546835","24.9711066666667","6500600","新店區"
"231010","188-VK","2018/04/06 13:59:15","新北市新店區安康路一段33-1號","121.532256666667","24.9606016666667","6500600","新店區"
"231023","KEA-2219","2018/04/06 13:59:22","新北市新店區文中路45號","121.539621666667","24.95667","6500600","新店區"
"231026","256-BX","2018/04/06 13:59:26","新北市新店區安康路一段35-1號","121.532126666667","24.9605866666667","6500600","新店區"
"231018","278-BY","2018/04/06 13:59:20","新北市新店區中央路103號","121.531006666667","24.9749283333333","6500600","新店區"
"231038","3713-VJ","2018/04/06 13:59:23","新北市新店區溪洲路8巷66號","121.53314","24.9624483333333","6500600","新店區"
"231037","4716-K9","2018/04/06 13:59:11","新北市新店區安康路三段165巷2弄10號","121.48918","24.95136","6500600","新店區"
"231025","4715-K9","2018/04/06 13:59:28","新北市新店區中正路330號","121.536995","24.9750333333333","6500600","新店區"
"231036","512-UM","2018/04/06 13:59:29","新北市新店區安祥路109巷3弄32號","121.476313333333","24.9603216666667","6500600","新店區"
"231013","513-UM","2018/04/06 13:59:23","新北市新店區明德路64號","121.54159","24.9794216666667","6500600","新店區"
"231006","617-UM","2018/04/06 13:59:22","新北市新店區北宜路二段215號","121.5533","24.9533933333333","6500600","新店區"
"231030","619-UM","2018/04/06 13:59:16","新北市新店區安康路一段302-2號","121.517483333333","24.9641333333333","6500600","新店區"
"231034","641-BX","2018/04/06 13:59:25","新北市新店區達觀路41號","121.502793333333","24.9382716666667","6500600","新店區"
"231003","645-TV","2018/04/06 13:59:18","新北市新店區中興路一段112-1號","121.540638333333","24.961465","6500600","新店區"
"231035","719-UM","2018/04/06 13:59:09","新北市新店區安和路一段52巷2號","121.517643333333","24.966215","6500600","新店區"
"231032","720-UM","2018/04/06 13:59:25","新北市新店區莒光路87巷15號","121.526001666667","24.9535566666667","6500600","新店區"
"231029","897-TW","2018/04/06 13:59:18","新北市新店區安和路一段1號","121.516666666667","24.9637833333333","6500600","新店區"
"231004","899-TW","2018/04/06 13:59:19","新北市新店區北新路二段163號","121.542891666667","24.976255","6500600","新店區"
"231024","AKT-0513","2018/04/06 13:59:29","新北市新店區力行路12號","121.539416666667","24.964665","6500600","新店區"
"235030","003-UY","2018/04/06 13:59:10","新北市中和區水源路7巷1號","121.503661666667","25.003545","6500300","中和區"
"235028","005-UY","2018/04/06 13:59:30","新北市中和區連城路47巷5號","121.498406666667","25.0017383333333","6500300","中和區"
"235027","006-UY","2018/04/06 13:59:21","新北市中和區中正路552號","121.486991666667","24.99457","6500300","中和區"
"235020","096-UM","2018/04/06 13:59:21","新北市中和區中正路1222號","121.479698333333","25.0109566666667","6500300","中和區"
"235029","098-UM","2018/04/06 13:59:25","新北市中和區中山路二段2巷91號","121.50066","25.0078283333333","6500300","中和區"
"235040","150-BY","2018/04/06 13:59:30","新北市中和區保健路63號","121.509661666667","24.9973066666667","6500300","中和區"
"235022","151-BY","2018/04/06 13:59:11","新北市中和區員山路107號","121.480888333333","24.9946083333333","6500300","中和區"
"235019","183-VK","2018/04/06 13:59:27","新北市中和區德光路18號","121.471131666667","25.0044916666667","6500300","中和區"
"235002","185-VK","2018/04/06 13:59:11","新北市中和區立人街40號","121.518108333333","24.9941","6500300","中和區"
"235013","186-VK","2018/04/06 13:59:10","新北市中和區景安路167巷9號","121.505893333333","24.9947616666667","6500300","中和區"
"235031","255-BX","2018/04/06 13:59:18","新北市中和區新生街207號","121.483863333333","24.9998416666667","6500300","中和區"
"235008","293-VK","2018/04/06 13:59:28","新北市中和區中興街202巷35號","121.499038333333","24.9897733333333","6500300","中和區"
"235036","301-VK","2018/04/06 13:59:15","新北市中和區景平路689號","121.496495","25.0031533333333","6500300","中和區"
"235007","352-BY","2018/04/06 13:59:15","新北市中和區秀朗路三段95號","121.526493333333","24.9950266666667","6500300","中和區"
"235032","377-QA","2018/04/06 13:59:26","新北市中和區板南路252號","121.496168333333","24.99544","6500300","中和區"
"235025","378-QA","2018/04/06 13:59:10","新北市中和區中山路三段87號","121.475655","25.0059","6500300","中和區"
"235014","4979-A6","2018/04/06 13:59:19","新北市中和區忠孝街58巷5號","121.512011666667","24.9833616666667","6500300","中和區"
"235033","4980-A6","2018/04/06 13:59:26","新北市中和區圓通路61號","121.500576666667","24.9971716666667","6500300","中和區"
"235006","551-UM","2018/04/06 13:59:28","新北市中和區秀朗路三段18號","121.526233333333","24.9963516666667","6500300","中和區"
"235034","558-UM","2018/04/06 13:59:10","新北市中和區安和路197號","121.505955","24.9983683333333","6500300","中和區"
"235009","565-BX","2018/04/06 13:59:22","新北市中和區景新街467巷20弄20號","121.514351666667","24.9879066666667","6500300","中和區"
"235018","640-BX","2018/04/06 13:59:17","新北市中和區民享街34號","121.473996666667","25.003175","6500300","中和區"
"235011","732-UM","2018/04/06 13:59:16","新北市中和區興南路二段36號","121.5069","24.9852883333333","6500300","中和區"
"235010","733-UM","2018/04/06 13:59:14","新北市中和區興南路二段3巷17號","121.508745","24.98642","6500300","中和區"
"235035","783-BX","2018/04/06 13:59:25","新北市中和區立德街66號","121.488041666667","25.0076033333333","6500300","中和區"
"235026","800-TS","2018/04/06 13:59:27","新北市中和區中山路二段380巷2號","121.490981666667","25.0043416666667","6500300","中和區"
"235021","801-TS","2018/04/06 13:59:29","新北市中和區民利街87號","121.47827","24.9980433333333","6500300","中和區"
"235005","802-TS","2018/04/06 13:59:26","新北市中和區永貞路239巷3號","121.51287","25.0034883333333","6500300","中和區"
"235016","805-TS","2018/04/06 13:59:08","新北市中和區興南路二段261巷6-5號","121.502186666667","24.97933","6500300","中和區"
"235012","896-TW","2018/04/06 13:59:22","新北市中和區華新街34號","121.507833333333","24.98437","6500300","中和區"
"235017","900-TW","2018/04/06 13:59:25","新北市中和區和平路200巷35弄1號","121.465338333333","24.99463","6500300","中和區"
"235024","911-UM","2018/04/06 13:59:29","新北市中和區中山路三段156號","121.47323","25.006495","6500300","中和區"
"235015","157-BY","2018/04/06 13:59:18","新北市中和區忠孝街13號","121.510015","24.9828583333333","6500300","中和區"
"235001","AAC-213","2018/04/06 13:59:28","新北市中和區秀朗路三段10巷14弄39號","121.524173333333","24.99614","6500300","中和區"
"235023","AAC-215","2018/04/06 13:59:14","新北市中和區圓通路367巷18-4號","121.491715","24.9885866666667","6500300","中和區"
"220035","015-TV","2018/04/06 13:47:24","新北市板橋區華東街1-10號","121.44858","24.9948966666667","6500100","板橋區"
"220013","072-UY","2018/04/06 13:59:20","新北市板橋區漢生東路340巷14號","121.471321666667","25.0073016666667","6500100","板橋區"
"220034","073-UY","2018/04/06 13:59:15","新北市板橋區中正路257號","121.455818333333","25.0184083333333","6500100","板橋區"
"220014","075-UY","2018/04/06 13:59:16","新北市板橋區三民路二段正隆巷12弄8號","121.477998333333","25.0132316666667","6500100","板橋區"
"220017","AAD-861","2018/04/06 13:59:24","新北市板橋區華興街81號","121.456863333333","25.0051133333333","6500100","板橋區"
"247013","546-UM","2018/04/06 13:59:18","新北市蘆洲區中正路102號","121.469615","25.0845383333333","6501400","蘆洲區"
"247009","341-TH","2018/04/06 13:59:14","新北市蘆洲區集賢路224巷16號","121.481771666667","25.087145","6501400","蘆洲區"
"247011","339-TH","2018/04/06 13:59:14","新北市蘆洲區民族路154號","121.47968","25.086065","6501400","蘆洲區"
"247003","337-TH","2018/04/06 13:59:25","新北市蘆洲區長榮路1號","121.463741666667","25.0820816666667","6501400","蘆洲區"
"247005","336-TH","2018/04/06 13:59:20","新北市蘆洲區永安南路二段58號","121.465425","25.0778383333333","6501400","蘆洲區"
"247017","057-VK","2018/04/06 13:58:23","新北市蘆洲區民族路227巷22弄32號","121.476861666667","25.089855","6501400","蘆洲區"
"247007","056-VK","2018/04/06 13:59:24","新北市三重區三和路四段237號","121.480995","25.0803716666667","6501400","蘆洲區"
"247015","007-UY","2018/04/06 13:59:23","新北市蘆洲區光華路15號","121.469533333333","25.083345","6501400","蘆洲區"
"247019","001-UY","2018/04/06 13:59:23","新北市蘆洲區民族路426巷40弄11號","121.473525","25.0931933333333","6501400","蘆洲區"
"235003","251-BX","2018/04/06 13:59:21","新北市中和區自立路58巷6號","121.523348333333","24.991495","6500300","中和區"
"207002","749-BX","2018/04/06 13:59:26","新北市萬里區溪底里溪底路9-1號","121.619776666667","25.14923","6502800","萬里區"
"207001","662-BX","2018/04/06 13:59:11","新北市萬里區磺潭里清水18號","121.6378","25.19779","6502800","萬里區"
"236067","105-UM","2018/04/06 13:59:22","新北市土城區中正路26號","121.443173333333","24.9752266666667","6501300","土城區"
"236040","107-UM","2018/04/06 13:59:22","新北市土城區城林路6巷80號","121.438468333333","24.9796983333333","6501300","土城區"
"236077","166-UM","2018/04/06 13:59:25","新北市土城區永寧路32巷10弄23號","121.428853333333","24.9610883333333","6501300","土城區"
"236029","253-BX","2018/04/06 13:55:57","新北市土城區中央路二段280號","121.440663333333","24.9740766666667","6501300","土城區"
"236024","269-VK","2018/04/06 13:59:15","新北市土城區承天路67號","121.439671666667","24.9634633333333","6501300","土城區"
"236013","270-VK","2018/04/06 13:59:16","新北市土城區城林路6巷80號","121.438585","24.9797183333333","6501300","土城區"
"236032","271-VK","2018/04/06 13:59:20","新北市土城區城林路6巷80號","121.438531666667","24.9797616666667","6501300","土城區"
"236016","401-BY","2018/04/06 13:59:25","新北市土城區城林路6巷80號","121.43858","24.9797533333333","6501300","土城區"
"236006","498-BY","2018/04/06 13:59:17","新北市土城區中華路一段10-1號","121.448025","24.9906666666667","6501300","土城區"
"236057","912-UM","2018/04/06 13:59:12","新北市土城區中央路三段192號","121.430423333333","24.9649283333333","6501300","土城區"
"236045","913-UM","2018/04/06 13:59:22","新北市土城區中央路二段280號","121.440763333333","24.9742983333333","6501300","土城區"
"236060","915-UM","2018/04/06 13:59:24","新北市土城區城林路6巷80號","121.43847","24.9797766666667","6501300","土城區"
"236054","AAC-216","2018/04/06 13:59:27","新北市土城區中央路二段276-1號","121.440918333333","24.9742016666667","6501300","土城區"
"220027","145-BY","2018/04/06 13:59:27","新北市板橋區民權路202巷7弄32號","121.458808333333","25.015035","6500100","板橋區"
"220028","200-UY","2018/04/06 13:59:26","新北市板橋區大觀路二段37巷274號","121.44977","25.0012083333333","6500100","板橋區"
"220105","KEA-2550","2018/04/06 13:59:12","新北市板橋區莊敬路123號","121.471946666667","25.0253866666667","6500100","板橋區"
"220030","610-BX","2018/04/06 13:59:22","新北市板橋區溪北路45號","121.427531666667","24.9899883333333","6500100","板橋區"
"220050","245-BX","2018/04/06 13:59:26","新北市板橋區文化路二段182巷15號","121.472235","25.0267566666667","6500100","板橋區"
"220020","277-BY","2018/04/06 13:59:14","新北市板橋區金門街363號","121.428616666667","24.984765","6500100","板橋區"
"220011","280-UM","2018/04/06 13:59:27","新北市板橋區中山路二段126號","121.476218333333","25.0168666666667","6500100","板橋區"
"220025","282-UM","2018/04/06 13:59:20","新北市板橋區大觀路二段174巷153號","121.441493333333","25.0027333333333","6500100","板橋區"
"220019","283-VK","2018/04/06 13:59:26","新北市板橋區忠孝路154巷49號","121.46461","25.0009416666667","6500100","板橋區"
"220043","285-UM","2018/04/06 13:59:15","新北市板橋區文化路二段76號","121.469366666667","25.0250316666667","6500100","板橋區"
"220001","285-VK","2018/04/06 13:59:29","新北市板橋區中山路二段89巷68號","121.473568333333","25.0177016666667","6500100","板橋區"
"220031","286-VK","2018/04/06 13:59:20","新北市板橋區大觀路二段20巷2號","121.444846666667","25.0041033333333","6500100","板橋區"
"220029","287-VK","2018/04/06 13:59:24","新北市板橋區光華街19巷34號","121.453381666667","25.012045","6500100","板橋區"
"220039","288-VK","2018/04/06 13:59:22","新北市板橋區四維路177巷2弄1號","121.464028333333","25.0262283333333","6500100","板橋區"
"220009","293-UM","2018/04/06 13:59:15","新北市板橋區永豐街120巷2弄11號","121.476401666667","25.0202733333333","6500100","板橋區"
"220046","295-UM","2018/04/06 13:59:30","新北市板橋區國光路199號","121.461778333333","25.01862","6500100","板橋區"
"220032","296-UM","2018/04/06 13:59:28","新北市板橋區篤行路一段16號","121.43131","24.99544","6500100","板橋區"
"220023","303-R5","2018/04/06 13:59:23","新北市板橋區南雅東路120號","121.453436666667","25.0087183333333","6500100","板橋區"
"220010","305-R5","2018/04/06 13:59:31","新北市板橋區三民路二段245巷51號","121.480666666667","25.0126833333333","6500100","板橋區"
"220041","307-R5","2018/04/06 13:59:27","新北市板橋區文化路一段104巷5號","121.465016666667","25.0181716666667","6500100","板橋區"
"220047","317-R6","2018/04/06 13:59:28","新北市板橋區民有街18號","121.466258333333","25.0250083333333","6500100","板橋區"
"220012","486-VK","2018/04/06 13:59:23","新北市板橋區中山路一段283巷2弄25號","121.470533333333","25.0154266666667","6500100","板橋區"
"220037","491-VK","2018/04/06 13:59:22","新北市板橋區莒光路102號","121.472085","25.02398","6500100","板橋區"
"220104","560-BX","2018/04/06 13:59:31","新北市板橋區中正路375巷27號","121.453791666667","25.020215","6500100","板橋區"
"220052","561-BX","2018/04/06 13:59:30","新北市板橋區縣民大道二段200巷23號","121.470208333333","25.0178","6500100","板橋區"
"220004","568-UM","2018/04/06 13:59:29","新北市板橋區信義路148號","121.458678333333","24.9917816666667","6500100","板橋區"
"220003","630-UY","2018/04/06 13:59:28","新北市板橋區中山路一段158巷29號","121.466665","25.011125","6500100","板橋區"
"220040","637-BX","2018/04/06 13:59:12","新北市板橋區大同街26巷1號","121.478123333333","25.0272083333333","6500100","板橋區"
"220005","686-BX","2018/04/06 13:59:17","新北市板橋區重慶路40號","121.461531666667","25.0074616666667","6500100","板橋區"
"220042","689-BX","2018/04/06 13:59:19","新北市板橋區民生路三段12號","121.467678333333","25.0241483333333","6500100","板橋區"
"220002","741-BX","2018/04/06 13:59:11","新北市板橋區四川路一段87巷66號","121.460671666667","25.0056216666667","6500100","板橋區"
"220051","KEA-2699","2018/04/06 13:59:17","新北市板橋區懷德街233巷21號","121.481115","25.028985","6500100","板橋區"
"220016","830-TW","2018/04/06 13:59:23","新北市板橋區三民路一段129-2號","121.479325","25.0206983333333","6500100","板橋區"
"220045","831-TW","2018/04/06 13:59:14","新北市板橋區莒光路75號","121.471593333333","25.024245","6500100","板橋區"
"220038","833-TW","2018/04/06 13:59:29","新北市板橋區文化路二段317號","121.472233333333","25.0297466666667","6500100","板橋區"
"220022","895-R6","2018/04/06 13:59:23","新北市板橋區館前西路152號","121.45536","25.00841","6500100","板橋區"
"220021","985-R7","2018/04/06 13:59:21","新北市板橋區西門街14號","121.455485","25.011525","6500100","板橋區"
"220018","AAC-253","2018/04/06 13:59:14","新北市板橋區信義路15號","121.456951666667","24.9967916666667","6500100","板橋區"
