"lineid","car","time","location","longitude","latitude","cityid","cityname"
"234062","337-UY","2018/04/06 14:39:29","新北市永和區光復街13號","121.516473333333","25.0172583333333","6500400","永和區"
"234084","338-UY","2018/04/06 14:39:15","新北市板橋區光復街216巷14號","121.486126666667","25.0206366666667","6500400","永和區"
"234028","746-BX","2018/04/06 14:39:18","新北市中和區安樂路68號","121.512206666667","24.9934166666667","6500400","永和區"
"234025","9371-KE","2018/04/06 14:39:13","新北市永和區中和路501巷8號","121.51054","25.0026216666667","6500400","永和區"
"234072","AAC-211","2018/04/06 14:39:23","新北市永和區環河東路一段124號","121.52073","25.0154416666667","6500400","永和區"
"231005","001-UM","2018/04/06 14:39:15","新北市新店區復興路2號","121.532426666667","24.988275","6500600","新店區"
"231002","002-UM","2018/04/06 14:39:09","新北市新店區中正路468號","121.534006666667","24.9794","6500600","新店區"
"231027","0293-UT","2018/04/06 14:39:25","新北市新店區中正路224號","121.540148333333","24.9727166666667","6500600","新店區"
"231028","046-UY","2018/04/06 14:39:15","新北市新店區安德街78號","121.510221666667","24.9615933333333","6500600","新店區"
"231001","047-UY","2018/04/06 14:39:24","新北市新店區中正路8號","121.545671666667","24.9696083333333","6500600","新店區"
"231022","108-UY","2018/04/06 14:39:13","新北市新店區桂山路51巷6-1號","121.561843333333","24.9016316666667","6500600","新店區"
"231016","110-UY","2018/04/06 14:39:17","新北市新店區北宜路三段335巷15號","121.610056666667","24.9590733333333","6500600","新店區"
"231012","187-VK","2018/04/06 14:39:28","新北市新店區寶宏路38號","121.549516666667","24.9755816666667","6500600","新店區"
"231023","KEA-2219","2018/04/06 14:39:22","新北市新店區檳榔路50號","121.541781666667","24.963645","6500600","新店區"
"231018","278-BY","2018/04/06 14:39:20","新北市新店區中央二街46號","121.527383333333","24.9741333333333","6500600","新店區"
"231038","3713-VJ","2018/04/06 14:39:23","新北市新店區安華路28-1號","121.519618333333","24.9609716666667","6500600","新店區"
"231037","4716-K9","2018/04/06 14:39:11","新北市新店區柴埕路60巷3號","121.509343333333","24.9645866666667","6500600","新店區"
"231036","512-UM","2018/04/06 14:39:27","新北市新店區安祥路106巷268號","121.473018333333","24.95878","6500600","新店區"
"231013","513-UM","2018/04/06 14:39:23","新北市新店區明德路20號","121.542211666667","24.9769766666667","6500600","新店區"
"231006","617-UM","2018/04/06 14:39:22","新北市新店區北宜路二段103號","121.550223333333","24.9524316666667","6500600","新店區"
"231030","619-UM","2018/04/06 14:39:16","新北市新店區安民街134號","121.51648","24.9693533333333","6500600","新店區"
"231034","641-BX","2018/04/06 14:39:24","新北市新店區黎明路9號","121.502486666667","24.9502733333333","6500600","新店區"
"231003","645-TV","2018/04/06 14:39:18","新北市新店區中正路2號","121.545798333333","24.9693433333333","6500600","新店區"
"231035","719-UM","2018/04/06 14:39:29","新北市新店區安康路二段58巷9號","121.513305","24.963915","6500600","新店區"
"231029","897-TW","2018/04/06 14:39:18","新北市新店區安康路三段552-1號","121.4817","24.948755","6500600","新店區"
"231004","899-TW","2018/04/06 14:39:19","新北市新店區中正路282-1號","121.538343333333","24.9739516666667","6500600","新店區"
"231024","AKT-0513","2018/04/06 14:39:29","新北市新店區力行路76號","121.538643333333","24.9663633333333","6500600","新店區"
"235030","003-UY","2018/04/06 14:39:29","新北市中和區景新街137號","121.50601","24.9970283333333","6500300","中和區"
"235028","005-UY","2018/04/06 14:39:22","新北市中和區南山路127巷18弄1號","121.503575","24.997385","6500300","中和區"
"235027","006-UY","2018/04/06 14:39:21","新北市中和區中山路二段327巷11弄11號","121.493896666667","25.00001","6500300","中和區"
"235020","096-UM","2018/04/06 14:39:21","新北市中和區員山路581巷31弄1號","121.477286666667","25.0103533333333","6500300","中和區"
"235029","098-UM","2018/04/06 14:39:25","新北市中和區福美路266號","121.498106666667","25.005175","6500300","中和區"
"235040","150-BY","2018/04/06 14:39:12","新北市中和區宜安路56號","121.511861666667","24.9968066666667","6500300","中和區"
"235022","151-BY","2018/04/06 14:39:11","新北市中和區員山路146巷11號","121.482055","24.996925","6500300","中和區"
"235019","183-VK","2018/04/06 14:39:27","新北市中和區民生街71號","121.469351666667","25.00492","6500300","中和區"
"235002","185-VK","2018/04/06 14:39:11","新北市中和區立人街69巷11號","121.520283333333","24.993405","6500300","中和區"
"235013","186-VK","2018/04/06 14:39:30","新北市中和區安平路14號","121.509218333333","24.9941033333333","6500300","中和區"
"235031","255-BX","2018/04/06 14:39:18","新北市中和區新生街231號","121.484041666667","24.99921","6500300","中和區"
"235008","293-VK","2018/04/06 14:39:28","新北市中和區捷運路8號","121.509863333333","24.989485","6500300","中和區"
"235007","352-BY","2018/04/06 14:39:15","新北市中和區南山路82號","121.502668333333","24.995155","6500300","中和區"
"235032","377-QA","2018/04/06 14:39:26","新北市中和區福美路299號","121.497218333333","25.0047266666667","6500300","中和區"
"235025","378-QA","2018/04/06 14:39:30","新北市中和區員山路154號","121.481581666667","24.99904","6500300","中和區"
"235014","4979-A6","2018/04/06 14:39:18","新北市中和區員山路36巷16-3號","121.484946666667","24.9914116666667","6500300","中和區"
"235006","551-UM","2018/04/06 14:39:27","新北市中和區宜安路160號","121.509131666667","24.998795","6500300","中和區"
"235034","558-UM","2018/04/06 14:39:30","新北市中和區景平路593號","121.497426666667","25.0005816666667","6500300","中和區"
"235009","565-BX","2018/04/06 14:39:21","新北市中和區景平路310號","121.51251","24.9928","6500300","中和區"
"235018","640-BX","2018/04/06 14:39:17","新北市中和區民德路27號","121.468895","25.0026233333333","6500300","中和區"
"235011","732-UM","2018/04/06 14:39:16","新北市中和區南山路281號","121.504223333333","24.9923716666667","6500300","中和區"
"235010","733-UM","2018/04/06 14:39:14","新北市中和區忠孝街37巷52號","121.511056666667","24.98498","6500300","中和區"
"235035","783-BX","2018/04/06 14:39:25","新北市中和區建一路139號","121.488153333333","25.00099","6500300","中和區"
"235026","800-TS","2018/04/06 14:39:27","新北市中和區中山路二段342號","121.49385","25.00246","6500300","中和區"
"235021","801-TS","2018/04/06 14:39:09","新北市中和區員山路302號","121.481351666667","25.0026883333333","6500300","中和區"
"235005","802-TS","2018/04/06 14:39:26","新北市中和區宜安路138號","121.509691666667","24.9983766666667","6500300","中和區"
"235016","805-TS","2018/04/06 14:39:29","新北市中和區華新街192巷2-1號","121.506795","24.9823883333333","6500300","中和區"
"235012","896-TW","2018/04/06 14:39:22","新北市中和區景新街499號","121.513926666667","24.9870083333333","6500300","中和區"
"235017","900-TW","2018/04/06 14:39:32","新北市中和區國光街140巷1號","121.468295","25.0015016666667","6500300","中和區"
"235024","911-UM","2018/04/06 14:39:29","新北市中和區中山路二段523巷29號","121.482346666667","25.00347","6500300","中和區"
"235015","157-BY","2018/04/06 14:39:18","新北市中和區中興街180巷50弄1號","121.498986666667","24.9889","6500300","中和區"
"235001","AAC-213","2018/04/06 14:39:28","新北市中和區成功路1巷6號","121.526615","24.99445","6500300","中和區"
"235023","AAC-215","2018/04/06 14:39:14","新北市中和區圓通路335巷3弄21號","121.493451666667","24.99036","6500300","中和區"
"220013","072-UY","2018/04/06 14:39:18","新北市板橋區國泰街2號","121.469226666667","25.00688","6500100","板橋區"
"220034","073-UY","2018/04/06 14:39:15","新北市板橋區中正路9號","121.456076666667","25.0121133333333","6500100","板橋區"
"220014","075-UY","2018/04/06 14:39:16","新北市板橋區漢生東路193巷53號","121.471728333333","25.0118033333333","6500100","板橋區"
"220017","AAD-861","2018/04/06 14:39:24","新北市板橋區貴興路104號","121.455481666667","25.0025366666667","6500100","板橋區"
"247023","893-R6","2018/04/06 14:39:20","新北市蘆洲區中山二路222巷21弄15號","121.46871","25.0798433333333","6501400","蘆洲區"
"247013","546-UM","2018/04/06 14:39:18","新北市蘆洲區成功路132號","121.472205","25.082685","6501400","蘆洲區"
"247009","341-TH","2018/04/06 14:39:14","新北市蘆洲區信義路222巷45號","121.480386666667","25.08555","6501400","蘆洲區"
"247011","339-TH","2018/04/06 14:39:14","新北市蘆洲區集賢路222-4號","121.482573333333","25.0869816666667","6501400","蘆洲區"
"247003","337-TH","2018/04/06 14:39:25","新北市蘆洲區長安街222號","121.45808","25.0851233333333","6501400","蘆洲區"
"247005","336-TH","2018/04/06 14:39:20","新北市蘆洲區中華街7號","121.463853333333","25.08175","6501400","蘆洲區"
"247007","056-VK","2018/04/06 14:39:24","新北市蘆洲區信義路47號","121.474836666667","25.0796433333333","6501400","蘆洲區"
"247015","007-UY","2018/04/06 14:39:23","新北市蘆洲區正和街30號","121.469663333333","25.0820916666667","6501400","蘆洲區"
"247001","002-UY","2018/04/06 14:39:27","新北市蘆洲區永樂街31巷7-1號","121.458133333333","25.0872483333333","6501400","蘆洲區"
"247019","001-UY","2018/04/06 14:39:23","新北市蘆洲區民權路188-7號","121.471581666667","25.091035","6501400","蘆洲區"
"235003","251-BX","2018/04/06 14:39:21","新北市中和區宜安路65號","121.511355","24.997105","6500300","中和區"
"207002","749-BX","2018/04/06 14:39:26","新北市萬里區崁腳里崁腳路92號","121.64707","25.1595033333333","6502800","萬里區"
"207001","662-BX","2018/04/06 14:39:11","新北市萬里區磺潭里員潭路59號","121.64151","25.1895266666667","6502800","萬里區"
"236067","105-UM","2018/04/06 14:39:21","新北市土城區永豐路254-1號","121.4691","24.9795883333333","6501300","土城區"
"236040","107-UM","2018/04/06 14:39:24","新北市土城區裕民路55巷16號","121.449631666667","24.9887216666667","6501300","土城區"
"236077","166-UM","2018/04/06 14:39:14","新北市土城區頂埔街67號","121.41752","24.959445","6501300","土城區"
"236029","253-BX","2018/04/06 14:39:22","新北市土城區中央路三段7號","121.439471666667","24.970625","6501300","土城區"
"236024","269-VK","2018/04/06 14:39:27","新北市土城區光明街63號","121.442455","24.9731333333333","6501300","土城區"
"236013","270-VK","2018/04/06 14:39:21","新北市土城區清水路188號","121.46023","24.9817883333333","6501300","土城區"
"236032","271-VK","2018/04/06 14:39:21","新北市土城區明德路一段249號","121.462571666667","24.97803","6501300","土城區"
"236016","401-BY","2018/04/06 14:39:25","新北市土城區延吉街251號","121.46752","24.98483","6501300","土城區"
"236057","912-UM","2018/04/06 14:39:22","新北市土城區中央路三段221號","121.429468333333","24.9644366666667","6501300","土城區"
"236045","913-UM","2018/04/06 14:39:22","新北市土城區青雲路61號","121.459363333333","24.9865066666667","6501300","土城區"
"236060","915-UM","2018/04/06 14:39:24","新北市土城區延壽路27號","121.471085","24.9909616666667","6501300","土城區"
"236054","AAC-216","2018/04/06 14:39:28","新北市土城區裕民路10號","121.447501666667","24.9887416666667","6501300","土城區"
"242051","441-UM","2018/04/06 14:39:24","新北市樹林區環河路600-1號","121.40363","24.9693233333333","6500500","新莊區"
"220027","145-BY","2018/04/06 14:39:21","新北市板橋區建國街52號","121.458765","25.0170716666667","6500100","板橋區"
"220028","200-UY","2018/04/06 14:39:10","新北市板橋區大觀路二段27巷10號","121.447298333333","25.002965","6500100","板橋區"
"220105","KEA-2550","2018/04/06 14:39:21","新北市板橋區民治街26巷12號","121.477411666667","25.033795","6500100","板橋區"
"220030","610-BX","2018/04/06 14:39:30","新北市板橋區篤行路一段37號","121.432078333333","24.99394","6500100","板橋區"
"220050","245-BX","2018/04/06 14:39:25","新北市板橋區民生路二段226巷46號","121.47183","25.02229","6500100","板橋區"
"220020","277-BY","2018/04/06 14:39:14","新北市板橋區金門街151巷23號","121.433876666667","24.990345","6500100","板橋區"
"220011","280-UM","2018/04/06 14:39:25","新北市板橋區翠華街6巷1號","121.48033","25.02402","6500100","板橋區"
"220025","282-UM","2018/04/06 14:39:21","新北市板橋區僑中二街126巷2號","121.445371666667","25.0051933333333","6500100","板橋區"
"220019","283-VK","2018/04/06 14:39:26","新北市板橋區信義路279巷23號","121.464896666667","24.99038","6500100","板橋區"
"220043","285-UM","2018/04/06 14:39:21","新北市板橋區宏國路90號","121.469875","25.03208","6500100","板橋區"
"220001","285-VK","2018/04/06 14:39:29","新北市板橋區中山路二段146號","121.47658","25.0170283333333","6500100","板橋區"
"220031","286-VK","2018/04/06 14:39:20","新北市板橋區僑中二街92巷1號","121.446313333333","25.0087966666667","6500100","板橋區"
"220029","287-VK","2018/04/06 14:39:24","新北市板橋區大觀路一段28巷2號","121.45005","25.00873","6500100","板橋區"
"220039","288-VK","2018/04/06 14:39:29","新北市板橋區新海路431巷16號","121.457781666667","25.026965","6500100","板橋區"
"220009","293-UM","2018/04/06 14:39:15","新北市板橋區觀光街5號","121.471836666667","25.0158316666667","6500100","板橋區"
"220046","295-UM","2018/04/06 14:39:25","新北市板橋區文化路一段285巷63號","121.463086666667","25.0198783333333","6500100","板橋區"
"220032","296-UM","2018/04/06 14:39:28","新北市板橋區滿平街2巷9號","121.425885","24.9898433333333","6500100","板橋區"
"220023","303-R5","2018/04/06 14:39:28","新北市板橋區大勇街77號","121.452965","25.0165616666667","6500100","板橋區"
"220010","305-R5","2018/04/06 14:39:12","新北市板橋區三民路二段81巷27弄31號","121.481331666667","25.017665","6500100","板橋區"
"220041","307-R5","2018/04/06 14:39:27","新北市板橋區文化路一段387巷14號","121.466508333333","25.0220966666667","6500100","板橋區"
"220047","317-R6","2018/04/06 14:39:28","新北市板橋區四維路279巷61號","121.460773333333","25.0273816666667","6500100","板橋區"
"220012","486-VK","2018/04/06 14:39:30","新北市板橋區公園街50-3號","121.462138333333","25.00824","6500100","板橋區"
"220037","491-VK","2018/04/06 14:39:22","新北市板橋區文化路二段402號","121.473798333333","25.0314566666667","6500100","板橋區"
"220104","560-BX","2018/04/06 14:39:11","新北市板橋區金華街145號","121.45977","25.0210333333333","6500100","板橋區"
"220052","561-BX","2018/04/06 14:39:10","新北市板橋區文化路一段339號","121.466491666667","25.0206416666667","6500100","板橋區"
"220004","568-UM","2018/04/06 14:39:29","新北市板橋區德興街37巷5號","121.453831666667","24.99388","6500100","板橋區"
"220003","630-UY","2018/04/06 14:39:27","新北市板橋區國慶路149巷28號","121.461061666667","24.997725","6500100","板橋區"
"220040","637-BX","2018/04/06 14:39:12","新北市板橋區懷德街139巷20弄1號","121.480121666667","25.0307233333333","6500100","板橋區"
"220005","686-BX","2018/04/06 14:39:17","新北市板橋區國慶路158巷7-3號","121.462123333333","24.9957633333333","6500100","板橋區"
"220042","689-BX","2018/04/06 14:39:25","新北市板橋區新海路396號","121.458778333333","25.02655","6500100","板橋區"
"220002","741-BX","2018/04/06 14:39:32","新北市板橋區忠孝路忠義巷15弄109號","121.465275","25.006075","6500100","板橋區"
"220051","KEA-2699","2018/04/06 14:39:16","新北市板橋區雙十路二段46巷17號","121.476148333333","25.0281816666667","6500100","板橋區"
"220016","830-TW","2018/04/06 14:39:23","新北市板橋區中山路二段412巷16-1號","121.483376666667","25.0202366666667","6500100","板橋區"
"220045","831-TW","2018/04/06 14:39:14","新北市板橋區民生路二段240巷40號","121.46944","25.0229583333333","6500100","板橋區"
"220038","833-TW","2018/04/06 14:39:29","新北市板橋區英士路13號","121.462016666667","25.0251366666667","6500100","板橋區"
"220022","895-R6","2018/04/06 14:39:23","新北市板橋區府中路23號","121.459218333333","25.00922","6500100","板橋區"
"220021","985-R7","2018/04/06 14:39:24","新北市板橋區大仁街107號","121.45257","25.015595","6500100","板橋區"
"220018","AAC-253","2018/04/06 14:39:14","新北市板橋區民族路153號","121.46813","25.0077283333333","6500100","板橋區"
