"lineid","car","time","location","longitude","latitude","cityid","cityname"
"231012","187-VK","2018/04/06 16:09:28","新北市新店區薏仁坑路22號","121.498586666667","24.9591583333333","6500600","新店區"
"231046","188-VK","2018/04/06 16:09:22","新北市新店區永業路81巷12號","121.532295","24.947895","6500600","新店區"
"231018","278-BY","2018/04/06 16:09:20","新北市新店區中正路694巷15號","121.53536","24.9909016666667","6500600","新店區"
"241011","013-R5","2018/04/06 16:09:27","新北市三重區三和路三段98號","121.494258333333","25.0721283333333","6500200","三重區"
"241028","022-UY","2018/04/06 16:09:20","新北市三重區正義南路107號","121.498241666667","25.0585933333333","6500200","三重區"
"241008","059-VK","2018/04/06 16:09:26","新北市三重區力行路二段136巷1弄17號","121.482261666667","25.0765466666667","6500200","三重區"
"241015","062-VK","2018/04/06 16:09:26","新北市三重區環河南路35號","121.503081666667","25.0611066666667","6500200","三重區"
"241017","063-VK","2018/04/06 16:09:06","新北市三重區大同北路156巷57號","121.490603333333","25.0650183333333","6500200","三重區"
"241024","065-VK","2018/04/06 16:09:13","新北市三重區力行路一段131號","121.485941666667","25.068445","6500200","三重區"
"241026","066-VK","2018/04/06 16:09:16","新北市三重區正義南路38號","121.498168333333","25.0611266666667","6500200","三重區"
"241002","090-VK","2018/04/06 16:09:15","新北市三重區仁義街91號","121.499766666667","25.0796583333333","6500200","三重區"
"241003","091-VK","2018/04/06 16:09:26","新北市三重區仁義街241巷4號","121.496361666667","25.0829766666667","6500200","三重區"
"241005","262-UM","2018/04/06 16:09:16","新北市三重區溪尾街300-2號","121.487436666667","25.0837033333333","6500200","三重區"
"241016","265-UM","2018/04/06 16:09:27","新北市三重區重新路三段94號","121.49264","25.0609733333333","6500200","三重區"
"241022","267-UM","2018/04/06 16:09:25","新北市三重區中正北路66號","121.486623333333","25.06462","6500200","三重區"
"241018","268-UM","2018/04/06 16:09:28","新北市三重區明志街75號","121.490971666667","25.0637833333333","6500200","三重區"
"241013","270-UM","2018/04/06 16:09:27","新北市三重區文化北路248號","121.497375","25.070065","6500200","三重區"
"241025","271-UM","2018/04/06 16:09:17","新北市三重區忠孝路三段40巷10號","121.482053333333","25.066385","6500200","三重區"
"241007","398-BY","2018/04/06 16:09:20","新北市三重區慈愛街10號","121.484531666667","25.0784333333333","6500200","三重區"
"241020","478-VK","2018/04/06 16:09:22","新北市三重區三張街272號","121.483646666667","25.0712116666667","6500200","三重區"
"241014","543-UM","2018/04/06 16:09:25","新北市三重區長元街105號","121.504566666667","25.067155","6500200","三重區"
"241023","545-UM","2018/04/06 16:09:15","新北市三重區力行路一段161號","121.484746666667","25.0691633333333","6500200","三重區"
"241006","AAD-863","2018/04/06 16:09:17","新北市三重區車路頭街135-1號","121.484265","25.0761783333333","6500200","三重區"
"241012","941-UM","2018/04/06 16:09:15","新北市三重區文化北路132巷7號","121.498246666667","25.066705","6500200","三重區"
"241029","942-UM","2018/04/06 16:09:29","新北市三重區同安街32號","121.496041666667","25.0567616666667","6500200","三重區"
"241033","AAC-255","2018/04/06 16:09:23","新北市三重區五谷王南街50-1號","121.473825","25.0445633333333","6500200","三重區"
"235040","150-BY","2018/04/06 16:08:51","新北市中和區建康路39號","121.486376666667","25.0002733333333","6500300","中和區"
"224007","275-VK","2018/04/06 16:09:13","新北市瑞芳區粗坑口路66號","121.761305","25.0989916666667","6501200","瑞芳區"
"227003","642-TC","2018/04/06 16:09:17","新北市雙溪區上林里內平林47號","121.833321666667","25.0304266666667","6502500","雙溪區"
"227011","400-TW","2018/04/06 16:09:22","新北市雙溪區三港里雙澳路75號","121.882966666667","25.0543216666667","6502500","雙溪區"
"251008","181-VK","2018/04/06 16:09:22","新北市淡水區中正路一段26號","121.426691666667","25.1761933333333","6501000","淡水區"
