"lineid","car","time","location","longitude","latitude","cityid","cityname"
"249005","172-UM","2018/04/06 17:19:30","新北市八里區荖阡坑路50號","121.413713333333","25.122945","6502300","八里區"
"249001","173-UM","2018/04/06 17:19:28","新北市八里區中華路二段165巷2-1號","121.407608333333","25.1508566666667","6502300","八里區"
"249004","303-UY","2018/04/06 17:19:25","新北市八里區賢一街226號","121.415255","25.1557","6502300","八里區"
"249002","305-UY","2018/04/06 17:19:24","新北市八里區龍米路二段117巷33號","121.445641666667","25.14304","6502300","八里區"
"249003","593-UM","2018/04/06 17:19:23","新北市八里區中山路二段315號","121.400658333333","25.147725","6502300","八里區"
"244013","069-UM","2018/04/06 17:19:23","新北市林口區中山路1號","121.396936666667","25.0778766666667","6501700","林口區"
"244007","080-UY","2018/04/06 17:19:24","新北市林口區湖子11號","121.387333333333","25.0896216666667","6501700","林口區"
"244025","742-UY","2018/04/06 17:19:25","新北市林口區仁愛二路96號","121.368453333333","25.0755216666667","6501700","林口區"
"244023","483-VK","2018/04/06 17:19:19","新北市林口區隆林街38號","121.38793","25.0754583333333","6501700","林口區"
"244019","657-BX","2018/04/06 17:19:28","新北市林口區文化二路一段346號","121.372836666667","25.0752583333333","6501700","林口區"
"244021","838-TS","2018/04/06 17:19:18","新北市林口區粉寮路二段799巷1號","121.403015","25.10229","6501700","林口區"
"241011","013-R5","2018/04/06 17:19:29","新北市三重區龍濱路191號","121.501948333333","25.07113","6500200","三重區"
"241028","022-UY","2018/04/06 17:19:20","新北市三重區仁化商場8號","121.493633333333","25.05947","6500200","三重區"
"241008","059-VK","2018/04/06 17:19:26","新北市三重區下竹圍街6號","121.480906666667","25.0760366666667","6500200","三重區"
"241009","060-VK","2018/04/06 17:19:33","新北市三重區仁美街87號","121.485961666667","25.079855","6500200","三重區"
"241015","062-VK","2018/04/06 17:19:26","新北市三重區長元街82-1號","121.501833333333","25.0662933333333","6500200","三重區"
"241017","063-VK","2018/04/06 17:19:25","新北市三重區大同北路91號","121.494695","25.063645","6500200","三重區"
"241024","065-VK","2018/04/06 17:19:33","新北市三重區大勇街82巷15弄30號","121.48124","25.0719633333333","6500200","三重區"
"241026","066-VK","2018/04/06 17:19:16","新北市三重區福裕街31號","121.499291666667","25.0616583333333","6500200","三重區"
"241002","090-VK","2018/04/06 17:19:15","新北市三重區仁愛街357巷51號","121.493265","25.0807533333333","6500200","三重區"
"241003","091-VK","2018/04/06 17:19:26","新北市三重區富福街42號","121.49101","25.0838683333333","6500200","三重區"
"241005","262-UM","2018/04/06 17:19:28","新北市三重區永安北路二段37號","121.482413333333","25.0823433333333","6500200","三重區"
"241016","265-UM","2018/04/06 17:19:27","新北市三重區大同北路56-2號","121.494206666667","25.0637216666667","6500200","三重區"
"241022","267-UM","2018/04/06 17:19:25","新北市三重區中正北路64巷23號","121.485976666667","25.0637016666667","6500200","三重區"
"241018","268-UM","2018/04/06 17:19:28","新北市三重區安慶街95號","121.495428333333","25.0691016666667","6500200","三重區"
"241032","269-UM","2018/04/06 17:19:20","新北市三重區新北大道一段163號","121.482355","25.0609416666667","6500200","三重區"
"241013","270-UM","2018/04/06 17:19:27","新北市三重區仁愛街80號","121.495566666667","25.0736583333333","6500200","三重區"
"241025","271-UM","2018/04/06 17:19:24","新北市三重區中正北路201號","121.476871666667","25.069745","6500200","三重區"
"241007","398-BY","2018/04/06 17:19:28","新北市三重區三和路四段155巷27號","121.48467","25.0787066666667","6500200","三重區"
"241020","478-VK","2018/04/06 17:19:22","新北市三重區後竹圍街124號","121.488321666667","25.072445","6500200","三重區"
"241030","480-VK","2018/04/06 17:19:21","新北市三重區集美街196號","121.49083","25.0536016666667","6500200","三重區"
"241014","543-UM","2018/04/06 17:19:25","新北市三重區長榮路6號","121.500076666667","25.0685216666667","6500200","三重區"
"241023","545-UM","2018/04/06 17:19:34","新北市三重區三民街195號","121.482028333333","25.065685","6500200","三重區"
"241019","KEA-2593","2018/04/06 17:19:18","新北市三重區忠孝路二段95號","121.48434","25.0700583333333","6500200","三重區"
"241004","887-TS","2018/04/06 17:19:34","新北市三重區集賢路31號","121.495955","25.0859683333333","6500200","三重區"
"241012","941-UM","2018/04/06 17:19:15","新北市三重區仁福街64巷1號","121.498005","25.074835","6500200","三重區"
"241033","AAC-255","2018/04/06 17:19:23","新北市新莊區化成路630巷19弄12號","121.467298333333","25.0559466666667","6500200","三重區"
"247024","893-R6","2018/04/06 17:19:34","新北市蘆洲區長榮路357號","121.459356666667","25.0880866666667","6501400","蘆洲區"
"247014","546-UM","2018/04/06 17:19:15","新北市蘆洲區中正路83號","121.470073333333","25.08357","6501400","蘆洲區"
"247022","500-BY","2018/04/06 17:19:24","新北市蘆洲區三民路128巷37號","121.469808333333","25.0897383333333","6501400","蘆洲區"
"247010","341-TH","2018/04/06 17:19:28","新北市蘆洲區中山一路120巷7弄42-1號","121.47703","25.0824666666667","6501400","蘆洲區"
"247012","339-TH","2018/04/06 17:19:19","新北市蘆洲區信義路319巷10弄3號","121.477541666667","25.0864616666667","6501400","蘆洲區"
"247004","337-TH","2018/04/06 17:19:28","新北市蘆洲區中原路93號","121.457668333333","25.0815783333333","6501400","蘆洲區"
"247006","336-TH","2018/04/06 17:19:18","新北市蘆洲區長安街49巷7號","121.462991666667","25.0791866666667","6501400","蘆洲區"
"247018","057-VK","2018/04/06 17:19:23","新北市蘆洲區民權路70號","121.474995","25.087285","6501400","蘆洲區"
"247008","056-VK","2018/04/06 17:19:25","新北市蘆洲區永安北路一段72巷8號","121.476843333333","25.0771866666667","6501400","蘆洲區"
"247002","002-UY","2018/04/06 17:19:28","新北市蘆洲區永樂街38巷33弄31號","121.456826666667","25.0897616666667","6501400","蘆洲區"
"247020","001-UY","2018/04/06 17:19:19","新北市蘆洲區民族路343-1號","121.472656666667","25.0919266666667","6501400","蘆洲區"
"228003","097-TW","2018/04/06 17:19:26","新北市貢寮區福隆里虎子山街21號","121.93847","25.0185283333333","6502600","貢寮區"
"228002","663-BX","2018/04/06 17:19:26","新北市貢寮區雙玉里下雙溪街24號","121.922331666667","25.00991","6502600","貢寮區"
"228001","670-TC","2018/04/06 17:19:27","新北市貢寮區仁理村尖山腳街18-3號","121.925426666667","25.0483166666667","6502600","貢寮區"
"224010","AGQ-8101","2018/04/06 17:18:45","新北市瑞芳區逢甲路34號","121.811458333333","25.108235","6501200","瑞芳區"
"224006","676-BX","2018/04/06 17:19:22","新北市瑞芳區大寮路356號","121.785615","25.102865","6501200","瑞芳區"
"224008","285-BY","2018/04/06 17:19:26","新北市瑞芳區侯硐路284號","121.831105","25.0894083333333","6501200","瑞芳區"
"224007","275-VK","2018/04/06 17:19:33","新北市瑞芳區大寮路356-1號","121.784585","25.1033466666667","6501200","瑞芳區"
"224009","273-VK","2018/04/06 17:19:23","新北市瑞芳區汽車路90-2號","121.842528333333","25.1090633333333","6501200","瑞芳區"
"224005","271-BY","2018/04/06 17:19:13","新北市瑞芳區鼻頭路247號","121.912625","25.12393","6501200","瑞芳區"
"227003","642-TC","2018/04/06 17:19:17","新北市雙溪區上林里內平林90號","121.827563333333","25.02754","6502500","雙溪區"
"227011","400-TW","2018/04/06 17:19:22","新北市雙溪區三貂里政光路3號","121.851541666667","25.0632083333333","6502500","雙溪區"
"251004","009-UM","2018/04/06 17:19:25","新北市淡水區中正東路二段88巷15號","121.459131666667","25.150535","6501000","淡水區"
"251008","181-VK","2018/04/06 17:19:22","新北市淡水區大同路289號","121.468116666667","25.1426383333333","6501000","淡水區"
"251010","413-VK","2018/04/06 17:19:33","新北市淡水區中正路二段397號","121.424811666667","25.1917516666667","6501000","淡水區"
"251012","441-VK","2018/04/06 17:19:25","新北市淡水區中山北路一段158號","121.444368333333","25.17802","6501000","淡水區"
"251005","443-VK","2018/04/06 17:19:32","新北市淡水區學府路88號","121.449075","25.1708566666667","6501000","淡水區"
"251006","561-UM","2018/04/06 17:19:23","新北市淡水區大智街33號","121.44238","25.174335","6501000","淡水區"
"251009","575-R6","2018/04/06 17:19:23","新北市淡水區三民街17號","121.43893","25.17184","6501000","淡水區"
"251007","577-R6","2018/04/06 17:19:22","新北市淡水區民生路60號","121.462061666667","25.137935","6501000","淡水區"
"251011","650-BX","2018/04/06 17:19:17","新北市淡水區坪頂路139號","121.466501666667","25.1616166666667","6501000","淡水區"
"251002","672-BX","2018/04/06 17:19:32","新北市淡水區中正路二段31號","121.419296666667","25.181665","6501000","淡水區"
"251003","673-BX","2018/04/06 17:19:22","新北市淡水區中正路二段31號","121.419698333333","25.18153","6501000","淡水區"
"207003","550-UM","2018/04/06 17:19:19","新北市萬里區萬里里瑪鋉路340號","121.688008333333","25.1825366666667","6502800","萬里區"
"252002","178-VK","2018/04/06 17:19:31","新北市三芝區忠孝街1-14號","121.505516666667","25.2539633333333","6502100","三芝區"
"252001","292-VK","2018/04/06 17:19:13","新北市三芝區長安街119號","121.498036666667","25.259705","6502100","三芝區"
"242034","AAC-296","2018/04/06 17:19:33","新北市新莊區新莊路773號","121.442073333333","25.0326716666667","6500500","新莊區"
"242058","986-R7","2018/04/06 17:19:32","新北市新莊區新泰路357巷3弄45號","121.44199","25.040205","6500500","新莊區"
"242054","751-BX","2018/04/06 17:19:34","新北市新莊區環河路636-1號","121.43664","25.0108083333333","6500500","新莊區"
"242029","705-TV","2018/04/06 17:19:20","新北市新莊區幸福路914號","121.442516666667","25.04862","6500500","新莊區"
"242027","615-BX","2018/04/06 17:19:18","新北市新莊區中港路297號","121.452863333333","25.044305","6500500","新莊區"
"242025","613-BX","2018/04/06 17:19:26","新北市新莊區泰順街63號","121.447935","25.04322","6500500","新莊區"
"242041","566-BX","2018/04/06 17:19:13","新北市新莊區中正路481號","121.441328333333","25.03383","6500500","新莊區"
"242005","442-UM","2018/04/06 17:19:20","新北市新莊區中平路82巷29號","121.446178333333","25.044915","6500500","新莊區"
"242050","441-UM","2018/04/06 17:19:17","新北市新莊區瓊林南路42巷1-1號","121.435923333333","25.0178633333333","6500500","新莊區"
"242056","440-UM","2018/04/06 17:19:16","新北市新莊區中正路457巷15號","121.442231666667","25.0333133333333","6500500","新莊區"
"242037","415-TV","2018/04/06 17:19:26","新北市新莊區新樹路132號","121.435781666667","25.0238233333333","6500500","新莊區"
"242007","413-TV","2018/04/06 17:19:16","新北市新莊區中平路82巷22號","121.445735","25.0449466666667","6500500","新莊區"
"242044","400-BY","2018/04/06 17:19:23","新北市新莊區富國路101-1號","121.421365","25.0255316666667","6500500","新莊區"
"242023","362-BY","2018/04/06 17:19:24","新北市新莊區新泰路488號","121.442571666667","25.0458283333333","6500500","新莊區"
"242060","353-BY","2018/04/06 17:19:33","新北市泰山區磚雅厝3號","121.442006666667","25.04184","6500500","新莊區"
"242039","133-UY","2018/04/06 17:19:13","新北市新莊區民安路302號","121.428263333333","25.021835","6500500","新莊區"
"242048","172-VK","2018/04/06 17:19:32","新北市新莊區龍安路252號","121.421161666667","25.0195716666667","6500500","新莊區"
"242017","175-VK","2018/04/06 17:19:22","新北市新莊區中平路82巷29號","121.44608","25.0449933333333","6500500","新莊區"
"242015","346-TH","2018/04/06 17:19:20","新北市新莊區建中街150號","121.445021666667","25.0365516666667","6500500","新莊區"
"242021","348-TH","2018/04/06 17:19:14","新北市新莊區明中街67號","121.456511666667","25.0404466666667","6500500","新莊區"
"242002","349-TH","2018/04/06 17:19:22","新北市新莊區新泰路61號","121.449496666667","25.0340633333333","6500500","新莊區"
"242019","350-TH","2018/04/06 17:19:26","新北市新莊區新泰路421-7號","121.442531666667","25.0451016666667","6500500","新莊區"
"242013","351-TH","2018/04/06 17:19:16","新北市新莊區三和路12-21號","121.442288333333","25.038535","6500500","新莊區"
"238019","599-UM","2018/04/06 17:19:28","新北市樹林區八德街170號","121.421658333333","24.97814","6500700","樹林區"
"238018","571-TV","2018/04/06 17:19:33","新北市樹林區太平路1-5號","121.418546666667","24.9846016666667","6500700","樹林區"
"238022","KEA-2213","2018/04/06 17:19:28","新北市樹林區中華路37巷8號","121.424016666667","24.9831416666667","6500700","樹林區"
"238021","KEA-2539","2018/04/06 17:19:21","新北市樹林區西圳街一段165巷2號","121.395416666667","24.9619933333333","6500700","樹林區"
"238017","283-BY","2018/04/06 17:19:26","新北市樹林區光武街7-3號","121.415746666667","25.0053533333333","6500700","樹林區"
"238014","282-BY","2018/04/06 17:19:22","新北市樹林區長壽街70巷17號","121.421811666667","24.994655","6500700","樹林區"
"238026","172-UY","2018/04/06 17:19:16","新北市樹林區中山路二段219號","121.402765","24.9763966666667","6500700","樹林區"
"238016","169-UY","2018/04/06 17:19:25","新北市樹林區中山路二段10號","121.417535","24.9850233333333","6500700","樹林區"
"239007","AAC-297","2018/04/06 17:19:31","新北市鶯歌區光復街25號","121.351486666667","24.9555633333333","6500800","鶯歌區"
"239006","891-R6","2018/04/06 17:19:33","新北市鶯歌區福昌街30號","121.332761666667","24.9609916666667","6500800","鶯歌區"
"239008","527-UM","2018/04/06 17:19:21","新北市鶯歌區西湖街243巷27號","121.339375","24.9649566666667","6500800","鶯歌區"
"239005","526-UM","2018/04/06 17:19:29","桃園市八德區福德二街26號","121.329465","24.9670966666667","6500800","鶯歌區"
"239001","417-VK","2018/04/06 17:19:28","新北市鶯歌區黃厝街33號","121.342961666667","24.9455566666667","6500800","鶯歌區"
"239003","360-BY","2018/04/06 17:19:32","新北市鶯歌區德昌二街49號","121.333343333333","24.958525","6500800","鶯歌區"
"239002","359-BY","2018/04/06 17:19:25","新北市鶯歌區國慶街82號","121.35023","24.9545583333333","6500800","鶯歌區"
"239004","193-VK","2018/04/06 17:19:31","新北市鶯歌區文化路324巷1-35號","121.352318333333","24.9457333333333","6500800","鶯歌區"
"242009","281-VK","2018/04/06 17:19:15","新北市新莊區新泰路480號","121.442653333333","25.0456216666667","6500500","新莊區"
"242032","280-VK","2018/04/06 17:19:30","新北市新莊區三和路12-21號","121.442381666667","25.037875","6500500","新莊區"
