"lineid","car","time","location","longitude","latitude","cityid","cityname"
"249005","172-UM","2018/04/06 17:29:30","新北市八里區荖阡里36-1號","121.408186666667","25.12588","6502300","八里區"
"249001","173-UM","2018/04/06 17:29:28","新北市八里區龍米路三段49-1號","121.424113333333","25.158875","6502300","八里區"
"249004","303-UY","2018/04/06 17:29:25","新北市八里區賢二街39號","121.418966666667","25.1577933333333","6502300","八里區"
"249002","305-UY","2018/04/06 17:29:24","新北市八里區龍米路二段21號","121.448655","25.13961","6502300","八里區"
"249003","593-UM","2018/04/06 17:29:23","新北市八里區中山路二段398號","121.400575","25.147795","6502300","八里區"
"244013","069-UM","2018/04/06 17:29:23","新北市林口區中正路559號","121.381073333333","25.0768733333333","6501700","林口區"
"244007","080-UY","2018/04/06 17:29:27","新北市林口區中湖46號","121.38309","25.09519","6501700","林口區"
"244025","742-UY","2018/04/06 17:29:25","新北市林口區忠孝一路99號","121.362381666667","25.07353","6501700","林口區"
"244009","410-SL","2018/04/06 17:29:35","新北市林口區中北一街49巷2號","121.385866666667","25.08822","6501700","林口區"
"244023","483-VK","2018/04/06 17:29:19","新北市林口區東明一街15巷15號","121.393136666667","25.07204","6501700","林口區"
"244019","657-BX","2018/04/06 17:29:28","新北市林口區公園路197號","121.372243333333","25.07247","6501700","林口區"
"244021","838-TS","2018/04/06 17:29:18","新北市林口區粉寮路一段105號","121.398168333333","25.0805166666667","6501700","林口區"
"241011","013-R5","2018/04/06 17:29:29","新北市三重區河邊北街124巷17號","121.503215","25.0713883333333","6500200","三重區"
"241008","059-VK","2018/04/06 17:29:26","新北市三重區車路頭街135-1號","121.484248333333","25.0760266666667","6500200","三重區"
"241015","062-VK","2018/04/06 17:29:26","新北市三重區長元街65巷16弄15號","121.503528333333","25.0661983333333","6500200","三重區"
"241017","063-VK","2018/04/06 17:29:25","新北市三重區重新路三段47巷5弄1號","121.492876666667","25.0619216666667","6500200","三重區"
"241024","065-VK","2018/04/06 17:29:33","新北市三重區大勇街20號","121.482801666667","25.0715416666667","6500200","三重區"
"241026","066-VK","2018/04/06 17:29:16","新北市三重區文化南路42號","121.50038","25.0602733333333","6500200","三重區"
"241002","090-VK","2018/04/06 17:29:15","新北市三重區仁義街307號","121.495518333333","25.0838916666667","6500200","三重區"
"241003","091-VK","2018/04/06 17:29:26","新北市三重區仁義街317號","121.49554","25.0841433333333","6500200","三重區"
"241005","262-UM","2018/04/06 17:29:16","新北市三重區碧華街145號","121.486518333333","25.0820216666667","6500200","三重區"
"241016","265-UM","2018/04/06 17:29:27","新北市三重區信義西街41號","121.495365","25.0640283333333","6500200","三重區"
"241022","267-UM","2018/04/06 17:29:25","新北市三重區新北大道一段7號","121.489598333333","25.06127","6500200","三重區"
"241018","268-UM","2018/04/06 17:29:28","新北市三重區民生東街2號","121.492508333333","25.0682","6500200","三重區"
"241032","269-UM","2018/04/06 17:29:20","新北市三重區名源街59號","121.482055","25.05929","6500200","三重區"
"241025","271-UM","2018/04/06 17:29:17","新北市三重區中正北路450號","121.473398333333","25.07153","6500200","三重區"
"241007","398-BY","2018/04/06 17:29:19","新北市三重區三和路四段145巷110號","121.487175","25.0791433333333","6500200","三重區"
"241020","478-VK","2018/04/06 17:29:22","新北市三重區忠孝路二段34號","121.485841666667","25.0710383333333","6500200","三重區"
"241030","480-VK","2018/04/06 17:29:21","新北市三重區環河南路220-8號","121.493351666667","25.0527733333333","6500200","三重區"
"241014","543-UM","2018/04/06 17:29:25","新北市三重區長壽街65號","121.501705","25.0685533333333","6500200","三重區"
"241023","545-UM","2018/04/06 17:29:34","新北市三重區三民街146巷9號","121.481365","25.0645","6500200","三重區"
"241019","KEA-2593","2018/04/06 17:29:24","新北市三重區自強路二段40巷13號","121.488685","25.069325","6500200","三重區"
"241012","941-UM","2018/04/06 17:29:35","新北市三重區河邊北街276號","121.501403333333","25.0766733333333","6500200","三重區"
"241033","AAC-255","2018/04/06 17:29:22","新北市三重區興德路133號","121.470145","25.052895","6500200","三重區"
"247024","893-R6","2018/04/06 17:29:14","新北市蘆洲區長興路270號","121.46044","25.0886733333333","6501400","蘆洲區"
"247014","546-UM","2018/04/06 17:29:15","新北市蘆洲區三民路33號","121.475405","25.08301","6501400","蘆洲區"
"247022","500-BY","2018/04/06 17:29:24","新北市蘆洲區三民路299-1號","121.465906666667","25.0907933333333","6501400","蘆洲區"
"247010","341-TH","2018/04/06 17:29:28","新北市蘆洲區信義路169號","121.47983","25.08209","6501400","蘆洲區"
"247012","339-TH","2018/04/06 17:29:19","新北市蘆洲區民族路36號","121.476525","25.0843033333333","6501400","蘆洲區"
"247004","337-TH","2018/04/06 17:29:33","新北市蘆洲區長安街233巷18號","121.4587","25.0826166666667","6501400","蘆洲區"
"247006","336-TH","2018/04/06 17:29:18","新北市蘆洲區長安街22巷42號","121.465118333333","25.0803166666667","6501400","蘆洲區"
"247018","057-VK","2018/04/06 17:29:23","新北市蘆洲區民義街33號","121.471993333333","25.0891683333333","6501400","蘆洲區"
"247008","056-VK","2018/04/06 17:29:24","新北市蘆洲區成功路9號","121.47364","25.0783166666667","6501400","蘆洲區"
"247016","007-UY","2018/04/06 17:29:32","新北市蘆洲區光華路22巷14號","121.469003333333","25.0840066666667","6501400","蘆洲區"
"247002","002-UY","2018/04/06 17:29:28","新北市蘆洲區永樂街38巷57弄29號","121.457626666667","25.0904583333333","6501400","蘆洲區"
"247020","001-UY","2018/04/06 17:29:30","新北市蘆洲區水湳街172-1號","121.470311666667","25.093825","6501400","蘆洲區"
"228003","097-TW","2018/04/06 17:29:26","新北市貢寮區仁理村仁和路2-1號","121.923136666667","25.048655","6502600","貢寮區"
"228002","663-BX","2018/04/06 17:29:27","新北市貢寮區福隆里福隆街14號","121.944866666667","25.0163366666667","6502600","貢寮區"
"228001","670-TC","2018/04/06 17:29:27","新北市貢寮區仁理村仁愛路39號","121.924938333333","25.0533766666667","6502600","貢寮區"
"224010","AGQ-8101","2018/04/06 17:29:25","新北市瑞芳區逢甲路41號","121.808358333333","25.10897","6501200","瑞芳區"
"224006","676-BX","2018/04/06 17:29:22","新北市瑞芳區靜安路四段113號","121.793136666667","25.1098433333333","6501200","瑞芳區"
"224008","285-BY","2018/04/06 17:29:30","新北市瑞芳區九芎橋路55號","121.833408333333","25.0946866666667","6501200","瑞芳區"
"224007","275-VK","2018/04/06 17:29:13","新北市瑞芳區大寮路356-1號","121.78498","25.1033283333333","6501200","瑞芳區"
"224009","273-VK","2018/04/06 17:29:30","新北市瑞芳區山尖路174號","121.847758333333","25.11173","6501200","瑞芳區"
"224005","271-BY","2018/04/06 17:29:33","新北市瑞芳區明里路122號","121.864246666667","25.12238","6501200","瑞芳區"
"227003","642-TC","2018/04/06 17:29:17","新北市雙溪區平林里梅竹蹊65號","121.847585","25.0313416666667","6502500","雙溪區"
"251004","009-UM","2018/04/06 17:29:25","新北市淡水區中正東路二段88巷15號","121.459085","25.1505816666667","6501000","淡水區"
"251008","181-VK","2018/04/06 17:29:22","新北市淡水區大同路104號","121.46198","25.1398266666667","6501000","淡水區"
"251010","413-VK","2018/04/06 17:29:13","新北市淡水區中正路二段211號","121.426211666667","25.1891533333333","6501000","淡水區"
"251012","441-VK","2018/04/06 17:29:25","新北市淡水區北新路111號","121.448015","25.17844","6501000","淡水區"
"251005","443-VK","2018/04/06 17:29:12","新北市淡水區鄧公路31巷1號","121.451375","25.170855","6501000","淡水區"
"251006","561-UM","2018/04/06 17:29:23","新北市淡水區大仁街69號","121.443","25.1762883333333","6501000","淡水區"
"251009","575-R6","2018/04/06 17:29:23","新北市淡水區重建街1巷11號","121.439735","25.173945","6501000","淡水區"
"251007","577-R6","2018/04/06 17:29:22","新北市淡水區民生路60號","121.46206","25.137945","6501000","淡水區"
"251011","650-BX","2018/04/06 17:29:17","新北市淡水區坪頂路712號","121.482516666667","25.1585333333333","6501000","淡水區"
"251002","672-BX","2018/04/06 17:29:12","新北市淡水區中正路一段21號","121.426315","25.1762783333333","6501000","淡水區"
"251003","673-BX","2018/04/06 17:29:22","新北市淡水區文化路61號","121.438315","25.172895","6501000","淡水區"
"207003","550-UM","2018/04/06 17:29:19","新北市萬里區龜吼里日光路6巷16號","121.683481666667","25.18656","6502800","萬里區"
"207003","225-TW","2018/04/06 17:29:18","新北市萬里區萬里里景美路18號","121.686428333333","25.1732483333333","6502800","萬里區"
"252002","178-VK","2018/04/06 17:29:31","新北市三芝區忠孝街1-14號","121.505566666667","25.2539916666667","6502100","三芝區"
"252001","292-VK","2018/04/06 17:29:13","新北市三芝區長安街119號","121.498051666667","25.2597033333333","6502100","三芝區"
"242034","AAC-296","2018/04/06 17:29:33","新北市新莊區新莊路364號","121.449545","25.0334816666667","6500500","新莊區"
"242058","986-R7","2018/04/06 17:29:32","新北市新莊區中正路510-1號","121.434615","25.0327033333333","6500500","新莊區"
"242054","751-BX","2018/04/06 17:29:14","新北市新莊區瓊林南路305巷13號","121.435095","25.0052783333333","6500500","新莊區"
"242029","705-TV","2018/04/06 17:29:20","新北市新莊區復興路二段176號","121.458771666667","25.0442883333333","6500500","新莊區"
"242027","615-BX","2018/04/06 17:29:18","新北市新莊區思源路32號","121.460301666667","25.0410816666667","6500500","新莊區"
"242025","613-BX","2018/04/06 17:29:27","新北市新莊區復興路一段222號","121.453085","25.04389","6500500","新莊區"
"242041","566-BX","2018/04/06 17:29:33","新北市新莊區新樹路113巷19號","121.439191666667","25.02641","6500500","新莊區"
"242046","497-BY","2018/04/06 17:29:31","新北市新莊區新樹路39號","121.440273333333","25.0322166666667","6500500","新莊區"
"242005","442-UM","2018/04/06 17:29:20","新北市新莊區中港路303號","121.452896666667","25.044525","6500500","新莊區"
"242050","441-UM","2018/04/06 17:29:17","新北市新莊區新樹路453號","121.432645","25.013465","6500500","新莊區"
"242056","440-UM","2018/04/06 17:29:24","新北市新莊區新莊路453號","121.449633333333","25.0333033333333","6500500","新莊區"
"242037","415-TV","2018/04/06 17:29:26","新北市新莊區建國二路1號","121.434951666667","25.0236466666667","6500500","新莊區"
"242007","413-TV","2018/04/06 17:29:16","新北市新莊區自強街52號","121.45474","25.0467133333333","6500500","新莊區"
"242044","400-BY","2018/04/06 17:29:23","新北市新莊區裕民街1號","121.419508333333","25.0259983333333","6500500","新莊區"
"242023","362-BY","2018/04/06 17:29:27","新北市新莊區公園路148號","121.453063333333","25.0400916666667","6500500","新莊區"
"242060","353-BY","2018/04/06 17:29:33","新北市新莊區瓊林南路2號","121.437721666667","25.020215","6500500","新莊區"
"242039","133-UY","2018/04/06 17:29:33","新北市新莊區民安路280號","121.427793333333","25.0214716666667","6500500","新莊區"
"242048","172-VK","2018/04/06 17:29:32","新北市新莊區龍安路256號","121.421266666667","25.01955","6500500","新莊區"
"242011","173-VK","2018/04/06 17:29:24","新北市新莊區中華路二段83號","121.452535","25.048","6500500","新莊區"
"242017","175-VK","2018/04/06 17:29:28","新北市新莊區德豐街4號","121.451633333333","25.04395","6500500","新莊區"
"242015","346-TH","2018/04/06 17:29:20","新北市新莊區新泰路201號","121.447093333333","25.038115","6500500","新莊區"
"242021","348-TH","2018/04/06 17:29:14","新北市新莊區中正路211號","121.452388333333","25.0361333333333","6500500","新莊區"
"242002","349-TH","2018/04/06 17:29:22","新北市新莊區新莊路211號","121.45528","25.0354433333333","6500500","新莊區"
"242019","350-TH","2018/04/06 17:29:26","新北市新莊區中港路72號","121.455486666667","25.038915","6500500","新莊區"
"242013","351-TH","2018/04/06 17:29:16","新北市新莊區中誠街18號","121.451906666667","25.0482966666667","6500500","新莊區"
"238015","755-BX","2018/04/06 17:29:23","新北市樹林區大安路269號","121.418958333333","24.9936933333333","6500700","樹林區"
"238019","599-UM","2018/04/06 17:29:30","新北市樹林區太平路25-1號","121.419166666667","24.98337","6500700","樹林區"
"238018","571-TV","2018/04/06 17:29:33","新北市樹林區鎮前街97巷8號","121.424683333333","24.9896033333333","6500700","樹林區"
"238024","5061-A6","2018/04/06 17:29:19","新北市樹林區水源街213號","121.423945","24.9871716666667","6500700","樹林區"
"238022","KEA-2213","2018/04/06 17:29:28","新北市樹林區仁愛街34號","121.42289","24.982355","6500700","樹林區"
"238021","KEA-2539","2018/04/06 17:29:32","新北市樹林區西圳街一段203巷23-2號","121.394585","24.9582916666667","6500700","樹林區"
"238025","303-VK","2018/04/06 17:29:16","新北市樹林區保安街一段193號","121.421133333333","24.9959","6500700","樹林區"
"238017","283-BY","2018/04/06 17:29:26","新北市樹林區中正路248巷28弄2號","121.418335","25.00805","6500700","樹林區"
"238014","282-BY","2018/04/06 17:29:18","新北市樹林區保安街一段247號","121.419795","24.9966783333333","6500700","樹林區"
"238026","172-UY","2018/04/06 17:29:36","新北市樹林區新興街19巷26號","121.401408333333","24.9732333333333","6500700","樹林區"
"238016","169-UY","2018/04/06 17:29:25","新北市樹林區長壽街28巷4弄10號","121.42348","24.9943133333333","6500700","樹林區"
"239007","AAC-297","2018/04/06 17:29:31","新北市鶯歌區中山路14號","121.352801666667","24.9570733333333","6500800","鶯歌區"
"239006","891-R6","2018/04/06 17:29:33","新北市鶯歌區鶯桃路466號","121.332616666667","24.9656483333333","6500800","鶯歌區"
"239008","527-UM","2018/04/06 17:29:21","新北市鶯歌區宏德司法新村143號","121.333945","24.9786183333333","6500800","鶯歌區"
"239005","526-UM","2018/04/06 17:29:28","新北市鶯歌區福隆一街46號","121.324971666667","24.9714016666667","6500800","鶯歌區"
"239001","417-VK","2018/04/06 17:29:27","新北市鶯歌區高職西街14號","121.338188333333","24.9423733333333","6500800","鶯歌區"
"239003","360-BY","2018/04/06 17:29:32","新北市鶯歌區德昌街5-1號","121.3337","24.9605583333333","6500800","鶯歌區"
"239002","359-BY","2018/04/06 17:29:25","新北市鶯歌區國慶街69號","121.34992","24.95513","6500800","鶯歌區"
"239004","193-VK","2018/04/06 17:29:31","新北市鶯歌區三鶯路18號","121.356368333333","24.94135","6500800","鶯歌區"
"221008","489-VK","2018/04/06 17:29:26","新北市汐止區康寧街901號","121.651395","25.0751133333333","6501100","汐止區"
"221033","647-BX","2018/04/06 17:29:18","新北市汐止區新江北路30巷15號","121.652623333333","25.0683533333333","6501100","汐止區"
"242009","281-VK","2018/04/06 17:29:15","新北市新莊區中原路238號","121.452768333333","25.054555","6500500","新莊區"
"242032","280-VK","2018/04/06 17:29:29","新北市新莊區新泰路401巷29-1號","121.442485","25.0439666666667","6500500","新莊區"
