"lineid","car","time","location","longitude","latitude","cityid","cityname"
"234013","KEA-2591","2018/04/06 17:39:31","新北市永和區福和路1號","121.52629","25.0094466666667","6500400","永和區"
"234026","9371-KE","2018/04/06 17:39:35","新北市永和區中正路736號","121.515336666667","25.01014","6500400","永和區"
"249005","172-UM","2018/04/06 17:39:30","新北市八里區荖阡坑路34號","121.402726666667","25.1297683333333","6502300","八里區"
"249001","173-UM","2018/04/06 17:39:28","新北市八里區龍米路二段157-1號","121.439945","25.1535933333333","6502300","八里區"
"249004","303-UY","2018/04/06 17:39:25","新北市八里區中華路一段81巷24號","121.419591666667","25.1525516666667","6502300","八里區"
"249002","305-UY","2018/04/06 17:39:24","新北市八里區頂寮二街113-13號","121.448401666667","25.1264833333333","6502300","八里區"
"249003","593-UM","2018/04/06 17:39:32","新北市八里區中山路二段135號","121.4053","25.1515166666667","6502300","八里區"
"244013","069-UM","2018/04/06 17:39:23","新北市林口區中正路557號","121.3811","25.0768533333333","6501700","林口區"
"244007","080-UY","2018/04/06 17:39:24","新北市林口區林口路215號","121.387246666667","25.083105","6501700","林口區"
"244025","742-UY","2018/04/06 17:39:30","新北市林口區南勢街19號","121.36505","25.0738333333333","6501700","林口區"
"244009","410-SL","2018/04/06 17:39:19","新北市林口區中北三街293號","121.382545","25.0831733333333","6501700","林口區"
"244023","483-VK","2018/04/06 17:39:19","新北市林口區興林路152巷13號","121.387796666667","25.0715566666667","6501700","林口區"
"244019","657-BX","2018/04/06 17:39:28","新北市林口區文化一路一段89-3號","121.371528333333","25.070765","6501700","林口區"
"244021","838-TS","2018/04/06 17:39:18","新北市林口區仁愛路一段26號","121.39737","25.0754266666667","6501700","林口區"
"231046","188-VK","2018/04/06 17:39:13","新北市新店區直潭路109號","121.53178","24.93672","6500600","新店區"
"241017","063-VK","2018/04/06 17:39:25","新北市三重區大同北路5號","121.495475","25.06221","6500200","三重區"
"241024","065-VK","2018/04/06 17:39:33","新北市三重區車路頭街62巷33號","121.483378333333","25.072465","6500200","三重區"
"241005","262-UM","2018/04/06 17:39:16","新北市三重區集賢路87-1號","121.493648333333","25.0869883333333","6500200","三重區"
"241016","265-UM","2018/04/06 17:39:27","新北市三重區重新路二段21號","121.497986666667","25.0624433333333","6500200","三重區"
"241018","268-UM","2018/04/06 17:39:28","新北市三重區新北大道一段7號","121.489725","25.06147","6500200","三重區"
"241007","398-BY","2018/04/06 17:39:19","新北市三重區自強路三段76巷32號","121.484688333333","25.0739016666667","6500200","三重區"
"241030","480-VK","2018/04/06 17:39:21","新北市三重區中正南路252巷5號","121.4934","25.052415","6500200","三重區"
"241014","543-UM","2018/04/06 17:39:25","新北市三重區龍濱路183號","121.502138333333","25.0705966666667","6500200","三重區"
"241023","545-UM","2018/04/06 17:39:34","新北市三重區中華路117號","121.483688333333","25.0636066666667","6500200","三重區"
"241019","KEA-2593","2018/04/06 17:39:18","新北市三重區六張街239號","121.487948333333","25.0685033333333","6500200","三重區"
"241033","AAC-255","2018/04/06 17:39:22","新北市三重區光復路一段60號","121.471981666667","25.04877","6500200","三重區"
"247024","893-R6","2018/04/06 17:39:34","新北市蘆洲區光榮路60號","121.461926666667","25.0883866666667","6501400","蘆洲區"
"247014","546-UM","2018/04/06 17:39:15","新北市蘆洲區中正路15號","121.47138","25.0819566666667","6501400","蘆洲區"
"247022","500-BY","2018/04/06 17:39:24","新北市蘆洲區三民路279號","121.467321666667","25.089755","6501400","蘆洲區"
"247010","341-TH","2018/04/06 17:39:28","新北市蘆洲區中山一路124號","121.4766","25.081635","6501400","蘆洲區"
"247012","339-TH","2018/04/06 17:39:19","新北市蘆洲區民權路8-1號","121.476661666667","25.08597","6501400","蘆洲區"
"247004","337-TH","2018/04/06 17:39:21","新北市蘆洲區長安街170號","121.459201666667","25.0833516666667","6501400","蘆洲區"
"247006","336-TH","2018/04/06 17:39:18","新北市蘆洲區永安南路二段94號","121.463576666667","25.0779866666667","6501400","蘆洲區"
"247018","057-VK","2018/04/06 17:39:23","新北市蘆洲區民權路61巷6號","121.473393333333","25.08795","6501400","蘆洲區"
"247008","056-VK","2018/04/06 17:39:24","新北市蘆洲區和平路19巷13號","121.472385","25.078525","6501400","蘆洲區"
"247016","007-UY","2018/04/06 17:39:32","新北市蘆洲區光華路46巷2號","121.46871","25.083235","6501400","蘆洲區"
"247002","002-UY","2018/04/06 17:39:28","新北市蘆洲區永平街41號","121.458191666667","25.0911066666667","6501400","蘆洲區"
"247020","001-UY","2018/04/06 17:39:19","新北市蘆洲區民族路355號","121.47185","25.0916833333333","6501400","蘆洲區"
"228003","097-TW","2018/04/06 17:39:26","新北市貢寮區仁理村仁和路37號","121.923971666667","25.0539183333333","6502600","貢寮區"
"228002","663-BX","2018/04/06 17:39:26","新北市貢寮區福隆里龜壽谷街13號","121.956818333333","25.0057033333333","6502600","貢寮區"
"228001","670-TC","2018/04/06 17:39:27","新北市貢寮區仁理村仁愛路95-1號","121.927645","25.0554883333333","6502600","貢寮區"
"224010","AGQ-8101","2018/04/06 17:39:25","新北市瑞芳區岳王路68號","121.80942","25.1110716666667","6501200","瑞芳區"
"224006","676-BX","2018/04/06 17:39:22","新北市瑞芳區傑魚坑路45號","121.793616666667","25.1105016666667","6501200","瑞芳區"
"224008","285-BY","2018/04/06 17:39:17","新北市瑞芳區明燈路一段15號","121.824013333333","25.1070866666667","6501200","瑞芳區"
"224007","275-VK","2018/04/06 17:39:13","新北市瑞芳區大寮路356-1號","121.785013333333","25.1033366666667","6501200","瑞芳區"
"224009","273-VK","2018/04/06 17:39:23","新北市瑞芳區山尖路215-1號","121.848885","25.112465","6501200","瑞芳區"
"224005","271-BY","2018/04/06 17:39:13","新北市瑞芳區籠山路20號","121.832123333333","25.1235366666667","6501200","瑞芳區"
"227003","642-TC","2018/04/06 17:39:17","新北市雙溪區三貂里定福路1-1號","121.849695","25.062465","6502500","雙溪區"
"208002","KEA-2872","2018/04/06 17:39:18","新北市金山區磺港里磺港路269號","121.643595","25.2263666666667","6502700","金山區"
"251004","009-UM","2018/04/06 17:39:25","新北市淡水區中正東路二段88巷37號","121.459233333333","25.14567","6501000","淡水區"
"251008","181-VK","2018/04/06 17:39:21","新北市淡水區八勢路50巷74號","121.462098333333","25.1492016666667","6501000","淡水區"
"251010","413-VK","2018/04/06 17:39:13","新北市淡水區淡海路280巷33弄34-2號","121.418853333333","25.1887316666667","6501000","淡水區"
"251012","441-VK","2018/04/06 17:39:25","新北市淡水區北新路200巷8號","121.451718333333","25.17971","6501000","淡水區"
"251005","443-VK","2018/04/06 17:39:32","新北市淡水區鄧公路33巷7號","121.451738333333","25.1709883333333","6501000","淡水區"
"251006","561-UM","2018/04/06 17:39:23","新北市淡水區新生街51巷51號","121.441298333333","25.17646","6501000","淡水區"
"251009","575-R6","2018/04/06 17:39:23","新北市淡水區中正路38-1號","121.443758333333","25.169255","6501000","淡水區"
"251007","577-R6","2018/04/06 17:39:22","新北市淡水區民生路52巷27號","121.462965","25.137755","6501000","淡水區"
"251011","650-BX","2018/04/06 17:39:17","新北市淡水區小坪頂13-3號","121.486571666667","25.15619","6501000","淡水區"
"251002","672-BX","2018/04/06 17:39:33","新北市淡水區中山路143-5號","121.440506666667","25.172045","6501000","淡水區"
"251003","673-BX","2018/04/06 17:39:22","新北市淡水區中山北路一段49號","121.441673333333","25.17547","6501000","淡水區"
"207003","550-UM","2018/04/06 17:39:19","新北市萬里區龜吼里漁澳路64-3號","121.687861666667","25.1959983333333","6502800","萬里區"
"207003","225-TW","2018/04/06 17:39:18","新北市萬里區中幅里中福路18號","121.683631666667","25.164445","6502800","萬里區"
"252002","178-VK","2018/04/06 17:39:31","新北市三芝區中正路二段9號","121.504556666667","25.2556016666667","6502100","三芝區"
"252001","292-VK","2018/04/06 17:39:13","新北市三芝區淡金路一段83號","121.502076666667","25.25883","6502100","三芝區"
"237013","252-BX","2018/04/06 17:39:15","新北市三峽區愛國路33-9號","121.374966666667","24.9328966666667","6500900","三峽區"
"237008","302-VK","2018/04/06 17:39:27","新北市三峽區中山路459巷163-3號","121.348881666667","24.933105","6500900","三峽區"
"236079","166-UM","2018/04/06 17:39:33","新北市土城區城林路6巷80號","121.438508333333","24.97964","6501300","土城區"
"236030","253-BX","2018/04/06 17:39:30","新北市土城區城林路6巷80號","121.438425","24.9796483333333","6501300","土城區"
"236014","270-VK","2018/04/06 17:39:26","新北市土城區城林路6巷80號","121.438563333333","24.9795866666667","6501300","土城區"
"242034","AAC-296","2018/04/06 17:39:33","新北市新莊區新莊路621號","121.445666666667","25.0328916666667","6500500","新莊區"
"242058","986-R7","2018/04/06 17:39:33","新北市新莊區中正路632號","121.42201","25.0287883333333","6500500","新莊區"
"242054","751-BX","2018/04/06 17:39:34","新北市新莊區新樹路699巷10號","121.432478333333","25.002","6500500","新莊區"
"242029","705-TV","2018/04/06 17:39:20","新北市新莊區復興路一段161號","121.450891666667","25.0433783333333","6500500","新莊區"
"242027","615-BX","2018/04/06 17:39:18","新北市新莊區福壽街122號","121.457846666667","25.0511083333333","6500500","新莊區"
"242025","613-BX","2018/04/06 17:39:29","新北市新莊區思源路120號","121.460135","25.0470116666667","6500500","新莊區"
"242041","566-BX","2018/04/06 17:39:13","新北市新莊區中正路514巷17號","121.433018333333","25.0329716666667","6500500","新莊區"
"242046","497-BY","2018/04/06 17:39:29","新北市新莊區建國一路7號","121.43372","25.03186","6500500","新莊區"
"242005","442-UM","2018/04/06 17:39:28","新北市新莊區自立街208號","121.45693","25.0455416666667","6500500","新莊區"
"242050","441-UM","2018/04/06 17:39:17","新北市新莊區西盛街189號","121.42894","25.017195","6500500","新莊區"
"242056","440-UM","2018/04/06 17:39:16","新北市新莊區新莊路493巷4弄23號","121.448993333333","25.0321216666667","6500500","新莊區"
"242037","415-TV","2018/04/06 17:39:26","新北市新莊區後港一路136號","121.429628333333","25.0273833333333","6500500","新莊區"
"242007","413-TV","2018/04/06 17:39:16","新北市新莊區福樂街118巷17號","121.457473333333","25.0483666666667","6500500","新莊區"
"242044","400-BY","2018/04/06 17:39:30","新北市新莊區中正路871巷9弄19號","121.419073333333","25.0271083333333","6500500","新莊區"
"242023","362-BY","2018/04/06 17:39:24","新北市新莊區民樂街48號","121.458006666667","25.0415016666667","6500500","新莊區"
"242060","353-BY","2018/04/06 17:39:33","新北市新莊區瓊林南路263號","121.434576666667","25.00761","6500500","新莊區"
"242039","133-UY","2018/04/06 17:39:13","新北市新莊區民安路336號","121.428988333333","25.0220983333333","6500500","新莊區"
"242048","172-VK","2018/04/06 17:39:32","新北市新莊區萬安街147號","121.420421666667","25.021725","6500500","新莊區"
"242011","173-VK","2018/04/06 17:39:24","新北市新莊區中港路570號","121.451475","25.0532416666667","6500500","新莊區"
"242017","175-VK","2018/04/06 17:39:22","新北市新莊區復興路一段149巷22弄2號","121.450255","25.0440783333333","6500500","新莊區"
"242015","346-TH","2018/04/06 17:39:20","新北市新莊區新泰路343號","121.444793333333","25.04201","6500500","新莊區"
"242021","348-TH","2018/04/06 17:39:19","新北市新莊區中華路一段122號","121.452545","25.04071","6500500","新莊區"
"242002","349-TH","2018/04/06 17:39:22","新北市新莊區新莊路292號","121.451256666667","25.03379","6500500","新莊區"
"242019","350-TH","2018/04/06 17:39:26","新北市新莊區中港路259號","121.453863333333","25.0432483333333","6500500","新莊區"
"242013","351-TH","2018/04/06 17:39:16","新北市新莊區中誠街120號","121.449311666667","25.0476116666667","6500500","新莊區"
"238015","755-BX","2018/04/06 17:39:23","新北市樹林區啟智街34號","121.42069","24.9932366666667","6500700","樹林區"
"238023","601-UM","2018/04/06 17:39:23","新北市樹林區三福街114號","121.406401666667","25.0163733333333","6500700","樹林區"
"238019","599-UM","2018/04/06 17:39:28","新北市樹林區太平路127巷12號","121.419808333333","24.9806066666667","6500700","樹林區"
"238018","571-TV","2018/04/06 17:39:33","新北市樹林區鎮前街8號","121.426373333333","24.9934133333333","6500700","樹林區"
"238024","5061-A6","2018/04/06 17:39:19","新北市樹林區八德街278號","121.410951666667","24.9701366666667","6500700","樹林區"
"238022","KEA-2213","2018/04/06 17:39:28","新北市樹林區中華路187巷7號","121.42064","24.9812333333333","6500700","樹林區"
"238021","KEA-2539","2018/04/06 17:39:21","新北市樹林區柑園街一段253巷37號","121.397003333333","24.953365","6500700","樹林區"
"238025","303-VK","2018/04/06 17:39:28","新北市樹林區保安街二段217號","121.413283333333","25.004215","6500700","樹林區"
"238017","283-BY","2018/04/06 17:39:34","新北市樹林區中正路464號","121.412821666667","25.0126183333333","6500700","樹林區"
"238014","282-BY","2018/04/06 17:39:18","新北市樹林區保安街一段336巷22-1號","121.41755","24.99932","6500700","樹林區"
"238026","172-UY","2018/04/06 17:30:36","新北市樹林區新興街19巷34弄29號","121.402493333333","24.9724733333333","6500700","樹林區"
"238016","169-UY","2018/04/06 17:39:25","新北市樹林區育英街129號","121.419715","24.9892516666667","6500700","樹林區"
"239007","AAC-297","2018/04/06 17:39:31","新北市鶯歌區鶯桃路182巷25號","121.33911","24.9575216666667","6500800","鶯歌區"
"239006","891-R6","2018/04/06 17:39:33","新北市鶯歌區永和街115巷26號","121.333411666667","24.9691283333333","6500800","鶯歌區"
"239008","527-UM","2018/04/06 17:39:21","新北市鶯歌區大湖路700巷22弄3號","121.33374","24.97718","6500800","鶯歌區"
"239005","526-UM","2018/04/06 17:39:29","新北市鶯歌區鳳吉四街9號","121.326316666667","24.9725333333333","6500800","鶯歌區"
"239001","417-VK","2018/04/06 17:39:27","新北市鶯歌區中正三路300號","121.32843","24.9356966666667","6500800","鶯歌區"
"239003","360-BY","2018/04/06 17:39:32","新北市鶯歌區鶯桃路206巷30號","121.337746666667","24.9597366666667","6500800","鶯歌區"
"239002","359-BY","2018/04/06 17:39:25","新北市鶯歌區育德街1號","121.34508","24.9550733333333","6500800","鶯歌區"
"239004","193-VK","2018/04/06 17:39:31","新北市鶯歌區三鶯路5號","121.356801666667","24.9406566666667","6500800","鶯歌區"
"221008","489-VK","2018/04/06 17:39:26","新北市汐止區康寧街901號","121.65138","25.0750833333333","6501100","汐止區"
"221015","131-UY","2018/04/06 17:39:28","新北市汐止區汐萬路一段256巷1號","121.65183","25.0748966666667","6501100","汐止區"
"221010","269-BY","2018/04/06 17:39:30","新北市汐止區汐萬路一段418巷46號","121.651176666667","25.079025","6501100","汐止區"
"221023","279-VK","2018/04/06 17:39:14","新北市汐止區康寧街901號","121.65169","25.0749666666667","6501100","汐止區"
"221032","280-BY","2018/04/06 17:39:29","新北市汐止區汐萬路一段333巷23號","121.648205","25.0762283333333","6501100","汐止區"
"221033","647-BX","2018/04/06 17:38:58","新北市汐止區林森街132巷6弄6號","121.624558333333","25.0405883333333","6501100","汐止區"
"221018","753-BX","2018/04/06 17:39:20","新北市汐止區汐萬路一段312號","121.650575","25.0754","6501100","汐止區"
"242009","281-VK","2018/04/06 17:39:15","新北市新莊區昌明街14巷12號","121.457418333333","25.0532983333333","6500500","新莊區"
"242032","280-VK","2018/04/06 17:39:30","新北市新莊區新泰路380號","121.444086666667","25.04323","6500500","新莊區"
