"lineid","car","time","location","longitude","latitude","cityid","cityname"
"234046","148-BY","2018/04/06 18:39:32","新北市永和區永元路66號","121.522538333333","25.0014383333333","6500400","永和區"
"234007","207-UY","2018/04/06 18:39:37","新北市永和區文化路170號","121.511758333333","25.01554","6500400","永和區"
"234081","298-R6","2018/04/06 18:39:31","新北市永和區林森路81號","121.523861666667","25.00395","6500400","永和區"
"234064","337-UY","2018/04/06 18:39:31","新北市永和區福和路1號","121.526508333333","25.0100433333333","6500400","永和區"
"234086","338-UY","2018/04/06 18:39:26","新北市中和區安和路21號","121.51097","24.9940566666667","6500400","永和區"
"234017","745-BX","2018/04/06 18:39:30","新北市永和區福和路1號","121.526398333333","25.0095916666667","6500400","永和區"
"234030","746-BX","2018/04/06 18:39:16","新北市永和區得和路328號","121.523278333333","24.9995033333333","6500400","永和區"
"234013","KEA-2591","2018/04/06 18:39:31","新北市永和區保福路二段88巷29號","121.511991666667","25.0136966666667","6500400","永和區"
"234061","AAD-866","2018/04/06 18:39:27","新北市永和區福和路8巷1號","121.524935","25.008895","6500400","永和區"
"234042","862-TW","2018/04/06 18:39:30","新北市永和區永貞路267號","121.511865","25.0048083333333","6500400","永和區"
"234050","863-TW","2018/04/06 18:39:33","新北市永和區福和路1號","121.526475","25.0097966666667","6500400","永和區"
"234026","9371-KE","2018/04/06 18:39:15","新北市永和區永貞路403號","121.507706666667","25.0090233333333","6500400","永和區"
"234011","9373-KE","2018/04/06 18:39:26","新北市永和區永和路二段231巷3號","121.51496","25.014035","6500400","永和區"
"249005","172-UM","2018/04/06 18:39:29","新北市八里區中華路三段196號","121.388118333333","25.1255466666667","6502300","八里區"
"249001","173-UM","2018/04/06 18:39:27","新北市八里區龍米路一段388號","121.451431666667","25.1328566666667","6502300","八里區"
"249002","305-UY","2018/04/06 18:39:24","新北市八里區頂寮二街138號","121.449351666667","25.1294583333333","6502300","八里區"
"248014","025-BX","2018/04/06 18:39:32","新北市五股區民義路一段84號","121.436083333333","25.08486","6501500","五股區"
"248016","026-BX","2018/04/06 18:39:32","新北市五股區凌雲路一段149巷7號","121.44888","25.10169","6501500","五股區"
"248008","095-VK","2018/04/06 18:39:34","新北市五股區中興路一段161號","121.464771666667","25.0737633333333","6501500","五股區"
"248018","225-UY","2018/04/06 18:39:18","新北市五股區民義路二段66-3號","121.406046666667","25.1087533333333","6501500","五股區"
"248012","247-BX","2018/04/06 18:39:33","新北市五股區成泰路三段2巷1-20號","121.441213333333","25.086635","6501500","五股區"
"248010","272-BY","2018/04/06 18:39:18","新北市五股區水碓一路92號","121.43176","25.07363","6501500","五股區"
"248004","677-BX","2018/04/06 18:39:23","新北市五股區民義路一段236-6號","121.427471666667","25.0912533333333","6501500","五股區"
"248002","678-BX","2018/04/06 18:39:15","新北市五股區西雲路199號","121.448035","25.096055","6501500","五股區"
"234077","969-R7","2018/04/06 18:39:24","新北市永和區民有街1號","121.515715","24.997435","6500400","永和區"
"244013","069-UM","2018/04/06 18:39:23","新北市林口區中正路514巷31號","121.382186666667","25.0780866666667","6501700","林口區"
"244007","080-UY","2018/04/06 18:39:24","新北市林口區太平嶺30-1號","121.37488","25.1216183333333","6501700","林口區"
"244025","742-UY","2018/04/06 18:39:05","新北市林口區南勢六街248號","121.355983333333","25.0748166666667","6501700","林口區"
"244009","410-SL","2018/04/06 18:39:19","新北市林口區林口路241號","121.386646666667","25.083765","6501700","林口區"
"244023","483-VK","2018/04/06 18:39:19","新北市林口區文化二路二段112號","121.37946","25.081715","6501700","林口區"
"244017","485-VK","2018/04/06 18:39:30","新北市林口區文化二路一段70號","121.365845","25.0691966666667","6501700","林口區"
"244019","657-BX","2018/04/06 18:39:28","新北市林口區忠孝路648號","121.379143333333","25.068535","6501700","林口區"
"244011","701-TV","2018/04/06 18:39:30","新北市林口區新寮1-68號","121.392491666667","25.0765866666667","6501700","林口區"
"243015","380-SR","2018/04/06 18:39:28","新北市泰山區犁頭窠3-1號","121.422085","25.0604433333333","6501600","泰山區"
"243013","539-UM","2018/04/06 18:39:28","新北市泰山區明志路三段206巷3號","121.423263333333","25.0379816666667","6501600","泰山區"
"222003","436-BY","2018/04/06 18:39:33","新北市深坑區翠谷街37巷1號","121.626525","25.00947","6501800","深坑區"
"222002","659-BX","2018/04/06 18:39:12","新北市深坑區雲鄉路28號","121.62149","24.9997383333333","6501800","深坑區"
"231044","001-UM","2018/04/06 18:39:27","新北市新店區北新路一段86號","121.541681666667","24.9677216666667","6500600","新店區"
"231041","002-UM","2018/04/06 18:39:19","新北市新店區安華路28-1號","121.51984","24.96079","6500600","新店區"
"231059","046-UY","2018/04/06 18:39:22","新北市新店區安華路28-1號","121.519571666667","24.9606933333333","6500600","新店區"
"231040","047-UY","2018/04/06 18:39:16","新北市新店區安華路28-1號","121.518991666667","24.9608983333333","6500600","新店區"
"231053","108-UY","2018/04/06 18:39:18","新北市新店區永興路30號","121.543766666667","24.938965","6500600","新店區"
"231050","110-UY","2018/04/06 18:39:32","新北市新店區安華路28-1號","121.519286666667","24.9611666666667","6500600","新店區"
"231048","187-VK","2018/04/06 18:39:25","新北市新店區安康路一段355-3號","121.519743333333","24.9618716666667","6500600","新店區"
"231046","188-VK","2018/04/06 18:39:13","新北市新店區直潭二街1號","121.535535","24.9431883333333","6500600","新店區"
"231054","KEA-2219","2018/04/06 18:39:26","新北市新店區安華路28-1號","121.519853333333","24.9612566666667","6500600","新店區"
"231057","256-BX","2018/04/06 18:39:20","新北市新店區新烏路一段171號","121.545231666667","24.9342566666667","6500600","新店區"
"231051","278-BY","2018/04/06 18:39:25","新北市新店區安華路28-1號","121.519673333333","24.9610733333333","6500600","新店區"
"231058","3713-VJ","2018/04/06 18:39:35","新北市新店區能仁街12-1號","121.540685","24.9555283333333","6500600","新店區"
"231066","4716-K9","2018/04/06 18:39:27","新北市新店區安華路28-1號","121.519146666667","24.9611933333333","6500600","新店區"
"231056","4715-K9","2018/04/06 18:39:27","新北市新店區自立街13號","121.537868333333","24.97919","6500600","新店區"
"231067","4772-VM","2018/04/06 18:39:29","新北市新店區安康路一段76巷8號","121.528653333333","24.9626866666667","6500600","新店區"
"231065","512-UM","2018/04/06 18:39:30","新北市新店區安華路28-1號","121.51918","24.96114","6500600","新店區"
"231049","513-UM","2018/04/06 18:39:30","新北市新店區安華路28-1號","121.51973","24.96128","6500600","新店區"
"231045","617-UM","2018/04/06 18:39:25","新北市新店區安華路28-1號","121.519518333333","24.96085","6500600","新店區"
"231061","619-UM","2018/04/06 18:39:29","新北市新店區安華路28-1號","121.519566666667","24.9608483333333","6500600","新店區"
"231063","641-BX","2018/04/06 18:39:32","新北市新店區安華路1-1號","121.519548333333","24.9603716666667","6500600","新店區"
"231042","645-TV","2018/04/06 18:39:26","新北市新店區安華路28-1號","121.519318333333","24.9606216666667","6500600","新店區"
"231064","719-UM","2018/04/06 18:39:27","新北市新店區安華路28-1號","121.519516666667","24.9612416666667","6500600","新店區"
"231062","720-UM","2018/04/06 18:39:24","新北市新店區安華路28-1號","121.519161666667","24.9612183333333","6500600","新店區"
"231060","897-TW","2018/04/06 18:39:33","新北市新店區安華路28-1號","121.519681666667","24.960635","6500600","新店區"
"231043","899-TW","2018/04/06 18:39:25","新北市新店區安華路28-1號","121.518831666667","24.960875","6500600","新店區"
"231055","AKT-0513","2018/04/06 18:39:33","新北市新店區中華路47巷3號","121.539818333333","24.9675966666667","6500600","新店區"
"235066","003-UY","2018/04/06 18:39:16","新北市中和區水源路26號","121.50442","25.0035066666667","6500300","中和區"
"235064","005-UY","2018/04/06 18:39:17","新北市中和區連城路89巷1號","121.496691666667","25.0000766666667","6500300","中和區"
"235063","006-UY","2018/04/06 18:39:30","新北市中和區連城路319巷11弄12號","121.489708333333","24.99494","6500300","中和區"
"235056","096-UM","2018/04/06 18:39:21","新北市中和區員山路611巷1號","121.477813333333","25.0112883333333","6500300","中和區"
"235065","098-UM","2018/04/06 18:39:22","新北市中和區莊敬路49巷27號","121.501573333333","25.0061833333333","6500300","中和區"
"235040","150-BY","2018/04/06 18:39:35","新北市中和區宜安路49號","121.511908333333","24.996675","6500300","中和區"
"235058","151-BY","2018/04/06 18:39:21","新北市中和區員山路7-3號","121.482768333333","24.985185","6500300","中和區"
"235055","183-VK","2018/04/06 18:39:32","新北市中和區民生街10巷2號","121.470941666667","25.0057333333333","6500300","中和區"
"235038","185-VK","2018/04/06 18:39:28","新北市中和區立人街6號","121.51974","24.9942516666667","6500300","中和區"
"235049","186-VK","2018/04/06 18:39:29","新北市中和區景安路169號","121.505271666667","24.9944983333333","6500300","中和區"
"235067","255-BX","2018/04/06 18:39:26","新北市中和區中正路877巷2號","121.48423","25.00411","6500300","中和區"
"235044","293-VK","2018/04/06 18:39:33","新北市中和區復興路280巷19號","121.502186666667","24.9916233333333","6500300","中和區"
"235072","301-VK","2018/04/06 18:39:19","新北市中和區中山路二段172號","121.501171666667","25.00292","6500300","中和區"
"235043","352-BY","2018/04/06 18:39:32","新北市中和區景平路111巷2號","121.516506666667","24.9918666666667","6500300","中和區"
"235068","377-QA","2018/04/06 18:39:23","新北市中和區中正路140號","121.499196666667","24.9940116666667","6500300","中和區"
"235061","378-QA","2018/04/06 18:39:35","新北市中和區民享街114巷11號","121.4741","24.9992933333333","6500300","中和區"
"235050","4979-A6","2018/04/06 18:39:33","新北市中和區景新街496巷35弄1號","121.51353","24.9856316666667","6500300","中和區"
"235069","4980-A6","2018/04/06 18:39:19","新北市中和區連城路87號","121.496841666667","25.0002933333333","6500300","中和區"
"235042","551-UM","2018/04/06 18:39:25","新北市中和區成功路97巷18弄11號","121.526936666667","24.991335","6500300","中和區"
"235070","558-UM","2018/04/06 18:39:27","新北市中和區南華路1巷3號","121.501963333333","24.9954466666667","6500300","中和區"
"235045","565-BX","2018/04/06 18:39:29","新北市中和區南山路236巷55號","121.504598333333","24.98815","6500300","中和區"
"235054","640-BX","2018/04/06 18:39:24","新北市中和區莒光路70號","121.472275","25.0031083333333","6500300","中和區"
"235047","732-UM","2018/04/06 18:39:27","新北市中和區南山路322號","121.5079","24.9865333333333","6500300","中和區"
"235046","733-UM","2018/04/06 18:39:19","新北市中和區捷運路3號","121.509688333333","24.9893666666667","6500300","中和區"
"235062","800-TS","2018/04/06 18:39:36","新北市中和區景平路703巷1號","121.496283333333","25.0034033333333","6500300","中和區"
"235057","801-TS","2018/04/06 18:39:21","新北市中和區民安街24號","121.480378333333","25.000775","6500300","中和區"
"235041","802-TS","2018/04/06 18:39:20","新北市中和區宜安路148號","121.509443333333","24.9986033333333","6500300","中和區"
"235052","805-TS","2018/04/06 18:39:08","新北市中和區興南路三段94號","121.48912","24.9734633333333","6500300","中和區"
"235048","896-TW","2018/04/06 18:39:27","新北市中和區南山路202號","121.506058333333","24.99046","6500300","中和區"
"235053","900-TW","2018/04/06 18:39:27","新北市中和區莒光路213號","121.46905","24.9946416666667","6500300","中和區"
"235060","911-UM","2018/04/06 18:39:33","新北市中和區中山路三段24號","121.479201666667","25.0060233333333","6500300","中和區"
"235051","157-BY","2018/04/06 18:39:32","新北市中和區華新街143巷106弄8號","121.505963333333","24.9791516666667","6500300","中和區"
"235037","AAC-213","2018/04/06 18:39:30","新北市中和區景德街52號","121.517558333333","24.9914466666667","6500300","中和區"
"235059","AAC-215","2018/04/06 18:39:26","新北市中和區錦和路354巷15號","121.489713333333","24.9915883333333","6500300","中和區"
"220065","072-UY","2018/04/06 18:39:21","新北市板橋區區運路25號","121.465923333333","25.0101666666667","6500100","板橋區"
"220067","075-UY","2018/04/06 18:39:30","新北市板橋區民生路二段120號","121.470323333333","25.0198033333333","6500100","板橋區"
"220069","AAD-861","2018/04/06 18:39:21","新北市板橋區華東街1-10號","121.448343333333","24.995085","6500100","板橋區"
"226004","312-R5","2018/04/06 18:39:33","新北市平溪區石底里石筍尖3號","121.736275","25.02566","6502400","平溪區"
"235039","251-BX","2018/04/06 18:39:23","新北市永和區中正路53號","121.514385","24.9964983333333","6500300","中和區"
"228003","097-TW","2018/04/06 18:39:26","新北市貢寮區和美里龍洞街35-2號","121.916665","25.1117233333333","6502600","貢寮區"
"228002","663-BX","2018/04/06 18:39:32","新北市貢寮區福隆里東興街6-11號","121.950998333333","25.0211133333333","6502600","貢寮區"
"228001","670-TC","2018/04/06 18:39:27","新北市貢寮區仁理村研海街12-1號","121.923758333333","25.0517133333333","6502600","貢寮區"
"224010","AGQ-8101","2018/04/06 18:38:05","新北市瑞芳區汽車路7-3號","121.848126666667","25.1094716666667","6501200","瑞芳區"
"224006","676-BX","2018/04/06 18:39:29","新北市瑞芳區明燈路三段150號","121.804058333333","25.1085983333333","6501200","瑞芳區"
"224002","639-TC","2018/04/06 18:39:29","新北市瑞芳區三爪子坑路33號","121.813416666667","25.1073666666667","6501200","瑞芳區"
"224008","285-BY","2018/04/06 18:39:24","新北市瑞芳區瑞芳街21號","121.806571666667","25.1096133333333","6501200","瑞芳區"
"224007","275-VK","2018/04/06 18:39:33","新北市瑞芳區大埔路211號","121.762618333333","25.1017033333333","6501200","瑞芳區"
"224009","273-VK","2018/04/06 18:39:23","新北市瑞芳區祈堂路108號","121.85899","25.1093966666667","6501200","瑞芳區"
"224005","271-BY","2018/04/06 18:39:33","新北市瑞芳區瑞濱路20-1號","121.826","25.121225","6501200","瑞芳區"
"227003","642-TC","2018/04/06 18:39:29","新北市雙溪區魚行里坤溪3-5號","121.875765","25.0211783333333","6502500","雙溪區"
"227011","400-TW","2018/04/06 18:39:22","新北市雙溪區牡丹里下坑11號","121.850996666667","25.0561916666667","6502500","雙溪區"
"253005","032-BX","2018/04/06 18:39:31","新北市石門區中山路62號","121.567008333333","25.290655","6502200","石門區"
"253006","295-VK","2018/04/06 18:39:18","新北市石門區楓林28-1號","121.541683333333","25.28935","6502200","石門區"
"222001","KEA-2212","2018/04/06 18:39:21","新北市深坑區北深路一段82號","121.636305","25.0106666666667","6501800","深坑區"
"208002","KEA-2872","2018/04/06 18:39:29","新北市金山區忠孝一路19巷13號","121.637573333333","25.217875","6502700","金山區"
"208003","665-BX","2018/04/06 18:39:25","新北市金山區中山路393號","121.633375","25.2252266666667","6502700","金山區"
"251004","009-UM","2018/04/06 18:39:25","新北市淡水區八勢二街51巷2號","121.46076","25.1491816666667","6501000","淡水區"
"251008","181-VK","2018/04/06 18:39:21","新北市淡水區北投子18號","121.453923333333","25.184015","6501000","淡水區"
"251010","413-VK","2018/04/06 18:39:33","新北市淡水區沙崙路124號","121.423303333333","25.18289","6501000","淡水區"
"251012","441-VK","2018/04/06 18:39:25","新北市淡水區北新路117號","121.448903333333","25.1786483333333","6501000","淡水區"
"251001","559-UM","2018/04/06 18:39:26","新北市淡水區自強路415巷2號","121.465485","25.1342433333333","6501000","淡水區"
"251006","561-UM","2018/04/06 18:39:23","新北市淡水區崁頂64號","121.43911","25.2009733333333","6501000","淡水區"
"251011","650-BX","2018/04/06 18:39:17","新北市淡水區鄧公路52號","121.460066666667","25.1688716666667","6501000","淡水區"
"251002","672-BX","2018/04/06 18:39:32","新北市淡水區中正東路一段3巷14弄5號","121.45102","25.16404","6501000","淡水區"
"251003","673-BX","2018/04/06 18:39:22","新北市淡水區北新路69巷26號","121.44678","25.180035","6501000","淡水區"
"207003","550-UM","2018/04/06 18:39:19","新北市萬里區大鵬里頂社2-1號","121.660363333333","25.2071416666667","6502800","萬里區"
"207003","225-TW","2018/04/06 18:39:18","新北市萬里區萬里里獅頭路10-1號","121.692086666667","25.1787316666667","6502800","萬里區"
"252002","178-VK","2018/04/06 18:39:31","新北市三芝區民生街64巷6號","121.503551666667","25.25529","6502100","三芝區"
"252003","249-BX","2018/04/06 18:39:27","新北市三芝區後厝里土地公坑55號","121.46274","25.2483783333333","6502100","三芝區"
"252001","292-VK","2018/04/06 18:39:33","新北市三芝區中興街二段260號","121.501891666667","25.2528816666667","6502100","三芝區"
"237004","KEA-2597","2018/04/06 18:39:29","新北市三峽區有木111-1號","121.435013333333","24.858785","6500900","三峽區"
"237007","153-BY","2018/04/06 18:39:24","新北市三峽區柑樹路2巷2號","121.361736666667","24.9055816666667","6500900","三峽區"
"237009","210-TH","2018/04/06 18:39:32","新北市三峽區民權街153-1號","121.36846","24.9313616666667","6500900","三峽區"
"237013","252-BX","2018/04/06 18:39:15","新北市三峽區光明路69巷25號","121.376733333333","24.929225","6500900","三峽區"
"237008","302-VK","2018/04/06 18:39:27","新北市三峽區白雞33-60號","121.370898333333","24.9131183333333","6500900","三峽區"
"237014","433-BY","2018/04/06 18:39:33","新北市三峽區復興路480巷52號","121.361926666667","24.941255","6500900","三峽區"
"237006","5529-G3","2018/04/06 18:39:24","新北市三峽區溪東路233巷2弄3號","121.406976666667","24.9335466666667","6500900","三峽區"
"237010","706-TV","2018/04/06 18:39:31","新北市三峽區復興路305號","121.365478333333","24.9388683333333","6500900","三峽區"
"237005","AKY-6261","2018/04/06 18:39:34","新北市三峽區新興街13號","121.372691666667","24.93563","6500900","三峽區"
"236069","105-UM","2018/04/06 18:39:16","新北市土城區永豐路157巷29弄6-1號","121.46844","24.98148","6501300","土城區"
"236042","107-UM","2018/04/06 18:39:27","新北市土城區學成路137巷18號","121.449273333333","24.9890166666667","6501300","土城區"
"236079","166-UM","2018/04/06 18:39:33","新北市土城區中央路四段54巷5號","121.41948","24.96073","6501300","土城區"
"236030","253-BX","2018/04/06 18:39:30","新北市土城區慶利街35號","121.438883333333","24.9744216666667","6501300","土城區"
"236026","269-VK","2018/04/06 18:39:18","新北市土城區金城路一段42號","121.442031666667","24.9701816666667","6501300","土城區"
"236014","270-VK","2018/04/06 18:39:25","新北市土城區清水路207巷11號","121.459885","24.98239","6501300","土城區"
"236039","271-VK","2018/04/06 18:39:21","新北市土城區明德路一段291巷16號","121.460325","24.9765816666667","6501300","土城區"
"236020","401-BY","2018/04/06 18:39:30","新北市土城區延吉街311號","121.465943333333","24.9843833333333","6501300","土城區"
"236059","912-UM","2018/04/06 18:39:25","新北市土城區中央路三段213號","121.42964","24.9645233333333","6501300","土城區"
"236048","913-UM","2018/04/06 18:39:24","新北市土城區金城路二段356號","121.461388333333","24.9851616666667","6501300","土城區"
"236063","915-UM","2018/04/06 18:39:24","新北市土城區延和路125巷77號","121.469133333333","24.9910816666667","6501300","土城區"
"236055","AAC-216","2018/04/06 18:39:29","新北市土城區裕民路6-5號","121.446973333333","24.9890466666667","6501300","土城區"
"242002","349-TH","2018/04/06 18:39:22","新北市新莊區環河路636-7號","121.437443333333","25.0117166666667","6500500","新莊區"
"238023","601-UM","2018/04/06 18:39:23","新北市樹林區三福街114號","121.406421666667","25.016415","6500700","樹林區"
"238019","599-UM","2018/04/06 18:39:28","新北市樹林區中華路190號","121.411846666667","24.9804233333333","6500700","樹林區"
"238018","571-TV","2018/04/06 18:39:33","新北市樹林區樹新路135號","121.428375","24.9962983333333","6500700","樹林區"
"238024","5061-A6","2018/04/06 18:39:19","新北市樹林區太順街49巷5號","121.418088333333","24.9788883333333","6500700","樹林區"
"238022","KEA-2213","2018/04/06 18:39:28","新北市樹林區中華路393號","121.411325","24.9804266666667","6500700","樹林區"
"238025","303-VK","2018/04/06 18:39:16","新北市樹林區長壽街31巷1號","121.420305","24.9948783333333","6500700","樹林區"
"238017","283-BY","2018/04/06 18:39:26","新北市樹林區光興街50號","121.409825","25.002715","6500700","樹林區"
"238014","282-BY","2018/04/06 18:39:18","新北市樹林區大安路111巷11號","121.4231","24.9975483333333","6500700","樹林區"
"238026","172-UY","2018/04/06 18:39:29","新北市樹林區中山路三段174號","121.388746666667","24.9699333333333","6500700","樹林區"
"238016","169-UY","2018/04/06 18:39:25","新北市樹林區文化街23號","121.419251666667","24.98761","6500700","樹林區"
"239007","AAC-297","2018/04/06 18:39:31","新北市鶯歌區中正一路建德二巷2號","121.363821666667","24.9565433333333","6500800","鶯歌區"
"239006","891-R6","2018/04/06 18:39:33","新北市鶯歌區鶯桃路283號","121.335036666667","24.9601433333333","6500800","鶯歌區"
"239008","527-UM","2018/04/06 18:39:21","新北市鶯歌區晨曦街37號","121.338176666667","24.9771483333333","6500800","鶯歌區"
"239005","526-UM","2018/04/06 18:39:28","新北市鶯歌區鳳吉一街82號","121.326911666667","24.974315","6500800","鶯歌區"
"239001","417-VK","2018/04/06 18:39:28","新北市鶯歌區鶯桃路39-7號","121.342353333333","24.95136","6500800","鶯歌區"
"239003","360-BY","2018/04/06 18:39:32","新北市鶯歌區鶯桃路546號","121.331076666667","24.96732","6500800","鶯歌區"
"239002","359-BY","2018/04/06 18:39:25","新北市鶯歌區中山路315號","121.343996666667","24.956945","6500800","鶯歌區"
"239004","193-VK","2018/04/06 18:39:30","新北市鶯歌區中正三路247巷76號","121.333546666667","24.9365216666667","6500800","鶯歌區"
"221008","489-VK","2018/04/06 18:39:26","新北市汐止區康寧街901號","121.651413333333","25.0750866666667","6501100","汐止區"
"221036","130-UY","2018/04/06 18:39:23","新北市汐止區忠孝東路314巷19弄12號","121.665053333333","25.068455","6501100","汐止區"
"221015","131-UY","2018/04/06 18:39:28","新北市汐止區鄉長路一段55巷9號","121.665341666667","25.0761166666667","6501100","汐止區"
"221010","269-BY","2018/04/06 18:39:30","新北市汐止區夢湖路2巷5號","121.64235","25.1066766666667","6501100","汐止區"
"221012","278-VK","2018/04/06 18:39:21","新北市汐止區長江街233號","121.66264","25.0783616666667","6501100","汐止區"
"221023","279-VK","2018/04/06 18:39:33","新北市汐止區康寧街607號","121.635863333333","25.0708933333333","6501100","汐止區"
"221032","280-BY","2018/04/06 18:39:29","新北市汐止區福山街58巷13號","121.618026666667","25.0460316666667","6501100","汐止區"
"221027","281-BY","2018/04/06 18:39:29","新北市汐止區汐萬路一段147號","121.653338333333","25.0711266666667","6501100","汐止區"
"221029","298-VK","2018/04/06 18:39:27","新北市汐止區樟樹一路133巷4號","121.641888333333","25.0653","6501100","汐止區"
"221031","353-TW","2018/04/06 18:39:34","新北市汐止區福德一路270號","121.63221","25.0640683333333","6501100","汐止區"
"221035","622-UM","2018/04/06 18:39:33","新北市汐止區禮門街1號","121.656658333333","25.0672316666667","6501100","汐止區"
"221025","623-UM","2018/04/06 18:39:23","新北市汐止區仁愛路119巷8號","121.66245","25.0639333333333","6501100","汐止區"
"221038","646-BX","2018/04/06 18:39:24","新北市汐止區康寧街901號","121.650773333333","25.0753433333333","6501100","汐止區"
"221033","647-BX","2018/04/06 18:39:18","新北市汐止區南勢街1巷1號","121.627003333333","25.0373566666667","6501100","汐止區"
"221002","707-TV","2018/04/06 18:39:26","新北市汐止區中興路25號","121.636875","25.0596566666667","6501100","汐止區"
"221018","753-BX","2018/04/06 18:39:22","新北市汐止區茄苳路299號","121.673151666667","25.0671033333333","6501100","汐止區"
"220079","145-BY","2018/04/06 18:39:24","新北市板橋區大觀路一段39巷2號","121.448443333333","25.0081","6500100","板橋區"
"220080","200-UY","2018/04/06 18:39:31","新北市板橋區大觀路二段265巷76弄27號","121.441511666667","24.9967083333333","6500100","板橋區"
"220082","610-BX","2018/04/06 18:39:22","新北市板橋區大觀路三段50巷49號","121.43216","24.9958716666667","6500100","板橋區"
"220063","280-UM","2018/04/06 18:39:20","新北市板橋區民生路二段120號","121.470506666667","25.0196166666667","6500100","板橋區"
"220077","282-UM","2018/04/06 18:39:24","新北市板橋區大觀路二段174巷114弄4號","121.441048333333","25.0015616666667","6500100","板橋區"
"220071","283-VK","2018/04/06 18:39:21","新北市板橋區四川路二段99-8號","121.452186666667","24.9946166666667","6500100","板橋區"
"220094","285-UM","2018/04/06 18:39:14","新北市板橋區民生路二段161巷5號","121.470136666667","25.0196783333333","6500100","板橋區"
"220083","286-VK","2018/04/06 18:39:20","新北市板橋區板城路271號","121.450336666667","24.99773","6500100","板橋區"
"220081","287-VK","2018/04/06 18:39:18","新北市板橋區大觀路二段153巷33號","121.44687","25.0002616666667","6500100","板橋區"
"220061","293-UM","2018/04/06 18:39:15","新北市板橋區民生路二段120號","121.470315","25.019755","6500100","板橋區"
"220084","296-UM","2018/04/06 18:39:27","新北市板橋區大觀路二段力行2巷65號","121.445835","24.998965","6500100","板橋區"
"220075","303-R5","2018/04/06 18:39:21","新北市板橋區華東街300號","121.452748333333","25.0025983333333","6500100","板橋區"
"220062","305-R5","2018/04/06 18:39:27","新北市板橋區民生路二段120號","121.470365","25.019725","6500100","板橋區"
"220098","317-R6","2018/04/06 18:39:31","新北市板橋區民生路二段161巷9號","121.470238333333","25.019615","6500100","板橋區"
"220064","486-VK","2018/04/06 18:39:32","新北市板橋區民生路二段36-1號","121.472075","25.0168166666667","6500100","板橋區"
"220035","560-BX","2018/04/06 18:39:31","新北市板橋區南雅西路二段175巷2號","121.451543333333","25.0124966666667","6500100","板橋區"
"220056","568-UM","2018/04/06 18:39:13","新北市板橋區四川路二段橋頭6號","121.448308333333","24.9940316666667","6500100","板橋區"
"220057","686-BX","2018/04/06 18:39:15","新北市板橋區華東街1-9號","121.448216666667","24.9948716666667","6500100","板橋區"
"220054","741-BX","2018/04/06 18:39:17","新北市板橋區華東街1-9號","121.448066666667","24.9949183333333","6500100","板橋區"
"220073","985-R7","2018/04/06 18:39:23","新北市板橋區貴興路35號","121.457543333333","25.0039083333333","6500100","板橋區"
"220070","AAC-253","2018/04/06 18:39:27","新北市板橋區華東街11號","121.450396666667","24.9975533333333","6500100","板橋區"
