"lineid","car","time","location","longitude","latitude","cityid","cityname"
"234046","148-BY","2018/04/06 19:39:31","新北市永和區永元路105號","121.522556666667","25.0023683333333","6500400","永和區"
"234070","149-BY","2018/04/06 19:39:22","新北市永和區永和路二段234號","121.515798333333","25.0145833333333","6500400","永和區"
"234007","207-UY","2018/04/06 19:39:34","新北市中和區中和路446號","121.512091666667","25.003585","6500400","永和區"
"234081","298-R6","2018/04/06 19:39:31","新北市永和區國中路4號","121.524471666667","25.0044166666667","6500400","永和區"
"234038","336-UY","2018/04/06 19:39:33","新北市永和區民樂街29號","121.527785","25.00151","6500400","永和區"
"234064","337-UY","2018/04/06 19:39:31","新北市永和區秀朗路一段192巷6弄12號","121.519073333333","25.0023516666667","6500400","永和區"
"234086","338-UY","2018/04/06 19:39:32","新北市永和區永亨路127號","121.52458","25.0042116666667","6500400","永和區"
"234017","745-BX","2018/04/06 19:39:30","新北市永和區永和路二段425巷75弄5號","121.513533333333","25.0170966666667","6500400","永和區"
"234030","746-BX","2018/04/06 19:39:16","新北市永和區四維街103巷2號","121.523815","24.9979833333333","6500400","永和區"
"234054","KEA-2590","2018/04/06 19:39:24","新北市永和區竹林路39巷18號","121.518753333333","25.0146633333333","6500400","永和區"
"234013","KEA-2591","2018/04/06 19:39:31","新北市永和區仁愛路203號","121.509931666667","25.012535","6500400","永和區"
"234061","AAD-866","2018/04/06 19:39:27","新北市永和區中正路456號","121.517391666667","25.0029283333333","6500400","永和區"
"234042","862-TW","2018/04/06 19:39:30","新北市永和區中和路305巷2弄2號","121.50667","24.9999166666667","6500400","永和區"
"234050","863-TW","2018/04/06 19:39:33","新北市永和區保安路35號","121.509813333333","25.0161566666667","6500400","永和區"
"234026","9371-KE","2018/04/06 19:39:35","新北市永和區中和路501巷5號","121.510476666667","25.0025966666667","6500400","永和區"
"234011","9373-KE","2018/04/06 19:39:34","新北市永和區保安路292號","121.505025","25.0117816666667","6500400","永和區"
"249004","303-UY","2018/04/06 19:39:35","新北市八里區中山路一段268巷5弄40號","121.414318333333","25.1608483333333","6502300","八里區"
"249002","305-UY","2018/04/06 19:39:00","新北市八里區頂寮二街33號","121.45023","25.125025","6502300","八里區"
"249003","593-UM","2018/04/06 19:39:27","新北市八里區中華路二段536-3號","121.399108333333","25.145325","6502300","八里區"
"248014","025-BX","2018/04/06 19:39:33","新北市五股區五福路52巷3弄10號","121.433398333333","25.09028","6501500","五股區"
"248008","095-VK","2018/04/06 19:39:33","新北市五股區四維路153號","121.467665","25.074535","6501500","五股區"
"248018","225-UY","2018/04/06 19:20:38","新北市五股區外寮路9-25號","121.415953333333","25.0789383333333","6501500","五股區"
"248012","247-BX","2018/04/06 19:39:33","新北市五股區成泰路一段241巷10號","121.436146666667","25.0810033333333","6501500","五股區"
"248010","272-BY","2018/04/06 19:39:18","新北市五股區自強路115號","121.432296666667","25.0704916666667","6501500","五股區"
"248004","677-BX","2018/04/06 19:39:23","新北市五股區成泰路二段122號","121.43805","25.0834266666667","6501500","五股區"
"248002","678-BX","2018/04/06 19:39:22","新北市五股區成泰路三段577巷48號","121.450883333333","25.1031583333333","6501500","五股區"
"234077","969-R7","2018/04/06 19:39:24","新北市永和區民族街67巷20號","121.51962","24.997145","6500400","永和區"
"234074","AAC-211","2018/04/06 19:39:21","新北市永和區福和路152號","121.521795","25.007875","6500400","永和區"
"234067","AAC-212","2018/04/06 19:39:18","新北市永和區永貞路406巷28號","121.509763333333","25.0079383333333","6500400","永和區"
"234003","AAC-295","2018/04/06 19:39:27","新北市永和區自由街62號","121.51364","25.0056566666667","6500400","永和區"
"244011","701-TV","2018/04/06 19:39:10","新北市林口區太平里180號","121.368283333333","25.1343383333333","6501700","林口區"
"243012","AAD-798","2018/04/06 19:39:34","新北市泰山區仁愛路100巷28號","121.433385","25.054845","6501600","泰山區"
"243011","297-R6","2018/04/06 19:39:23","新北市泰山區明志路三段204巷1號","121.421445","25.0382666666667","6501600","泰山區"
"243015","380-SR","2018/04/06 19:39:28","新北市泰山區民權街49號","121.429025","25.0505566666667","6501600","泰山區"
"243014","421-VK","2018/04/06 19:39:24","新北市泰山區泰林路二段33-8號","121.435205","25.0565116666667","6501600","泰山區"
"243013","539-UM","2018/04/06 19:39:28","新北市泰山區應化街7號","121.423863333333","25.0437066666667","6501600","泰山區"
"243010","KEA-2215","2018/04/06 19:39:33","新北市泰山區民生路33號","121.430686666667","25.0522433333333","6501600","泰山區"
"243009","KEA-2216","2018/04/06 19:39:32","新北市泰山區美寧街60號","121.430905","25.06471","6501600","泰山區"
"243016","680-BX","2018/04/06 19:39:28","新北市泰山區新北大道七段97號","121.417865","25.0320633333333","6501600","泰山區"
"222003","436-BY","2018/04/06 19:39:33","新北市深坑區深南路51-1號","121.621315","25.00979","6501800","深坑區"
"222002","659-BX","2018/04/06 19:39:32","新北市深坑區北深路一段177號","121.63253","25.0109133333333","6501800","深坑區"
"231044","001-UM","2018/04/06 19:39:27","新北市新店區民權路25號","121.541068333333","24.9827283333333","6500600","新店區"
"231041","002-UM","2018/04/06 19:39:19","新北市新店區中正路500號","121.534063333333","24.9819983333333","6500600","新店區"
"231059","046-UY","2018/04/06 19:39:22","新北市新店區安和路三段47-1號","121.518065","24.9822583333333","6500600","新店區"
"231040","047-UY","2018/04/06 19:39:16","新北市新店區中正路75巷71號","121.543081666667","24.968735","6500600","新店區"
"231053","108-UY","2018/04/06 19:39:18","新北市新店區廣興路15號","121.541518333333","24.9118733333333","6500600","新店區"
"231050","110-UY","2018/04/06 19:39:32","新北市新店區北宜路二段419-2號","121.56037","24.95441","6500600","新店區"
"231048","187-VK","2018/04/06 19:39:25","新北市新店區中興路一段288巷7號","121.546445","24.9688566666667","6500600","新店區"
"231046","188-VK","2018/04/06 19:39:33","新北市新店區三民路84巷12號","121.534896666667","24.9731633333333","6500600","新店區"
"231054","KEA-2219","2018/04/06 19:39:26","新北市新店區文中路45號","121.539508333333","24.9567316666667","6500600","新店區"
"231057","256-BX","2018/04/06 19:39:35","新北市新店區橘園一路11號","121.54797","24.9339983333333","6500600","新店區"
"231051","278-BY","2018/04/06 19:39:25","新北市新店區中央四街13號","121.529465","24.9739483333333","6500600","新店區"
"231058","3713-VJ","2018/04/06 19:39:35","新北市新店區中華路62號","121.539461666667","24.9689083333333","6500600","新店區"
"231066","4716-K9","2018/04/06 19:39:27","新北市新店區安康路二段341巷21號","121.497135","24.9545616666667","6500600","新店區"
"231067","4772-VM","2018/04/06 19:39:28","新北市新店區太平路28巷42號","121.533153333333","24.959695","6500600","新店區"
"231065","512-UM","2018/04/06 19:39:30","新北市新店區安祥路109巷85弄42號","121.478795","24.9596816666667","6500600","新店區"
"231049","513-UM","2018/04/06 19:39:29","新北市新店區建國路128巷3-1號","121.539031666667","24.979375","6500600","新店區"
"231045","617-UM","2018/04/06 19:39:25","新北市新店區北宜路二段423-1號","121.560486666667","24.9544383333333","6500600","新店區"
"231061","619-UM","2018/04/06 19:39:29","新北市新店區安民街71號","121.51652","24.967045","6500600","新店區"
"231063","641-BX","2018/04/06 19:39:32","新北市新店區達觀路18-1號","121.50288","24.9414316666667","6500600","新店區"
"231042","645-TV","2018/04/06 19:39:26","新北市新店區中興路一段216號","121.543898333333","24.9656633333333","6500600","新店區"
"231068","718-UY","2018/04/06 19:39:22","新北市新店區安華路28-1號","121.51958","24.9612","6500600","新店區"
"231064","719-UM","2018/04/06 19:39:27","新北市新店區安和路一段52巷2號","121.517635","24.966165","6500600","新店區"
"231062","720-UM","2018/04/06 19:39:24","新北市新店區碧潭路44號","121.534323333333","24.95664","6500600","新店區"
"231060","897-TW","2018/04/06 19:39:33","新北市新店區安康路二段161號","121.510221666667","24.959365","6500600","新店區"
"231043","899-TW","2018/04/06 19:39:25","新北市新店區中正路153號","121.541326666667","24.9717633333333","6500600","新店區"
"231055","AKT-0513","2018/04/06 19:39:27","新北市新店區力行路5號","121.539415","24.964565","6500600","新店區"
"241011","013-R5","2018/04/06 19:39:28","新北市三重區秀江街215號","121.497416666667","25.0716316666667","6500200","三重區"
"241028","022-UY","2018/04/06 19:39:20","新北市三重區中正南路163號","121.493756666667","25.056","6500200","三重區"
"241008","059-VK","2018/04/06 19:39:26","新北市三重區永福街137號","121.478816666667","25.0766833333333","6500200","三重區"
"241009","060-VK","2018/04/06 19:39:34","新北市三重區三和路四段400巷24號","121.480343333333","25.0791783333333","6500200","三重區"
"241031","061-VK","2018/04/06 19:39:36","新北市三重區重新路四段248號","121.486115","25.053465","6500200","三重區"
"241015","062-VK","2018/04/06 19:39:29","新北市三重區福德北路34號","121.502038333333","25.0651683333333","6500200","三重區"
"241017","063-VK","2018/04/06 19:39:25","新北市三重區大同北路217號","121.491551666667","25.0660266666667","6500200","三重區"
"241026","066-VK","2018/04/06 19:39:16","新北市三重區文化南路65巷46弄4號","121.49872","25.0606066666667","6500200","三重區"
"241003","091-VK","2018/04/06 19:39:29","新北市三重區仁義街387號","121.494593333333","25.0854383333333","6500200","三重區"
"241022","267-UM","2018/04/06 19:39:30","新北市三重區中正北路168-1號","121.484115","25.0660283333333","6500200","三重區"
"241032","269-UM","2018/04/06 19:39:24","新北市三重區重陽路一段60巷53號","121.484678333333","25.0582033333333","6500200","三重區"
"241013","270-UM","2018/04/06 19:39:21","新北市三重區仁賢街14號","121.495943333333","25.0747","6500200","三重區"
"241025","271-UM","2018/04/06 19:39:37","新北市三重區頂崁街149號","121.477988333333","25.0650033333333","6500200","三重區"
"241007","398-BY","2018/04/06 19:39:19","新北市三重區三和路四段125巷76號","121.487341666667","25.0785566666667","6500200","三重區"
"241035","462-BY","2018/04/06 19:39:25","新北市三重區信義西街48號","121.498105","25.064605","6500200","三重區"
"241020","478-VK","2018/04/06 19:39:23","新北市三重區三和路四段10號","121.49124","25.0740283333333","6500200","三重區"
"241030","480-VK","2018/04/06 19:39:20","新北市三重區中正南路265號","121.493","25.052695","6500200","三重區"
"241014","543-UM","2018/04/06 19:39:25","新北市三重區河邊北街80號","121.504265","25.0688916666667","6500200","三重區"
"241023","545-UM","2018/04/06 19:39:34","新北市三重區忠孝路三段99巷20號","121.479508333333","25.0642016666667","6500200","三重區"
"241001","547-UM","2018/04/06 19:39:29","新北市三重區仁愛街297號","121.492716666667","25.0792133333333","6500200","三重區"
"241019","KEA-2593","2018/04/06 19:39:24","新北市三重區六張街194巷1弄1號","121.488375","25.06822","6500200","三重區"
"241006","AAD-863","2018/04/06 19:39:28","新北市三重區永福街303-1號","121.48409","25.07455","6500200","三重區"
"241012","941-UM","2018/04/06 19:39:20","新北市三重區仁義街15號","121.500136666667","25.0757583333333","6500200","三重區"
"241029","942-UM","2018/04/06 19:39:19","新北市三重區重安街102號","121.493121666667","25.0559566666667","6500200","三重區"
"235066","003-UY","2018/04/06 19:39:36","新北市中和區景新街129號","121.505763333333","24.99727","6500300","中和區"
"235064","005-UY","2018/04/06 19:39:37","新北市中和區圓通路29號","121.501185","24.9977333333333","6500300","中和區"
"235056","096-UM","2018/04/06 19:39:21","新北市中和區中山路三段114巷13號","121.475618333333","25.007765","6500300","中和區"
"235065","098-UM","2018/04/06 19:39:22","新北市中和區永和路24號","121.499366666667","25.0035533333333","6500300","中和區"
"235040","150-BY","2018/04/06 19:39:15","新北市中和區安和路39號","121.509766666667","24.9946983333333","6500300","中和區"
"235058","151-BY","2018/04/06 19:39:21","新北市中和區員山路132巷26號","121.482445","24.99627","6500300","中和區"
"235055","183-VK","2018/04/06 19:39:29","新北市中和區中山路三段181巷18弄9號","121.472801666667","25.0049016666667","6500300","中和區"
"235038","185-VK","2018/04/06 19:39:28","新北市中和區大智街55巷30弄20號","121.521183333333","24.9930633333333","6500300","中和區"
"235049","186-VK","2018/04/06 19:39:28","新北市中和區景新街212號","121.507065","24.9952466666667","6500300","中和區"
"235067","255-BX","2018/04/06 19:39:25","新北市中和區新生街186巷1弄2號","121.483345","24.9995833333333","6500300","中和區"
"235044","293-VK","2018/04/06 19:39:33","新北市中和區南山路417號","121.507323333333","24.9895416666667","6500300","中和區"
"235043","352-BY","2018/04/06 19:39:32","新北市中和區興南路一段113號","121.509186666667","24.9879833333333","6500300","中和區"
"235068","377-QA","2018/04/06 19:39:23","新北市中和區永和路9巷1號","121.499191666667","25.003985","6500300","中和區"
"235061","378-QA","2018/04/06 19:39:35","新北市中和區員山路222號","121.481411666667","25.0011233333333","6500300","中和區"
"235050","4979-A6","2018/04/06 19:39:32","新北市中和區中正路192號","121.497596666667","24.9937433333333","6500300","中和區"
"235042","551-UM","2018/04/06 19:39:25","新北市中和區中和路350巷8弄16號","121.51026","25.000145","6500300","中和區"
"235070","558-UM","2018/04/06 19:39:27","新北市中和區連勝街32號","121.498171666667","24.99784","6500300","中和區"
"235045","565-BX","2018/04/06 19:39:38","新北市中和區景新街467巷20弄110號","121.514953333333","24.986535","6500300","中和區"
"235054","640-BX","2018/04/06 19:39:24","新北市中和區民德路189巷5號","121.468866666667","24.99913","6500300","中和區"
"235047","732-UM","2018/04/06 19:39:27","新北市中和區景平路353號","121.50475","24.9933566666667","6500300","中和區"
"235046","733-UM","2018/04/06 19:39:19","新北市中和區景新街487號","121.513643333333","24.9874016666667","6500300","中和區"
"235071","783-BX","2018/04/06 19:39:36","新北市中和區中正路839巷29號","121.483621666667","25.0023683333333","6500300","中和區"
"235057","801-TS","2018/04/06 19:39:21","新北市中和區員山路160號","121.481348333333","24.9996433333333","6500300","中和區"
"235041","802-TS","2018/04/06 19:39:20","新北市中和區永貞路274-3號","121.513355","25.00379","6500300","中和區"
"235052","805-TS","2018/04/06 19:39:28","新北市中和區興南路二段159巷31號","121.505566666667","24.9826383333333","6500300","中和區"
"235048","896-TW","2018/04/06 19:39:27","新北市中和區忠孝街1號","121.508896666667","24.9829966666667","6500300","中和區"
"235053","900-TW","2018/04/06 19:39:27","新北市中和區國光街184巷2號","121.467011666667","25.0019583333333","6500300","中和區"
"235060","911-UM","2018/04/06 19:39:23","新北市中和區新生街16巷17號","121.482446666667","25.0042633333333","6500300","中和區"
"235051","157-BY","2018/04/06 19:39:32","新北市中和區板南路174號","121.501105","24.9927133333333","6500300","中和區"
"235037","AAC-213","2018/04/06 19:39:30","新北市中和區秀朗路三段50巷4弄1號","121.525726666667","24.995445","6500300","中和區"
"235059","AAC-215","2018/04/06 19:39:26","新北市中和區圓通路262-3號","121.492853333333","24.9908366666667","6500300","中和區"
"220065","072-UY","2018/04/06 19:39:36","新北市板橋區國泰街39巷9弄4號","121.468728333333","25.0053333333333","6500100","板橋區"
"220067","075-UY","2018/04/06 19:39:30","新北市板橋區長安街251巷34號","121.472051666667","25.0111866666667","6500100","板橋區"
"220069","AAD-861","2018/04/06 19:39:34","新北市板橋區南雅南路二段1-1號","121.454676666667","25.0037183333333","6500100","板橋區"
"247004","337-TH","2018/04/06 19:39:33","新北市蘆洲區長安街102巷65號","121.462743333333","25.0821916666667","6501400","蘆洲區"
"247008","056-VK","2018/04/06 19:39:30","新北市蘆洲區中山一路176號","121.474233333333","25.0811283333333","6501400","蘆洲區"
"226004","312-R5","2018/04/06 19:39:33","新北市平溪區十分里十分街66巷15號","121.775145","25.0424516666667","6502400","平溪區"
"235039","251-BX","2018/04/06 19:39:23","新北市中和區秀峰街76號","121.520248333333","24.9906883333333","6500300","中和區"
"228003","097-TW","2018/04/06 19:39:26","新北市貢寮區真理里美艷山街15-3號","121.923686666667","25.068015","6502600","貢寮區"
"228001","670-TC","2018/04/06 19:39:27","新北市貢寮區真理里大澳街3號","121.924701666667","25.0556566666667","6502600","貢寮區"
"224010","AGQ-8101","2018/04/06 19:39:25","新北市瑞芳區基山街110號","121.843995","25.108595","6501200","瑞芳區"
"224002","639-TC","2018/04/06 19:39:29","新北市瑞芳區民享新村18號","121.816686666667","25.10577","6501200","瑞芳區"
"227003","642-TC","2018/04/06 19:39:29","新北市雙溪區雙溪里太平路54號","121.864658333333","25.0354316666667","6502500","雙溪區"
"227011","400-TW","2018/04/06 19:39:22","新北市雙溪區新基里新基北街22號","121.86721","25.0389433333333","6502500","雙溪區"
"222001","KEA-2212","2018/04/06 19:39:21","新北市深坑區深坑街142號","121.613163333333","25.0014383333333","6501800","深坑區"
"208002","KEA-2872","2018/04/06 19:39:18","新北市金山區四維路13號","121.635323333333","25.2226366666667","6502700","金山區"
"208003","665-BX","2018/04/06 19:39:25","新北市金山區仁愛路6號","121.638585","25.2201166666667","6502700","金山區"
"251004","009-UM","2018/04/06 19:39:15","新北市淡水區民權路3號","121.459848333333","25.14268","6501000","淡水區"
"251008","181-VK","2018/04/06 19:39:21","新北市淡水區中正路一段8巷1弄7號","121.42838","25.1768583333333","6501000","淡水區"
"251010","413-VK","2018/04/06 19:39:33","新北市淡水區崁頂三路113號","121.432171666667","25.2007616666667","6501000","淡水區"
"251012","441-VK","2018/04/06 19:39:24","新北市淡水區中山北路三段164號","121.445678333333","25.1965683333333","6501000","淡水區"
"251005","443-VK","2018/04/06 19:39:32","新北市淡水區原德路108巷2號","121.443403333333","25.1734933333333","6501000","淡水區"
"251001","559-UM","2018/04/06 19:39:26","新北市淡水區民權路41號","121.459765","25.1401516666667","6501000","淡水區"
"251006","561-UM","2018/04/06 19:39:23","新北市淡水區中山北路一段207巷14號","121.443703333333","25.1792016666667","6501000","淡水區"
"251009","575-R6","2018/04/06 19:39:35","新北市淡水區中山北路一段192號","121.44445","25.1792283333333","6501000","淡水區"
"251007","577-R6","2018/04/06 19:39:22","新北市淡水區中正東路一段111巷27-1號","121.45553","25.1607733333333","6501000","淡水區"
"251011","650-BX","2018/04/06 19:39:34","新北市淡水區八勢一街7-15號","121.460543333333","25.157145","6501000","淡水區"
"207003","550-UM","2018/04/06 19:39:19","新北市萬里區大鵬里下社41-1號","121.649106666667","25.2164","6502800","萬里區"
"207004","225-TW","2018/04/06 19:39:18","新北市萬里區萬里里瑪鋉路21號","121.687261666667","25.1753616666667","6502800","萬里區"
"252002","178-VK","2018/04/06 19:39:31","新北市三芝區中正路一段18巷56號","121.504321666667","25.2586966666667","6502100","三芝區"
"252001","292-VK","2018/04/06 19:39:33","新北市三芝區公正街9號","121.499755","25.2575083333333","6502100","三芝區"
"237004","KEA-2597","2018/04/06 19:39:29","新北市三峽區插角96號","121.407238333333","24.8705566666667","6500900","三峽區"
"237007","153-BY","2018/04/06 19:39:24","新北市三峽區二鬮路136巷24弄49號","121.357028333333","24.9106166666667","6500900","三峽區"
"237009","210-TH","2018/04/06 19:39:34","新北市三峽區中園街36號","121.368215","24.9266016666667","6500900","三峽區"
"237013","252-BX","2018/04/06 19:39:34","新北市三峽區介壽路二段100號","121.392726666667","24.93557","6500900","三峽區"
"237012","275-BY","2018/04/06 19:39:25","新北市三峽區光明路21號","121.37323","24.9311933333333","6500900","三峽區"
"237008","302-VK","2018/04/06 19:39:26","新北市三峽區大同路209號","121.37067","24.92707","6500900","三峽區"
"237014","433-BY","2018/04/06 19:39:33","新北市三峽區添福14-38號","121.37279","24.9003383333333","6500900","三峽區"
"237006","5529-G3","2018/04/06 19:39:24","新北市三峽區中正路一段336巷15弄2號","121.369936666667","24.924945","6500900","三峽區"
"237005","AKY-6261","2018/04/06 19:39:34","新北市三峽區中山路219巷5號","121.363225","24.9364683333333","6500900","三峽區"
"236069","105-UM","2018/04/06 19:39:36","新北市土城區清水路1號","121.452746666667","24.9802733333333","6501300","土城區"
"236042","107-UM","2018/04/06 19:39:26","新北市土城區學士路12巷2號","121.45367","24.9830016666667","6501300","土城區"
"236079","166-UM","2018/04/06 19:39:33","新北市土城區中央路四段195號","121.414681666667","24.956545","6501300","土城區"
"236030","253-BX","2018/04/06 19:39:30","新北市土城區福祥街68號","121.441626666667","24.9818016666667","6501300","土城區"
"236026","269-VK","2018/04/06 19:39:18","新北市土城區中央路二段61巷26號","121.443328333333","24.9787566666667","6501300","土城區"
"236039","271-VK","2018/04/06 19:39:21","新北市土城區青雲路255號","121.459155","24.9808483333333","6501300","土城區"
"236020","401-BY","2018/04/06 19:39:30","新北市土城區峰廷街3號","121.469075","24.9873266666667","6501300","土城區"
"236048","913-UM","2018/04/06 19:39:24","新北市土城區明德路一段103號","121.465631666667","24.982645","6501300","土城區"
"236063","915-UM","2018/04/06 19:39:24","新北市土城區延平街64號","121.467928333333","24.9927383333333","6501300","土城區"
"236055","AAC-216","2018/04/06 19:39:29","新北市土城區學府路一段76號","121.456525","24.9881466666667","6501300","土城區"
"242058","986-R7","2018/04/06 19:39:32","新北市新莊區新樹路72-5號","121.436601666667","25.0253316666667","6500500","新莊區"
"242005","442-UM","2018/04/06 19:39:20","新北市新莊區化成路29巷73號","121.462061666667","25.0440083333333","6500500","新莊區"
"242050","441-UM","2018/04/06 19:39:17","新北市新莊區民安路391號","121.432181666667","25.0229833333333","6500500","新莊區"
"242023","362-BY","2018/04/06 19:39:19","新北市新莊區復興路三段56號","121.463145","25.044505","6500500","新莊區"
"242048","172-VK","2018/04/06 19:39:32","新北市新莊區民安路37巷3號","121.423873333333","25.0268866666667","6500500","新莊區"
"242011","173-VK","2018/04/06 19:39:24","新北市新莊區三和路12-21號","121.442041666667","25.038715","6500500","新莊區"
"242021","348-TH","2018/04/06 19:39:24","新北市新莊區新泰路357巷3弄1號","121.442336666667","25.0413883333333","6500500","新莊區"
"242013","351-TH","2018/04/06 19:39:34","新北市新莊區中誠街127號","121.449236666667","25.0475683333333","6500500","新莊區"
"238015","755-BX","2018/04/06 19:39:35","新北市樹林區中山路一段108巷22-1號","121.421958333333","24.9914","6500700","樹林區"
"238023","601-UM","2018/04/06 19:39:33","新北市樹林區三福街125巷3號","121.405318333333","25.015895","6500700","樹林區"
"238019","599-UM","2018/04/06 19:39:28","新北市樹林區東榮街135號","121.414678333333","24.9818283333333","6500700","樹林區"
"238024","5061-A6","2018/04/06 19:39:19","新北市樹林區中山路三段204號","121.38718","24.9683116666667","6500700","樹林區"
"238022","KEA-2213","2018/04/06 19:39:28","新北市樹林區名園街51巷6弄46號","121.421043333333","24.9781516666667","6500700","樹林區"
"238021","KEA-2539","2018/04/06 19:39:23","新北市樹林區佳園路三段181巷54號","121.388928333333","24.94749","6500700","樹林區"
"238025","303-VK","2018/04/06 19:39:15","新北市樹林區中山路一段135-4號","121.42243","24.9897266666667","6500700","樹林區"
"238017","283-BY","2018/04/06 19:39:26","新北市樹林區保安街二段22號","121.415521666667","25.001615","6500700","樹林區"
"238014","282-BY","2018/04/06 19:39:18","新北市樹林區千歲街28巷17號","121.42617","24.9956083333333","6500700","樹林區"
"238026","172-UY","2018/04/06 19:39:29","新北市樹林區八德街840號","121.392256666667","24.96865","6500700","樹林區"
"239006","891-R6","2018/04/06 19:39:13","新北市鶯歌區中正一路426號","121.361331666667","24.9570283333333","6500800","鶯歌區"
"221008","489-VK","2018/04/06 19:39:26","新北市汐止區康寧街61巷24號","121.619281666667","25.0672266666667","6501100","汐止區"
"221036","130-UY","2018/04/06 19:39:23","新北市汐止區康寧街901號","121.650936666667","25.075215","6501100","汐止區"
"221015","131-UY","2018/04/06 19:39:28","新北市汐止區汐萬路一段312號","121.650601666667","25.075385","6501100","汐止區"
"221010","269-BY","2018/04/06 19:39:30","新北市汐止區汐萬路一段355-1號","121.650111666667","25.0774083333333","6501100","汐止區"
"221012","278-VK","2018/04/06 19:39:37","新北市汐止區汐平路一段9號","121.68094","25.0712933333333","6501100","汐止區"
"221023","279-VK","2018/04/06 19:39:33","新北市汐止區中興路201號","121.62921","25.068425","6501100","汐止區"
"221032","280-BY","2018/04/06 19:39:29","新北市汐止區大同路一段146巷19號","121.633643333333","25.05374","6501100","汐止區"
"221027","281-BY","2018/04/06 19:39:29","新北市汐止區忠孝東路9號","121.658283333333","25.06592","6501100","汐止區"
"221029","298-VK","2018/04/06 19:39:27","新北市汐止區康寧街901號","121.651401666667","25.0749816666667","6501100","汐止區"
"221021","299-VK","2018/04/06 19:39:24","新北市汐止區新台五路一段131號","121.65215","25.0621633333333","6501100","汐止區"
"221031","353-TW","2018/04/06 19:39:34","新北市汐止區康寧街901號","121.651146666667","25.07515","6501100","汐止區"
"221025","623-UM","2018/04/06 19:39:03","新北市汐止區福安街20巷5號","121.662493333333","25.064875","6501100","汐止區"
"221038","646-BX","2018/04/06 19:39:24","新北市汐止區忠孝東路246號","121.662838333333","25.0673633333333","6501100","汐止區"
"221033","647-BX","2018/04/06 19:39:18","新北市汐止區南勢街1巷2號","121.626975","25.0374783333333","6501100","汐止區"
"220079","145-BY","2018/04/06 19:39:24","新北市板橋區建國街54巷42號","121.460026666667","25.0170333333333","6500100","板橋區"
"220080","200-UY","2018/04/06 19:39:31","新北市板橋區大觀路二段37巷81號","121.450158333333","25.00241","6500100","板橋區"
"220106","KEA-2550","2018/04/06 19:39:36","新北市板橋區民治街26巷4號","121.477681666667","25.0339616666667","6500100","板橋區"
"220082","610-BX","2018/04/06 19:39:22","新北市板橋區溪北路59號","121.427961666667","24.989785","6500100","板橋區"
"220101","245-BX","2018/04/06 19:39:27","新北市板橋區莒光路196巷27號","121.472968333333","25.02253","6500100","板橋區"
"220063","280-UM","2018/04/06 19:39:32","新北市板橋區中山路二段376號","121.48194","25.0203216666667","6500100","板橋區"
"220077","282-UM","2018/04/06 19:39:24","新北市板橋區僑中一街132號","121.445531666667","25.0117416666667","6500100","板橋區"
"220071","283-VK","2018/04/06 19:39:21","新北市板橋區五權街34-1號","121.464421666667","24.9920583333333","6500100","板橋區"
"220094","285-UM","2018/04/06 19:39:34","新北市板橋區銘傳街98號","121.469738333333","25.0316916666667","6500100","板橋區"
"220053","285-VK","2018/04/06 19:39:20","新北市板橋區中山路二段190號","121.47754","25.0174933333333","6500100","板橋區"
"220083","286-VK","2018/04/06 19:39:20","新北市板橋區龍興街63巷39號","121.441796666667","25.0017383333333","6500100","板橋區"
"220081","287-VK","2018/04/06 19:39:18","新北市板橋區大觀路一段29巷137弄1號","121.450211666667","25.00541","6500100","板橋區"
"220090","288-VK","2018/04/06 19:39:29","新北市板橋區裕民街112號","121.45954","25.0278166666667","6500100","板橋區"
"220061","293-UM","2018/04/06 19:39:36","新北市板橋區漢生東路113巷29號","121.46843","25.0155816666667","6500100","板橋區"
"220097","295-UM","2018/04/06 19:39:34","新北市板橋區幸福路32巷2號","121.461603333333","25.0205116666667","6500100","板橋區"
"220084","296-UM","2018/04/06 19:39:27","新北市板橋區溪崑二街145號","121.42627","24.9882566666667","6500100","板橋區"
"220075","303-R5","2018/04/06 19:39:35","新北市板橋區金華街7號","121.455798333333","25.0203233333333","6500100","板橋區"
"220062","305-R5","2018/04/06 19:39:27","新北市板橋區三民路二段81巷27弄31號","121.481413333333","25.017635","6500100","板橋區"
"220092","307-R5","2018/04/06 19:39:34","新北市板橋區文化路一段383號","121.467155","25.0217566666667","6500100","板橋區"
"220098","317-R6","2018/04/06 19:39:31","新北市板橋區四維路269巷45號","121.461301666667","25.027445","6500100","板橋區"
"220064","486-VK","2018/04/06 19:39:32","新北市板橋區館前東路106號","121.463006666667","25.0076433333333","6500100","板橋區"
"242032","280-VK","2018/04/06 19:39:24","新北市新莊區公園一路139號","121.44633","25.0382716666667","6500500","新莊區"
"220088","491-VK","2018/04/06 19:39:25","新北市板橋區民治街30號","121.47809","25.03422","6500100","板橋區"
"220035","560-BX","2018/04/06 19:39:31","新北市板橋區金華街95號","121.458428333333","25.0207966666667","6500100","板橋區"
"220103","561-BX","2018/04/06 19:39:30","新北市板橋區文化路一段312巷4號","121.467878333333","25.02176","6500100","板橋區"
"220056","568-UM","2018/04/06 19:39:33","新北市板橋區四川路二段47巷6弄1-2號","121.454256666667","24.9943383333333","6500100","板橋區"
"220055","630-UY","2018/04/06 19:39:36","新北市板橋區國慶路149巷9號","121.461185","24.997075","6500100","板橋區"
"220091","637-BX","2018/04/06 19:39:31","新北市板橋區懷德街133號","121.479205","25.0304283333333","6500100","板橋區"
"220057","686-BX","2018/04/06 19:39:34","新北市板橋區國慶路158巷3-2號","121.462106666667","24.9958766666667","6500100","板橋區"
"220093","689-BX","2018/04/06 19:39:28","新北市板橋區長江路一段99號","121.459383333333","25.0295833333333","6500100","板橋區"
"220054","741-BX","2018/04/06 19:39:17","新北市板橋區實踐路93巷36號","121.465501666667","25.0051533333333","6500100","板橋區"
"220102","KEA-2699","2018/04/06 19:39:30","新北市板橋區松柏街36巷19號","121.475425","25.0296333333333","6500100","板橋區"
"220068","830-TW","2018/04/06 19:39:23","新北市板橋區中山路二段503號","121.482843333333","25.0210483333333","6500100","板橋區"
"220096","831-TW","2018/04/06 19:39:20","新北市板橋區民生路二段232-10號","121.468621666667","25.0226766666667","6500100","板橋區"
"220089","833-TW","2018/04/06 19:39:23","新北市板橋區雨農路27巷2號","121.46117","25.0241933333333","6500100","板橋區"
"220074","895-R6","2018/04/06 19:39:30","新北市板橋區大東街34號","121.456526666667","25.008745","6500100","板橋區"
"220073","985-R7","2018/04/06 19:39:26","新北市板橋區大仁街1-3號","121.456105","25.0170033333333","6500100","板橋區"
"220070","AAC-253","2018/04/06 19:39:27","新北市板橋區民族路173號","121.468561666667","25.0075616666667","6500100","板橋區"
