"lineid","car","time","location","longitude","latitude","cityid","cityname"
"249004","303-UY","2018/04/06 20:59:35","新北市八里區中山路三段409號","121.36878","25.134115","6502300","八里區"
"248004","677-BX","2018/04/06 20:44:11","新北市五股區中興路二段37巷28號","121.460056666667","25.07495","6501500","五股區"
"234074","AAC-211","2018/04/06 20:59:21","新北市中和區勝利路2號","121.498556666667","25.0086916666667","6500400","永和區"
"231059","046-UY","2018/04/06 20:59:22","新北市新店區僑信路100號","121.50002","24.9473016666667","6500600","新店區"
"231040","047-UY","2018/04/06 20:59:36","新北市新店區中正路114號","121.542355","24.9710283333333","6500600","新店區"
"231050","110-UY","2018/04/06 20:59:35","新北市新店區三民路24號","121.537035","24.9711216666667","6500600","新店區"
"231048","187-VK","2018/04/06 20:59:25","新北市新店區文化路71巷2號","121.544781666667","24.9823633333333","6500600","新店區"
"231054","KEA-2219","2018/04/06 20:59:26","新北市新店區北新路一段96巷23號","121.542815","24.96892","6500600","新店區"
"231051","278-BY","2018/04/06 20:59:25","新北市新店區中正路663巷7弄15號","121.532931666667","24.9900966666667","6500600","新店區"
"231066","4716-K9","2018/04/06 20:59:27","新北市新店區吉安街28號","121.516278333333","24.96619","6500600","新店區"
"231056","4715-K9","2018/04/06 20:59:27","新北市新店區薏仁坑路6號","121.500353333333","24.9580716666667","6500600","新店區"
"231067","4772-VM","2018/04/06 20:59:28","新北市新店區安德街148巷34號","121.507411666667","24.960665","6500600","新店區"
"231065","512-UM","2018/04/06 20:59:32","新北市新店區安祥路67巷50弄15號","121.484268333333","24.9589033333333","6500600","新店區"
"231061","619-UM","2018/04/06 20:59:29","新北市新店區永安街101-1號","121.520791666667","24.9857883333333","6500600","新店區"
"231063","641-BX","2018/04/06 20:59:32","新北市新店區玫瑰路58巷2號","121.495373333333","24.9465916666667","6500600","新店區"
"231042","645-TV","2018/04/06 20:59:26","新北市新店區中興路二段231-2號","121.547765","24.975055","6500600","新店區"
"231064","719-UM","2018/04/06 20:59:27","新北市新店區安民街251巷10弄2號","121.516711666667","24.9727266666667","6500600","新店區"
"231062","720-UM","2018/04/06 20:59:24","新北市新店區雙城路45巷16號","121.493081666667","24.9482466666667","6500600","新店區"
"231060","897-TW","2018/04/06 20:59:33","新北市新店區安康路三段381號","121.4836","24.9503516666667","6500600","新店區"
"231043","899-TW","2018/04/06 20:59:25","新北市新店區民族路207號","121.537038333333","24.9760183333333","6500600","新店區"
"241011","013-R5","2018/04/06 20:59:28","新北市三重區秀江街119號","121.499701666667","25.0722433333333","6500200","三重區"
"241028","022-UY","2018/04/06 20:59:20","新北市三重區新北大道一段2號","121.491095","25.06135","6500200","三重區"
"241008","059-VK","2018/04/06 20:59:26","新北市三重區力行路二段160號","121.482718333333","25.0765233333333","6500200","三重區"
"241009","060-VK","2018/04/06 20:59:33","新北市三重區三和路四段326號","121.483743333333","25.0782733333333","6500200","三重區"
"241031","061-VK","2018/04/06 20:59:36","新北市三重區重陽路一段113巷2弄2號","121.487518333333","25.0599316666667","6500200","三重區"
"241015","062-VK","2018/04/06 20:59:29","新北市三重區福德北路50號","121.501905","25.06578","6500200","三重區"
"241017","063-VK","2018/04/06 20:59:25","新北市三重區大智街104號","121.493283333333","25.0665733333333","6500200","三重區"
"241024","065-VK","2018/04/06 20:59:36","新北市三重區大勇街82巷15弄30號","121.481235","25.0719133333333","6500200","三重區"
"241026","066-VK","2018/04/06 20:59:36","新北市三重區文化南路45號","121.500158333333","25.0614166666667","6500200","三重區"
"241002","090-VK","2018/04/06 20:59:35","新北市三重區仁義街128號","121.4973","25.0805633333333","6500200","三重區"
"241003","091-VK","2018/04/06 20:59:29","新北市三重區進安街196號","121.493748333333","25.0860833333333","6500200","三重區"
"241005","262-UM","2018/04/06 20:59:26","新北市三重區五華街166號","121.48922","25.0859083333333","6500200","三重區"
"241016","265-UM","2018/04/06 20:59:33","新北市三重區信義西街90號","121.496636666667","25.0643983333333","6500200","三重區"
"241022","267-UM","2018/04/06 20:59:24","新北市三重區中正北路20巷12號","121.48793","25.0624933333333","6500200","三重區"
"241018","268-UM","2018/04/06 20:59:22","新北市三重區雙園街101號","121.493755","25.0673033333333","6500200","三重區"
"241032","269-UM","2018/04/06 20:59:34","新北市三重區中華路18號","121.483201666667","25.06066","6500200","三重區"
"241013","270-UM","2018/04/06 20:59:20","新北市三重區仁賢街4號","121.495598333333","25.074805","6500200","三重區"
"241025","271-UM","2018/04/06 20:59:37","新北市三重區貴陽街14號","121.484171666667","25.06185","6500200","三重區"
"241007","398-BY","2018/04/06 20:59:19","新北市三重區三和路四段155巷29號","121.484745","25.078565","6500200","三重區"
"241020","478-VK","2018/04/06 20:59:21","新北市三重區忠孝路二段35號","121.485938333333","25.0710933333333","6500200","三重區"
"241030","480-VK","2018/04/06 20:59:20","新北市三重區環河南路220-8號","121.49338","25.0527266666667","6500200","三重區"
"241014","543-UM","2018/04/06 20:59:25","新北市三重區長壽街120巷19弄9號","121.502406666667","25.0691683333333","6500200","三重區"
"241023","545-UM","2018/04/06 20:59:34","新北市三重區忠孝路三段50巷41弄64號","121.48233","25.0637733333333","6500200","三重區"
"241001","547-UM","2018/04/06 20:59:29","新北市三重區三和路四段138巷8號","121.488056666667","25.0752366666667","6500200","三重區"
"241019","KEA-2593","2018/04/06 20:59:18","新北市三重區自強路二段74巷19號","121.487975","25.0699566666667","6500200","三重區"
"241006","AAD-863","2018/04/06 20:59:28","新北市三重區永福街52號","121.48159","25.0779883333333","6500200","三重區"
"241004","887-TS","2018/04/06 20:59:28","新北市三重區仁愛街423-1號","121.49041","25.0814566666667","6500200","三重區"
"241012","941-UM","2018/04/06 20:59:20","新北市三重區仁和街140號","121.501293333333","25.0754633333333","6500200","三重區"
"241029","942-UM","2018/04/06 20:59:38","新北市三重區正義南路107號","121.498241666667","25.0585816666667","6500200","三重區"
"241033","AAC-255","2018/04/06 20:59:38","新北市三重區光復路二段1號","121.472211666667","25.053375","6500200","三重區"
"235069","4980-A6","2018/04/06 20:59:38","新北市中和區中正路637巷32號","121.485001666667","24.994605","6500300","中和區"
"247024","893-R6","2018/04/06 20:59:25","新北市蘆洲區長興路213號","121.461176666667","25.086375","6501400","蘆洲區"
"247014","546-UM","2018/04/06 20:59:34","新北市蘆洲區中山二路36巷15號","121.474256666667","25.0829016666667","6501400","蘆洲區"
"247022","500-BY","2018/04/06 20:59:34","新北市蘆洲區中正路198號","121.466796666667","25.0883316666667","6501400","蘆洲區"
"247010","341-TH","2018/04/06 20:59:27","新北市蘆洲區鷺江街93號","121.476856666667","25.0838433333333","6501400","蘆洲區"
"247004","337-TH","2018/04/06 20:59:33","新北市蘆洲區永安南路二段268號","121.458631666667","25.080765","6501400","蘆洲區"
"247006","336-TH","2018/04/06 20:59:21","新北市蘆洲區永安南路二段16巷8號","121.467728333333","25.0772816666667","6501400","蘆洲區"
"247018","057-VK","2018/04/06 20:59:27","新北市蘆洲區民權路95號","121.47286","25.0889783333333","6501400","蘆洲區"
"247008","056-VK","2018/04/06 20:59:30","新北市蘆洲區民生街125號","121.47272","25.0789633333333","6501400","蘆洲區"
"247016","007-UY","2018/04/06 20:59:31","新北市蘆洲區正和街94號","121.468101666667","25.0807166666667","6501400","蘆洲區"
"247020","001-UY","2018/04/06 20:59:35","新北市蘆洲區民族路375號","121.470686666667","25.09108","6501400","蘆洲區"
"222001","KEA-2212","2018/04/06 20:59:31","新北市深坑區北深路三段25巷15號","121.608985","25.0005116666667","6501800","深坑區"
"251010","413-VK","2018/04/06 20:59:33","新北市淡水區中正路一段118-3號","121.423896666667","25.1787783333333","6501000","淡水區"
"251012","441-VK","2018/04/06 20:59:24","新北市淡水區淡金路五段85號","121.454991666667","25.2339466666667","6501000","淡水區"
"251001","559-UM","2018/04/06 20:59:26","新北市淡水區淡金路二段147號","121.449646666667","25.182855","6501000","淡水區"
"251007","577-R6","2018/04/06 20:59:26","新北市淡水區仁愛街1號","121.445788333333","25.170485","6501000","淡水區"
"251011","650-BX","2018/04/06 20:59:34","新北市淡水區新民街226巷1號","121.436215","25.1807066666667","6501000","淡水區"
"251002","672-BX","2018/04/06 20:59:32","新北市淡水區水源街一段141號","121.447206666667","25.17187","6501000","淡水區"
"251003","673-BX","2018/04/06 20:59:22","新北市淡水區新春街182號","121.443343333333","25.18087","6501000","淡水區"
"221029","298-VK","2018/04/06 20:59:27","新北市汐止區汐萬路一段256巷1號","121.651628333333","25.07482","6501100","汐止區"
"220070","AAC-253","2018/04/06 20:59:27","新北市八里區中山路三段409號","121.36836","25.13492","6500100","板橋區"
