"lineid","car","time","location","longitude","latitude","cityid","cityname"
"234012","KEA-2591","2018/04/06 21:47:41","新北市永和區福和路1號","121.526233333333","25.0093983333333","6500400","永和區"
"241005","262-UM","2018/04/06 21:59:26","新北市三重區環河北路三段292號","121.491993333333","25.0895666666667","6500200","三重區"
"247010","341-TH","2018/04/06 21:59:27","新北市林口區太平里180號","121.368116666667","25.1345766666667","6501400","蘆洲區"
"247016","007-UY","2018/04/06 21:59:31","新北市五股區中興路三段2巷10號","121.448866666667","25.08109","6501400","蘆洲區"
"251004","009-UM","2018/04/06 21:59:30","新北市淡水區民權路229號","121.460248333333","25.12982","6501000","淡水區"
"251008","181-VK","2018/04/06 21:59:21","新北市淡水區學府路104號","121.449836666667","25.1717783333333","6501000","淡水區"
"251010","413-VK","2018/04/06 21:59:33","新北市淡水區中正路二段206號","121.426225","25.1890966666667","6501000","淡水區"
"251005","443-VK","2018/04/06 21:59:32","新北市淡水區鄧公路30巷32-1號","121.454531666667","25.16958","6501000","淡水區"
"251006","561-UM","2018/04/06 21:59:23","新北市淡水區中正路11巷3號","121.437755","25.1707616666667","6501000","淡水區"
"251007","577-R6","2018/04/06 21:59:26","新北市淡水區北新路184巷55號","121.450943333333","25.1777466666667","6501000","淡水區"
"251011","650-BX","2018/04/06 21:59:34","新北市淡水區水碓街7號","121.443158333333","25.1771483333333","6501000","淡水區"
