"lineid","car","time","location","longitude","latitude","cityid","cityname"
"247010","341-TH","2018/04/06 22:29:27","新北市五股區中興路三段163號","121.449258333333","25.0807316666667","6501400","蘆洲區"
"251004","009-UM","2018/04/06 22:29:09","新北市淡水區民族路33號","121.462301666667","25.1359083333333","6501000","淡水區"
"251008","181-VK","2018/04/06 22:29:21","新北市淡水區學府路104號","121.449898333333","25.1718216666667","6501000","淡水區"
"251010","413-VK","2018/04/06 22:29:33","新北市淡水區沙崙路200號","121.424715","25.1839333333333","6501000","淡水區"
"251007","577-R6","2018/04/06 22:29:26","新北市淡水區北新路180號","121.449408333333","25.1787616666667","6501000","淡水區"
