"lineid","car","time","location","longitude","latitude","cityid","cityname"
"232004","290-BY","2018/04/07 06:49:34","新北市坪林區坪雙路一段21號","121.712678333333","24.9416466666667","6502000","坪林區"
"232016","291-BY","2018/04/07 06:49:42","新北市坪林區北宜路八段6號","121.700293333333","24.9366533333333","6502000","坪林區"
"232010","375-UM","2018/04/07 06:49:42","新北市坪林區北宜路八段337號","121.710971666667","24.9337483333333","6502000","坪林區"
"232009","758-BX","2018/04/07 06:49:34","新北市坪林區九芎林30號","121.702545","24.9218566666667","6502000","坪林區"
"244005","248-BX","2018/04/07 06:49:48","新北市林口區粉寮路二段46-1號","121.403525","25.0870333333333","6501700","林口區"
"235001","611-BX","2018/04/07 06:49:30","新北市中和區圓通路367巷4號","121.491361666667","24.98928","6500300","中和區"
"223006","022-BY","2018/04/07 06:49:43","新北市石碇區新興坑27號","121.650625","25.0164183333333","6501900","石碇區"
"223002","KEA-2673","2018/04/07 06:49:36","新北市石碇區烏塗窟48-2號","121.654456666667","24.9716783333333","6501900","石碇區"
"223001","205-TH","2018/04/07 06:49:40","新北市石碇區湳窟42號","121.663448333333","24.99588","6501900","石碇區"
"223008","406-TH","2018/04/07 06:49:31","新北市石碇區雙溪84-1號","121.661268333333","25.008955","6501900","石碇區"
"223001","592-UM","2018/04/07 06:49:48","新北市石碇區湳窟38號","121.666206666667","24.997485","6501900","石碇區"
"223004","660-BX","2018/04/07 06:49:30","新北市石碇區碇坪路一段101號","121.66317","24.9894116666667","6501900","石碇區"
"227006","030-BX","2018/04/07 06:49:41","新北市雙溪區新基里自強路5號","121.866298333333","25.0390033333333","6502500","雙溪區"
"236011","165-UM","2018/04/07 06:49:42","新北市土城區永平街51號","121.427996666667","24.9591466666667","6501300","土城區"
"220080","461-BY","2018/04/07 06:47:31","新北市板橋區國光路67巷14號","121.458961666667","25.0186816666667","6500100","板橋區"
