"lineid","car","time","location","longitude","latitude","cityid","cityname"
"234005","695-BX","2018/08/27 08:49:20","新北市永和區自由街33號","121.514373333333","25.00628","6500400","永和區"
"248005","653-BX","2018/08/27 08:49:14","新北市五股區明德路12巷3號","121.433311666667","25.0717833333333","6501500","五股區"
"232001","290-BY","2018/08/27 08:49:18","新北市坪林區虎寮潭1-5號","121.744418333333","24.95536","6502000","坪林區"
"232012","291-BY","2018/08/27 08:49:16","新北市坪林區金瓜寮24-3號","121.679143333333","24.9093566666667","6502000","坪林區"
"232017","705-BZ","2018/08/27 08:49:12","新北市坪林區鷺鶿岫4-2號","121.785585","24.9565233333333","6502000","坪林區"
"232005","758-BX","2018/08/27 08:49:17","新北市坪林區石12-2號","121.709771666667","24.9085616666667","6502000","坪林區"
"244006","080-UY","2018/08/27 08:49:09","新北市林口區竹林路265-1號","121.388965","25.0802283333333","6501700","林口區"
"244001","248-BX","2018/08/27 08:49:10","新北市林口區下福里14鄰90號","121.30699","25.121395","6501700","林口區"
"244018","403-UM","2018/08/27 08:49:10","新北市林口區文化一路一段83巷14弄92號","121.37277","25.0716416666667","6501700","林口區"
"244012","KEA-2802","2018/08/27 08:49:07","新北市林口區佳林路101巷36號","121.387041666667","25.080025","6501700","林口區"
"244022","483-VK","2018/08/27 08:49:10","新北市林口區東湖路10號","121.388961666667","25.0741383333333","6501700","林口區"
"244016","485-VK","2018/08/27 08:49:18","新北市林口區忠孝路498號","121.370608333333","25.0702983333333","6501700","林口區"
"244008","656-BX","2018/08/27 08:49:17","新北市林口區佳林路56巷37號","121.38526","25.0808266666667","6501700","林口區"
"244010","657-BX","2018/08/27 08:49:11","新北市林口區中正路72號","121.394673333333","25.077445","6501700","林口區"
"244024","837-TS","2018/08/27 08:46:23","新北市林口區南勢四街82巷2號","121.355273333333","25.070925","6501700","林口區"
"244021","838-TS","2018/08/27 08:49:26","新北市林口區自強四街16號","121.399298333333","25.07659","6501700","林口區"
"222005","289-BY","2018/08/27 08:49:23","新北市深坑區風格街2號","121.626806666667","25.01664","6501800","深坑區"
"231007","189-VK","2018/08/27 08:49:11","新北市新店區新潭路三段112巷11號","121.5093","24.9092716666667","6500600","新店區"
"231008","192-VK","2018/08/27 08:49:16","新北市新店區新烏路三段寶島巷4號","121.551308333333","24.8993816666667","6500600","新店區"
"235001","611-BX","2018/08/27 08:49:13","新北市中和區莒光路84巷32號","121.47139","25.0024733333333","6500300","中和區"
"226005","5620-A6","2018/08/27 08:49:17","新北市平溪區十分里十分街156號","121.778023333333","25.04337","6502400","平溪區"
"226001","7418-A5","2018/08/27 08:49:15","新北市平溪區東勢里火燒寮26-2號","121.757805","24.9924916666667","6502400","平溪區"
"226003","AGD-0702","2018/08/27 08:49:13","新北市平溪區新寮里新寮路2號","121.79214","25.05889","6502400","平溪區"
"223006","022-BY","2018/08/27 08:49:07","新北市石碇區靜安路一段242號","121.672805","25.0083916666667","6501900","石碇區"
"223002","KEA-2673","2018/08/27 08:49:09","新北市石碇區碇坪路一段130號","121.659363333333","24.9913816666667","6501900","石碇區"
"223003","205-TH","2018/08/27 08:49:13","新北市石碇區北宜路六段塗潭巷15號","121.650165","24.9324883333333","6501900","石碇區"
"223008","406-TH","2018/08/27 08:49:23","新北市石碇區光明路8號","121.679206666667","25.0269316666667","6501900","石碇區"
"223001","592-UM","2018/08/27 08:49:21","新北市石碇區北宜路六段直潭巷6號","121.65979","24.936035","6501900","石碇區"
"223004","660-BX","2018/08/27 08:49:16","新北市石碇區崩山53號","121.682376666667","24.968855","6501900","石碇區"
"223005","677-TV","2018/08/27 08:49:04","新北市石碇區崩山53-1號","121.682438333333","24.9671583333333","6501900","石碇區"
"227005","282-VK","2018/08/27 08:49:19","新北市雙溪區泰平里泰平62號","121.826016666667","24.9717133333333","6502500","雙溪區"
"252006","073-UM","2018/08/27 08:49:16","新北市三芝區古庄里四棧橋24號","121.486923333333","25.26044","6502100","三芝區"
"252004","249-BX","2018/08/27 08:49:17","新北市三芝區興華里田心子16號","121.49337","25.20434","6502100","三芝區"
"237001","159-UY","2018/08/27 08:49:10","新北市三峽區學成路468號","121.377953333333","24.9444033333333","6500900","三峽區"
"236001","165-UM","2018/08/27 08:49:15","新北市土城區石門路59-2號","121.457993333333","24.96339","6501300","土城區"
"236001","KEA-2877","2018/08/27 08:49:18","新北市土城區中央路三段185-1號","121.431161666667","24.9650433333333","6501300","土城區"
"236005","498-BY","2018/08/27 08:49:24","新北市土城區永和街65號","121.43575","24.9587866666667","6501300","土城區"
"242033","AAC-296","2018/08/27 08:49:19","新北市新莊區仁愛街54巷1號","121.444986666667","25.03714","6500500","新莊區"
"242057","986-R7","2018/08/27 08:49:21","新北市新莊區中正路881-5號","121.417436666667","25.0255116666667","6500500","新莊區"
"242052","751-BX","2018/08/27 08:49:18","新北市新莊區民安西路325號","121.42767","25.0110666666667","6500500","新莊區"
"242026","615-BX","2018/08/27 08:49:13","新北市新莊區中平路377巷45號","121.443063333333","25.0525316666667","6500500","新莊區"
"242024","613-BX","2018/08/27 08:49:25","新北市新莊區五工三路85號","121.458556666667","25.065195","6500500","新莊區"
"242040","566-BX","2018/08/27 08:49:23","新北市新莊區天祥街121巷12號","121.414271666667","25.0292466666667","6500500","新莊區"
"242045","497-BY","2018/08/27 08:49:23","新北市新莊區民安路16-29號","121.422515","25.0280033333333","6500500","新莊區"
"242020","442-UM","2018/08/27 08:49:13","新北市新莊區建中街16巷30號","121.4491","25.0387366666667","6500500","新莊區"
"242049","441-UM","2018/08/27 08:49:08","新北市新莊區民安西路172巷13號","121.42527","25.016025","6500500","新莊區"
"242055","440-UM","2018/08/27 08:49:18","新北市新莊區瓊林路42-1號","121.44747","25.0295683333333","6500500","新莊區"
"242035","415-TV","2018/08/27 08:49:19","新北市新莊區建安街101巷1弄2號","121.426935","25.0238866666667","6500500","新莊區"
"242006","413-TV","2018/08/27 08:49:24","新北市新莊區思源路419巷1弄11號","121.45929","25.0520033333333","6500500","新莊區"
"242043","400-BY","2018/08/27 08:49:13","新北市新莊區中山路三段619號","121.4132","25.0251133333333","6500500","新莊區"
"242022","362-BY","2018/08/27 08:49:24","新北市新莊區化成路608號","121.466181666667","25.0546566666667","6500500","新莊區"
"242059","353-BY","2018/08/27 08:49:22","新北市新莊區後港一路89號","121.427688333333","25.0267916666667","6500500","新莊區"
"242008","132-UY","2018/08/27 08:49:24","新北市新莊區昌盛街27號","121.453778333333","25.04995","6500500","新莊區"
"242038","133-UY","2018/08/27 08:49:25","新北市新莊區民安路299巷25弄14號","121.428913333333","25.0234666666667","6500500","新莊區"
"242030","135-UY","2018/08/27 08:49:18","新北市新莊區新泰路277巷11號","121.445185","25.0401483333333","6500500","新莊區"
"242047","172-VK","2018/08/27 08:49:11","新北市新莊區建安街76巷5弄15號","121.425631666667","25.025025","6500500","新莊區"
"242016","175-VK","2018/08/27 08:49:11","新北市新莊區中港一街117號","121.448613333333","25.0451616666667","6500500","新莊區"
"242003","176-VK","2018/08/27 08:49:10","新北市新莊區化成路11巷21號","121.464051666667","25.0433983333333","6500500","新莊區"
"242014","346-TH","2018/08/27 08:49:25","新北市新莊區泰安街46號","121.44694","25.0424383333333","6500500","新莊區"
"242001","349-TH","2018/08/27 08:49:04","新北市新莊區中正路134號","121.452685","25.0361583333333","6500500","新莊區"
"242018","350-TH","2018/08/27 08:49:12","新北市新莊區長青街37巷1號","121.456355","25.0421666666667","6500500","新莊區"
"242012","281-VK","2018/08/27 08:49:20","新北市新莊區幸福路678巷2號","121.45071","25.049665","6500500","新莊區"
"220023","303-R5","2018/08/27 08:27:42","新北市板橋區溪城路90-2號","121.428996666667","24.98027","6500100","板橋區"
"242010","280-VK","2018/08/27 08:49:26","新北市新莊區中港路615巷10號","121.45076","25.053375","6500500","新莊區"
