"lineid","car","time","location","longitude","latitude","cityid","cityname"
"234005","695-BX","2018/08/27 09:19:40","新北市永和區福和路1號","121.525478333333","25.0095483333333","6500400","永和區"
"248005","653-BX","2018/08/27 09:19:54","新北市五股區自強路90巷34號","121.431783333333","25.071955","6501500","五股區"
"244006","080-UY","2018/08/27 09:19:49","新北市林口區後湖13-1號","121.387926666667","25.0980633333333","6501700","林口區"
"244018","403-UM","2018/08/27 09:19:50","新北市林口區忠孝路581巷6號","121.375081666667","25.0686433333333","6501700","林口區"
"244012","KEA-2802","2018/08/27 09:19:48","新北市林口區麗園一街6巷3-3號","121.376138333333","25.0698633333333","6501700","林口區"
"244022","483-VK","2018/08/27 09:19:47","新北市林口區仁愛路二段111號","121.38386","25.0750183333333","6501700","林口區"
"244016","485-VK","2018/08/27 09:19:38","新北市林口區八德路78號","121.365555","25.065665","6501700","林口區"
"244008","656-BX","2018/08/27 09:19:37","新北市林口區文林一街31號","121.377148333333","25.0863016666667","6501700","林口區"
"244010","657-BX","2018/08/27 09:19:51","新北市林口區粉寮路一段7號","121.396278333333","25.0762283333333","6501700","林口區"
"244024","837-TS","2018/08/27 09:19:43","新北市林口區民族路216巷13號","121.369508333333","25.077255","6501700","林口區"
"244021","838-TS","2018/08/27 09:19:43","新北市林口區粉寮路一段58號","121.396868333333","25.0783283333333","6501700","林口區"
"222005","289-BY","2018/08/27 09:19:43","新北市深坑區土庫尖路75-1號","121.631183333333","25.0181966666667","6501800","深坑區"
"231007","189-VK","2018/08/27 09:19:52","新北市新店區新潭路三段215巷25號","121.508136666667","24.9040766666667","6500600","新店區"
"231008","192-VK","2018/08/27 09:19:56","新北市新店區廣興路96號","121.53786","24.9129683333333","6500600","新店區"
"235001","611-BX","2018/08/27 09:19:52","新北市中和區中山路三段114巷3號","121.475311666667","25.00731","6500300","中和區"
"226003","AGD-0702","2018/08/27 09:19:52","新北市平溪區靜安路三段86號","121.770148333333","25.0348816666667","6502400","平溪區"
"223006","022-BY","2018/08/27 09:19:53","新北市深坑區文山路一段79號","121.626465","25.00171","6501900","石碇區"
"223003","205-TH","2018/08/27 09:19:53","新北市石碇區北宜路六段十三股巷1號","121.64915","24.94772","6501900","石碇區"
"223008","406-TH","2018/08/27 09:19:42","新北市石碇區光明路13號","121.680031666667","25.0336116666667","6501900","石碇區"
"223001","592-UM","2018/08/27 09:19:41","新北市石碇區北宜路六段十三股巷1號","121.649066666667","24.946785","6501900","石碇區"
"223004","660-BX","2018/08/27 09:19:56","新北市石碇區碇坪路二段9號","121.6805","24.97576","6501900","石碇區"
"223005","677-TV","2018/08/27 09:19:48","新北市石碇區大崙18號","121.683721666667","24.9786933333333","6501900","石碇區"
"227005","282-VK","2018/08/27 08:58:19","新北市雙溪區泰平里料角坑19號","121.812288333333","24.9722333333333","6502500","雙溪區"
"252004","249-BX","2018/08/27 09:19:37","新北市三芝區店子里店子59號","121.502658333333","25.20556","6502100","三芝區"
"252006","AAC-283","2018/08/27 09:19:45","新北市三芝區埔坪里埔頭坑41號","121.504508333333","25.2644116666667","6502100","三芝區"
"237001","159-UY","2018/08/27 09:19:49","新北市三峽區隆恩街245號","121.357696666667","24.9409366666667","6500900","三峽區"
"236001","165-UM","2018/08/27 09:19:55","新北市土城區福祥街3號","121.440595","24.9793183333333","6501300","土城區"
"236001","KEA-2877","2018/08/27 09:19:38","新北市土城區中正路6號","121.442381666667","24.9750466666667","6501300","土城區"
"236005","498-BY","2018/08/27 09:19:44","新北市土城區中央路三段126巷34號","121.434796666667","24.96788","6501300","土城區"
"242033","AAC-296","2018/08/27 09:19:38","新北市新莊區建中街90巷7弄2號","121.44671","25.0378066666667","6500500","新莊區"
"242057","986-R7","2018/08/27 09:19:41","新北市新莊區龍安路266巷34號","121.421526666667","25.0185666666667","6500500","新莊區"
"242052","751-BX","2018/08/27 09:19:38","新北市新莊區西盛街390號","121.427748333333","25.01291","6500500","新莊區"
"242026","615-BX","2018/08/27 09:19:53","新北市新莊區思源路213號","121.459861666667","25.046065","6500500","新莊區"
"242024","613-BX","2018/08/27 09:19:54","新北市新莊區五工三路62巷32號","121.460343333333","25.0654283333333","6500500","新莊區"
"242040","566-BX","2018/08/27 09:19:43","新北市新莊區天祥街54巷2弄1號","121.41666","25.0291833333333","6500500","新莊區"
"242045","497-BY","2018/08/27 09:19:46","新北市新莊區裕民街90巷15號","121.417763333333","25.023745","6500500","新莊區"
"242020","442-UM","2018/08/27 09:19:53","新北市新莊區公園路100號","121.450735","25.03981","6500500","新莊區"
"242049","441-UM","2018/08/27 09:19:48","新北市新莊區民安西路58號","121.427351666667","25.0204716666667","6500500","新莊區"
"242055","440-UM","2018/08/27 09:19:38","新北市新莊區豐年街50巷3號","121.446121666667","25.03175","6500500","新莊區"
"242035","415-TV","2018/08/27 09:19:39","新北市新莊區建安街76巷5弄1號","121.426158333333","25.0250066666667","6500500","新莊區"
"242043","400-BY","2018/08/27 09:19:53","新北市新莊區中正路929巷22號","121.411271666667","25.019935","6500500","新莊區"
"242022","362-BY","2018/08/27 09:19:43","新北市新莊區化成路205號","121.465896666667","25.0508716666667","6500500","新莊區"
"242059","353-BY","2018/08/27 09:19:42","新北市新莊區瓊林路70號","121.44519","25.0286166666667","6500500","新莊區"
"242008","132-UY","2018/08/27 09:19:56","新北市新莊區幸福路64巷3弄2號","121.457096666667","25.0499566666667","6500500","新莊區"
"242038","133-UY","2018/08/27 09:19:50","新北市新莊區民安路302號","121.428291666667","25.0217933333333","6500500","新莊區"
"242030","135-UY","2018/08/27 09:19:38","新北市新莊區忠孝街29巷40號","121.443633333333","25.0372633333333","6500500","新莊區"
"242047","172-VK","2018/08/27 09:19:51","新北市新莊區龍安路218號","121.420173333333","25.0199133333333","6500500","新莊區"
"242003","176-VK","2018/08/27 09:19:50","新北市新莊區頭興街3巷1號","121.463356666667","25.0535083333333","6500500","新莊區"
"242014","346-TH","2018/08/27 09:19:45","新北市新莊區中和街6號","121.44846","25.0429683333333","6500500","新莊區"
"242001","349-TH","2018/08/27 09:19:44","新北市新莊區明中街12-27號","121.457888333333","25.0390816666667","6500500","新莊區"
"242018","350-TH","2018/08/27 09:19:51","新北市新莊區銘德街139號","121.454776666667","25.0429216666667","6500500","新莊區"
"242012","281-VK","2018/08/27 09:19:47","新北市新莊區中信街70號","121.448458333333","25.0515866666667","6500500","新莊區"
"220023","303-R5","2018/08/27 09:11:56","新北市板橋區溪城路90-2號","121.429176666667","24.980035","6500100","板橋區"
"242010","280-VK","2018/08/27 09:19:55","新北市新莊區中信街21號","121.451045","25.0507383333333","6500500","新莊區"
