"lineid","car","time","location","longitude","latitude","cityid","cityname"
"234044","148-BY","2018/08/27 13:59:21","新北市永和區成功路一段40號","121.527043333333","25.0044533333333","6500400","永和區"
"234070","149-BY","2018/08/27 13:59:12","新北市永和區福和路1號","121.526241666667","25.009755","6500400","永和區"
"234005","207-UY","2018/08/27 13:59:22","新北市永和區中和路449號","121.509856666667","25.0012833333333","6500400","永和區"
"234078","298-R6","2018/08/27 13:59:30","新北市永和區永利路83號","121.521376666667","25.00354","6500400","永和區"
"234036","336-UY","2018/08/27 13:59:30","新北市永和區成功路二段152-2號","121.526531666667","24.9966433333333","6500400","永和區"
"234062","337-UY","2018/08/27 13:59:03","新北市永和區中正路372號","121.517818333333","25.0010066666667","6500400","永和區"
"234084","338-UY","2018/08/27 13:59:21","新北市永和區福和路10巷2號","121.524755","25.0087116666667","6500400","永和區"
"234068","552-UM","2018/08/27 13:59:27","新北市永和區國光路39-1號","121.519131666667","25.0083016666667","6500400","永和區"
"234015","745-BX","2018/08/27 13:59:26","新北市永和區文化路123號","121.51223","25.0153116666667","6500400","永和區"
"234028","746-BX","2018/08/27 13:59:25","新北市永和區民生路67巷8號","121.523041666667","24.9971916666667","6500400","永和區"
"234052","KEA-2590","2018/08/27 13:59:28","新北市永和區竹林路64號","121.518351666667","25.0134433333333","6500400","永和區"
"234012","KEA-2591","2018/08/27 13:59:19","新北市永和區保安路292號","121.505288333333","25.01198","6500400","永和區"
"234060","AAD-866","2018/08/27 13:59:32","新北市永和區中正路151巷14號","121.515565","24.9988566666667","6500400","永和區"
"234040","862-TW","2018/08/27 13:59:24","新北市永和區中和路421巷5弄16號","121.50832","25.0007333333333","6500400","永和區"
"234048","863-TW","2018/08/27 13:59:21","新北市永和區永平路302巷32弄21號","121.507853333333","25.0134483333333","6500400","永和區"
"234025","9371-KE","2018/08/27 13:59:16","新北市永和區自由街58號","121.513863333333","25.0059966666667","6500400","永和區"
"234010","9373-KE","2018/08/27 13:59:16","新北市永和區仁愛路352巷92弄20號","121.501365","25.0083266666667","6500400","永和區"
"248015","026-BX","2018/08/27 13:59:31","新北市五股區成泰路三段543巷12弄8號","121.451261666667","25.1022216666667","6501500","五股區"
"248007","095-VK","2018/08/27 13:59:26","新北市五股區中興路一段128巷11號","121.465623333333","25.0741016666667","6501500","五股區"
"248019","225-UY","2018/08/27 13:59:20","新北市五股區凌雲路三段71-9號","121.423438333333","25.1244733333333","6501500","五股區"
"248011","247-BX","2018/08/27 13:59:25","新北市五股區成泰路二段195巷1號","121.440331666667","25.0873633333333","6501500","五股區"
"248003","677-BX","2018/08/27 13:59:21","新北市五股區民義路一段301號","121.421488333333","25.0960416666667","6501500","五股區"
"248001","678-BX","2018/08/27 13:59:14","新北市五股區凌雲路一段163號","121.448906666667","25.10261","6501500","五股區"
"248009","682-TV","2018/08/27 13:59:19","新北市五股區水碓一路23號","121.430635","25.071285","6501500","五股區"
"234022","9380-KE","2018/08/27 13:59:18","新北市永和區永和路二段280號","121.515966666667","25.0154033333333","6500400","永和區"
"234076","969-R7","2018/08/27 13:59:22","新北市永和區民族街45號","121.518563333333","24.99841","6500400","永和區"
"234072","AAC-211","2018/08/27 13:59:18","新北市永和區豫溪街185號","121.52249","25.0103616666667","6500400","永和區"
"234066","AAC-212","2018/08/27 13:59:32","新北市永和區永貞路356號","121.510295","25.0065616666667","6500400","永和區"
"234001","AAC-295","2018/08/27 13:59:10","新北市永和區福和路345號","121.51537","25.007195","6500400","永和區"
"232012","291-BY","2018/08/27 13:59:17","新北市樹林區佳園路三段103號","121.387753333333","24.9515083333333","6502000","坪林區"
"243005","AAD-798","2018/08/27 13:59:18","新北市泰山區明志路三段206巷1號","121.423328333333","25.03774","6501600","泰山區"
"243008","KEA-2801","2018/08/27 13:59:18","新北市泰山區明志路二段137號","121.42769","25.050695","6501600","泰山區"
"243007","421-VK","2018/08/27 13:59:24","新北市泰山區美寧街3號","121.43004","25.0634333333333","6501600","泰山區"
"243003","KEA-2215","2018/08/27 13:59:15","新北市泰山區明志路二段253號","121.427216666667","25.0477516666667","6501600","泰山區"
"243002","KEA-2216","2018/08/27 13:59:17","新北市泰山區辭修路30號","121.429","25.0582283333333","6501600","泰山區"
"243004","646-TV","2018/08/27 13:59:22","新北市泰山區仁德路112號","121.432715","25.0569916666667","6501600","泰山區"
"243006","680-BX","2018/08/27 13:59:15","新北市泰山區黎明路23號","121.420906666667","25.0625833333333","6501600","泰山區"
"231002","002-UM","2018/08/27 13:59:27","新北市新店區溪園路205號","121.527378333333","24.9848566666667","6500600","新店區"
"231027","0291-UT","2018/08/27 13:59:22","新北市新店區中興路一段24-2號","121.538615","24.9582916666667","6500600","新店區"
"231028","046-UY","2018/08/27 13:59:22","新北市新店區安和路三段7號","121.518075","24.9805916666667","6500600","新店區"
"231001","047-UY","2018/08/27 13:59:26","新北市新店區三民路45號","121.537118333333","24.9708816666667","6500600","新店區"
"231019","108-UY","2018/08/27 13:59:27","新北市新店區湖子內路1號","121.542646666667","24.93017","6500600","新店區"
"231011","187-VK","2018/08/27 13:59:23","新北市新店區中興路二段59號","121.546468333333","24.9704616666667","6500600","新店區"
"231023","KEA-2219","2018/08/27 13:59:29","新北市新店區文中路45號","121.539616666667","24.9566583333333","6500600","新店區"
"231026","256-BX","2018/08/27 13:59:22","新北市新店區環河路18號","121.536965","24.9617166666667","6500600","新店區"
"231003","268-BY","2018/08/27 13:59:17","新北市新店區光明街138巷13弄1號","121.540321666667","24.9610983333333","6500600","新店區"
"231018","278-BY","2018/08/27 13:59:16","新北市新店區中央路133巷20弄4號","121.530848333333","24.97337","6500600","新店區"
"231014","AAD-862","2018/08/27 13:59:13","新北市新店區郵政路3巷5號","121.557356666667","24.9520133333333","6500600","新店區"
"231005","355-BY","2018/08/27 13:59:25","新北市新店區中興路三段186號","121.544085","24.9815033333333","6500600","新店區"
"231038","3712-VJ","2018/08/27 13:59:16","新北市新店區安華路30巷3號","121.519588333333","24.959235","6500600","新店區"
"231037","4716-K9","2018/08/27 13:59:27","新北市新店區安康路三段355巷6號","121.48468","24.9504066666667","6500600","新店區"
"231025","4715-K9","2018/08/27 13:59:23","新北市新店區中正路328巷27號","121.537515","24.97571","6500600","新店區"
"231036","512-UM","2018/08/27 13:59:27","新北市新店區安祥路110巷30弄13號","121.474241666667","24.9569616666667","6500600","新店區"
"231013","513-UM","2018/08/27 13:59:18","新北市新店區北新路三段19號","121.541805","24.97963","6500600","新店區"
"231030","619-UM","2018/08/27 13:59:32","新北市新店區安康路一段244-1號","121.52134","24.9638883333333","6500600","新店區"
"231034","641-BX","2018/08/27 13:59:31","新北市新店區達觀路41號","121.502795","24.9382566666667","6500600","新店區"
"231035","719-UM","2018/08/27 13:59:12","新北市新店區安康路二段85巷1號","121.513556666667","24.9625816666667","6500600","新店區"
"231031","720-UM","2018/08/27 13:59:25","新北市新店區華城路34-1號","121.528813333333","24.9563116666667","6500600","新店區"
"231029","897-TW","2018/08/27 13:59:23","新北市新店區安和路一段1號","121.516525","24.9638066666667","6500600","新店區"
"231006","898-TW","2018/08/27 13:59:21","新北市新店區北宜路二段207號","121.553125","24.9533216666667","6500600","新店區"
"231004","899-TW","2018/08/27 13:59:23","新北市新店區北新路二段125號","121.542885","24.9752166666667","6500600","新店區"
"231024","AKT-0513","2018/08/27 13:59:25","新北市新店區新生街13巷18號","121.539093333333","24.9660633333333","6500600","新店區"
"235030","003-UY","2018/08/27 13:59:26","新北市中和區中山路二段131巷5弄5號","121.50286","25.0029416666667","6500300","中和區"
"235028","005-UY","2018/08/27 13:59:19","新北市中和區泰和街30巷30號","121.498811666667","25.0014133333333","6500300","中和區"
"235027","006-UY","2018/08/27 13:59:19","新北市中和區中正路636號","121.485571666667","24.9962466666667","6500300","中和區"
"235020","096-UM","2018/08/27 13:59:21","新北市板橋區三民路二段218號","121.47887","25.011665","6500300","中和區"
"235003","097-UM","2018/08/27 13:59:29","新北市中和區秀朗路三段179號","121.524473333333","24.99076","6500300","中和區"
"235029","098-UM","2018/08/27 13:59:11","新北市中和區勝利路11號","121.499648333333","25.0080683333333","6500300","中和區"
"235004","150-BY","2018/08/27 13:59:14","新北市中和區保健路58號","121.510743333333","24.9967133333333","6500300","中和區"
"235022","151-BY","2018/08/27 13:59:29","新北市中和區員山路77巷3號","121.480423333333","24.99412","6500300","中和區"
"235019","183-VK","2018/08/27 13:59:11","新北市板橋區民族路276巷3弄15號","121.4702","25.0062633333333","6500300","中和區"
"235002","185-VK","2018/08/27 13:59:21","新北市中和區立人街24-4號","121.518945","24.9941833333333","6500300","中和區"
"235013","186-VK","2018/08/27 13:59:18","新北市中和區景新街205-15號","121.50726","24.9951","6500300","中和區"
"235031","255-BX","2018/08/27 13:59:26","新北市中和區民樂路26號","121.482566666667","25.0012433333333","6500300","中和區"
"235008","293-VK","2018/08/27 13:59:21","新北市中和區復興路280巷33弄5號","121.50144","24.9913683333333","6500300","中和區"
"235036","301-VK","2018/08/27 13:59:25","新北市中和區中山路二段81號","121.503666666667","25.004265","6500300","中和區"
"235007","352-BY","2018/08/27 13:59:24","新北市中和區秀朗路三段74-3號","121.526245","24.9941183333333","6500300","中和區"
"235006","KEA-2878","2018/08/27 13:59:26","新北市中和區秀朗路三段128巷18號","121.524541666667","24.9932533333333","6500300","中和區"
"235033","4980-A6","2018/08/27 13:59:29","新北市中和區景平路620號","121.500555","24.99703","6500300","中和區"
"235034","558-UM","2018/08/27 13:59:31","新北市中和區中和路241號","121.504673333333","24.99981","6500300","中和區"
"235009","565-BX","2018/08/27 13:59:21","新北市中和區景新街467巷20弄126號","121.5149","24.9872416666667","6500300","中和區"
"235018","640-BX","2018/08/27 13:59:17","新北市中和區中山路三段147號","121.47369","25.00615","6500300","中和區"
"235024","647-TV","2018/08/27 13:59:14","新北市中和區民治街17巷1號","121.475238333333","25.0030133333333","6500300","中和區"
"235011","732-UM","2018/08/27 13:59:24","新北市中和區興南路二段54巷11弄2號","121.505676666667","24.9856166666667","6500300","中和區"
"235010","733-UM","2018/08/27 13:59:15","新北市中和區興南路一段135巷22弄2號","121.509166666667","24.98687","6500300","中和區"
"235035","783-BX","2018/08/27 13:59:31","新北市中和區立德街55號","121.48803","25.0075533333333","6500300","中和區"
"235026","800-TS","2018/08/27 13:59:16","新北市中和區中山路二段342號","121.493696666667","25.0022733333333","6500300","中和區"
"235021","801-TS","2018/08/27 13:59:15","新北市中和區民利街58巷5號","121.47869","24.999335","6500300","中和區"
"235016","805-TS","2018/08/27 13:59:15","新北市中和區興南路二段261巷6-1號","121.503048333333","24.979845","6500300","中和區"
"235012","896-TW","2018/08/27 13:59:14","新北市中和區華新街33號","121.507716666667","24.9847133333333","6500300","中和區"
"235017","900-TW","2018/08/27 13:59:15","新北市中和區壽德街26號","121.466661666667","24.9944183333333","6500300","中和區"
"235005","911-UM","2018/08/27 13:59:24","新北市中和區中安街42號","121.512983333333","25.0026166666667","6500300","中和區"
"235015","157-BY","2018/08/27 13:59:24","新北市中和區忠孝街19巷12號","121.510121666667","24.98324","6500300","中和區"
"235001","AAC-213","2018/08/27 13:59:12","新北市中和區秀朗路三段10巷14弄43號","121.524085","24.996325","6500300","中和區"
"235023","AAC-215","2018/08/27 13:59:22","新北市中和區圓通路367巷20弄29號","121.49131","24.98819","6500300","中和區"
"220013","072-UY","2018/08/27 13:59:23","新北市板橋區漢生東路324號","121.471793333333","25.0078883333333","6500100","板橋區"
"220034","073-UY","2018/08/27 13:59:30","新北市板橋區中正路236巷37號","121.457448333333","25.019375","6500100","板橋區"
"220105","075-UY","2018/08/27 13:59:20","新北市板橋區文化路二段124巷28-2號","121.471198333333","25.0256783333333","6500100","板橋區"
"220017","AAD-861","2018/08/27 13:59:14","新北市板橋區華興街68號","121.457418333333","25.00495","6500100","板橋區"
"247013","546-UM","2018/08/27 13:59:18","新北市蘆洲區中正路128號","121.469378333333","25.08487","6501400","蘆洲區"
"247011","339-TH","2018/08/27 13:59:20","新北市蘆洲區民族路158號","121.47961","25.086195","6501400","蘆洲區"
"247003","337-TH","2018/08/27 13:59:26","新北市蘆洲區長榮路38-3號","121.463318333333","25.0827433333333","6501400","蘆洲區"
"247005","336-TH","2018/08/27 13:59:19","新北市蘆洲區九芎街71巷33號","121.466141666667","25.07763","6501400","蘆洲區"
"247017","057-VK","2018/08/27 13:59:20","新北市蘆洲區民族路327巷93號","121.475775","25.0889933333333","6501400","蘆洲區"
"247007","056-VK","2018/08/27 13:59:25","新北市蘆洲區重陽一街1號","121.481875","25.0813883333333","6501400","蘆洲區"
"247015","007-UY","2018/08/27 13:59:19","新北市蘆洲區光華路42號","121.46894","25.0831033333333","6501400","蘆洲區"
"247001","002-UY","2018/08/27 13:59:28","新北市蘆洲區三民路605號","121.460608333333","25.0936883333333","6501400","蘆洲區"
"247019","001-UY","2018/08/27 13:59:16","新北市蘆洲區民族路422巷82弄2號","121.473728333333","25.0937283333333","6501400","蘆洲區"
"253003","6232-TK","2018/08/27 13:59:23","新北市石門區尖子鹿7-2號","121.574865","25.27999","6502200","石門區"
"253001","6251-TK","2018/08/27 13:59:17","新北市石門區八甲53-2號","121.521506666667","25.275485","6502200","石門區"
"253002","637-UY","2018/08/27 13:59:19","新北市石門區尖山湖1-1號","121.566746666667","25.2453016666667","6502200","石門區"
"253004","8270-PC","2018/08/27 13:59:22","新北市石門區草埔尾16號","121.60279","25.2634416666667","6502200","石門區"
"207002","749-BX","2018/08/27 13:59:14","新北市萬里區溪底里烏塗炭9號","121.636778333333","25.15129","6502800","萬里區"
"252005","073-UM","2018/08/27 13:59:28","新北市三芝區圓山里二坪頂71號","121.53766","25.240925","6502100","三芝區"
"207001","662-BX","2018/08/27 13:59:31","新北市萬里區磺潭里磺溪12-1號","121.632935","25.20242","6502800","萬里區"
"237001","159-UY","2018/08/27 13:59:16","新北市樹林區柑園街二段426號","121.364696666667","24.947335","6500900","三峽區"
"236064","105-UM","2018/08/27 13:59:17","新北市土城區中華路一段277號","121.440171666667","24.9801416666667","6501300","土城區"
"236040","107-UM","2018/08/27 13:59:24","新北市土城區中央路二段7號","121.442998333333","24.98077","6501300","土城區"
"236074","166-UM","2018/08/27 13:59:11","新北市土城區永寧路32巷10弄23號","121.428853333333","24.96109","6501300","土城區"
"236029","253-BX","2018/08/27 13:59:25","新北市土城區城林路6巷80號","121.43838","24.9798116666667","6501300","土城區"
"236024","269-VK","2018/08/27 13:59:20","新北市土城區忠義路2號","121.44012","24.970295","6501300","土城區"
"236012","270-VK","2018/08/27 13:59:16","新北市土城區中央路二段280號","121.440736666667","24.9740333333333","6501300","土城區"
"236032","271-VK","2018/08/27 13:59:12","新北市土城區城林路6巷80號","121.438495","24.9798216666667","6501300","土城區"
"236016","401-BY","2018/08/27 13:59:13","新北市土城區城林路6巷80號","121.438511666667","24.97981","6501300","土城區"
"236005","498-BY","2018/08/27 13:59:32","新北市土城區中央路一段365巷27弄1號","121.44672","24.9798316666667","6501300","土城區"
"236057","912-UM","2018/08/27 13:59:23","新北市土城區中央路四段3號","121.425535","24.9629633333333","6501300","土城區"
"236045","913-UM","2018/08/27 13:59:15","新北市土城區城林路6巷80號","121.438678333333","24.9797466666667","6501300","土城區"
"236060","915-UM","2018/08/27 13:59:19","新北市土城區中央路二段280號","121.440625","24.9740066666667","6501300","土城區"
"236054","AAC-216","2018/08/27 13:59:20","新北市土城區城林路6巷80號","121.438626666667","24.9798","6501300","土城區"
"239004","292-BY","2018/08/27 13:44:00","新北市鶯歌區鶯桃路206巷24弄30-1號","121.338431666667","24.9591683333333","6500800","鶯歌區"
"221010","269-BY","2018/08/27 13:59:22","新北市汐止區八連路二段619號","121.620086666667","25.1123383333333","6501100","汐止區"
"220027","145-BY","2018/08/27 13:59:31","新北市板橋區民權路202巷1弄2-3號","121.45945","25.0141583333333","6500100","板橋區"
"220028","200-UY","2018/08/27 13:59:12","新北市板橋區大觀路二段265巷3弄1號","121.442861666667","24.99847","6500100","板橋區"
"220030","610-BX","2018/08/27 13:59:30","新北市板橋區滿平街81巷120弄22號","121.427893333333","24.989005","6500100","板橋區"
"220050","245-BX","2018/08/27 13:59:16","新北市板橋區文化路二段182巷1弄4號","121.471318333333","25.0275283333333","6500100","板橋區"
"220004","276-BY","2018/08/27 13:59:27","新北市板橋區信義路117號","121.457755","24.993385","6500100","板橋區"
"220020","277-BY","2018/08/27 13:59:26","新北市板橋區溪北路154號","121.430473333333","24.9882966666667","6500100","板橋區"
"220011","280-UM","2018/08/27 13:59:18","新北市板橋區中山路二段176號","121.477191666667","25.0173266666667","6500100","板橋區"
"220019","283-VK","2018/08/27 13:59:31","新北市板橋區忠孝路154巷49號","121.464461666667","25.0009266666667","6500100","板橋區"
"220043","285-UM","2018/08/27 13:59:18","新北市板橋區文化路二段76號","121.469433333333","25.0250783333333","6500100","板橋區"
"220001","285-VK","2018/08/27 13:59:22","新北市板橋區中山路二段89巷37號","121.47366","25.0170616666667","6500100","板橋區"
"220029","287-VK","2018/08/27 13:59:21","新北市板橋區光華街19巷8號","121.45363","25.0121333333333","6500100","板橋區"
"220039","288-VK","2018/08/27 13:59:13","新北市板橋區民生路三段117號","121.466556666667","25.0256333333333","6500100","板橋區"
"220009","295-UM","2018/08/27 13:59:30","新北市板橋區富山街109巷2號","121.4761","25.021955","6500100","板橋區"
"220032","296-UM","2018/08/27 13:59:24","新北市板橋區大觀路三段52號","121.432456666667","24.995945","6500100","板橋區"
"220023","303-R5","2018/08/27 13:59:19","新北市板橋區館前西路267號","121.453883333333","25.0087633333333","6500100","板橋區"
"220010","305-R5","2018/08/27 13:59:17","新北市板橋區民生路二段161巷3號","121.470141666667","25.0197716666667","6500100","板橋區"
"220041","307-R5","2018/08/27 13:59:23","新北市板橋區文化路一段104巷19號","121.464981666667","25.01793","6500100","板橋區"
"220047","317-R6","2018/08/27 13:59:18","新北市板橋區民生路三段119號","121.46658","25.025715","6500100","板橋區"
"220012","486-VK","2018/08/27 13:59:24","新北市板橋區縣民大道二段122號","121.467531666667","25.015775","6500100","板橋區"
"220037","491-VK","2018/08/27 13:59:18","新北市板橋區民生路二段120號","121.470726666667","25.0195033333333","6500100","板橋區"
"220104","560-BX","2018/08/27 13:59:20","新北市板橋區中正路325巷8號","121.454363333333","25.0198566666667","6500100","板橋區"
"220052","561-BX","2018/08/27 13:59:29","新北市板橋區縣民大道二段283號","121.470273333333","25.017945","6500100","板橋區"
"220031","568-UM","2018/08/27 13:59:32","新北市板橋區大觀路一段38巷156弄15號","121.442501666667","25.005275","6500100","板橋區"
"220040","637-BX","2018/08/27 13:59:24","新北市板橋區雙十路二段47巷52號","121.474815","25.02536","6500100","板橋區"
"220005","686-BX","2018/08/27 13:59:27","新北市板橋區重慶路89巷2-1號","121.462116666667","25.0060983333333","6500100","板橋區"
"220025","687-BX","2018/08/27 13:59:15","新北市板橋區大觀路二段174巷137號","121.441238333333","25.00216","6500100","板橋區"
"220042","689-BX","2018/08/27 13:59:27","新北市板橋區民生路三段58號","121.46718","25.0253183333333","6500100","板橋區"
"220002","741-BX","2018/08/27 13:59:19","新北市板橋區後埔街89號","121.46078","25.00508","6500100","板橋區"
"220051","KEA-2699","2018/08/27 13:59:27","新北市板橋區雙十路一段44巷36號","121.47724","25.024865","6500100","板橋區"
"220003","827-TW","2018/08/27 13:59:29","新北市板橋區新站路3號","121.467183333333","25.011305","6500100","板橋區"
"220014","829-TW","2018/08/27 13:59:33","新北市板橋區三民路二段186巷4號","121.478471666667","25.0148616666667","6500100","板橋區"
"220016","830-TW","2018/08/27 13:59:24","新北市板橋區中山路二段443巷76號","121.481126666667","25.0222783333333","6500100","板橋區"
"220045","831-TW","2018/08/27 13:59:26","新北市板橋區莒光路93號","121.472241666667","25.0240583333333","6500100","板橋區"
"220038","833-TW","2018/08/27 13:59:14","新北市板橋區莊敬路2號","121.473975","25.028715","6500100","板橋區"
"220022","895-R6","2018/08/27 13:59:31","新北市板橋區南雅南路一段8號","121.455901666667","25.0062566666667","6500100","板橋區"
"220021","985-R7","2018/08/27 13:59:28","新北市板橋區館前西路209號","121.454928333333","25.00836","6500100","板橋區"
"220046","AAC-210","2018/08/27 13:59:21","新北市板橋區漢生東路1號","121.464551666667","25.0175233333333","6500100","板橋區"
"220018","AAC-253","2018/08/27 13:59:13","新北市板橋區四川路一段263號","121.459718333333","25.002245","6500100","板橋區"
"235032","KEA-2873","2018/08/27 13:59:18","新北市中和區連城路89巷66號","121.497731666667","24.9982483333333","6500300","中和區"
"235025","KEA-2875","2018/08/27 13:59:04","新北市中和區民享街41號","121.474218333333","25.0031633333333","6500300","中和區"
