"lineid","car","time","location","longitude","latitude","cityid","cityname"
"234070","149-BY","2018/08/27 14:10:12","新北市永和區福和路1號","121.526236666667","25.0097833333333","6500400","永和區"
"234005","207-UY","2018/08/27 14:10:22","新北市中和區中和路232號","121.506698333333","24.99951","6500400","永和區"
"234078","298-R6","2018/08/27 14:10:23","新北市永和區國中路101號","121.524178333333","25.006205","6500400","永和區"
"234036","336-UY","2018/08/27 14:10:30","新北市永和區成功路一段45號","121.527043333333","25.0041416666667","6500400","永和區"
"234062","337-UY","2018/08/27 14:10:11","新北市永和區永利路94巷6號","121.520523333333","25.0034466666667","6500400","永和區"
"234084","338-UY","2018/08/27 14:10:21","新北市永和區中正路575-1號","121.516771666667","25.0086166666667","6500400","永和區"
"234068","552-UM","2018/08/27 14:10:28","新北市永和區永貞路10巷8號","121.520378333333","25.0072916666667","6500400","永和區"
"234028","746-BX","2018/08/27 14:10:31","新北市永和區民生路22巷7號","121.522046666667","24.9972616666667","6500400","永和區"
"234052","KEA-2590","2018/08/27 14:10:28","新北市永和區環河東路一段118號","121.52049","25.0159216666667","6500400","永和區"
"234012","KEA-2591","2018/08/27 14:10:19","新北市永和區仁愛路263號","121.506406666667","25.0100683333333","6500400","永和區"
"234060","AAD-866","2018/08/27 14:10:12","新北市永和區安樂路100巷15號","121.514576666667","24.9992216666667","6500400","永和區"
"234040","862-TW","2018/08/27 14:10:24","新北市永和區雙和街24號","121.508908333333","25.0022916666667","6500400","永和區"
"234048","863-TW","2018/08/27 14:10:21","新北市永和區環河西路二段63號","121.506986666667","25.0153266666667","6500400","永和區"
"234025","9371-KE","2018/08/27 14:10:15","新北市永和區安樂路270號","121.514551666667","25.0041616666667","6500400","永和區"
"248015","026-BX","2018/08/27 14:10:11","新北市五股區成泰路三段543巷29號","121.450186666667","25.1027183333333","6501500","五股區"
"248007","095-VK","2018/08/27 14:10:26","新北市五股區中興路一段118巷20號","121.466","25.074385","6501500","五股區"
"248019","225-UY","2018/08/27 14:06:10","新北市五股區凌雲路三段57號","121.425295","25.1250333333333","6501500","五股區"
"248011","247-BX","2018/08/27 14:10:25","新北市五股區工商路57號","121.439063333333","25.0841883333333","6501500","五股區"
"248003","677-BX","2018/08/27 14:10:21","新北市五股區五福路11-6號","121.434233333333","25.0887683333333","6501500","五股區"
"248001","678-BX","2018/08/27 14:10:14","新北市五股區成泰路三段577巷77號","121.449825","25.1036983333333","6501500","五股區"
"248009","682-TV","2018/08/27 14:10:19","新北市五股區水碓一路23號","121.43066","25.071275","6501500","五股區"
"234072","AAC-211","2018/08/27 14:10:18","新北市永和區豫溪街156號","121.522973333333","25.009815","6500400","永和區"
"234066","AAC-212","2018/08/27 14:10:19","新北市永和區保平路238號","121.50914","25.00552","6500400","永和區"
"234001","AAC-295","2018/08/27 14:10:30","新北市永和區中正路684號","121.51671","25.00945","6500400","永和區"
"232012","291-BY","2018/08/27 14:10:17","新北市新店區安利街16號","121.52012","24.9744216666667","6502000","坪林區"
"243005","AAD-798","2018/08/27 14:10:27","新北市泰山區台麗街16巷8號","121.424453333333","25.0377416666667","6501600","泰山區"
"243001","297-R6","2018/08/27 14:10:29","新北市泰山區文化街18號","121.434475","25.0634383333333","6501600","泰山區"
"243008","KEA-2801","2018/08/27 14:10:33","新北市泰山區明志路二段343號","121.425475","25.0446233333333","6501600","泰山區"
"243007","421-VK","2018/08/27 14:10:24","新北市泰山區明志路一段453-1號","121.430821666667","25.0563166666667","6501600","泰山區"
"243003","KEA-2215","2018/08/27 14:10:15","新北市泰山區明志路二段325號","121.425865","25.0450216666667","6501600","泰山區"
"243002","KEA-2216","2018/08/27 14:10:17","新北市泰山區明志路一段483巷1弄2號","121.431218333333","25.0553383333333","6501600","泰山區"
"243004","646-TV","2018/08/27 14:10:21","新北市泰山區明志路一段374號","121.430543333333","25.05777","6501600","泰山區"
"243006","680-BX","2018/08/27 14:10:15","新北市泰山區泰林路二段410號","121.42734","25.0643733333333","6501600","泰山區"
"231002","002-UM","2018/08/27 14:10:27","新北市新店區中正路554號","121.533691666667","24.9868583333333","6500600","新店區"
"231027","0291-UT","2018/08/27 14:10:22","新北市新店區光明街138巷13弄9號","121.540163333333","24.96152","6500600","新店區"
"231028","046-UY","2018/08/27 14:10:22","新北市新店區安和路三段76號","121.518086666667","24.983765","6500600","新店區"
"231001","047-UY","2018/08/27 14:10:26","新北市新店區中華路62號","121.539348333333","24.9689466666667","6500600","新店區"
"231019","108-UY","2018/08/27 14:10:27","新北市新店區自強路115號","121.54614","24.9231733333333","6500600","新店區"
"231011","187-VK","2018/08/27 14:10:30","新北市新店區中興路一段216號","121.544013333333","24.96574","6500600","新店區"
"231023","KEA-2219","2018/08/27 14:10:29","新北市新店區文中路45號","121.539695","24.9566933333333","6500600","新店區"
"231003","268-BY","2018/08/27 14:10:17","新北市新店區光明街96巷3號","121.539263333333","24.959955","6500600","新店區"
"231018","278-BY","2018/08/27 14:10:16","新北市新店區中央五街48-1號","121.528081666667","24.97519","6500600","新店區"
"231014","AAD-862","2018/08/27 14:10:33","新北市新店區玉山路22號","121.567786666667","24.9553333333333","6500600","新店區"
"231005","355-BY","2018/08/27 14:10:32","新北市新店區中興路三段315號","121.54191","24.9861116666667","6500600","新店區"
"231038","3712-VJ","2018/08/27 14:10:17","新北市新店區安康路一段321巷5-1號","121.522096666667","24.9625966666667","6500600","新店區"
"231037","4716-K9","2018/08/27 14:10:27","新北市新店區安康路三段230-1號","121.488056666667","24.9518","6500600","新店區"
"231036","512-UM","2018/08/27 14:10:27","新北市新店區安祥路109巷3弄98號","121.479116666667","24.9606516666667","6500600","新店區"
"231013","513-UM","2018/08/27 14:10:18","新北市新店區北新路三段65巷34弄18號","121.540088333333","24.98154","6500600","新店區"
"231030","619-UM","2018/08/27 14:10:12","新北市新店區安民街115巷28號","121.515126666667","24.967565","6500600","新店區"
"231034","641-BX","2018/08/27 14:10:11","新北市新店區車子路11號","121.503041666667","24.9520266666667","6500600","新店區"
"231035","719-UM","2018/08/27 14:10:12","新北市新店區安和路二段115號","121.518806666667","24.97032","6500600","新店區"
"231031","720-UM","2018/08/27 14:10:23","新北市新店區永業路28號","121.532903333333","24.9556133333333","6500600","新店區"
"231029","897-TW","2018/08/27 14:10:23","新北市新店區安康路二段125-1號","121.512425","24.9612233333333","6500600","新店區"
"231006","898-TW","2018/08/27 14:10:21","新北市新店區北宜路二段126號","121.556815","24.9538083333333","6500600","新店區"
"231004","899-TW","2018/08/27 14:10:19","新北市新店區北新路二段156-1號","121.543043333333","24.9755566666667","6500600","新店區"
"235030","003-UY","2018/08/27 14:10:26","新北市中和區廣福路26號","121.504898333333","25.002555","6500300","中和區"
"235028","005-UY","2018/08/27 14:10:19","新北市中和區中和路26巷16號","121.499243333333","25.0014733333333","6500300","中和區"
"235027","006-UY","2018/08/27 14:10:19","新北市中和區連勝街121巷2號","121.494818333333","24.994865","6500300","中和區"
"235020","096-UM","2018/08/27 14:10:24","新北市中和區員山路509號","121.47983","25.0064233333333","6500300","中和區"
"235003","097-UM","2018/08/27 14:10:29","新北市中和區秀峰街119巷6弄2號","121.519625","24.99005","6500300","中和區"
"235029","098-UM","2018/08/27 14:10:31","新北市中和區中山路二段64巷3號","121.503656666667","25.00491","6500300","中和區"
"235004","150-BY","2018/08/27 14:10:14","新北市中和區保健路44巷11號","121.50904","24.996675","6500300","中和區"
"235022","151-BY","2018/08/27 14:10:29","新北市中和區員山路80號","121.481061666667","24.9940833333333","6500300","中和區"
"235019","183-VK","2018/08/27 14:10:31","新北市中和區民德路2號","121.468678333333","25.0034483333333","6500300","中和區"
"235002","185-VK","2018/08/27 14:10:21","新北市中和區大仁街10巷27弄4號","121.51921","24.9927883333333","6500300","中和區"
"235013","186-VK","2018/08/27 14:10:18","新北市中和區明禮街5號","121.505158333333","24.9957566666667","6500300","中和區"
"235031","255-BX","2018/08/27 14:10:26","新北市中和區中正路711號","121.484545","24.9985733333333","6500300","中和區"
"235008","293-VK","2018/08/27 14:10:21","新北市中和區復興路340號","121.500266666667","24.9903783333333","6500300","中和區"
"235036","301-VK","2018/08/27 14:10:24","新北市中和區中山路二段211號","121.498978333333","25.0025216666667","6500300","中和區"
"235007","352-BY","2018/08/27 14:10:24","新北市中和區成功路52號","121.5261","24.9925883333333","6500300","中和區"
"235006","KEA-2878","2018/08/27 14:10:26","新北市中和區自強路17號","121.520546666667","24.9934666666667","6500300","中和區"
"247009","KEA-2869","2018/08/27 14:10:14","新北市蘆洲區三民路70號","121.475275","25.083695","6501400","蘆洲區"
"235033","4980-A6","2018/08/27 14:10:10","新北市中和區中和路217巷10號","121.50437","25.0004683333333","6500300","中和區"
"235034","558-UM","2018/08/27 14:10:11","新北市中和區連城路34號","121.498481666667","25.0020366666667","6500300","中和區"
"235009","565-BX","2018/08/27 14:10:21","新北市中和區景新街467巷15弄11號","121.513686666667","24.9887533333333","6500300","中和區"
"235018","640-BX","2018/08/27 14:10:17","新北市中和區民德路189巷7號","121.46922","24.9990166666667","6500300","中和區"
"235024","647-TV","2018/08/27 14:10:27","新北市中和區民有街94號","121.476028333333","25.003455","6500300","中和區"
"235011","732-UM","2018/08/27 14:10:24","新北市中和區興南路一段52號","121.510771666667","24.9907883333333","6500300","中和區"
"235010","733-UM","2018/08/27 14:10:01","新北市中和區忠孝街1巷11號","121.508603333333","24.9836666666667","6500300","中和區"
"235035","783-BX","2018/08/27 14:10:11","新北市中和區立言街48號","121.488253333333","25.0067433333333","6500300","中和區"
"235026","800-TS","2018/08/27 14:10:16","新北市中和區橋和路102號","121.49081","25.0052283333333","6500300","中和區"
"235021","801-TS","2018/08/27 14:10:15","新北市中和區民利街50號","121.479321666667","24.998815","6500300","中和區"
"235016","805-TS","2018/08/27 14:10:15","新北市中和區興南路二段142巷19弄38號","121.502563333333","24.9835283333333","6500300","中和區"
"235012","896-TW","2018/08/27 14:10:14","新北市中和區工專路139號","121.508393333333","24.978925","6500300","中和區"
"235017","900-TW","2018/08/27 14:10:16","新北市中和區民德路274號","121.46791","24.9964816666667","6500300","中和區"
"235005","911-UM","2018/08/27 14:10:24","新北市中和區中安街178巷2號","121.510951666667","24.999585","6500300","中和區"
"235015","157-BY","2018/08/27 14:10:24","新北市中和區和平街2巷2弄1號","121.51014","24.9903483333333","6500300","中和區"
"235001","AAC-213","2018/08/27 14:10:32","新北市中和區秀朗路三段50巷2號","121.52587","24.9954616666667","6500300","中和區"
"235023","AAC-215","2018/08/27 14:10:22","新北市中和區圓通路294巷1號","121.488843333333","24.9893933333333","6500300","中和區"
"220013","072-UY","2018/08/27 14:10:14","新北市板橋區民族路223號","121.46968","25.007355","6500100","板橋區"
"220034","073-UY","2018/08/27 14:10:30","新北市板橋區中正路216巷2弄7號","121.456455","25.0182283333333","6500100","板橋區"
"220105","075-UY","2018/08/27 14:10:20","新北市板橋區雙十路三段10巷1號","121.47201","25.0308","6500100","板橋區"
"220017","AAD-861","2018/08/27 14:10:14","新北市板橋區貴興路3號","121.457868333333","25.0045166666667","6500100","板橋區"
"247023","893-R6","2018/08/27 14:10:16","新北市蘆洲區光榮路118-2號","121.464885","25.0892416666667","6501400","蘆洲區"
"247013","546-UM","2018/08/27 14:10:18","新北市蘆洲區忠孝路37號","121.471376666667","25.0858383333333","6501400","蘆洲區"
"247021","500-BY","2018/08/27 14:10:25","新北市蘆洲區三民路181號","121.47082","25.0873283333333","6501400","蘆洲區"
"247011","339-TH","2018/08/27 14:10:20","新北市蘆洲區信義路282號","121.477921666667","25.0871966666667","6501400","蘆洲區"
"247003","337-TH","2018/08/27 14:10:26","新北市蘆洲區中華街6巷3號","121.462421666667","25.0825133333333","6501400","蘆洲區"
"247005","336-TH","2018/08/27 14:10:27","新北市蘆洲區九芎街15巷5號","121.468081666667","25.0781316666667","6501400","蘆洲區"
"247017","057-VK","2018/08/27 14:10:20","新北市蘆洲區民族路203-1號","121.478081666667","25.0892083333333","6501400","蘆洲區"
"247007","056-VK","2018/08/27 14:10:25","新北市蘆洲區永安南路一段142巷66號","121.471781666667","25.0776983333333","6501400","蘆洲區"
"247015","007-UY","2018/08/27 14:10:19","新北市蘆洲區光華路46巷42號","121.46775","25.084515","6501400","蘆洲區"
"247001","002-UY","2018/08/27 14:10:27","新北市蘆洲區永平街56號","121.457586666667","25.0914716666667","6501400","蘆洲區"
"247019","001-UY","2018/08/27 14:10:16","新北市蘆洲區民族路426巷42號","121.47294","25.0933366666667","6501400","蘆洲區"
"253003","6232-TK","2018/08/27 14:10:23","新北市石門區尖子鹿53-1號","121.58264","25.2731766666667","6502200","石門區"
"253001","6251-TK","2018/08/27 14:10:17","新北市石門區八甲78號","121.529925","25.2631466666667","6502200","石門區"
"253002","637-UY","2018/08/27 14:07:19","新北市石門區尖山湖21號","121.557415","25.2483916666667","6502200","石門區"
"253004","8270-PC","2018/08/27 14:10:27","新北市石門區茂林社區226號","121.590413333333","25.2702233333333","6502200","石門區"
"207002","749-BX","2018/08/27 14:10:14","新北市萬里區溪底里瑞泉路1號","121.610553333333","25.1454483333333","6502800","萬里區"
"252005","073-UM","2018/08/27 14:10:28","新北市三芝區橫山里橫山49號","121.534688333333","25.25732","6502100","三芝區"
"207001","662-BX","2018/08/27 14:10:11","新北市萬里區磺潭里清水18號","121.637863333333","25.1977","6502800","萬里區"
"237001","159-UY","2018/08/27 14:10:16","新北市三峽區中山路459巷163-3號","121.348838333333","24.9332266666667","6500900","三峽區"
"236064","105-UM","2018/08/27 14:10:17","新北市土城區明德路一段130號","121.463695","24.979125","6501300","土城區"
"236040","107-UM","2018/08/27 14:10:24","新北市土城區裕生路81號","121.44686","24.9842683333333","6501300","土城區"
"236074","166-UM","2018/08/27 14:10:31","新北市土城區永安街9號","121.43406","24.9650633333333","6501300","土城區"
"236029","253-BX","2018/08/27 14:10:25","新北市土城區城林路6巷80號","121.43838","24.9798116666667","6501300","土城區"
"236024","269-VK","2018/08/27 14:10:20","新北市土城區承天路43巷1號","121.438973333333","24.9643133333333","6501300","土城區"
"236012","270-VK","2018/08/27 14:10:16","新北市土城區學成路1號","121.453506666667","24.9862166666667","6501300","土城區"
"236032","271-VK","2018/08/27 14:10:12","新北市土城區青雲路449號","121.458836666667","24.974805","6501300","土城區"
"236016","401-BY","2018/08/27 14:10:13","新北市土城區城林路6巷80號","121.438531666667","24.9797783333333","6501300","土城區"
"236005","498-BY","2018/08/27 14:10:12","新北市土城區中央路一段9號","121.4487","24.9911866666667","6501300","土城區"
"236057","912-UM","2018/08/27 14:10:23","新北市土城區中央路四段214號","121.415725","24.9573666666667","6501300","土城區"
"236045","913-UM","2018/08/27 14:10:15","新北市土城區明德路一段365-1號","121.453553333333","24.9790733333333","6501300","土城區"
"236060","915-UM","2018/08/27 14:10:19","新北市土城區金城路二段200號","121.45455","24.9815833333333","6501300","土城區"
"236054","AAC-216","2018/08/27 14:10:20","新北市土城區城林路6巷80號","121.438588333333","24.9798066666667","6501300","土城區"
"221010","269-BY","2018/08/27 14:10:22","新北市汐止區長青路210巷66號","121.615703333333","25.1156916666667","6501100","汐止區"
"221032","280-BY","2018/08/27 14:10:30","新北市汐止區龍安路44號","121.654133333333","25.0636833333333","6501100","汐止區"
"221002","129-UY","2018/08/27 13:57:05","新北市汐止區八連路一段311巷26號","121.638538333333","25.0866433333333","6501100","汐止區"
"220027","145-BY","2018/08/27 14:10:31","新北市板橋區民權路260巷1弄30號","121.458763333333","25.0157833333333","6500100","板橋區"
"220028","200-UY","2018/08/27 14:10:32","新北市板橋區大觀路二段7巷7號","121.447358333333","25.0036366666667","6500100","板橋區"
"220030","610-BX","2018/08/27 14:10:32","新北市板橋區溪崑二街63號","121.428095","24.99036","6500100","板橋區"
"220050","245-BX","2018/08/27 14:10:19","新北市板橋區民生路二段226巷10弄13號","121.470966666667","25.0213933333333","6500100","板橋區"
"220004","276-BY","2018/08/27 14:10:27","新北市板橋區信義路110巷2弄14號","121.457671666667","24.9926616666667","6500100","板橋區"
"220020","277-BY","2018/08/27 14:10:27","新北市板橋區金門街372巷33號","121.427456666667","24.9849666666667","6500100","板橋區"
"220011","280-UM","2018/08/27 14:10:18","新北市板橋區三民路二段167號","121.47927","25.01456","6500100","板橋區"
"220019","283-VK","2018/08/27 14:10:31","新北市板橋區重慶路232號","121.462825","25.0015783333333","6500100","板橋區"
"220043","285-UM","2018/08/27 14:10:28","新北市板橋區光武街161號","121.465401666667","25.0298133333333","6500100","板橋區"
"220001","285-VK","2018/08/27 14:10:22","新北市板橋區懷仁街24巷23號","121.475641666667","25.01923","6500100","板橋區"
"220029","287-VK","2018/08/27 14:10:22","新北市板橋區南雅西路二段193號","121.45181","25.01316","6500100","板橋區"
"220039","288-VK","2018/08/27 14:10:20","新北市板橋區四維路291巷4弄1號","121.462376666667","25.0282833333333","6500100","板橋區"
"220009","295-UM","2018/08/27 14:10:30","新北市板橋區三民路二段19號","121.479271666667","25.018165","6500100","板橋區"
"220032","296-UM","2018/08/27 14:10:24","新北市板橋區溪崑二街56巷36號","121.428278333333","24.99154","6500100","板橋區"
"220010","299-UM","2018/08/27 14:10:07","新北市板橋區三民路二段正隆巷75號","121.47602","25.012965","6500100","板橋區"
"220023","303-R5","2018/08/27 14:10:19","新北市板橋區倉後街1-6號","121.45541","25.0091083333333","6500100","板橋區"
"220041","307-R5","2018/08/27 14:10:28","新北市板橋區文化路二段225巷60弄46號","121.469148333333","25.029475","6500100","板橋區"
"220047","317-R6","2018/08/27 14:10:18","新北市板橋區四維路103巷26號","121.464645","25.0241133333333","6500100","板橋區"
"220012","486-VK","2018/08/27 14:10:32","新北市板橋區民生路一段28-12號","121.476515","25.0122683333333","6500100","板橋區"
"220037","491-VK","2018/08/27 14:10:18","新北市板橋區莊敬路56號","121.472778333333","25.0269533333333","6500100","板橋區"
"220104","560-BX","2018/08/27 14:10:20","新北市板橋區中正路381號","121.454223333333","25.021585","6500100","板橋區"
"220052","561-BX","2018/08/27 14:10:29","新北市板橋區文化路一段188巷9弄21號","121.468473333333","25.019565","6500100","板橋區"
"220031","568-UM","2018/08/27 14:10:31","新北市板橋區大觀路二段174巷178號","121.442023333333","25.003555","6500100","板橋區"
"220040","637-BX","2018/08/27 14:10:32","新北市板橋區縣民大道247巷33號","121.481961666667","25.0266433333333","6500100","板橋區"
"220005","686-BX","2018/08/27 14:10:17","新北市板橋區重慶路349-2號","121.46414","24.997925","6500100","板橋區"
"220025","687-BX","2018/08/27 14:10:15","新北市板橋區龍興街65巷2號","121.443645","25.00151","6500100","板橋區"
"220042","689-BX","2018/08/27 14:10:18","新北市板橋區民生路三段199號","121.4653","25.027785","6500100","板橋區"
"220002","741-BX","2018/08/27 14:10:19","新北市板橋區重慶路89巷19號","121.46291","25.006555","6500100","板橋區"
"220051","KEA-2699","2018/08/27 14:10:27","新北市板橋區田單街44號","121.482615","25.0277433333333","6500100","板橋區"
"220003","827-TW","2018/08/27 14:10:28","新北市板橋區新民街7巷27號","121.463666666667","25.0105183333333","6500100","板橋區"
"220014","829-TW","2018/08/27 14:10:27","新北市板橋區長安街230-3號","121.475051666667","25.0123966666667","6500100","板橋區"
"220016","830-TW","2018/08/27 14:10:33","新北市板橋區翠華街6巷59號","121.48128","25.0249633333333","6500100","板橋區"
"220045","831-TW","2018/08/27 14:10:15","新北市板橋區雙十路二段47巷5-1號","121.47618","25.0260616666667","6500100","板橋區"
"220038","833-TW","2018/08/27 14:10:14","新北市板橋區文化路二段464號","121.474826666667","25.032635","6500100","板橋區"
"220022","895-R6","2018/08/27 14:10:31","新北市板橋區府中路98號","121.45608","25.0096233333333","6500100","板橋區"
"220021","985-R7","2018/08/27 14:10:28","新北市板橋區民權路208號","121.458998333333","25.013975","6500100","板橋區"
"220046","AAC-210","2018/08/27 14:10:34","新北市板橋區新海路135巷4號","121.459763333333","25.02285","6500100","板橋區"
"220018","AAC-253","2018/08/27 14:10:13","新北市板橋區忠孝路31-1號","121.460733333333","25.002105","6500100","板橋區"
"235032","KEA-2873","2018/08/27 14:10:18","新北市中和區連勝街57巷10號","121.49782","24.996895","6500300","中和區"
"235025","KEA-2875","2018/08/27 14:10:07","新北市中和區員山路312號","121.481466666667","25.0029316666667","6500300","中和區"
