"lineid","car","time","location","longitude","latitude","cityid","cityname"
"234005","207-UY","2018/08/27 14:29:02","新北市永和區中正路612號","121.51708","25.0074416666667","6500400","永和區"
"234078","298-R6","2018/08/27 14:29:03","新北市永和區福和路59號","121.522975","25.007855","6500400","永和區"
"234036","336-UY","2018/08/27 14:28:50","新北市永和區成功路一段93巷21弄2號","121.528315","25.0026816666667","6500400","永和區"
"234062","337-UY","2018/08/27 14:28:51","新北市永和區中正路433號","121.517143333333","25.0050483333333","6500400","永和區"
"234084","338-UY","2018/08/27 14:29:01","新北市永和區光復街21號","121.516543333333","25.0174433333333","6500400","永和區"
"234068","552-UM","2018/08/27 14:28:48","新北市永和區永亨路7號","121.519435","25.00572","6500400","永和區"
"234028","746-BX","2018/08/27 14:28:55","新北市永和區民權路84號","121.51991","24.997045","6500400","永和區"
"234052","KEA-2590","2018/08/27 14:28:48","新北市永和區環河西路一段1號","121.515376666667","25.0181433333333","6500400","永和區"
"234060","AAD-866","2018/08/27 14:29:01","新北市永和區秀安街9巷2號","121.515786666667","25.0033033333333","6500400","永和區"
"234040","862-TW","2018/08/27 14:28:44","新北市永和區安樂路336號","121.514391666667","25.0059033333333","6500400","永和區"
"234048","863-TW","2018/08/27 14:29:01","新北市永和區新生路138巷1弄1號","121.506615","25.0143866666667","6500400","永和區"
"234025","9371-KE","2018/08/27 14:28:55","新北市永和區中正路5號","121.513815","24.9956066666667","6500400","永和區"
"248013","025-BX","2018/08/27 14:28:53","新北市五股區民義路一段157-9號","121.432241666667","25.08729","6501500","五股區"
"248015","026-BX","2018/08/27 14:28:51","新北市五股區成泰路四段26號","121.454968333333","25.108265","6501500","五股區"
"248007","095-VK","2018/08/27 14:28:46","新北市五股區中興路二段31號","121.462563333333","25.0751066666667","6501500","五股區"
"248019","225-UY","2018/08/27 14:06:10","新北市五股區凌雲路三段57號","121.425295","25.1250333333333","6501500","五股區"
"248011","247-BX","2018/08/27 14:28:45","新北市五股區蓬萊路6巷2號","121.435586666667","25.0796333333333","6501500","五股區"
"248003","677-BX","2018/08/27 14:29:01","新北市五股區五福路2號","121.433926666667","25.0873616666667","6501500","五股區"
"248001","678-BX","2018/08/27 14:29:01","新北市五股區成泰路三段553號","121.45199","25.10185","6501500","五股區"
"248009","682-TV","2018/08/27 14:28:59","新北市五股區水碓二路1號","121.430653333333","25.071255","6501500","五股區"
"234072","AAC-211","2018/08/27 14:28:58","新北市永和區竹林路39巷3號","121.51814","25.0143683333333","6500400","永和區"
"234001","AAC-295","2018/08/27 14:28:50","新北市永和區自強街6巷1弄7號","121.514536666667","25.0080083333333","6500400","永和區"
"232012","291-BY","2018/08/27 14:28:26","新北市深坑區文山路一段10號","121.642963333333","25.0086416666667","6502000","坪林區"
"243005","AAD-798","2018/08/27 14:28:58","新北市泰山區貴子路22號","121.425656666667","25.0419233333333","6501600","泰山區"
"243001","297-R6","2018/08/27 14:28:50","新北市泰山區半山雅3號","121.431395","25.0674016666667","6501600","泰山區"
"243008","KEA-2801","2018/08/27 14:28:58","新北市泰山區明志路三段166號","121.424165","25.0394","6501600","泰山區"
"243007","421-VK","2018/08/27 14:28:44","新北市泰山區民權街15號","121.428375","25.0508666666667","6501600","泰山區"
"243003","KEA-2215","2018/08/27 14:28:55","新北市泰山區新北大道五段503號","121.430065","25.0407","6501600","泰山區"
"243002","KEA-2216","2018/08/27 14:28:57","新北市泰山區民生路17巷2號","121.430016666667","25.0525033333333","6501600","泰山區"
"243004","646-TV","2018/08/27 14:28:56","新北市泰山區全興路18巷29號","121.43194","25.0582333333333","6501600","泰山區"
"243006","680-BX","2018/08/27 14:28:55","新北市泰山區中港西路455號","121.433116666667","25.0531183333333","6501600","泰山區"
"231002","002-UM","2018/08/27 14:28:47","新北市新店區中央路151號","121.529316666667","24.9721533333333","6500600","新店區"
"231027","0291-UT","2018/08/27 14:29:02","新北市新店區北新路二段228巷13號","121.543403333333","24.9771716666667","6500600","新店區"
"231028","046-UY","2018/08/27 14:29:02","新北市新店區安和路二段43號","121.518103333333","24.9679516666667","6500600","新店區"
"231001","047-UY","2018/08/27 14:28:46","新北市新店區北新路一段96巷23號","121.542855","24.9687916666667","6500600","新店區"
"231019","108-UY","2018/08/27 14:28:47","新北市新店區桂山路2-1號","121.556181666667","24.9043066666667","6500600","新店區"
"231011","187-VK","2018/08/27 14:28:50","新北市新店區中興路二段186-2號","121.548253333333","24.9723483333333","6500600","新店區"
"231023","KEA-2219","2018/08/27 14:28:49","新北市新店區光明街79號","121.539023333333","24.96069","6500600","新店區"
"231003","268-BY","2018/08/27 14:28:57","新北市新店區中興路一段264號","121.544735","24.96721","6500600","新店區"
"231018","278-BY","2018/08/27 14:28:56","新北市新店區中央三街57號","121.5272","24.9748416666667","6500600","新店區"
"231014","AAD-862","2018/08/27 14:28:53","新北市新店區北宜路三段262-2號","121.60144","24.9545466666667","6500600","新店區"
"231005","355-BY","2018/08/27 14:28:45","新北市新店區寶強路53號","121.544091666667","24.9792333333333","6500600","新店區"
"231038","3712-VJ","2018/08/27 14:28:56","新北市新店區溪洲路6巷80號","121.533596666667","24.96308","6500600","新店區"
"231037","4716-K9","2018/08/27 14:28:47","新北市新店區車子路49號","121.504075","24.9519966666667","6500600","新店區"
"231036","512-UM","2018/08/27 14:28:47","新北市新店區安祥路109巷90弄76號","121.475998333333","24.958505","6500600","新店區"
"231013","513-UM","2018/08/27 14:28:58","新北市新店區民權路90巷21號","121.536195","24.98364","6500600","新店區"
"231030","619-UM","2018/08/27 14:28:52","新北市新店區安民街79號","121.516308333333","24.96766","6500600","新店區"
"231034","641-BX","2018/08/27 14:28:51","新北市新店區車子路11號","121.503025","24.9520266666667","6500600","新店區"
"231035","719-UM","2018/08/27 14:28:52","新北市新店區安民街14號","121.515466666667","24.9645916666667","6500600","新店區"
"231031","720-UM","2018/08/27 14:29:00","新北市新店區安業街157號","121.521508333333","24.97363","6500600","新店區"
"231029","897-TW","2018/08/27 14:28:43","新北市新店區安康路三段2號","121.493778333333","24.9537566666667","6500600","新店區"
"231006","898-TW","2018/08/27 14:28:41","新北市新店區北宜路二段483號","121.56229","24.9539166666667","6500600","新店區"
"231004","899-TW","2018/08/27 14:28:59","新北市新店區中正路263-2號","121.538443333333","24.9738216666667","6500600","新店區"
"231024","AKT-0513","2018/08/27 14:28:45","新北市新店區中央二街81號","121.525538333333","24.9751216666667","6500600","新店區"
"235030","003-UY","2018/08/27 14:28:46","新北市中和區中和路138號","121.503616666667","24.9995583333333","6500300","中和區"
"235028","005-UY","2018/08/27 14:28:59","新北市中和區南山路127巷34弄2號","121.504275","24.997685","6500300","中和區"
"235027","006-UY","2018/08/27 14:28:59","新北市中和區連城路139巷64號","121.496736666667","24.9968733333333","6500300","中和區"
"235020","096-UM","2018/08/27 14:28:41","新北市中和區員山路514巷1號","121.479306666667","25.0096516666667","6500300","中和區"
"235003","097-UM","2018/08/27 14:28:49","新北市中和區景平路71-3號","121.51936","24.9912916666667","6500300","中和區"
"235029","098-UM","2018/08/27 14:28:51","新北市中和區永和路9巷1號","121.499166666667","25.00403","6500300","中和區"
"235004","150-BY","2018/08/27 14:28:54","新北市中和區安樂路51巷24號","121.511431666667","24.9941383333333","6500300","中和區"
"235022","151-BY","2018/08/27 14:28:49","新北市中和區員山路127-3號","121.480998333333","24.9958233333333","6500300","中和區"
"235019","183-VK","2018/08/27 14:28:51","新北市中和區莒光路4號","121.471943333333","25.0048316666667","6500300","中和區"
"235002","185-VK","2018/08/27 14:29:01","新北市中和區自立路125號","121.521853333333","24.9941566666667","6500300","中和區"
"235013","186-VK","2018/08/27 14:28:58","新北市中和區景新街295巷23號","121.51101","24.9935166666667","6500300","中和區"
"235031","255-BX","2018/08/27 14:28:45","新北市中和區連城路340巷10弄25號","121.483323333333","24.9966433333333","6500300","中和區"
"235008","293-VK","2018/08/27 14:29:01","新北市中和區捷運路189號","121.505405","24.9913916666667","6500300","中和區"
"235036","301-VK","2018/08/27 14:29:04","新北市中和區中山路二段3巷22弄11號","121.50606","25.00468","6500300","中和區"
"235007","352-BY","2018/08/27 14:28:44","新北市中和區景平路310號","121.512588333333","24.9925916666667","6500300","中和區"
"235006","KEA-2878","2018/08/27 14:28:46","新北市中和區中和路350巷8弄38號","121.509811666667","24.9998516666667","6500300","中和區"
"247009","KEA-2869","2018/08/27 14:28:51","新北市蘆洲區鷺江街87號","121.477","25.0835983333333","6501400","蘆洲區"
"235033","4980-A6","2018/08/27 14:28:49","新北市中和區福祥路8號","121.499588333333","25.003","6500300","中和區"
"235034","558-UM","2018/08/27 14:28:51","新北市中和區泰和街46巷5號","121.498446666667","24.999955","6500300","中和區"
"235009","565-BX","2018/08/27 14:29:01","新北市中和區景新街467巷20弄110號","121.514818333333","24.9866233333333","6500300","中和區"
"235018","640-BX","2018/08/27 14:29:01","新北市中和區國光街112巷17號","121.469676666667","25.00212","6500300","中和區"
"235024","647-TV","2018/08/27 14:28:54","新北市中和區民樂路15號","121.481911666667","25.001785","6500300","中和區"
"235011","732-UM","2018/08/27 14:28:51","新北市中和區景平路241巷56號","121.507981666667","24.992275","6500300","中和區"
"235010","733-UM","2018/08/27 14:28:55","新北市中和區忠孝街37巷44號","121.510675","24.9847183333333","6500300","中和區"
"235035","783-BX","2018/08/27 14:28:51","新北市中和區連城路469巷2號","121.483553333333","24.9956233333333","6500300","中和區"
"235026","800-TS","2018/08/27 14:28:56","新北市中和區中山路二段488-1號","121.487378333333","25.0048933333333","6500300","中和區"
"235021","801-TS","2018/08/27 14:28:55","新北市中和區中山路三段37巷3號","121.47894","25.0053816666667","6500300","中和區"
"235016","805-TS","2018/08/27 14:28:55","新北市中和區華新街143巷67弄19號","121.507208333333","24.9791316666667","6500300","中和區"
"235012","896-TW","2018/08/27 14:28:54","新北市中和區忠孝街29號","121.510431666667","24.98295","6500300","中和區"
"235017","900-TW","2018/08/27 14:28:55","新北市中和區民德路197-2號","121.468946666667","24.99867","6500300","中和區"
"235005","911-UM","2018/08/27 14:28:44","新北市中和區宜安路141號","121.50932","24.99862","6500300","中和區"
"235015","157-BY","2018/08/27 14:28:44","新北市中和區板南路123-1號","121.502151666667","24.99264","6500300","中和區"
"235001","AAC-213","2018/08/27 14:28:52","新北市中和區秀朗路三段10巷14弄8號","121.525158333333","24.9965583333333","6500300","中和區"
"235023","AAC-215","2018/08/27 14:29:02","新北市中和區錦和路203巷15號","121.491396666667","24.9906433333333","6500300","中和區"
"220013","072-UY","2018/08/27 14:28:55","新北市板橋區國泰街75巷29號","121.467973333333","25.005505","6500100","板橋區"
"220034","073-UY","2018/08/27 14:28:50","新北市板橋區國光路157號","121.45985","25.018275","6500100","板橋區"
"220105","075-UY","2018/08/27 14:29:00","新北市板橋區文化路二段441巷6-1號","121.474423333333","25.0336683333333","6500100","板橋區"
"220017","AAD-861","2018/08/27 14:28:54","新北市板橋區貴興路49-1號","121.45739","25.00314","6500100","板橋區"
"247023","893-R6","2018/08/27 14:28:56","新北市蘆洲區中正路263巷2號","121.467305","25.0874116666667","6501400","蘆洲區"
"247013","546-UM","2018/08/27 14:28:58","新北市蘆洲區中山二路225號","121.470296666667","25.0800933333333","6501400","蘆洲區"
"247021","500-BY","2018/08/27 14:28:45","新北市蘆洲區三民路230號","121.468608333333","25.089635","6501400","蘆洲區"
"247011","339-TH","2018/08/27 14:29:00","新北市蘆洲區復興路252號","121.479833333333","25.08963","6501400","蘆洲區"
"247003","337-TH","2018/08/27 14:28:46","新北市蘆洲區長安街220巷10號","121.458935","25.0848016666667","6501400","蘆洲區"
"247005","336-TH","2018/08/27 14:29:00","新北市蘆洲區長安街91號","121.461983333333","25.08048","6501400","蘆洲區"
"247017","057-VK","2018/08/27 14:29:00","新北市蘆洲區民族路314巷1號","121.477265","25.090185","6501400","蘆洲區"
"247007","056-VK","2018/08/27 14:28:45","新北市蘆洲區信義路83號","121.476866666667","25.079745","6501400","蘆洲區"
"247015","007-UY","2018/08/27 14:29:02","新北市蘆洲區中正路185巷23弄19號","121.467521666667","25.0841766666667","6501400","蘆洲區"
"247001","002-UY","2018/08/27 14:28:48","新北市蘆洲區永樂街40號","121.458016666667","25.0884083333333","6501400","蘆洲區"
"247019","001-UY","2018/08/27 14:28:56","新北市蘆洲區仁愛街102-7號","121.469856666667","25.0949183333333","6501400","蘆洲區"
"253003","6232-TK","2018/08/27 14:29:03","新北市石門區尖子鹿32號","121.582748333333","25.264185","6502200","石門區"
"253001","6251-TK","2018/08/27 14:28:57","新北市石門區八甲13-1號","121.522708333333","25.2804733333333","6502200","石門區"
"253002","637-UY","2018/08/27 14:28:58","新北市石門區七股20-3號","121.5502","25.270275","6502200","石門區"
"253004","8270-PC","2018/08/27 14:28:47","新北市石門區內阿里磅2-1號","121.592105","25.2528816666667","6502200","石門區"
"207002","749-BX","2018/08/27 14:28:54","新北市萬里區溪底里溪底路21號","121.611853333333","25.1485783333333","6502800","萬里區"
"252005","073-UM","2018/08/27 14:28:48","新北市三芝區橫山里大坑34號","121.527603333333","25.25593","6502100","三芝區"
"207001","662-BX","2018/08/27 14:28:51","新北市萬里區磺潭里清水15號","121.637818333333","25.1981516666667","6502800","萬里區"
"237001","159-UY","2018/08/27 14:19:46","新北市三峽區中山路459巷163-1號","121.349303333333","24.9334183333333","6500900","三峽區"
"236064","105-UM","2018/08/27 14:28:57","新北市土城區永豐路255巷27弄3號","121.47598","24.9728933333333","6501300","土城區"
"236040","107-UM","2018/08/27 14:28:44","新北市土城區裕生路21巷2弄1號","121.448625","24.9871866666667","6501300","土城區"
"236074","166-UM","2018/08/27 14:28:58","新北市土城區大暖路20巷2號","121.423543333333","24.9599383333333","6501300","土城區"
"236029","253-BX","2018/08/27 14:28:45","新北市土城區水源街81巷1弄2號","121.43953","24.9761583333333","6501300","土城區"
"236024","269-VK","2018/08/27 14:29:00","新北市土城區承天路43巷1號","121.438973333333","24.9642816666667","6501300","土城區"
"236012","270-VK","2018/08/27 14:28:55","新北市土城區青雲路39巷7號","121.46039","24.9875566666667","6501300","土城區"
"236032","271-VK","2018/08/27 14:28:52","新北市土城區青雲路449號","121.458805","24.975275","6501300","土城區"
"236016","401-BY","2018/08/27 14:28:52","新北市土城區永豐路202巷14號","121.466201666667","24.98355","6501300","土城區"
"236005","498-BY","2018/08/27 14:28:51","新北市土城區日新街33巷4號","121.442933333333","24.98731","6501300","土城區"
"236059","752-BX","2018/08/27 14:28:44","新北市土城區中華路二段2號","121.439331666667","24.97968","6501300","土城區"
"236057","912-UM","2018/08/27 14:28:43","新北市土城區中央路四段113號","121.41648","24.957765","6501300","土城區"
"236045","913-UM","2018/08/27 14:28:53","新北市土城區青雲路364號","121.458711666667","24.97391","6501300","土城區"
"236060","915-UM","2018/08/27 14:28:59","新北市土城區延壽路109巷2號","121.469158333333","24.99351","6501300","土城區"
"236054","AAC-216","2018/08/27 14:28:59","新北市土城區中華路二段1號","121.439758333333","24.9792783333333","6501300","土城區"
"239004","292-BY","2018/08/27 14:28:49","新北市鶯歌區二甲路13號","121.34408","24.9353316666667","6500800","鶯歌區"
"221010","269-BY","2018/08/27 14:29:02","新北市汐止區長青路131巷2弄14號","121.605283333333","25.110445","6501100","汐止區"
"221032","280-BY","2018/08/27 14:28:50","新北市汐止區水源路一段262號","121.654078333333","25.05953","6501100","汐止區"
"221002","129-UY","2018/08/27 14:28:48","新北市汐止區汐萬路二段308號","121.643568333333","25.0907683333333","6501100","汐止區"
"220027","145-BY","2018/08/27 14:29:01","新北市板橋區民權路202巷17弄59號","121.458738333333","25.0165483333333","6500100","板橋區"
"220028","200-UY","2018/08/27 14:28:52","新北市板橋區大觀路二段3巷92號","121.45021","25.00323","6500100","板橋區"
"220030","610-BX","2018/08/27 14:28:57","新北市板橋區金門街288-5號","121.429215","24.9857183333333","6500100","板橋區"
"220050","245-BX","2018/08/27 14:28:57","新北市板橋區縣民大道三段127巷5號","121.477083333333","25.0231133333333","6500100","板橋區"
"220004","276-BY","2018/08/27 14:28:47","新北市板橋區干城路159號","121.460608333333","24.9920916666667","6500100","板橋區"
"220020","277-BY","2018/08/27 14:28:46","新北市板橋區篤行路二段141巷21號","121.430596666667","24.9877933333333","6500100","板橋區"
"220011","280-UM","2018/08/27 14:28:58","新北市板橋區三民路二段241號","121.478986666667","25.0126483333333","6500100","板橋區"
"220019","283-VK","2018/08/27 14:28:51","新北市板橋區四川路一段325巷1弄2號","121.459138333333","25.00033","6500100","板橋區"
"220043","285-UM","2018/08/27 14:28:58","新北市板橋區松江街124巷7號","121.469483333333","25.0303983333333","6500100","板橋區"
"220001","285-VK","2018/08/27 14:29:02","新北市板橋區富山街42號","121.477725","25.0218616666667","6500100","板橋區"
"220029","287-VK","2018/08/27 14:28:47","新北市板橋區大觀路一段75巷29號","121.44855","25.004275","6500100","板橋區"
"220039","288-VK","2018/08/27 14:28:53","新北市板橋區長江路一段106巷12弄2號","121.45993","25.02907","6500100","板橋區"
"220009","295-UM","2018/08/27 14:28:50","新北市板橋區成功路10號","121.475601666667","25.017","6500100","板橋區"
"220032","296-UM","2018/08/27 14:28:57","新北市板橋區滿平街84巷98號","121.426486666667","24.9866716666667","6500100","板橋區"
"220010","299-UM","2018/08/27 14:28:47","新北市板橋區三民路二段居仁巷2弄25號","121.479993333333","25.0130066666667","6500100","板橋區"
"220023","303-R5","2018/08/27 14:28:59","新北市板橋區中正路289巷14號","121.454811666667","25.0191216666667","6500100","板橋區"
"220041","307-R5","2018/08/27 14:28:55","新北市板橋區光武街4巷1號","121.468143333333","25.0252183333333","6500100","板橋區"
"220047","317-R6","2018/08/27 14:28:58","新北市板橋區四維路266巷5弄2-1號","121.463766666667","25.028705","6500100","板橋區"
"220012","486-VK","2018/08/27 14:28:52","新北市板橋區館前西路46巷2號","121.459001666667","25.0071666666667","6500100","板橋區"
"220037","491-VK","2018/08/27 14:28:58","新北市板橋區雙十路二段76巷2號","121.475013333333","25.0281233333333","6500100","板橋區"
"220104","560-BX","2018/08/27 14:29:00","新北市板橋區中正路399巷26號","121.453226666667","25.0226333333333","6500100","板橋區"
"220052","561-BX","2018/08/27 14:28:49","新北市板橋區文化路一段186號","121.466095","25.01954","6500100","板橋區"
"220031","568-UM","2018/08/27 14:29:01","新北市板橋區大觀路一段38巷156弄2號","121.442338333333","25.0043666666667","6500100","板橋區"
"220040","637-BX","2018/08/27 14:28:44","新北市板橋區民治街112號","121.478266666667","25.03117","6500100","板橋區"
"220005","686-BX","2018/08/27 14:28:57","新北市板橋區重慶路378號","121.464475","24.99681","6500100","板橋區"
"220025","687-BX","2018/08/27 14:28:56","新北市板橋區大觀路二段22-1號","121.446713333333","25.003195","6500100","板橋區"
"220042","689-BX","2018/08/27 14:28:53","新北市板橋區雨農路54號","121.46091","25.0241866666667","6500100","板橋區"
"220002","741-BX","2018/08/27 14:28:59","新北市板橋區光明街15號","121.460395","25.002535","6500100","板橋區"
"220051","KEA-2699","2018/08/27 14:28:47","新北市板橋區松柏街1巷33號","121.47332","25.0300916666667","6500100","板橋區"
"220003","827-TW","2018/08/27 14:28:48","新北市板橋區重慶路278巷18-1號","121.462391666667","24.9996166666667","6500100","板橋區"
"220014","829-TW","2018/08/27 14:28:56","新北市板橋區漢生東路313巷17號","121.472418333333","25.0083866666667","6500100","板橋區"
"220016","830-TW","2018/08/27 14:28:44","新北市板橋區中山路二段561號","121.484105","25.0218666666667","6500100","板橋區"
"220045","831-TW","2018/08/27 14:28:55","新北市板橋區大同街35巷31號","121.476458333333","25.0275283333333","6500100","板橋區"
"220038","833-TW","2018/08/27 14:28:54","新北市板橋區文化路一段207號","121.46339","25.01678","6500100","板橋區"
"220022","895-R6","2018/08/27 14:28:51","新北市板橋區大東街4號","121.456565","25.0093966666667","6500100","板橋區"
"220021","985-R7","2018/08/27 14:28:48","新北市板橋區新生街89巷2號","121.458273333333","25.0219983333333","6500100","板橋區"
"220046","AAC-210","2018/08/27 14:29:01","新北市板橋區漢生西路159號","121.46295","25.0235433333333","6500100","板橋區"
"220018","AAC-253","2018/08/27 14:28:53","新北市板橋區四川路一段107號","121.459741666667","25.0052333333333","6500100","板橋區"
"235032","KEA-2873","2018/08/27 14:28:48","新北市中和區中山路二段136巷3弄8號","121.501146666667","25.004","6500300","中和區"
"235025","KEA-2875","2018/08/27 14:28:34","新北市中和區民利街31巷2弄4號","121.479961666667","24.9986766666667","6500300","中和區"
