"lineid","car","time","location","longitude","latitude","cityid","cityname"
"234036","336-UY","2018/08/27 14:48:50","新北市永和區成功路一段108號","121.526865","25.002705","6500400","永和區"
"234025","9371-KE","2018/08/27 14:48:55","新北市永和區雙和街25巷2號","121.508968333333","25.0019616666667","6500400","永和區"
"248013","025-BX","2018/08/27 14:48:53","新北市五股區五福路14巷11號","121.434865","25.088795","6501500","五股區"
"248015","026-BX","2018/08/27 14:49:03","新北市五股區成泰路三段577巷80弄25號","121.449536666667","25.104635","6501500","五股區"
"248007","095-VK","2018/08/27 14:48:55","新北市五股區國道路三段7號","121.469591666667","25.07518","6501500","五股區"
"248019","225-UY","2018/08/27 14:48:52","新北市五股區凌雲路三段25-5號","121.430591666667","25.1114266666667","6501500","五股區"
"248011","247-BX","2018/08/27 14:48:46","新北市五股區民義路一段212號","121.430528333333","25.089505","6501500","五股區"
"248003","677-BX","2018/08/27 14:48:45","新北市五股區成泰路一段151號","121.435273333333","25.073785","6501500","五股區"
"248001","678-BX","2018/08/27 14:48:54","新北市五股區成泰路三段173號","121.445363333333","25.0920533333333","6501500","五股區"
"248009","682-TV","2018/08/27 14:48:59","新北市五股區登林路46巷2號","121.432055","25.068665","6501500","五股區"
"232012","291-BY","2018/08/27 14:48:56","新北市石碇區碇坪路二段72號","121.684156666667","24.96714","6502000","坪林區"
"243005","AAD-798","2018/08/27 14:49:02","新北市泰山區明志路三段74巷25弄2號","121.423468333333","25.0416716666667","6501600","泰山區"
"243001","297-R6","2018/08/27 14:48:50","新北市泰山區泰林路二段116巷3弄1號","121.435023333333","25.0595233333333","6501600","泰山區"
"243008","KEA-2801","2018/08/27 14:48:38","新北市泰山區貴陽街59號","121.423086666667","25.0325716666667","6501600","泰山區"
"243007","421-VK","2018/08/27 14:48:59","新北市泰山區明志路二段53號","121.429248333333","25.052775","6501600","泰山區"
"243003","KEA-2215","2018/08/27 14:48:55","新北市泰山區明志路三段345號","121.422071666667","25.035355","6501600","泰山區"
"243002","KEA-2216","2018/08/27 14:48:57","新北市泰山區明志路二段246巷4號","121.42632","25.048315","6501600","泰山區"
"243004","646-TV","2018/08/27 14:49:01","新北市泰山區楓江路86巷16-1號","121.437306666667","25.062485","6501600","泰山區"
"243006","680-BX","2018/08/27 14:49:01","新北市泰山區明志路一段10號","121.433616666667","25.0659183333333","6501600","泰山區"
"231002","002-UM","2018/08/27 14:48:47","新北市新店區民權路126號","121.535063333333","24.982845","6500600","新店區"
"231027","0291-UT","2018/08/27 14:48:42","新北市新店區溪園路365-8號","121.522605","24.9807033333333","6500600","新店區"
"231028","046-UY","2018/08/27 14:48:42","新北市新店區安德街58-1號","121.51076","24.9622116666667","6500600","新店區"
"231001","047-UY","2018/08/27 14:48:46","新北市新店區三民路20巷3號","121.537391666667","24.9707883333333","6500600","新店區"
"231019","108-UY","2018/08/27 14:48:47","新北市新店區桂山路35號","121.559886666667","24.9025433333333","6500600","新店區"
"231011","187-VK","2018/08/27 14:48:50","新北市新店區寶橋路162號","121.549145","24.9770333333333","6500600","新店區"
"231023","KEA-2219","2018/08/27 14:48:49","新北市新店區檳榔路109號","121.544433333333","24.9617283333333","6500600","新店區"
"231003","268-BY","2018/08/27 14:48:57","新北市新店區中興路二段186-2號","121.547955","24.9726066666667","6500600","新店區"
"231018","278-BY","2018/08/27 14:48:56","新北市新店區中央六街10號","121.530116666667","24.974525","6500600","新店區"
"231014","AAD-862","2018/08/27 14:48:53","新北市新店區北宜路三段187號","121.587501666667","24.9525083333333","6500600","新店區"
"231005","355-BY","2018/08/27 14:49:05","新北市新店區復興路2號","121.532361666667","24.9882966666667","6500600","新店區"
"231038","3712-VJ","2018/08/27 14:48:56","新北市新店區安康路一段258號","121.520401666667","24.9639816666667","6500600","新店區"
"231037","4716-K9","2018/08/27 14:48:47","新北市新店區柴埕路52巷20號","121.510268333333","24.9656466666667","6500600","新店區"
"231025","4715-K9","2018/08/27 14:49:02","新北市新店區建國路133號","121.539281666667","24.9782283333333","6500600","新店區"
"231036","512-UM","2018/08/27 14:48:47","新北市新店區安祥路106巷222號","121.473826666667","24.9602033333333","6500600","新店區"
"231013","513-UM","2018/08/27 14:48:38","新北市新店區北新路二段97巷10弄2號","121.542198333333","24.9745316666667","6500600","新店區"
"231030","619-UM","2018/08/27 14:48:52","新北市新店區安民街210號","121.517305","24.9720766666667","6500600","新店區"
"231034","641-BX","2018/08/27 14:48:51","新北市新店區車子路1-1號","121.504816666667","24.9579","6500600","新店區"
"231039","718-UY","2018/08/27 14:49:01","新北市新店區中興路二段196號","121.548301666667","24.97385","6500600","新店區"
"231035","719-UM","2018/08/27 14:45:32","新北市新店區安和路二段154號","121.51981","24.973175","6500600","新店區"
"231031","720-UM","2018/08/27 14:48:43","新北市新店區薏仁坑路自強巷6號","121.4972","24.9587766666667","6500600","新店區"
"231029","897-TW","2018/08/27 14:48:43","新北市新店區錦秀路11巷81號","121.48057","24.9446083333333","6500600","新店區"
"231006","898-TW","2018/08/27 14:49:01","新北市新店區北宜路一段121-2號","121.54041","24.9538","6500600","新店區"
"231004","899-TW","2018/08/27 14:48:59","新北市新店區建國路133號","121.539326666667","24.9783466666667","6500600","新店區"
"231024","AKT-0513","2018/08/27 14:49:05","新北市新店區力行路78號","121.538581666667","24.96641","6500600","新店區"
"235030","003-UY","2018/08/27 14:48:46","新北市中和區中和路174號","121.504618333333","24.9997666666667","6500300","中和區"
"235020","096-UM","2018/08/27 14:49:01","新北市中和區中山路三段112號","121.47627","25.00586","6500300","中和區"
"235003","097-UM","2018/08/27 14:48:49","新北市中和區安樂路135號","121.514315","24.9966016666667","6500300","中和區"
"235029","098-UM","2018/08/27 14:48:51","新北市中和區福祥路66號","121.499353333333","25.0049466666667","6500300","中和區"
"235004","150-BY","2018/08/27 14:48:54","新北市中和區安和路39號","121.509663333333","24.9949","6500300","中和區"
"235022","151-BY","2018/08/27 14:48:49","新北市中和區員山路150巷2弄22號","121.48167","24.9976333333333","6500300","中和區"
"235019","183-VK","2018/08/27 14:48:51","新北市中和區民德路2號","121.468778333333","25.00336","6500300","中和區"
"235002","185-VK","2018/08/27 14:49:01","新北市中和區自立路7號","121.522501666667","24.996485","6500300","中和區"
"235013","186-VK","2018/08/27 14:48:58","新北市中和區中正路78號","121.500496666667","24.9939683333333","6500300","中和區"
"235031","255-BX","2018/08/27 14:48:58","新北市中和區中正路751巷14弄1號","121.484178333333","24.9997333333333","6500300","中和區"
"235008","293-VK","2018/08/27 14:49:01","新北市中和區南山路231號","121.50363","24.993275","6500300","中和區"
"235036","301-VK","2018/08/27 14:48:44","新北市中和區中正路426號","121.491503333333","24.9941633333333","6500300","中和區"
"235007","352-BY","2018/08/27 14:48:44","新北市中和區安和路63號","121.508635","24.995075","6500300","中和區"
"235006","KEA-2878","2018/08/27 14:48:46","新北市中和區連城路203巷10弄33號","121.495551666667","24.9963583333333","6500300","中和區"
"235034","558-UM","2018/08/27 14:48:51","新北市中和區連勝街39號","121.498171666667","24.9976983333333","6500300","中和區"
"235018","640-BX","2018/08/27 14:48:57","新北市中和區莒光路222-1號","121.4694","24.9952033333333","6500300","中和區"
"235024","647-TV","2018/08/27 14:48:54","新北市中和區新生街30巷26號","121.482341666667","25.0038533333333","6500300","中和區"
"235011","732-UM","2018/08/27 14:48:44","新北市中和區和平街74號","121.50791","24.9911483333333","6500300","中和區"
"235010","733-UM","2018/08/27 14:48:55","新北市中和區仁愛街23號","121.51082","24.9889533333333","6500300","中和區"
"235035","783-BX","2018/08/27 14:48:51","新北市中和區建一路90號","121.487781666667","25.0023116666667","6500300","中和區"
"235026","800-TS","2018/08/27 14:48:56","新北市中和區中山路二段389號","121.486795","25.0048466666667","6500300","中和區"
"235016","805-TS","2018/08/27 14:48:55","新北市中和區華新街144巷16號","121.507633333333","24.983105","6500300","中和區"
"235012","896-TW","2018/08/27 14:48:54","新北市中和區忠孝街137號","121.512815","24.9882966666667","6500300","中和區"
"235017","900-TW","2018/08/27 14:48:55","新北市中和區國光街189巷1號","121.467756666667","25.0011033333333","6500300","中和區"
"235005","911-UM","2018/08/27 14:49:04","新北市中和區宜安路136號","121.509735","24.9983016666667","6500300","中和區"
"235015","157-BY","2018/08/27 14:48:44","新北市中和區景安路247巷9號","121.504475","24.990665","6500300","中和區"
"235001","AAC-213","2018/08/27 14:48:52","新北市中和區秀朗路三段173-2號","121.524428333333","24.991355","6500300","中和區"
"235023","AAC-215","2018/08/27 14:49:02","新北市中和區圓通路305巷5弄31號","121.494416666667","24.9903866666667","6500300","中和區"
"220013","072-UY","2018/08/27 14:48:54","新北市板橋區民族路270巷37號","121.469215","25.0061233333333","6500100","板橋區"
"220105","075-UY","2018/08/27 14:49:00","新北市板橋區文化路二段608巷3號","121.478331666667","25.0348066666667","6500100","板橋區"
"220017","AAD-861","2018/08/27 14:48:57","新北市板橋區南雅南路二段22號","121.454448333333","25.0031616666667","6500100","板橋區"
"247023","893-R6","2018/08/27 14:48:56","新北市蘆洲區和平路100號","121.468483333333","25.0792933333333","6501400","蘆洲區"
"247013","546-UM","2018/08/27 14:48:58","新北市蘆洲區中央路28號","121.473515","25.082855","6501400","蘆洲區"
"247021","500-BY","2018/08/27 14:48:45","新北市蘆洲區三民路246號","121.467975","25.0899333333333","6501400","蘆洲區"
"247015","007-UY","2018/08/27 14:48:59","新北市蘆洲區正和街96巷9號","121.467686666667","25.0812533333333","6501400","蘆洲區"
"247001","002-UY","2018/08/27 14:48:48","新北市蘆洲區長安街282號","121.457381666667","25.0876116666667","6501400","蘆洲區"
"247019","001-UY","2018/08/27 14:48:56","新北市蘆洲區民義街75號","121.473206666667","25.0902566666667","6501400","蘆洲區"
"253003","6232-TK","2018/08/27 14:48:43","新北市石門區尖子鹿47號","121.580421666667","25.268445","6502200","石門區"
"253001","6251-TK","2018/08/27 14:48:57","新北市石門區崁子腳37號","121.537743333333","25.26875","6502200","石門區"
"253002","637-UY","2018/08/27 14:48:18","新北市三芝區橫山里橫山39-3號","121.545813333333","25.2535083333333","6502200","石門區"
"253004","8270-PC","2018/08/27 14:48:47","新北市石門區內阿里磅13號","121.59252","25.2511216666667","6502200","石門區"
"207002","749-BX","2018/08/27 14:48:54","新北市萬里區崁腳里內崁路9號","121.644085","25.1594416666667","6502800","萬里區"
"252005","073-UM","2018/08/27 14:48:48","新北市三芝區埔坪里埔頭坑107-1號","121.514223333333","25.2471366666667","6502100","三芝區"
"207001","662-BX","2018/08/27 14:46:51","新北市萬里區雙興里豐稟路22-1號","121.640085","25.1847833333333","6502800","萬里區"
"237001","159-UY","2018/08/27 14:19:46","新北市三峽區中山路459巷163-1號","121.349303333333","24.9334183333333","6500900","三峽區"
"236064","105-UM","2018/08/27 14:48:57","新北市土城區明德路一段371號","121.453078333333","24.9796183333333","6501300","土城區"
"236074","166-UM","2018/08/27 14:48:51","新北市土城區中央路四段67巷36號","121.417876666667","24.9571633333333","6501300","土城區"
"236029","253-BX","2018/08/27 14:48:45","新北市土城區忠義路26巷10號","121.439861666667","24.969915","6501300","土城區"
"236024","269-VK","2018/08/27 14:49:00","新北市土城區中央路二段235號","121.440443333333","24.9722633333333","6501300","土城區"
"236012","270-VK","2018/08/27 14:48:55","新北市土城區清水路235巷20號","121.460866666667","24.983855","6501300","土城區"
"236032","271-VK","2018/08/27 14:48:52","新北市土城區仁愛路38號","121.461695","24.9794383333333","6501300","土城區"
"236016","401-BY","2018/08/27 14:48:53","新北市土城區延吉街206號","121.467671666667","24.9850316666667","6501300","土城區"
"236040","752-BX","2018/08/27 14:47:24","新北市土城區學成路78巷2號","121.451025","24.988425","6501300","土城區"
"236057","912-UM","2018/08/27 14:49:02","新北市土城區金城路一段137號","121.445263333333","24.9739166666667","6501300","土城區"
"236045","913-UM","2018/08/27 14:48:58","新北市板橋區信義路208號","121.459968333333","24.9907216666667","6501300","土城區"
"236060","915-UM","2018/08/27 14:48:59","新北市土城區金城路三段207巷8弄2號","121.470113333333","24.990175","6501300","土城區"
"236054","AAC-216","2018/08/27 14:48:59","新北市土城區裕民路169-1號","121.45314","24.9851433333333","6501300","土城區"
"238012","303-VK","2018/08/27 14:49:00","新北市樹林區育德街78號","121.387646666667","24.968435","6500700","樹林區"
"221010","269-BY","2018/08/27 14:49:02","新北市汐止區八連路一段134號","121.642673333333","25.079475","6501100","汐止區"
"220027","145-BY","2018/08/27 14:48:51","新北市板橋區復興街57號","121.458733333333","25.0176516666667","6500100","板橋區"
"220028","200-UY","2018/08/27 14:48:51","新北市板橋區大觀路二段59巷5號","121.447111666667","25.0025916666667","6500100","板橋區"
"220030","610-BX","2018/08/27 14:49:04","新北市板橋區篤行路一段22號","121.431936666667","24.9943033333333","6500100","板橋區"
"220050","245-BX","2018/08/27 14:48:56","新北市板橋區莒光路196巷27號","121.472925","25.0225216666667","6500100","板橋區"
"220004","276-BY","2018/08/27 14:48:47","新北市板橋區德興街29號","121.453516666667","24.9939933333333","6500100","板橋區"
"220020","277-BY","2018/08/27 14:48:46","新北市板橋區金門街215號","121.432511666667","24.9900116666667","6500100","板橋區"
"220011","280-UM","2018/08/27 14:48:58","新北市板橋區三民路二段140號","121.479138333333","25.0159266666667","6500100","板橋區"
"220019","283-VK","2018/08/27 14:48:51","新北市板橋區五權街30巷22號","121.46403","24.9932216666667","6500100","板橋區"
"220043","285-UM","2018/08/27 14:48:58","新北市板橋區長江路一段105巷1弄1號","121.459371666667","25.0300383333333","6500100","板橋區"
"220001","285-VK","2018/08/27 14:49:02","新北市板橋區民享街93號","121.477086666667","25.01596","6500100","板橋區"
"220029","287-VK","2018/08/27 14:49:01","新北市板橋區大觀路一段28巷88號","121.44978","25.011005","6500100","板橋區"
"220039","288-VK","2018/08/27 14:48:59","新北市板橋區龍泉街72巷23號","121.456405","25.0264883333333","6500100","板橋區"
"220009","295-UM","2018/08/27 14:48:50","新北市板橋區中山路一段283巷16號","121.470316666667","25.0151266666667","6500100","板橋區"
"220032","296-UM","2018/08/27 14:48:58","新北市板橋區溪崑二街112巷20號","121.425966666667","24.9891116666667","6500100","板橋區"
"220010","299-UM","2018/08/27 14:48:47","新北市板橋區三民路二段181巷5號","121.479843333333","25.0143883333333","6500100","板橋區"
"220023","303-R5","2018/08/27 14:49:00","新北市板橋區金華街10巷7號","121.456096666667","25.0200616666667","6500100","板橋區"
"220041","307-R5","2018/08/27 14:48:55","新北市板橋區四維路259巷34號","121.461753333333","25.02743","6500100","板橋區"
"220047","317-R6","2018/08/27 14:48:58","新北市板橋區四維路269巷90號","121.459668333333","25.0266533333333","6500100","板橋區"
"220012","486-VK","2018/08/27 14:49:02","新北市板橋區館前東路106號","121.46293","25.0074483333333","6500100","板橋區"
"220037","491-VK","2018/08/27 14:48:58","新北市板橋區文化路二段410巷2號","121.473746666667","25.03163","6500100","板橋區"
"220104","560-BX","2018/08/27 14:49:00","新北市板橋區金華街37號","121.456396666667","25.0203883333333","6500100","板橋區"
"220052","561-BX","2018/08/27 14:48:49","新北市板橋區陽明街46-5號","121.465545","25.022125","6500100","板橋區"
"220031","568-UM","2018/08/27 14:49:01","新北市板橋區僑中二街8巷18號","121.446438333333","25.0113333333333","6500100","板橋區"
"220040","637-BX","2018/08/27 14:48:51","新北市板橋區懷德街127巷3號","121.479015","25.0308966666667","6500100","板橋區"
"220005","686-BX","2018/08/27 14:49:02","新北市板橋區廣和街71號","121.462598333333","24.9927016666667","6500100","板橋區"
"220025","687-BX","2018/08/27 14:48:56","新北市板橋區僑中三街40號","121.445235","25.0050833333333","6500100","板橋區"
"220042","689-BX","2018/08/27 14:48:56","新北市板橋區長江路一段99號","121.459385","25.0295566666667","6500100","板橋區"
"220002","741-BX","2018/08/27 14:48:59","新北市板橋區實踐路93巷38號","121.465553333333","25.00509","6500100","板橋區"
"220051","KEA-2699","2018/08/27 14:48:47","新北市板橋區松柏街50巷35-1號","121.47602","25.0297","6500100","板橋區"
"220003","827-TW","2018/08/27 14:48:48","新北市板橋區仁愛路62巷15弄2號","121.459971666667","24.9984483333333","6500100","板橋區"
"220014","829-TW","2018/08/27 14:48:47","新北市板橋區長安街331巷19弄9號","121.473506666667","25.0122733333333","6500100","板橋區"
"220016","830-TW","2018/08/27 14:49:03","新北市板橋區光復街133巷3號","121.485016666667","25.0197516666667","6500100","板橋區"
"220045","831-TW","2018/08/27 14:48:55","新北市板橋區民生路二段234巷24弄2號","121.470103333333","25.022475","6500100","板橋區"
"220038","833-TW","2018/08/27 14:48:54","新北市板橋區英士路18號","121.461938333333","25.025295","6500100","板橋區"
"220022","895-R6","2018/08/27 14:48:53","新北市板橋區府中路1號","121.460015","25.0096916666667","6500100","板橋區"
"220021","985-R7","2018/08/27 14:48:48","新北市板橋區大仁街42號","121.45508","25.0167533333333","6500100","板橋區"
"220046","AAC-210","2018/08/27 14:49:01","新北市板橋區文化路一段285巷30號","121.463685","25.0195433333333","6500100","板橋區"
"220018","AAC-253","2018/08/27 14:48:53","新北市板橋區民族路251號","121.470253333333","25.0070316666667","6500100","板橋區"
"235032","KEA-2873","2018/08/27 14:48:48","新北市中和區福祥路77號","121.499178333333","25.0055333333333","6500300","中和區"
"235025","KEA-2875","2018/08/27 14:48:34","新北市中和區員山路174巷24號","121.481848333333","24.9996266666667","6500300","中和區"
