"lineid","car","time","location","longitude","latitude","cityid","cityname"
"248010","682-TV","2018/08/27 15:21:05","新北市五股區中興路二段63巷17號","121.46016","25.0754816666667","6501500","五股區"
"243012","646-TV","2018/08/27 15:37:49","新北市泰山區黎明路25號","121.422175","25.0606583333333","6501600","泰山區"
"243014","680-BX","2018/08/27 15:32:56","新北市泰山區黎明路25號","121.422008333333","25.0606733333333","6501600","泰山區"
"231028","046-UY","2018/08/27 15:38:22","新北市新店區僑義路30號","121.500663333333","24.9497","6500600","新店區"
"231019","108-UY","2018/08/27 15:38:27","新北市新店區花園二路一段11號","121.555566666667","24.9324916666667","6500600","新店區"
"231011","187-VK","2018/08/27 15:38:30","新北市新店區寶元路一段109號","121.545795","24.9831466666667","6500600","新店區"
"231023","KEA-2219","2018/08/27 15:38:28","新北市新店區五峰路45號","121.54462","24.96893","6500600","新店區"
"231026","256-BX","2018/08/27 15:38:14","新北市新店區三民路117巷6弄1號","121.534123333333","24.9711566666667","6500600","新店區"
"231003","268-BY","2018/08/27 15:38:17","新北市新店區寶橋路138號","121.547791666667","24.9765483333333","6500600","新店區"
"231018","278-BY","2018/08/27 15:38:16","新北市新店區溪園路221號","121.525803333333","24.9837633333333","6500600","新店區"
"231014","AAD-862","2018/08/27 15:38:33","新北市新店區北宜路二段231號","121.553603333333","24.953415","6500600","新店區"
"231005","355-BY","2018/08/27 15:38:25","新北市新店區建國路132號","121.539061666667","24.9787983333333","6500600","新店區"
"231038","3712-VJ","2018/08/27 15:38:16","新北市新店區安康路一段300-2號","121.519043333333","24.9640833333333","6500600","新店區"
"231037","4716-K9","2018/08/27 15:38:34","新北市新店區安民街365巷1弄8號","121.51639","24.975225","6500600","新店區"
"231025","4715-K9","2018/08/27 15:38:23","新北市新店區柴埕路52巷1-6號","121.512911666667","24.9648033333333","6500600","新店區"
"231036","512-UM","2018/08/27 15:38:27","新北市新店區安祥路69巷41弄15號","121.482025","24.9609316666667","6500600","新店區"
"231013","513-UM","2018/08/27 15:38:18","新北市新店區永業路81巷1弄8號","121.53004","24.9499016666667","6500600","新店區"
"231030","619-UM","2018/08/27 15:38:32","新北市新店區新和街52號","121.519638333333","24.9852433333333","6500600","新店區"
"231034","641-BX","2018/08/27 15:38:31","新北市新店區如意街97號","121.495426666667","24.9469883333333","6500600","新店區"
"231039","718-UY","2018/08/27 15:38:30","新北市新店區中興路三段220巷19號","121.544966666667","24.9833","6500600","新店區"
"231035","719-UM","2018/08/27 15:38:32","新北市新店區安民街365巷10弄3號","121.515528333333","24.9756133333333","6500600","新店區"
"231031","720-UM","2018/08/27 15:38:23","新北市新店區雙城路133號","121.497913333333","24.9388016666667","6500600","新店區"
"231029","897-TW","2018/08/27 15:38:23","新北市新店區安康路三段58號","121.49241","24.9522383333333","6500600","新店區"
"231006","898-TW","2018/08/27 15:38:21","新北市新店區柴埕路116號","121.504166666667","24.95974","6500600","新店區"
"241011","013-R5","2018/08/27 15:38:17","新北市三重區三和路三段5號","121.49716","25.0705416666667","6500200","三重區"
"241015","062-VK","2018/08/27 15:38:20","新北市三重區重新路四段121號","121.484941666667","25.05248","6500200","三重區"
"241017","063-VK","2018/08/27 15:38:31","新北市三重區大仁街1號","121.491636666667","25.0635566666667","6500200","三重區"
"241024","065-VK","2018/08/27 15:38:22","新北市三重區重新路四段121號","121.484768333333","25.0524866666667","6500200","三重區"
"241003","091-VK","2018/08/27 15:38:17","新北市三重區河邊北街138號","121.503795","25.07209","6500200","三重區"
"241016","266-UM","2018/08/27 15:38:16","新北市三重區重新路四段121號","121.484766666667","25.0525083333333","6500200","三重區"
"241018","268-UM","2018/08/27 15:38:15","新北市三重區重新路四段121號","121.484855","25.0527133333333","6500200","三重區"
"241013","270-UM","2018/08/27 15:38:20","新北市三重區忠孝路二段34號","121.485656666667","25.0709466666667","6500200","三重區"
"241025","271-UM","2018/08/27 15:38:16","新北市三重區重新路四段121號","121.484763333333","25.05267","6500200","三重區"
"241007","398-BY","2018/08/27 15:38:15","新北市三重區重新路四段121號","121.484798333333","25.0522116666667","6500200","三重區"
"241004","475-VK","2018/08/27 15:38:27","新北市三重區重新路四段121號","121.485036666667","25.0524966666667","6500200","三重區"
"241020","478-VK","2018/08/27 15:38:27","新北市三重區忠孝路二段54號","121.48496","25.0704733333333","6500200","三重區"
"241014","543-UM","2018/08/27 15:38:25","新北市三重區重新路四段121號","121.485195","25.052395","6500200","三重區"
"241006","AAD-863","2018/08/27 15:38:26","新北市三重區重新路四段121號","121.484671666667","25.0523883333333","6500200","三重區"
"241005","887-TS","2018/08/27 15:38:25","新北市三重區重新路四段121號","121.484781666667","25.0522983333333","6500200","三重區"
"241012","941-UM","2018/08/27 15:38:30","新北市三重區自強路一段68號","121.496998333333","25.0665733333333","6500200","三重區"
"241029","942-UM","2018/08/27 15:38:19","新北市三重區環河南路220-8號","121.493361666667","25.0528166666667","6500200","三重區"
"241033","AAC-255","2018/08/27 15:38:28","新北市三重區五谷王南街46巷19號","121.475158333333","25.04493","6500200","三重區"
"235033","4980-A6","2018/08/27 15:38:29","新北市中和區民樂路5號","121.481716666667","25.0012266666667","6500300","中和區"
"235023","AAC-215","2018/08/27 15:38:22","新北市中和區員山路17號","121.480341666667","24.9848416666667","6500300","中和區"
"227001","642-TC","2018/08/27 15:38:25","新北市雙溪區牡丹里中正路77號","121.862876666667","25.0456733333333","6502500","雙溪區"
"253003","6232-TK","2018/08/27 15:38:23","新北市石門區小坑9號","121.59449","25.2892316666667","6502200","石門區"
"236064","105-UM","2018/08/27 15:38:17","新北市土城區中央路三段74號","121.436538333333","24.9671566666667","6501300","土城區"
"236074","166-UM","2018/08/27 15:38:31","新北市土城區福安街98號","121.417741666667","24.9641183333333","6501300","土城區"
"236029","253-BX","2018/08/27 15:38:25","新北市土城區中央路一段45巷2弄22號","121.448216666667","24.9897483333333","6501300","土城區"
"236024","269-VK","2018/08/27 15:38:20","新北市土城區裕生路71號","121.447001666667","24.9846316666667","6501300","土城區"
"236012","270-VK","2018/08/27 15:38:18","新北市土城區廣明街63巷4號","121.45454","24.9934633333333","6501300","土城區"
"236016","401-BY","2018/08/27 15:38:33","新北市土城區延吉街111巷12弄15-3號","121.471676666667","24.9849766666667","6501300","土城區"
"236040","752-BX","2018/08/27 15:37:44","新北市土城區學府路一段112號","121.455733333333","24.987685","6501300","土城區"
"236057","912-UM","2018/08/27 15:38:23","新北市土城區中央路一段251號","121.44522","24.98585","6501300","土城區"
"236045","913-UM","2018/08/27 15:38:15","新北市土城區金城路三段183-1號","121.46968","24.988705","6501300","土城區"
"236060","915-UM","2018/08/27 15:38:19","新北市土城區延和路12巷15號","121.464581666667","24.9874833333333","6501300","土城區"
"236054","AAC-216","2018/08/27 15:38:20","新北市土城區學府路一段148號","121.454713333333","24.9871183333333","6501300","土城區"
"238002","755-BX","2018/08/27 15:38:29","新北市樹林區日新街89號","121.421588333333","24.9902983333333","6500700","樹林區"
"238010","601-UM","2018/08/27 15:38:26","桃園市龜山區龍興街12巷3號","121.402206666667","25.0163266666667","6500700","樹林區"
"238006","599-UM","2018/08/27 15:38:31","新北市樹林區太平路186號","121.41835","24.976505","6500700","樹林區"
"238005","571-TV","2018/08/27 15:38:32","新北市樹林區中華路353-1號","121.414926666667","24.9800533333333","6500700","樹林區"
"238011","5061-A6","2018/08/27 15:38:32","新北市樹林區中山路二段249巷2號","121.401805","24.9757766666667","6500700","樹林區"
"238009","KEA-2213","2018/08/27 15:38:18","新北市樹林區中華路66號","121.419785","24.9815566666667","6500700","樹林區"
"238008","KEA-2539","2018/08/27 15:38:31","新北市樹林區柑園街一段343號","121.39084","24.95645","6500700","樹林區"
"238012","303-VK","2018/08/27 15:38:20","新北市樹林區中山路二段96號","121.414296666667","24.9834566666667","6500700","樹林區"
"238004","283-BY","2018/08/27 15:38:27","新北市樹林區保安街二段215號","121.413165","25.0040016666667","6500700","樹林區"
"238001","282-BY","2018/08/27 15:38:29","新北市樹林區潭興街107巷21弄16號","121.423875","24.9988766666667","6500700","樹林區"
"238007","268-VK","2018/08/27 15:38:19","新北市樹林區俊英街118號","121.427601666667","25.0057483333333","6500700","樹林區"
"238013","172-UY","2018/08/27 15:38:22","新北市樹林區中洲街20巷1弄8號","121.397666666667","24.9716916666667","6500700","樹林區"
"238003","169-UY","2018/08/27 15:38:29","新北市樹林區育英街165巷8號","121.41837","24.989215","6500700","樹林區"
"239005","526-UM","2018/08/27 15:22:52","新北市鶯歌區二甲路13-16號","121.345116666667","24.9353716666667","6500800","鶯歌區"
"220050","245-BX","2018/08/27 15:38:16","新北市板橋區漢生東路83巷2號","121.46671","25.015995","6500100","板橋區"
"220011","267-BY","2018/08/27 15:38:19","新北市板橋區中山路二段287號","121.478068333333","25.0180316666667","6500100","板橋區"
"220052","561-BX","2018/08/27 15:38:29","新北市板橋區漢生東路73巷25號","121.467081666667","25.0170683333333","6500100","板橋區"
"220031","568-UM","2018/08/27 15:38:21","新北市板橋區僑中二街116巷12號","121.445138333333","25.0065183333333","6500100","板橋區"
"220038","833-TW","2018/08/27 15:38:31","新北市板橋區互助街4號","121.463256666667","25.02779","6500100","板橋區"
"220022","895-R6","2018/08/27 15:38:31","新北市樹林區柑園街一段38巷8弄8號","121.40564","24.9624716666667","6500100","板橋區"
