"lineid","car","time","location","longitude","latitude","cityid","cityname"
"231046","107-UY","2018/08/27 16:38:58","新北市新店區灣潭路48-1號","121.543016666667","24.9446416666667","6500600","新店區"
"241011","013-R5","2018/08/27 16:38:57","新北市三重區秀江街217號","121.49734","25.071825","6500200","三重區"
"241028","022-UY","2018/08/27 16:39:00","新北市三重區重新路三段90號","121.49307","25.060665","6500200","三重區"
"241008","059-VK","2018/08/27 16:38:58","新北市三重區永安北路一段29號","121.476623333333","25.075705","6500200","三重區"
"241022","060-VK","2018/08/27 16:38:58","新北市三重區三民街86號","121.485436666667","25.0626833333333","6500200","三重區"
"241031","061-VK","2018/08/27 16:16:39","新北市三重區重新路四段121號","121.484541666667","25.05202","6500200","三重區"
"241015","062-VK","2018/08/27 16:39:00","新北市三重區文化北路37號","121.4989","25.0650283333333","6500200","三重區"
"241017","063-VK","2018/08/27 16:38:51","新北市三重區中正北路25巷2號","121.493218333333","25.0627366666667","6500200","三重區"
"241024","065-VK","2018/08/27 16:39:02","新北市三重區中正北路315巷6弄66號","121.476388333333","25.0724866666667","6500200","三重區"
"241026","066-VK","2018/08/27 16:39:04","新北市三重區和平街63號","121.502141666667","25.0625283333333","6500200","三重區"
"241002","090-VK","2018/08/27 16:38:56","新北市三重區仁義街214號","121.49621","25.0824566666667","6500200","三重區"
"241003","091-VK","2018/08/27 16:38:57","新北市三重區五華街71巷19號","121.493065","25.0830066666667","6500200","三重區"
"241016","266-UM","2018/08/27 16:38:56","新北市三重區大智街17號","121.494491666667","25.065395","6500200","三重區"
"241009","267-UM","2018/08/27 16:38:56","新北市三重區三和路四段203巷79號","121.483871666667","25.0798733333333","6500200","三重區"
"241018","268-UM","2018/08/27 16:38:56","新北市三重區正義北路332-1號","121.49426","25.0704266666667","6500200","三重區"
"241032","269-UM","2018/08/27 16:38:50","新北市三重區新北大道一段115號","121.483565","25.0612633333333","6500200","三重區"
"241013","270-UM","2018/08/27 16:39:01","新北市三重區仁愛街79號","121.496083333333","25.0729816666667","6500200","三重區"
"241025","271-UM","2018/08/27 16:38:55","新北市三重區中正北路428巷22號","121.474586666667","25.070035","6500200","三重區"
"241007","398-BY","2018/08/27 16:38:55","新北市三重區三和路四段167巷84號","121.485208333333","25.0794683333333","6500200","三重區"
"241004","475-VK","2018/08/27 16:38:47","新北市三重區五福街22號","121.49269","25.0813116666667","6500200","三重區"
"241020","478-VK","2018/08/27 16:38:47","新北市三重區車路頭街51巷8號","121.484773333333","25.0725266666667","6500200","三重區"
"241030","480-VK","2018/08/27 16:38:47","新北市三重區成功路50巷43號","121.487858333333","25.0496533333333","6500200","三重區"
"241014","543-UM","2018/08/27 16:39:05","新北市三重區龍濱路21號","121.502988333333","25.06799","6500200","三重區"
"241023","545-UM","2018/08/27 16:38:58","新北市三重區忠孝路三段50巷43號","121.48286","25.064365","6500200","三重區"
"241001","547-UM","2018/08/27 16:38:55","新北市三重區仁愛街202號","121.493876666667","25.0774366666667","6500200","三重區"
"241019","KEA-2593","2018/08/27 16:38:51","新北市三重區力行路一段91號","121.486161666667","25.068265","6500200","三重區"
"241006","AAD-863","2018/08/27 16:38:46","新北市三重區力行路二段91巷21弄1號","121.483565","25.0758716666667","6500200","三重區"
"241005","887-TS","2018/08/27 16:39:05","新北市三重區仁華街118巷42號","121.485658333333","25.0839633333333","6500200","三重區"
"241012","941-UM","2018/08/27 16:38:50","新北市三重區仁興街3巷6號","121.500083333333","25.07389","6500200","三重區"
"241029","942-UM","2018/08/27 16:39:00","新北市三重區集美街116號","121.488668333333","25.053905","6500200","三重區"
"241033","AAC-255","2018/08/27 16:38:48","新北市三重區光復路二段131號","121.472133333333","25.05889","6500200","三重區"
"235046","733-UM","2018/08/27 16:38:55","新北市中和區員山路36巷12號","121.48393","24.9908283333333","6500300","中和區"
"235026","800-TS","2018/08/27 16:38:56","新北市中和區建八路125巷6弄7號","121.489978333333","24.999115","6500300","中和區"
"247006","336-TH","2018/08/27 16:38:50","新北市五股區中興路三段199號","121.442208333333","25.0816116666667","6501400","蘆洲區"
"247008","056-VK","2018/08/27 16:38:56","新北市蘆洲區永安南路二段228號","121.460775","25.07934","6501400","蘆洲區"
"228002","663-BX","2018/08/27 16:38:54","新北市貢寮區貢寮里朝陽街2號","121.912498333333","25.0215683333333","6502600","貢寮區"
"224007","275-VK","2018/08/27 16:38:58","新北市瑞芳區中央路42-1號","121.761928333333","25.10314","6501200","瑞芳區"
"224009","273-VK","2018/08/27 16:38:59","新北市瑞芳區大寮路356號","121.784405","25.10304","6501200","瑞芳區"
"224005","271-BY","2018/08/27 16:38:46","新北市瑞芳區籠山路214-1號","121.850391666667","25.125875","6501200","瑞芳區"
"227001","642-TC","2018/08/27 16:39:05","新北市雙溪區外柑里外柑腳51號","121.808213333333","25.0179283333333","6502500","雙溪區"
"227008","400-TW","2018/08/27 16:38:56","新北市雙溪區牡丹里中正路64號","121.865533333333","25.0434533333333","6502500","雙溪區"
"251013","KEA-2871","2018/08/27 16:38:47","新北市淡水區楓樹湖3-1號","121.497023333333","25.1868583333333","6501000","淡水區"
"251016","179-VK","2018/08/27 16:38:52","新北市淡水區新市一路三段36號","121.445551666667","25.182915","6501000","淡水區"
"251014","180-VK","2018/08/27 16:39:06","新北市淡水區淡金路三段304號","121.448973333333","25.207815","6501000","淡水區"
"251008","442-VK","2018/08/27 16:39:05","新北市淡水區民生路169號","121.469771666667","25.1421333333333","6501000","淡水區"
"251004","443-VK","2018/08/27 16:39:00","新北市淡水區中正路二段31號","121.419158333333","25.1818483333333","6501000","淡水區"
"252002","178-VK","2018/08/27 16:38:49","新北市三芝區迎旭街71號","121.51035","25.2578883333333","6502100","三芝區"
"238025","303-VK","2018/08/27 16:14:11","新北市樹林區中正路22-1號","121.427828333333","24.999385","6500700","樹林區"
"238004","283-BY","2018/08/27 16:38:46","新北市樹林區中正路433-2號","121.414705","25.0082633333333","6500700","樹林區"
"238001","282-BY","2018/08/27 16:38:49","新北市樹林區中正路22-1號","121.427713333333","24.9993683333333","6500700","樹林區"
"238007","268-VK","2018/08/27 16:38:59","新北市樹林區三俊街310號","121.423221666667","25.0139783333333","6500700","樹林區"
