"lineid","car","time","location","longitude","latitude","cityid","cityname"
"249004","303-UY","2018/08/27 16:48:51","新北市八里區中山路二段210巷179號","121.404095","25.156995","6502300","八里區"
"249002","305-UY","2018/08/27 16:48:56","新北市八里區牛寮埔31號","121.42983","25.1457916666667","6502300","八里區"
"249003","593-UM","2018/08/27 16:49:03","新北市八里區中山路二段356巷56號","121.401673333333","25.1512766666667","6502300","八里區"
"244006","080-UY","2018/08/27 16:49:04","新北市林口區粉寮路一段149-5號","121.399476666667","25.0816283333333","6501700","林口區"
"244019","403-UM","2018/08/27 16:48:51","新北市林口區粉寮路二段88巷100-12號","121.409605","25.09022","6501700","林口區"
"244023","483-VK","2018/08/27 16:48:53","新北市林口區粉寮路二段88巷100-12號","121.40967","25.0902116666667","6501700","林口區"
"231046","107-UY","2018/08/27 16:48:58","新北市新店區灣潭路15-8號","121.541028333333","24.9391966666667","6500600","新店區"
"241011","013-R5","2018/08/27 16:48:57","新北市三重區仁愛街53巷130號","121.499153333333","25.0725733333333","6500200","三重區"
"241028","022-UY","2018/08/27 16:49:00","新北市三重區光興街91號","121.497406666667","25.0598866666667","6500200","三重區"
"241008","059-VK","2018/08/27 16:48:57","新北市三重區永安北路一段17巷11號","121.47737","25.0750483333333","6500200","三重區"
"241022","060-VK","2018/08/27 16:48:58","新北市三重區中華路95號","121.483533333333","25.063","6500200","三重區"
"241015","062-VK","2018/08/27 16:49:00","新北市三重區文化北路43巷3號","121.499175","25.065485","6500200","三重區"
"241017","063-VK","2018/08/27 16:48:51","新北市三重區大同北路60巷29號","121.493538333333","25.0637283333333","6500200","三重區"
"241024","065-VK","2018/08/27 16:49:02","新北市三重區中正北路317巷37號","121.476225","25.0731083333333","6500200","三重區"
"241026","066-VK","2018/08/27 16:48:44","新北市三重區文化南路8-4號","121.500325","25.0620733333333","6500200","三重區"
"241002","090-VK","2018/08/27 16:49:03","新北市三重區仁義街171號","121.496895","25.0815033333333","6500200","三重區"
"241003","091-VK","2018/08/27 16:48:57","新北市三重區五華街87巷40-1號","121.493335","25.084135","6500200","三重區"
"241016","266-UM","2018/08/27 16:48:56","新北市三重區大同北路115巷7號","121.494035","25.0645116666667","6500200","三重區"
"241009","267-UM","2018/08/27 16:48:56","新北市三重區三和路四段203巷247號","121.487278333333","25.0809316666667","6500200","三重區"
"241018","268-UM","2018/08/27 16:48:56","新北市三重區正義北路304號","121.495045","25.0697566666667","6500200","三重區"
"241032","269-UM","2018/08/27 16:48:58","新北市三重區重陽路一段126號","121.486733333333","25.0603283333333","6500200","三重區"
"241013","270-UM","2018/08/27 16:49:01","新北市三重區仁壽街45號","121.497225","25.07351","6500200","三重區"
"241025","271-UM","2018/08/27 16:48:55","新北市三重區中正北路530巷27號","121.47202","25.070145","6500200","三重區"
"241007","398-BY","2018/08/27 16:48:55","新北市三重區三和路四段191巷31號","121.483265","25.0793783333333","6500200","三重區"
"241004","475-VK","2018/08/27 16:48:47","新北市三重區仁愛街397巷5號","121.491623333333","25.0811566666667","6500200","三重區"
"241020","478-VK","2018/08/27 16:48:47","新北市三重區忠孝路二段35號","121.485878333333","25.0711216666667","6500200","三重區"
"241030","480-VK","2018/08/27 16:49:06","新北市三重區新興路6號","121.492701666667","25.0529116666667","6500200","三重區"
"241014","543-UM","2018/08/27 16:48:44","新北市三重區長壽街120巷19弄9號","121.502525","25.0691783333333","6500200","三重區"
"241023","545-UM","2018/08/27 16:48:58","新北市三重區中華路76巷37-1號","121.482073333333","25.06259","6500200","三重區"
"241001","547-UM","2018/08/27 16:48:55","新北市三重區仁政街69號","121.492801666667","25.0774733333333","6500200","三重區"
"241019","KEA-2593","2018/08/27 16:48:51","新北市三重區三張街149巷12號","121.486506666667","25.0699733333333","6500200","三重區"
"241006","AAD-863","2018/08/27 16:49:06","新北市三重區車路頭街142號","121.484145","25.0757233333333","6500200","三重區"
"241005","887-TS","2018/08/27 16:48:45","新北市三重區碧華街148巷19號","121.485296666667","25.08248","6500200","三重區"
"241012","941-UM","2018/08/27 16:48:50","新北市三重區仁興街11巷58號","121.501135","25.0745016666667","6500200","三重區"
"241029","942-UM","2018/08/27 16:49:00","新北市三重區集美街211號","121.491816666667","25.0544566666667","6500200","三重區"
"241033","AAC-255","2018/08/27 16:48:48","新北市三重區新北大道二段139巷9號","121.466346666667","25.0609","6500200","三重區"
"235064","005-UY","2018/08/27 16:49:00","新北市中和區員山路36巷16-3號","121.485108333333","24.9915216666667","6500300","中和區"
"235046","733-UM","2018/08/27 16:41:09","新北市中和區員山路36巷13號","121.484151666667","24.9908683333333","6500300","中和區"
"235026","800-TS","2018/08/27 16:48:56","新北市中和區中正路448號","121.490898333333","24.99426","6500300","中和區"
"247006","336-TH","2018/08/27 16:48:50","新北市蘆洲區永安南路二段132-1號","121.462566666667","25.078605","6501400","蘆洲區"
"247018","057-VK","2018/08/27 16:48:47","新北市蘆洲區民族路300號","121.47766","25.089925","6501400","蘆洲區"
"247008","056-VK","2018/08/27 16:48:56","新北市蘆洲區中山一路195號","121.474453333333","25.0811083333333","6501400","蘆洲區"
"228003","097-TW","2018/08/27 16:49:01","新北市貢寮區貢寮里朝陽街1-2號","121.912351666667","25.02129","6502600","貢寮區"
"228002","663-BX","2018/08/27 16:48:54","新北市貢寮區貢寮里長泰路28號","121.900423333333","25.024085","6502600","貢寮區"
"224008","285-BY","2018/08/27 16:48:53","新北市瑞芳區傑魚坑路187號","121.788341666667","25.1078866666667","6501200","瑞芳區"
"224007","275-VK","2018/08/27 16:48:58","新北市瑞芳區中央路48巷吉祥園8號","121.759545","25.1036683333333","6501200","瑞芳區"
"224009","273-VK","2018/08/27 16:48:59","新北市瑞芳區三爪子坑路106巷1-11號","121.807865","25.1051366666667","6501200","瑞芳區"
"224005","271-BY","2018/08/27 16:48:46","新北市瑞芳區洞頂路157號","121.86128","25.1229566666667","6501200","瑞芳區"
"227001","642-TC","2018/08/27 16:49:05","新北市雙溪區外柑里外柑腳71號","121.807125","25.0175783333333","6502500","雙溪區"
"227008","400-TW","2018/08/27 16:48:56","新北市雙溪區牡丹里石5-2號","121.863781666667","25.0517083333333","6502500","雙溪區"
"251013","KEA-2871","2018/08/27 16:48:47","新北市淡水區泉洲厝32號","121.489285","25.1925833333333","6501000","淡水區"
"251016","179-VK","2018/08/27 16:48:52","新北市淡水區水頭42號","121.478388333333","25.18504","6501000","淡水區"
"251014","180-VK","2018/08/27 16:48:46","新北市淡水區淡金路四段478號","121.452443333333","25.2239266666667","6501000","淡水區"
"251015","181-VK","2018/08/27 16:49:04","新北市淡水區忠愛街5-2號","121.460708333333","25.1715683333333","6501000","淡水區"
"251012","441-VK","2018/08/27 16:49:03","新北市淡水區中正路二段31號","121.41973","25.1814983333333","6501000","淡水區"
"251008","442-VK","2018/08/27 16:49:05","新北市淡水區樹梅坑31號","121.474545","25.1434983333333","6501000","淡水區"
"251004","443-VK","2018/08/27 16:49:00","新北市淡水區中正路二段31號","121.419151666667","25.1817966666667","6501000","淡水區"
"251007","577-R6","2018/08/27 16:49:04","新北市淡水區中正路二段31號","121.419376666667","25.181605","6501000","淡水區"
"251011","650-BX","2018/08/27 16:48:52","新北市淡水區中正路二段31號","121.419368333333","25.1817383333333","6501000","淡水區"
"252002","178-VK","2018/08/27 16:48:48","新北市三芝區忠孝街53號","121.506","25.2562066666667","6502100","三芝區"
"252001","292-VK","2018/08/27 16:48:59","新北市三芝區淡金路二段89號","121.503953333333","25.26072","6502100","三芝區"
"242053","751-BX","2018/08/27 16:48:49","新北市新莊區新泰路357巷3弄57號","121.441956666667","25.0391966666667","6500500","新莊區"
"242021","442-UM","2018/08/27 16:48:50","新北市新莊區新泰路357巷3弄57號","121.44201","25.039255","6500500","新莊區"
"242017","175-VK","2018/08/27 16:49:05","新北市新莊區三和路12-21號","121.441921666667","25.038585","6500500","新莊區"
"238023","601-UM","2018/08/27 16:48:58","新北市樹林區大安路200號","121.420675","24.9959416666667","6500700","樹林區"
"238025","303-VK","2018/08/27 16:48:47","新北市樹林區中正路22-1號","121.42783","24.9994733333333","6500700","樹林區"
"238004","283-BY","2018/08/27 16:48:46","新北市樹林區中正路433-2號","121.414725","25.0083366666667","6500700","樹林區"
"238001","282-BY","2018/08/27 16:48:49","新北市樹林區大慶街99-1號","121.427701666667","24.999695","6500700","樹林區"
"239007","AAC-297","2018/08/27 16:48:53","新北市鶯歌區二甲路13-16號","121.344875","24.935145","6500800","鶯歌區"
