"lineid","car","time","location","longitude","latitude","cityid","cityname"
"234046","148-BY","2018/08/27 18:49:18","新北市永和區秀朗路二段126巷1號","121.524865","25.0012416666667","6500400","永和區"
"234007","207-UY","2018/08/27 18:49:32","新北市永和區文化路154號","121.512423333333","25.015305","6500400","永和區"
"234081","298-R6","2018/08/27 18:49:17","新北市永和區永利路116號","121.521466666667","25.0031816666667","6500400","永和區"
"234038","336-UY","2018/08/27 18:49:33","新北市永和區豫溪街217巷5號","121.525151666667","25.009865","6500400","永和區"
"234064","337-UY","2018/08/27 18:49:21","新北市永和區福和路1號","121.525533333333","25.009525","6500400","永和區"
"234086","338-UY","2018/08/27 18:49:34","新北市永和區中正路75號","121.51503","24.9968316666667","6500400","永和區"
"234070","552-UM","2018/08/27 18:49:20","新北市永和區竹林路96巷4號","121.51917","25.012175","6500400","永和區"
"234005","693-BX","2018/08/27 18:41:21","新北市永和區福和路1號","121.526476666667","25.01007","6500400","永和區"
"234017","745-BX","2018/08/27 18:49:28","新北市永和區永和路二段405巷3號","121.515318333333","25.0171983333333","6500400","永和區"
"234030","746-BX","2018/08/27 18:49:19","新北市永和區得和路327號","121.523471666667","24.9996216666667","6500400","永和區"
"234054","KEA-2590","2018/08/27 18:49:27","新北市永和區環河東路二段90號","121.524411666667","25.0106666666667","6500400","永和區"
"234013","KEA-2591","2018/08/27 18:49:18","新北市永和區仁愛路202巷26號","121.508948333333","25.0129766666667","6500400","永和區"
"234061","AAD-866","2018/08/27 18:49:25","新北市永和區福和路271號","121.517615","25.007395","6500400","永和區"
"234042","862-TW","2018/08/27 18:49:31","新北市永和區永貞路308號","121.511871666667","25.0048966666667","6500400","永和區"
"234050","863-TW","2018/08/27 18:49:33","新北市永和區福和路1號","121.525773333333","25.0095066666667","6500400","永和區"
"234026","9371-KE","2018/08/27 18:49:31","新北市永和區自由街56號","121.513753333333","25.005975","6500400","永和區"
"234011","9373-KE","2018/08/27 18:49:30","新北市永和區文化路126巷10弄2號","121.513113333333","25.01584","6500400","永和區"
"249005","172-UM","2018/08/27 18:49:34","新北市八里區長道坑17號","121.39593","25.1154566666667","6502300","八里區"
"249001","173-UM","2018/08/27 18:49:30","新北市八里區龍米路二段16號","121.449008333333","25.139135","6502300","八里區"
"249004","303-UY","2018/08/27 18:49:37","新北市八里區中山路一段268巷26號","121.414516666667","25.1605616666667","6502300","八里區"
"248016","026-BX","2018/08/27 18:49:27","新北市五股區凌雲路一段149巷42號","121.448581666667","25.1010583333333","6501500","五股區"
"248006","077-UY","2018/08/27 18:49:27","新北市五股區中興路一段171巷63號","121.465613333333","25.07052","6501500","五股區"
"248008","095-VK","2018/08/27 18:49:34","新北市五股區中興路一段151巷37號","121.465181666667","25.0721383333333","6501500","五股區"
"248018","225-UY","2018/08/27 18:49:34","新北市五股區民義路二段70號","121.405506666667","25.1083033333333","6501500","五股區"
"248012","247-BX","2018/08/27 18:49:35","新北市五股區成泰路二段157號","121.439001666667","25.08589","6501500","五股區"
"248004","677-BX","2018/08/27 18:49:31","新北市五股區民義路三段1號","121.403571666667","25.112845","6501500","五股區"
"248002","678-BX","2018/08/27 18:49:39","新北市五股區西雲路267號","121.449323333333","25.0979833333333","6501500","五股區"
"248010","682-TV","2018/08/27 18:49:30","新北市五股區水碓三路43號","121.430241666667","25.0715866666667","6501500","五股區"
"234023","9380-KE","2018/08/27 18:49:28","新北市永和區竹林路119巷45號","121.521991666667","25.011815","6500400","永和區"
"234077","969-R7","2018/08/27 18:49:37","新北市永和區中正路2巷29弄2-2號","121.513886666667","24.9938866666667","6500400","永和區"
"234067","AAC-212","2018/08/27 18:49:18","新北市永和區中和路625號","121.513005","25.0049183333333","6500400","永和區"
"232011","375-UM","2018/08/27 18:49:16","新北市坪林區坪雙路一段1-1號","121.711235","24.9405016666667","6502000","坪林區"
"244007","080-UY","2018/08/27 18:49:23","新北市林口區後湖1-2號","121.38862","25.0967416666667","6501700","林口區"
"244019","403-UM","2018/08/27 18:49:31","新北市林口區麗園二街85號","121.382401666667","25.06751","6501700","林口區"
"244013","KEA-2802","2018/08/27 18:49:27","新北市林口區文化一路一段100巷10弄16號","121.374888333333","25.0713383333333","6501700","林口區"
"244023","483-VK","2018/08/27 18:49:33","新北市林口區民權路200號","121.374428333333","25.0842966666667","6501700","林口區"
"244017","485-VK","2018/08/27 18:49:39","新北市林口區文化二路一段70號","121.36584","25.069185","6501700","林口區"
"244009","656-BX","2018/08/27 18:49:29","新北市林口區竹林路366巷14號","121.392733333333","25.084645","6501700","林口區"
"244011","657-BX","2018/08/27 18:49:15","新北市林口區中正路57巷12弄4號","121.39501","25.0767533333333","6501700","林口區"
"244025","837-TS","2018/08/27 18:49:22","新北市林口區忠孝一路148號","121.360151666667","25.07385","6501700","林口區"
"244021","838-TS","2018/08/27 18:49:31","新北市林口區工六路58號","121.399386666667","25.078015","6501700","林口區"
"243013","AAD-798","2018/08/27 18:27:30","新北市泰山區明志路三段206巷3號","121.4233","25.0379233333333","6501600","泰山區"
"243009","297-R6","2018/08/27 18:49:26","新北市泰山區黎明路31號","121.421508333333","25.0607","6501600","泰山區"
"243016","KEA-2801","2018/08/27 18:49:35","新北市泰山區明志路一段519號","121.430363333333","25.054045","6501600","泰山區"
"243015","421-VK","2018/08/27 18:49:22","新北市泰山區泰林路二段364號","121.428658333333","25.0637416666667","6501600","泰山區"
"243011","KEA-2215","2018/08/27 18:49:23","新北市泰山區明志路二段214巷9號","121.426811666667","25.0488383333333","6501600","泰山區"
"243014","680-BX","2018/08/27 18:49:29","新北市泰山區黎明路25號","121.422061666667","25.0606516666667","6501600","泰山區"
"222003","436-BY","2018/08/27 18:49:22","新北市深坑區翠谷街15號","121.626501666667","25.008395","6501800","深坑區"
"222002","659-BX","2018/08/27 18:49:24","新北市深坑區文山路一段69號","121.626966666667","25.0018533333333","6501800","深坑區"
"231041","002-UM","2018/08/27 18:49:20","新北市新店區安華路28-1號","121.519561666667","24.9606916666667","6500600","新店區"
"231059","046-UY","2018/08/27 18:49:37","新北市新店區安華路28-1號","121.519738333333","24.9610266666667","6500600","新店區"
"231040","047-UY","2018/08/27 18:49:18","新北市新店區環河路116號","121.537115","24.9666716666667","6500600","新店區"
"231046","107-UY","2018/08/27 18:49:35","新北市新店區直潭路43號","121.53346","24.94257","6500600","新店區"
"231052","108-UY","2018/08/27 18:49:25","新北市新店區新烏路一段159號","121.5451","24.9351016666667","6500600","新店區"
"231047","187-VK","2018/08/27 18:49:35","新北市新店區北新路一段303號","121.541578333333","24.967505","6500600","新店區"
"231054","KEA-2219","2018/08/27 18:49:37","新北市新店區光明街123號","121.539348333333","24.9616633333333","6500600","新店區"
"231042","268-BY","2018/08/27 18:49:21","新北市新店區安康路一段52巷2號","121.530158333333","24.961135","6500600","新店區"
"231051","278-BY","2018/08/27 18:49:20","新北市新店區中央路67號","121.532501666667","24.97692","6500600","新店區"
"231050","AAD-862","2018/08/27 18:49:18","新北市新店區安康路一段79巷1號","121.529821666667","24.9612566666667","6500600","新店區"
"231044","355-BY","2018/08/27 18:49:31","新北市新店區中興路三段88號","121.54575","24.9781666666667","6500600","新店區"
"231058","3713-VJ","2018/08/27 18:49:25","新北市新店區中興路一段204號","121.543668333333","24.965465","6500600","新店區"
"231066","4716-K9","2018/08/27 18:49:26","新北市新店區安一路一段1-1號","121.51953","24.9613116666667","6500600","新店區"
"231056","4715-K9","2018/08/27 18:49:23","新北市新店區大同街44號","121.538681666667","24.98078","6500600","新店區"
"231067","4772-VM","2018/08/27 18:49:18","新北市新店區安華路28-1號","121.519248333333","24.96062","6500600","新店區"
"231065","512-UM","2018/08/27 18:49:20","新北市新店區安華路30巷12-1號","121.518253333333","24.9580666666667","6500600","新店區"
"231049","513-UM","2018/08/27 18:49:30","新北市新店區中央路45號","121.532893333333","24.9775816666667","6500600","新店區"
"231061","619-UM","2018/08/27 18:49:22","新北市新店區安華路28-1號","121.51972","24.960725","6500600","新店區"
"231063","641-BX","2018/08/27 18:49:26","新北市新店區安華路28-1號","121.519783333333","24.9607266666667","6500600","新店區"
"231064","719-UM","2018/08/27 18:49:35","新北市新店區安一路一段1-1號","121.51958","24.9614233333333","6500600","新店區"
"231062","720-UM","2018/08/27 18:49:30","新北市新店區安一路一段1-1號","121.519353333333","24.9613383333333","6500600","新店區"
"231060","897-TW","2018/08/27 18:49:36","新北市新店區安華路28-1號","121.519553333333","24.9607766666667","6500600","新店區"
"231045","898-TW","2018/08/27 18:49:37","新北市新店區秀山路72號","121.531211666667","24.9608866666667","6500600","新店區"
"231043","899-TW","2018/08/27 18:49:22","新北市新店區安康路一段283號","121.523461666667","24.96353","6500600","新店區"
"231055","AKT-0513","2018/08/27 18:49:19","新北市新店區北新路一段271巷31號","121.54006","24.96721","6500600","新店區"
"235066","003-UY","2018/08/27 18:49:32","新北市中和區水源路7巷4號","121.504031666667","25.0036633333333","6500300","中和區"
"235064","005-UY","2018/08/27 18:49:28","新北市中和區連城路75巷6弄4號","121.498018333333","24.998785","6500300","中和區"
"235063","006-UY","2018/08/27 18:49:29","新北市中和區錦和路170號","121.489746666667","24.9956516666667","6500300","中和區"
"235056","096-UM","2018/08/27 18:49:29","新北市中和區員山路514號","121.478985","25.008925","6500300","中和區"
"235039","097-UM","2018/08/27 18:49:29","新北市中和區安樂路217巷56號","121.512985","24.99758","6500300","中和區"
"235065","098-UM","2018/08/27 18:49:19","新北市中和區中山路二段2巷45弄22號","121.501571666667","25.0069383333333","6500300","中和區"
"235040","150-BY","2018/08/27 18:49:35","新北市中和區保健路74號","121.51147","24.996345","6500300","中和區"
"235058","151-BY","2018/08/27 18:49:19","新北市中和區連城路595號","121.478385","24.9938233333333","6500300","中和區"
"235055","183-VK","2018/08/27 18:49:29","新北市中和區民生街42號","121.4696","25.0051983333333","6500300","中和區"
"235038","185-VK","2018/08/27 18:49:27","新北市中和區大勇街52號","121.517615","24.9942816666667","6500300","中和區"
"235049","186-VK","2018/08/27 18:49:32","新北市中和區景安路134號","121.505011666667","24.9943483333333","6500300","中和區"
"235067","255-BX","2018/08/27 18:49:31","新北市中和區中山路二段449巷1弄9-2號","121.4839","25.003985","6500300","中和區"
"235044","293-VK","2018/08/27 18:49:33","新北市中和區中興街141號","121.500001666667","24.991275","6500300","中和區"
"235072","301-VK","2018/08/27 18:49:29","新北市中和區中山路二段75號","121.503786666667","25.004435","6500300","中和區"
"235043","352-BY","2018/08/27 18:49:30","新北市中和區成功路3號","121.526426666667","24.99423","6500300","中和區"
"235042","KEA-2878","2018/08/27 18:49:33","新北市中和區秀朗路三段70巷46號","121.52521","24.99436","6500300","中和區"
"235069","4980-A6","2018/08/27 18:49:28","新北市中和區南山路17號","121.502033333333","24.9992016666667","6500300","中和區"
"235070","558-UM","2018/08/27 18:49:27","新北市中和區南山路7號","121.501953333333","24.9995516666667","6500300","中和區"
"235045","565-BX","2018/08/27 18:49:17","新北市中和區捷運路129號","121.507081666667","24.9908533333333","6500300","中和區"
"235054","640-BX","2018/08/27 18:49:34","新北市中和區民享街77號","121.474265","25.001915","6500300","中和區"
"235060","647-TV","2018/08/27 18:49:28","新北市中和區中山路三段206號","121.47158","25.0065","6500300","中和區"
"235047","732-UM","2018/08/27 18:49:31","新北市中和區興南路二段125號","121.505386666667","24.9842016666667","6500300","中和區"
"235046","733-UM","2018/08/27 18:49:24","新北市中和區仁愛街36巷30號","121.511106666667","24.9868616666667","6500300","中和區"
"235071","783-BX","2018/08/27 18:49:18","新北市中和區員山路36巷16-3號","121.485215","24.991185","6500300","中和區"
"235062","800-TS","2018/08/27 18:49:21","新北市中和區中山路二段312巷33弄22號","121.49478","25.004385","6500300","中和區"
"235057","801-TS","2018/08/27 18:49:23","新北市中和區民安街25巷23號","121.480595","24.9997533333333","6500300","中和區"
"235052","805-TS","2018/08/27 18:49:33","新北市中和區興南路二段399巷98弄40號","121.499495","24.9770383333333","6500300","中和區"
"235048","896-TW","2018/08/27 18:49:30","新北市中和區華新街14號","121.507496666667","24.9850816666667","6500300","中和區"
"235053","900-TW","2018/08/27 18:49:30","新北市中和區民德路290巷42號","121.466438333333","24.9960266666667","6500300","中和區"
"235041","911-UM","2018/08/27 18:49:29","新北市中和區安平路161號","121.512398333333","24.9985733333333","6500300","中和區"
"235051","157-BY","2018/08/27 18:49:33","新北市中和區忠孝街106巷45號","121.513795","24.9843666666667","6500300","中和區"
"235037","AAC-213","2018/08/27 18:49:31","新北市中和區秀朗路三段128巷16弄2號","121.524616666667","24.9930166666667","6500300","中和區"
"235059","AAC-215","2018/08/27 18:49:23","新北市中和區圓通路393巷18號","121.489861666667","24.9886016666667","6500300","中和區"
"220065","072-UY","2018/08/27 18:49:20","新北市板橋區民族路247巷5弄42號","121.47023","25.0084233333333","6500100","板橋區"
"220086","073-UY","2018/08/27 18:49:33","新北市板橋區大智街62號","121.454156666667","25.0154916666667","6500100","板橋區"
"220106","075-UY","2018/08/27 18:49:31","新北市板橋區民生路二段120號","121.470355","25.0197533333333","6500100","板橋區"
"220069","AAD-861","2018/08/27 18:49:26","新北市板橋區縣民大道一段114號","121.457326666667","25.0060066666667","6500100","板橋區"
"226004","312-R5","2018/08/27 18:49:22","新北市平溪區靜安路二段392號","121.738551666667","25.024525","6502400","平溪區"
"228003","097-TW","2018/08/27 18:49:32","新北市貢寮區和美里龍洞街53號","121.912285","25.1137583333333","6502600","貢寮區"
"228002","663-BX","2018/08/27 18:49:34","新北市貢寮區福隆里東興街6-11號","121.950741666667","25.0210933333333","6502600","貢寮區"
"228001","670-TC","2018/08/27 18:49:22","新北市貢寮區仁理村研海街12-1號","121.92375","25.051695","6502600","貢寮區"
"224006","676-BX","2018/08/27 18:49:36","新北市瑞芳區民生街19號","121.805918333333","25.1075466666667","6501200","瑞芳區"
"224008","285-BY","2018/08/27 18:49:33","新北市瑞芳區逢甲路274-1號","121.804723333333","25.1109083333333","6501200","瑞芳區"
"224007","275-VK","2018/08/27 18:49:38","新北市瑞芳區大埔路東泰新村1號","121.761291666667","25.10117","6501200","瑞芳區"
"224009","273-VK","2018/08/27 18:49:19","新北市瑞芳區祈堂路53-1號","121.859633333333","25.1109233333333","6501200","瑞芳區"
"224005","271-BY","2018/08/27 18:49:26","新北市瑞芳區海濱路157-2號","121.828495","25.1215083333333","6501200","瑞芳區"
"227001","642-TC","2018/08/27 18:49:24","新北市雙溪區平林里梅竹蹊28號","121.861655","25.036035","6502500","雙溪區"
"227008","400-TW","2018/08/27 18:49:16","新北市雙溪區牡丹里聖南8號","121.85893","25.0526933333333","6502500","雙溪區"
"253005","032-BX","2018/08/27 18:49:27","新北市石門區中山路28-1號","121.56585","25.2899716666667","6502200","石門區"
"253006","295-VK","2018/08/27 18:49:26","新北市石門區下員坑16號","121.510646666667","25.2837866666667","6502200","石門區"
"222001","KEA-2212","2018/08/27 18:49:20","新北市深坑區松柏街38號","121.638791666667","25.0114733333333","6501800","深坑區"
"208002","KEA-2872","2018/08/27 18:49:35","新北市金山區信義路61號","121.635733333333","25.21895","6502700","金山區"
"208003","665-BX","2018/08/27 18:49:38","新北市金山區中山路346號","121.633425","25.2253133333333","6502700","金山區"
"208001","761-BX","2018/08/27 18:49:31","新北市金山區文化三路66巷1號","121.634193333333","25.2256133333333","6502700","金山區"
"251001","011-UM","2018/08/27 18:49:34","新北市淡水區自強路269號","121.46274","25.1280533333333","6501000","淡水區"
"251013","KEA-2871","2018/08/27 18:49:27","新北市淡水區安子內5-1號","121.48382","25.2152083333333","6501000","淡水區"
"251016","179-VK","2018/08/27 18:49:32","新北市淡水區下圭柔山71-3號","121.447015","25.20621","6501000","淡水區"
"251014","180-VK","2018/08/27 18:49:26","新北市淡水區崙頂2號","121.492065","25.22399","6501000","淡水區"
"251015","181-VK","2018/08/27 18:49:23","新北市淡水區興福寮100號","121.486716666667","25.1642683333333","6501000","淡水區"
"251010","413-VK","2018/08/27 18:49:20","新北市淡水區沙崙路9號","121.421058333333","25.1812283333333","6501000","淡水區"
"251012","441-VK","2018/08/27 18:49:22","新北市淡水區新興街13號","121.443306666667","25.1805183333333","6501000","淡水區"
"251004","443-VK","2018/08/27 18:49:27","新北市淡水區八勢二街51巷2號","121.460786666667","25.1491533333333","6501000","淡水區"
"251007","577-R6","2018/08/27 18:49:24","新北市淡水區民生路67號","121.463155","25.138235","6501000","淡水區"
"251011","650-BX","2018/08/27 18:49:32","新北市淡水區學府路8號","121.44752","25.1678466666667","6501000","淡水區"
"251002","672-BX","2018/08/27 18:49:22","新北市淡水區學府路71號","121.448448333333","25.1698466666667","6501000","淡水區"
"251003","766-UM","2018/08/27 18:49:32","新北市淡水區中山北路一段186巷24號","121.446208333333","25.1785316666667","6501000","淡水區"
"207003","550-UM","2018/08/27 18:49:34","新北市萬里區大鵬里頂社1號","121.657033333333","25.20974","6502800","萬里區"
"207004","225-TW","2018/08/27 18:49:34","新北市萬里區萬里里獅頭路23號","121.693258333333","25.1782883333333","6502800","萬里區"
"252002","178-VK","2018/08/27 18:49:28","新北市三芝區中正路一段112號","121.504811666667","25.256415","6502100","三芝區"
"252003","249-BX","2018/08/27 18:49:24","新北市三芝區後厝里大片頭83-4號","121.45895","25.2439316666667","6502100","三芝區"
"252001","292-VK","2018/08/27 18:49:19","新北市三芝區中正路三段9號","121.502938333333","25.25397","6502100","三芝區"
"237004","KEA-2597","2018/08/27 18:49:31","新北市三峽區插角120號","121.40882","24.87039","6500900","三峽區"
"237007","153-BY","2018/08/27 18:49:32","新北市三峽區大埔路80號","121.366436666667","24.9073116666667","6500900","三峽區"
"237009","210-TH","2018/08/27 18:49:21","新北市三峽區民權街219號","121.367771666667","24.9282433333333","6500900","三峽區"
"237013","252-BX","2018/08/27 18:49:38","新北市三峽區光明路69巷25號","121.376691666667","24.9292616666667","6500900","三峽區"
"237012","275-BY","2018/08/27 18:49:24","新北市三峽區三樹路360號","121.383653333333","24.9435933333333","6500900","三峽區"
"237008","302-VK","2018/08/27 18:49:25","新北市三峽區白雞33-51號","121.370471666667","24.912775","6500900","三峽區"
"237014","433-BY","2018/08/27 18:49:33","新北市三峽區復興路480巷50-7號","121.360678333333","24.940145","6500900","三峽區"
"237006","5529-G3","2018/08/27 18:49:20","新北市三峽區溪東路315號","121.410413333333","24.93042","6500900","三峽區"
"237011","KEA-2596","2018/08/27 18:49:25","新北市三峽區溪北街99號","121.397941666667","24.9354833333333","6500900","三峽區"
"237015","649-BX","2018/08/27 18:49:36","新北市三峽區安坑7號","121.440526666667","24.926265","6500900","三峽區"
"237010","706-TV","2018/08/27 18:49:15","新北市三峽區復興路487號","121.361281666667","24.93843","6500900","三峽區"
"237005","AKY-6261","2018/08/27 18:49:22","新北市三峽區新興街11號","121.372688333333","24.935715","6500900","三峽區"
"236069","105-UM","2018/08/27 18:49:20","新北市土城區永豐路216-1號","121.467113333333","24.982615","6501300","土城區"
"236078","166-UM","2018/08/27 18:49:22","新北市土城區中央路四段185巷46號","121.416185","24.95583","6501300","土城區"
"236030","253-BX","2018/08/27 18:49:35","新北市土城區忠義路26巷10號","121.4399","24.969905","6501300","土城區"
"236026","269-VK","2018/08/27 18:49:26","新北市土城區興城路48號","121.441411666667","24.972615","6501300","土城區"
"236014","270-VK","2018/08/27 18:49:17","新北市土城區金城路二段354巷20號","121.460728333333","24.9841133333333","6501300","土城區"
"236039","271-VK","2018/08/27 18:49:26","新北市土城區明德路一段130號","121.463738333333","24.9789433333333","6501300","土城區"
"236020","401-BY","2018/08/27 18:49:38","新北市土城區延安街42-3號","121.467578333333","24.9852666666667","6501300","土城區"
"236042","752-BX","2018/08/27 18:49:30","新北市土城區裕民路92巷25弄4號","121.449598333333","24.98592","6501300","土城區"
"236059","912-UM","2018/08/27 18:49:24","新北市土城區金城路一段21號","121.43979","24.969025","6501300","土城區"
"236048","913-UM","2018/08/27 18:49:33","新北市土城區青雲路8-1號","121.46025","24.9891466666667","6501300","土城區"
"236063","915-UM","2018/08/27 18:49:20","新北市土城區金城路三段185-1號","121.469686666667","24.9888333333333","6501300","土城區"
"236055","AAC-216","2018/08/27 18:49:30","新北市土城區裕民路176號","121.452618333333","24.98525","6501300","土城區"
"242058","986-R7","2018/08/27 18:49:26","新北市泰山區中山路二段435-6號","121.43288","25.044435","6500500","新莊區"
"242027","615-BX","2018/08/27 18:21:48","新北市新莊區新泰路255巷83號","121.442208333333","25.038815","6500500","新莊區"
"242042","566-BX","2018/08/27 18:49:28","新北市泰山區新北大道六段373號","121.42222","25.03283","6500500","新莊區"
"242046","497-BY","2018/08/27 18:49:23","新北市樹林區太平路277號","121.418703333333","24.9726616666667","6500500","新莊區"
"242002","349-TH","2018/08/27 18:49:30","新北市新莊區環河路636-7號","121.437466666667","25.011735","6500500","新莊區"
"238023","601-UM","2018/08/27 18:49:38","新北市樹林區工興街14巷2號","121.398938333333","25.013585","6500700","樹林區"
"238019","599-UM","2018/08/27 18:49:31","新北市樹林區東榮街147巷2弄2號","121.414531666667","24.9814933333333","6500700","樹林區"
"238018","571-TV","2018/08/27 18:49:37","新北市樹林區太平路48號","121.41902","24.9825333333333","6500700","樹林區"
"238024","5061-A6","2018/08/27 18:49:26","新北市樹林區八德街475-1號","121.403736666667","24.9704483333333","6500700","樹林區"
"238022","KEA-2213","2018/08/27 18:49:38","新北市樹林區東順街62號","121.411093333333","24.9779733333333","6500700","樹林區"
"238021","KEA-2539","2018/08/27 18:49:29","新北市樹林區西圳街二段30號","121.388508333333","24.9617566666667","6500700","樹林區"
"238025","303-VK","2018/08/27 18:49:18","新北市樹林區中山路三段22號","121.395613333333","24.9729816666667","6500700","樹林區"
"238014","282-BY","2018/08/27 18:49:28","新北市樹林區大安路111巷25號","121.42315","24.9975683333333","6500700","樹林區"
"238020","268-VK","2018/08/27 18:49:19","新北市樹林區俊英街282號","121.423728333333","25.0133316666667","6500700","樹林區"
"238026","172-UY","2018/08/27 18:49:22","新北市樹林區德和街40號","121.389743333333","24.9801133333333","6500700","樹林區"
"238016","169-UY","2018/08/27 18:49:20","新北市樹林區文化街23號","121.419226666667","24.987635","6500700","樹林區"
"239007","AAC-297","2018/08/27 18:49:32","新北市鶯歌區中正一路461-5號","121.362956666667","24.95663","6500800","鶯歌區"
"239008","527-UM","2018/08/27 18:49:27","新北市鶯歌區國際一路179號","121.336186666667","24.9764983333333","6500800","鶯歌區"
"239001","417-VK","2018/08/27 18:49:27","新北市鶯歌區尖山埔路二段39號","121.34221","24.9488483333333","6500800","鶯歌區"
"239003","360-BY","2018/08/27 18:49:33","新北市鶯歌區鶯桃路607號","121.329086666667","24.96902","6500800","鶯歌區"
"239004","193-VK","2018/08/27 18:49:29","新北市鶯歌區中正二路299號","121.339838333333","24.943395","6500800","鶯歌區"
"221008","489-VK","2018/08/27 18:49:34","新北市汐止區康寧街901號","121.651328333333","25.075005","6501100","汐止區"
"221036","130-UY","2018/08/27 18:49:34","新北市汐止區南昌街2巷15號","121.662801666667","25.06877","6501100","汐止區"
"221015","131-UY","2018/08/27 18:49:32","新北市汐止區鄉長路一段55巷6號","121.665485","25.076195","6501100","汐止區"
"221010","269-BY","2018/08/27 18:49:22","新北市汐止區汐萬路一段310號","121.650341666667","25.0748133333333","6501100","汐止區"
"221012","278-VK","2018/08/27 18:49:19","新北市汐止區汐萬路一段266號","121.65097","25.0738233333333","6501100","汐止區"
"221023","279-VK","2018/08/27 18:49:33","新北市汐止區連峰街1巷1號","121.647133333333","25.076015","6501100","汐止區"
"221032","280-BY","2018/08/27 18:49:36","新北市汐止區民權街二段79號","121.619236666667","25.0480533333333","6501100","汐止區"
"221027","281-BY","2018/08/27 18:49:23","新北市汐止區汐萬路一段256巷3號","121.652353333333","25.0746466666667","6501100","汐止區"
"221029","298-VK","2018/08/27 18:49:26","新北市汐止區樟樹一路97號","121.642031666667","25.0635516666667","6501100","汐止區"
"221021","299-VK","2018/08/27 18:49:20","新北市汐止區大同路二段187巷1號","121.651728333333","25.0644333333333","6501100","汐止區"
"221031","353-TW","2018/08/27 18:49:21","新北市汐止區福德一路300巷45號","121.630275","25.0645116666667","6501100","汐止區"
"221002","129-UY","2018/08/27 18:49:24","新北市汐止區大同路一段149號","121.63211","25.05614","6501100","汐止區"
"221035","622-UM","2018/08/27 18:49:27","新北市汐止區禮門街7號","121.65662","25.0675316666667","6501100","汐止區"
"221025","623-UM","2018/08/27 18:49:23","新北市汐止區仁愛路87號","121.661523333333","25.062915","6501100","汐止區"
"221038","646-BX","2018/08/27 18:49:28","新北市汐止區汐萬路一段312號","121.650678333333","25.0752516666667","6501100","汐止區"
"221018","753-BX","2018/08/27 18:49:24","新北市汐止區茄苳路70號","121.666673333333","25.070685","6501100","汐止區"
"220079","145-BY","2018/08/27 18:49:33","新北市板橋區民權路202巷7弄20號","121.459351666667","25.0150066666667","6500100","板橋區"
"220080","200-UY","2018/08/27 18:49:25","新北市板橋區大觀路二段265巷60弄2號","121.44273","24.9980916666667","6500100","板橋區"
"220082","610-BX","2018/08/27 18:49:30","新北市板橋區篤行路三段99號","121.426291666667","24.98464","6500100","板橋區"
"220056","276-BY","2018/08/27 18:49:36","新北市板橋區信義路2號","121.456951666667","24.9963616666667","6500100","板橋區"
"220072","277-BY","2018/08/27 18:49:28","新北市板橋區大觀路三段36巷16號","121.433966666667","24.9962033333333","6500100","板橋區"
"220063","280-UM","2018/08/27 18:49:21","新北市板橋區民生路二段89-4號","121.471065","25.0183333333333","6500100","板橋區"
"220071","283-VK","2018/08/27 18:49:35","新北市板橋區重慶路245巷67弄1號","121.465501666667","25.00123","6500100","板橋區"
"220094","285-UM","2018/08/27 18:49:17","新北市板橋區民生路二段184號","121.471096666667","25.0200283333333","6500100","板橋區"
"220053","285-VK","2018/08/27 18:49:22","新北市板橋區民生路二段123號","121.470558333333","25.0185166666667","6500100","板橋區"
"220083","286-VK","2018/08/27 18:49:26","新北市板橋區僑中一街110號","121.446356666667","25.0118133333333","6500100","板橋區"
"220081","287-VK","2018/08/27 18:49:23","新北市板橋區光華街15巷1號","121.453996666667","25.0118233333333","6500100","板橋區"
"220090","288-VK","2018/08/27 18:49:32","新北市板橋區民生路二段120號","121.470661666667","25.0196416666667","6500100","板橋區"
"220061","295-UM","2018/08/27 18:49:22","新北市板橋區民生路二段89-6號","121.470681666667","25.0189566666667","6500100","板橋區"
"220084","296-UM","2018/08/27 18:49:37","新北市板橋區大觀路二段150巷65號","121.441505","25.0004983333333","6500100","板橋區"
"220062","299-UM","2018/08/27 18:49:29","新北市板橋區中山路二段40巷6弄2號","121.473186666667","25.0148533333333","6500100","板橋區"
"220075","303-R5","2018/08/27 18:49:25","新北市板橋區館前西路223號","121.454413333333","25.0086816666667","6500100","板橋區"
"220098","317-R6","2018/08/27 18:49:18","新北市板橋區民生路二段120號","121.470595","25.0198216666667","6500100","板橋區"
"220064","486-VK","2018/08/27 18:49:31","新北市板橋區民生路二段15-1號","121.472701666667","25.0161533333333","6500100","板橋區"
"220035","560-BX","2018/08/27 18:49:36","新北市板橋區中正路275巷68號","121.452723333333","25.0179233333333","6500100","板橋區"
"220103","561-BX","2018/08/27 18:49:23","新北市板橋區民生路二段89-6號","121.47067","25.0188566666667","6500100","板橋區"
"220091","637-BX","2018/08/27 18:49:23","新北市板橋區民生路二段161巷1號","121.470015","25.019925","6500100","板橋區"
"220057","686-BX","2018/08/27 18:49:35","新北市板橋區南雅南路一段1巷1弄15號","121.457253333333","25.0060466666667","6500100","板橋區"
"220077","687-BX","2018/08/27 18:49:21","新北市板橋區龍興街103巷1號","121.444513333333","25.003315","6500100","板橋區"
"220093","689-BX","2018/08/27 18:49:34","新北市板橋區民生路二段188號","121.470048333333","25.02029","6500100","板橋區"
"220054","741-BX","2018/08/27 18:49:31","新北市板橋區館前東路23-1號","121.460371666667","25.007255","6500100","板橋區"
"220102","KEA-2699","2018/08/27 18:49:20","新北市板橋區民生路二段120號","121.470371666667","25.0199166666667","6500100","板橋區"
"220055","827-TW","2018/08/27 18:49:34","新北市板橋區新站路12號","121.466125","25.0123","6500100","板橋區"
"220067","829-TW","2018/08/27 18:49:32","新北市板橋區中山路二段90巷43弄14號","121.476921666667","25.0149233333333","6500100","板橋區"
"220074","895-R6","2018/08/27 18:49:31","新北市板橋區館前西路263號","121.453935","25.008695","6500100","板橋區"
"220073","985-R7","2018/08/27 18:49:31","新北市板橋區西門街3號","121.455945","25.011545","6500100","板橋區"
"220097","AAC-210","2018/08/27 18:47:31","新北市板橋區民生路二段184號","121.471255","25.0201633333333","6500100","板橋區"
"220070","AAC-253","2018/08/27 18:49:31","新北市板橋區四川路一段61號","121.459691666667","25.0061216666667","6500100","板橋區"
"235068","KEA-2873","2018/08/27 18:49:18","新北市中和區中正路211巷36弄2號","121.497356666667","24.9927633333333","6500300","中和區"
"235061","KEA-2875","2018/08/27 18:49:12","新北市中和區民享街44巷14號","121.47349","25.0026566666667","6500300","中和區"
