"lineid","car","time","location","longitude","latitude","cityid","cityname"
"234046","148-BY","2018/08/27 18:59:32","新北市永和區得和路373巷16弄5號","121.525313333333","25.0001516666667","6500400","永和區"
"234007","207-UY","2018/08/27 18:59:32","新北市永和區永和路二段98號","121.515178333333","25.011665","6500400","永和區"
"234081","298-R6","2018/08/27 18:59:37","新北市永和區國中路208號","121.522183333333","25.005895","6500400","永和區"
"234038","336-UY","2018/08/27 18:59:33","新北市永和區成功路二段207號","121.526536666667","24.9959133333333","6500400","永和區"
"234064","337-UY","2018/08/27 18:59:21","新北市永和區秀朗路一段168號","121.51853","25.00346","6500400","永和區"
"234086","338-UY","2018/08/27 18:59:34","新北市永和區永寧街66號","121.517981666667","25.00514","6500400","永和區"
"234070","552-UM","2018/08/27 18:59:40","新北市永和區中興街68巷5弄4號","121.518276666667","25.0116233333333","6500400","永和區"
"234005","693-BX","2018/08/27 18:41:21","新北市永和區福和路1號","121.526476666667","25.01007","6500400","永和區"
"234017","745-BX","2018/08/27 18:59:28","新北市永和區永和路二段297號","121.516046666667","25.0160316666667","6500400","永和區"
"234030","746-BX","2018/08/27 18:59:23","新北市永和區秀朗路二段289號","121.526236666667","24.9980783333333","6500400","永和區"
"234054","KEA-2590","2018/08/27 18:59:27","新北市永和區竹林路66巷2號","121.518216666667","25.0133916666667","6500400","永和區"
"234013","KEA-2591","2018/08/27 18:59:17","新北市永和區中山路一段60巷5號","121.512983333333","25.01097","6500400","永和區"
"234061","AAD-866","2018/08/27 18:59:25","新北市永和區福和路313號","121.516196666667","25.0070966666667","6500400","永和區"
"234042","862-TW","2018/08/27 18:59:31","新北市永和區永貞路308號","121.511836666667","25.0048483333333","6500400","永和區"
"234050","863-TW","2018/08/27 18:59:33","新北市永和區環河西路一段109號","121.510973333333","25.0173683333333","6500400","永和區"
"234026","9371-KE","2018/08/27 18:59:31","新北市永和區安樂路453號","121.51425","25.0049633333333","6500400","永和區"
"234011","9373-KE","2018/08/27 18:59:30","新北市永和區仁愛路105號","121.512435","25.013125","6500400","永和區"
"249005","172-UM","2018/08/27 18:59:34","新北市八里區長道坑11號","121.39489","25.1222333333333","6502300","八里區"
"249001","173-UM","2018/08/27 18:59:30","新北市八里區龍米路二段216號","121.433191666667","25.1584133333333","6502300","八里區"
"248016","026-BX","2018/08/27 18:59:27","新北市五股區成泰路三段543巷18號","121.450898333333","25.102215","6501500","五股區"
"248006","077-UY","2018/08/27 18:59:27","新北市五股區中興路一段2號","121.469476666667","25.072345","6501500","五股區"
"248008","095-VK","2018/08/27 18:59:34","新北市五股區中興路一段130號","121.465503333333","25.0737083333333","6501500","五股區"
"248018","225-UY","2018/08/27 18:59:34","新北市五股區民義路二段48巷2號","121.413975","25.1032983333333","6501500","五股區"
"248012","247-BX","2018/08/27 18:59:35","新北市五股區中興路四段48巷16號","121.43866","25.0834316666667","6501500","五股區"
"248004","677-BX","2018/08/27 18:59:11","新北市五股區六合街21號","121.431071666667","25.08878","6501500","五股區"
"248002","678-BX","2018/08/27 18:59:39","新北市五股區凌雲路一段147號","121.449328333333","25.1022066666667","6501500","五股區"
"248010","682-TV","2018/08/27 18:59:22","新北市五股區登林路78-3號","121.429476666667","25.0708066666667","6501500","五股區"
"234023","9380-KE","2018/08/27 18:59:28","新北市永和區竹林路75巷25弄4號","121.520368333333","25.0142733333333","6500400","永和區"
"234077","969-R7","2018/08/27 18:59:37","新北市永和區智光街33號","121.517931666667","24.9989166666667","6500400","永和區"
"234074","AAC-211","2018/08/27 18:59:34","新北市永和區環河東路二段98號","121.524125","25.0103416666667","6500400","永和區"
"234067","AAC-212","2018/08/27 18:59:38","新北市永和區中和路625號","121.51304","25.0050433333333","6500400","永和區"
"234003","AAC-295","2018/08/27 18:59:34","新北市永和區和平街38號","121.51292","25.0099466666667","6500400","永和區"
"232011","375-UM","2018/08/27 18:59:36","新北市坪林區水柳腳2號","121.711536666667","24.9352566666667","6502000","坪林區"
"244007","080-UY","2018/08/27 18:59:23","新北市林口區太平里2鄰7號","121.38055","25.1140066666667","6501700","林口區"
"244019","403-UM","2018/08/27 18:59:31","新北市林口區麗園二街3巷5號","121.377835","25.07004","6501700","林口區"
"244013","KEA-2802","2018/08/27 18:59:27","新北市林口區麗園一街11巷3號","121.37746","25.0704883333333","6501700","林口區"
"244023","483-VK","2018/08/27 18:59:33","新北市林口區文林六街56號","121.371128333333","25.081655","6501700","林口區"
"244017","485-VK","2018/08/27 18:59:27","新北市林口區文化二路一段20巷25弄4號","121.366041666667","25.0678116666667","6501700","林口區"
"244009","656-BX","2018/08/27 18:59:29","新北市林口區台電新村101號","121.388468333333","25.0872516666667","6501700","林口區"
"244011","657-BX","2018/08/27 18:59:35","新北市林口區仁愛路一段258號","121.394218333333","25.0759866666667","6501700","林口區"
"244025","837-TS","2018/08/27 18:59:22","新北市林口區南勢街192巷11號","121.361153333333","25.075105","6501700","林口區"
"244021","838-TS","2018/08/27 18:59:21","新北市林口區工四路45號","121.400718333333","25.0836216666667","6501700","林口區"
"243013","AAD-798","2018/08/27 18:59:35","新北市泰山區明志路三段239號","121.423536666667","25.0377716666667","6501600","泰山區"
"243009","297-R6","2018/08/27 18:59:25","新北市泰山區泰林路二段360號","121.42897","25.0635733333333","6501600","泰山區"
"243016","KEA-2801","2018/08/27 18:59:35","新北市泰山區明志路二段135號","121.427708333333","25.0507666666667","6501600","泰山區"
"243015","421-VK","2018/08/27 18:59:22","新北市泰山區美寧街2號","121.43012","25.0633183333333","6501600","泰山區"
"243011","KEA-2215","2018/08/27 18:59:23","新北市泰山區明志路二段246-1號","121.42693","25.0482133333333","6501600","泰山區"
"243012","646-TV","2018/08/27 18:59:32","新北市泰山區福興三街170號","121.432328333333","25.0569466666667","6501600","泰山區"
"243014","680-BX","2018/08/27 18:59:29","新北市泰山區泰林路二段595號","121.421685","25.0634483333333","6501600","泰山區"
"222003","436-BY","2018/08/27 18:59:22","新北市深坑區深南路51-1號","121.621328333333","25.01016","6501800","深坑區"
"222002","659-BX","2018/08/27 18:59:24","新北市深坑區文山路一段31巷2號","121.629895","25.0033733333333","6501800","深坑區"
"231041","002-UM","2018/08/27 18:59:20","新北市新店區環河路29巷1號","121.537083333333","24.961335","6500600","新店區"
"231059","046-UY","2018/08/27 18:59:17","新北市新店區安一路一段1-1號","121.519738333333","24.961065","6500600","新店區"
"231040","047-UY","2018/08/27 18:59:38","新北市新店區中央路25號","121.533131666667","24.9780266666667","6500600","新店區"
"231046","107-UY","2018/08/27 18:59:37","新北市新店區直潭五街19號","121.534306666667","24.9410166666667","6500600","新店區"
"231052","108-UY","2018/08/27 18:59:25","新北市新店區屈尺路12號","121.548918333333","24.9226366666667","6500600","新店區"
"231047","187-VK","2018/08/27 18:59:15","新北市新店區德正街23巷12-1號","121.544578333333","24.97218","6500600","新店區"
"231054","KEA-2219","2018/08/27 18:59:37","新北市新店區新店路13號","121.540363333333","24.95289","6500600","新店區"
"231042","268-BY","2018/08/27 18:59:21","新北市新店區中正路49號","121.544668333333","24.969875","6500600","新店區"
"231051","278-BY","2018/08/27 18:59:20","新北市新店區百忍街23號","121.533976666667","24.9756933333333","6500600","新店區"
"231050","AAD-862","2018/08/27 18:59:17","新北市新店區北宜路二段30巷5弄28號","121.548748333333","24.9506933333333","6500600","新店區"
"231044","355-BY","2018/08/27 18:59:31","新北市新店區寶中路99號","121.548736666667","24.9804033333333","6500600","新店區"
"231058","3713-VJ","2018/08/27 18:59:25","新北市新店區光明街102巷2號","121.539185","24.960355","6500600","新店區"
"231066","4716-K9","2018/08/27 18:59:26","新北市新店區安豐路30-1號","121.500975","24.9568","6500600","新店區"
"231056","4715-K9","2018/08/27 18:59:23","新北市新店區建國路218號","121.537981666667","24.9811033333333","6500600","新店區"
"231067","4772-VM","2018/08/27 18:59:38","新北市新店區安華路28-1號","121.519081666667","24.9607216666667","6500600","新店區"
"231065","512-UM","2018/08/27 18:59:20","新北市新店區建業路4號","121.483908333333","24.9512733333333","6500600","新店區"
"231049","513-UM","2018/08/27 18:59:30","新北市新店區中正路454-5號","121.534433333333","24.9790483333333","6500600","新店區"
"231061","619-UM","2018/08/27 18:59:23","新北市新店區安華路30巷1號","121.519303333333","24.9596233333333","6500600","新店區"
"231063","641-BX","2018/08/27 18:59:26","新北市新店區安華路16號","121.517015","24.95808","6500600","新店區"
"231064","719-UM","2018/08/27 18:59:35","新北市新店區安一路一段1-1號","121.519578333333","24.9611383333333","6500600","新店區"
"231062","720-UM","2018/08/27 18:59:30","新北市新店區安豐路60-1號","121.497825","24.95362","6500600","新店區"
"231060","897-TW","2018/08/27 18:59:36","新北市新店區安忠路57巷11弄14號","121.515303333333","24.9579783333333","6500600","新店區"
"231045","898-TW","2018/08/27 18:59:17","新北市新店區光明街53號","121.538551666667","24.9602333333333","6500600","新店區"
"231043","899-TW","2018/08/27 18:59:22","新北市新店區中正路111號","121.542516666667","24.9706116666667","6500600","新店區"
"231055","AKT-0513","2018/08/27 18:59:18","新北市新店區力行路48號","121.538771666667","24.9654616666667","6500600","新店區"
"241026","066-VK","2018/08/27 18:59:24","新北市三重區泉州街110號","121.494835","25.0536516666667","6500200","三重區"
"241029","942-UM","2018/08/27 18:59:36","新北市三重區重安街13巷6號","121.490428333333","25.0570283333333","6500200","三重區"
"235066","003-UY","2018/08/27 18:59:36","新北市中和區中山路二段131巷10弄2號","121.502831666667","25.0022833333333","6500300","中和區"
"235064","005-UY","2018/08/27 18:59:28","新北市中和區泰和街44巷9號","121.498598333333","25.000395","6500300","中和區"
"235063","006-UY","2018/08/27 18:59:29","新北市中和區中正路592號","121.485745","24.9950766666667","6500300","中和區"
"235056","096-UM","2018/08/27 18:59:29","新北市中和區新民街90號","121.481745","25.00758","6500300","中和區"
"235039","097-UM","2018/08/27 18:59:29","新北市永和區民有街25巷2號","121.517213333333","24.9960833333333","6500300","中和區"
"235065","098-UM","2018/08/27 18:59:39","新北市中和區福祥路136號","121.498855","25.0068866666667","6500300","中和區"
"235040","150-BY","2018/08/27 18:59:35","新北市中和區安樂路87號","121.512968333333","24.9945483333333","6500300","中和區"
"235058","151-BY","2018/08/27 18:59:19","新北市中和區連城路569巷9弄8號","121.479445","24.9940816666667","6500300","中和區"
"235055","183-VK","2018/08/27 18:59:29","新北市中和區民德路25巷1號","121.469175","25.0027716666667","6500300","中和區"
"235038","185-VK","2018/08/27 18:59:27","新北市中和區立人街24-5號","121.518893333333","24.9941166666667","6500300","中和區"
"235049","186-VK","2018/08/27 18:59:22","新北市中和區景新街210巷2弄14號","121.506781666667","24.9941833333333","6500300","中和區"
"235067","255-BX","2018/08/27 18:59:31","新北市中和區中正路839巷1號","121.484698333333","25.0023316666667","6500300","中和區"
"235044","293-VK","2018/08/27 18:59:33","新北市中和區中興街161巷3弄2號","121.500666666667","24.9909233333333","6500300","中和區"
"235072","301-VK","2018/08/27 18:59:29","新北市中和區景平路701號","121.496573333333","25.0035133333333","6500300","中和區"
"235043","352-BY","2018/08/27 18:59:30","新北市中和區成功路54號","121.526043333333","24.9924966666667","6500300","中和區"
"235042","KEA-2878","2018/08/27 18:59:33","新北市永和區成功路二段203號","121.526586666667","24.9959966666667","6500300","中和區"
"235069","4980-A6","2018/08/27 18:59:28","新北市中和區景平路459巷2弄2號","121.500318333333","24.996465","6500300","中和區"
"235070","558-UM","2018/08/27 18:59:27","新北市中和區安和路159號","121.50619","24.997215","6500300","中和區"
"235045","565-BX","2018/08/27 18:59:37","新北市中和區景新街467巷15弄2號","121.513991666667","24.9883366666667","6500300","中和區"
"235054","640-BX","2018/08/27 18:59:34","新北市中和區民享街2-1號","121.473925","25.0053033333333","6500300","中和區"
"235060","647-TV","2018/08/27 18:59:28","新北市中和區民治街26號","121.47515","25.0040033333333","6500300","中和區"
"235047","732-UM","2018/08/27 18:59:31","新北市中和區興南路二段34巷25號","121.506065","24.9861383333333","6500300","中和區"
"235046","733-UM","2018/08/27 18:59:24","新北市中和區興南路一段135巷17號","121.5094","24.98701","6500300","中和區"
"235071","783-BX","2018/08/27 18:59:38","新北市中和區員山路36巷16-3號","121.485246666667","24.9910816666667","6500300","中和區"
"235062","800-TS","2018/08/27 18:59:26","新北市中和區橋安街1號","121.492686666667","25.0030033333333","6500300","中和區"
"235057","801-TS","2018/08/27 18:59:23","新北市中和區民利街71號","121.478601666667","24.99831","6500300","中和區"
"235052","805-TS","2018/08/27 18:59:33","新北市中和區興南路二段347號","121.500146666667","24.9801166666667","6500300","中和區"
"235048","896-TW","2018/08/27 18:59:30","新北市中和區華新街109巷16號","121.508683333333","24.9811583333333","6500300","中和區"
"235053","900-TW","2018/08/27 18:59:30","新北市中和區和平路200巷33-3號","121.465245","24.9945566666667","6500300","中和區"
"235041","911-UM","2018/08/27 18:59:28","新北市中和區宜安路129號","121.509683333333","24.9980883333333","6500300","中和區"
"235051","157-BY","2018/08/27 18:59:33","新北市中和區忠孝街19巷16號","121.510093333333","24.9833183333333","6500300","中和區"
"235037","AAC-213","2018/08/27 18:59:23","新北市中和區秀朗路三段10巷14弄96號","121.523465","24.996585","6500300","中和區"
"235059","AAC-215","2018/08/27 18:59:23","新北市中和區圓通路367巷20弄29號","121.491283333333","24.988195","6500300","中和區"
"220065","072-UY","2018/08/27 18:59:20","新北市板橋區民族路287巷1號","121.471135","25.0070783333333","6500100","板橋區"
"220086","073-UY","2018/08/27 18:59:33","新北市板橋區中正路250巷18號","121.456195","25.0193916666667","6500100","板橋區"
"220106","075-UY","2018/08/27 18:59:31","新北市板橋區文化路二段124巷28-2號","121.471198333333","25.0256266666667","6500100","板橋區"
"220069","AAD-861","2018/08/27 18:59:31","新北市板橋區華興街63號","121.457298333333","25.0048866666667","6500100","板橋區"
"226004","312-R5","2018/08/27 18:59:22","新北市平溪區靜安路二段557號","121.74957","25.0252483333333","6502400","平溪區"
"228003","097-TW","2018/08/27 18:59:21","新北市貢寮區和美里龍洞街60號","121.914293333333","25.1162616666667","6502600","貢寮區"
"228002","663-BX","2018/08/27 18:59:34","新北市貢寮區福隆里東興街106巷23弄1號","121.946266666667","25.0181933333333","6502600","貢寮區"
"228001","670-TC","2018/08/27 18:59:22","新北市貢寮區仁理村研海街12-1號","121.923765","25.051725","6502600","貢寮區"
"224010","AGQ-8101","2018/08/27 18:57:28","新北市瑞芳區基山街3號","121.845191666667","25.1097116666667","6501200","瑞芳區"
"224006","676-BX","2018/08/27 18:59:36","新北市瑞芳區中正路2號","121.808983333333","25.10709","6501200","瑞芳區"
"224008","285-BY","2018/08/27 18:59:33","新北市瑞芳區逢甲路347-2號","121.797685","25.1138833333333","6501200","瑞芳區"
"224007","275-VK","2018/08/27 18:59:38","新北市瑞芳區中央路48巷124號","121.757861666667","25.1038483333333","6501200","瑞芳區"
"224009","273-VK","2018/08/27 18:59:19","新北市瑞芳區長仁路40號","121.864925","25.1182266666667","6501200","瑞芳區"
"224005","271-BY","2018/08/27 18:59:26","新北市瑞芳區豎崎路32-5號","121.82397","25.1211333333333","6501200","瑞芳區"
"227001","642-TC","2018/08/27 18:59:24","新北市雙溪區平林里康福家園10號","121.858803333333","25.0372866666667","6502500","雙溪區"
"227008","400-TW","2018/08/27 18:59:35","新北市雙溪區牡丹里中正路58巷23號","121.866443333333","25.0416233333333","6502500","雙溪區"
"253005","032-BX","2018/08/27 18:59:27","新北市石門區中央路6號","121.56658","25.291355","6502200","石門區"
"253006","295-VK","2018/08/27 18:59:26","新北市石門區八甲4-2號","121.521258333333","25.2825016666667","6502200","石門區"
"222001","KEA-2212","2018/08/27 18:59:20","新北市深坑區北深路一段162號","121.63428","25.0108266666667","6501800","深坑區"
"208002","KEA-2872","2018/08/27 18:59:35","新北市金山區信義路72號","121.635171666667","25.2195616666667","6502700","金山區"
"208003","665-BX","2018/08/27 18:59:20","新北市金山區中山路283號","121.636153333333","25.2231266666667","6502700","金山區"
"208001","761-BX","2018/08/27 18:59:31","新北市金山區中山路69號","121.640761666667","25.2182483333333","6502700","金山區"
"251009","008-UM","2018/08/27 18:59:19","新北市淡水區重建街110號","121.440145","25.172845","6501000","淡水區"
"251005","010-UM","2018/08/27 18:59:28","新北市淡水區中正路18巷6號","121.437648333333","25.1728416666667","6501000","淡水區"
"251001","011-UM","2018/08/27 18:59:34","新北市淡水區自強路58號","121.463206666667","25.1274616666667","6501000","淡水區"
"251013","KEA-2871","2018/08/27 18:59:27","新北市淡水區安子內3-2號","121.484721666667","25.2160033333333","6501000","淡水區"
"251016","179-VK","2018/08/27 18:59:32","新北市淡水區淡金路三段331巷3號","121.448545","25.20607","6501000","淡水區"
"251014","180-VK","2018/08/27 18:59:25","新北市淡水區小中寮30號","121.48939","25.2284866666667","6501000","淡水區"
"251015","181-VK","2018/08/27 18:59:23","新北市淡水區糞箕湖60號","121.485218333333","25.172295","6501000","淡水區"
"251010","413-VK","2018/08/27 18:59:20","新北市淡水區淡海路88-2號","121.423001666667","25.1817683333333","6501000","淡水區"
"251007","577-R6","2018/08/27 18:59:34","新北市淡水區民生路138號","121.464245","25.13829","6501000","淡水區"
"251002","672-BX","2018/08/27 18:59:22","新北市淡水區中正東路49號","121.446633333333","25.1679216666667","6501000","淡水區"
"251003","766-UM","2018/08/27 18:59:32","新北市淡水區中山北路一段149巷24號","121.442996666667","25.1780033333333","6501000","淡水區"
"207003","550-UM","2018/08/27 18:59:35","新北市萬里區大鵬里頂社23號","121.6571","25.2104033333333","6502800","萬里區"
"207004","225-TW","2018/08/27 18:59:34","新北市萬里區萬里里獅頭路23號","121.693258333333","25.1782916666667","6502800","萬里區"
"252002","178-VK","2018/08/27 18:59:28","新北市三芝區中正路一段54號","121.503541666667","25.2580216666667","6502100","三芝區"
"252003","249-BX","2018/08/27 18:59:24","新北市三芝區後厝里北勢子42-11號","121.471605","25.25206","6502100","三芝區"
"252001","292-VK","2018/08/27 18:59:19","新北市三芝區中興街二段260號","121.50173","25.2530716666667","6502100","三芝區"
"237004","KEA-2597","2018/08/27 18:59:31","新北市三峽區有木143號","121.438541666667","24.8523566666667","6500900","三峽區"
"237007","153-BY","2018/08/27 18:59:32","新北市三峽區中正路二段249-1號","121.366033333333","24.9123016666667","6500900","三峽區"
"237013","252-BX","2018/08/27 18:59:18","新北市三峽區光明路69巷25號","121.376773333333","24.9292216666667","6500900","三峽區"
"237012","275-BY","2018/08/27 18:59:24","新北市三峽區三樹路222巷150-1號","121.38606","24.9427866666667","6500900","三峽區"
"237008","302-VK","2018/08/27 18:59:25","新北市三峽區中正路一段283-1號","121.371655","24.925725","6500900","三峽區"
"237014","433-BY","2018/08/27 18:59:33","新北市三峽區隆恩街158巷42號","121.366136666667","24.9450683333333","6500900","三峽區"
"237006","5529-G3","2018/08/27 18:59:40","新北市三峽區溪東路233巷4弄21號","121.407316666667","24.93378","6500900","三峽區"
"237011","KEA-2596","2018/08/27 18:59:25","新北市三峽區介壽路三段245號","121.407868333333","24.9494683333333","6500900","三峽區"
"237015","649-BX","2018/08/27 18:59:36","新北市三峽區建安115號","121.462728333333","24.9187483333333","6500900","三峽區"
"237010","706-TV","2018/08/27 18:59:35","新北市三峽區復興路361號","121.363705","24.9386","6500900","三峽區"
"237005","AKY-6261","2018/08/27 18:59:22","新北市三峽區大智路2-1號","121.360655","24.9377","6500900","三峽區"
"236069","105-UM","2018/08/27 18:59:20","新北市土城區金城路二段217號","121.454835","24.981955","6501300","土城區"
"236078","166-UM","2018/08/27 18:59:22","新北市土城區中央路四段208號","121.415798333333","24.957385","6501300","土城區"
"236030","253-BX","2018/08/27 18:59:35","新北市土城區中央路二段304號","121.4402","24.973455","6501300","土城區"
"236026","269-VK","2018/08/27 18:59:26","新北市土城區光明街15號","121.442056666667","24.9745866666667","6501300","土城區"
"236014","270-VK","2018/08/27 18:59:17","新北市土城區延和路13巷14號","121.46365","24.9885","6501300","土城區"
"236039","271-VK","2018/08/27 18:59:34","新北市土城區仁愛路10-2號","121.460115","24.9808266666667","6501300","土城區"
"236020","401-BY","2018/08/27 18:59:29","新北市土城區延吉街168巷1號","121.46822","24.9855","6501300","土城區"
"236042","752-BX","2018/08/27 18:59:30","新北市土城區學府路一段256巷2弄2號","121.45117","24.98464","6501300","土城區"
"236059","912-UM","2018/08/27 18:59:23","新北市土城區明德路一段385-1號","121.452965","24.98029","6501300","土城區"
"236048","913-UM","2018/08/27 18:59:32","新北市土城區青雲路322巷2弄4號","121.458095","24.97734","6501300","土城區"
"236063","915-UM","2018/08/27 18:59:24","新北市土城區延和路41巷15號","121.465905","24.989795","6501300","土城區"
"236055","AAC-216","2018/08/27 18:59:30","新北市土城區學成路99巷1號","121.450405","24.988775","6501300","土城區"
"242058","986-R7","2018/08/27 18:55:50","新北市新莊區新泰路255巷83號","121.442345","25.03922","6500500","新莊區"
"242046","497-BY","2018/08/27 18:58:03","新北市樹林區中山路三段214號","121.379991666667","24.9678216666667","6500500","新莊區"
"238023","601-UM","2018/08/27 18:59:38","新北市樹林區大慶街122號","121.396028333333","25.0134433333333","6500700","樹林區"
"238019","599-UM","2018/08/27 18:59:31","新北市樹林區東榮街91巷1弄2號","121.416203333333","24.9823083333333","6500700","樹林區"
"238022","KEA-2213","2018/08/27 18:59:18","新北市樹林區東興街16巷32號","121.40868","24.9780083333333","6500700","樹林區"
"238021","KEA-2539","2018/08/27 18:59:21","新北市樹林區柑園街二段276巷22號","121.372938333333","24.953035","6500700","樹林區"
"238025","303-VK","2018/08/27 18:59:18","新北市樹林區中山路三段22號","121.395618333333","24.97296","6500700","樹林區"
"238014","282-BY","2018/08/27 18:59:28","新北市樹林區千歲街61巷2號","121.426565","24.998005","6500700","樹林區"
"238020","268-VK","2018/08/27 18:59:33","新北市樹林區俊英街183號","121.424001666667","25.0122566666667","6500700","樹林區"
"238026","172-UY","2018/08/27 18:59:22","新北市樹林區佳園路一段41巷22弄1號","121.39426","24.97084","6500700","樹林區"
"238016","169-UY","2018/08/27 18:59:37","新北市樹林區文化街25巷8號","121.418813333333","24.987095","6500700","樹林區"
"239007","AAC-297","2018/08/27 18:59:32","新北市鶯歌區中正一路277號","121.355301666667","24.957075","6500800","鶯歌區"
"239008","527-UM","2018/08/27 18:59:27","新北市鶯歌區朝陽路五柳巷8號","121.337058333333","24.976655","6500800","鶯歌區"
"239005","526-UM","2018/08/27 18:59:35","新北市鶯歌區鳳七路101巷6號","121.329681666667","24.9704533333333","6500800","鶯歌區"
"239001","417-VK","2018/08/27 18:59:27","新北市鶯歌區永明街60巷50號","121.340491666667","24.95536","6500800","鶯歌區"
"239003","360-BY","2018/08/27 18:59:33","新北市鶯歌區鶯桃路499號","121.331575","24.96649","6500800","鶯歌區"
"239004","193-VK","2018/08/27 18:59:29","新北市鶯歌區中正三路156巷8-8號","121.332801666667","24.9405733333333","6500800","鶯歌區"
"221008","489-VK","2018/08/27 18:59:34","新北市汐止區康寧街753巷2弄8號","121.639291666667","25.0738916666667","6501100","汐止區"
"221036","130-UY","2018/08/27 18:59:29","新北市汐止區新台五路一段154號","121.65404","25.062275","6501100","汐止區"
"221015","131-UY","2018/08/27 18:59:32","新北市汐止區橋東街61號","121.665523333333","25.074925","6501100","汐止區"
"221010","269-BY","2018/08/27 18:59:22","新北市汐止區康寧街901號","121.651506666667","25.0749633333333","6501100","汐止區"
"221012","278-VK","2018/08/27 18:59:19","新北市汐止區康寧街901號","121.650831666667","25.0752283333333","6501100","汐止區"
"221023","279-VK","2018/08/27 18:59:33","新北市汐止區康寧街901號","121.650978333333","25.0752283333333","6501100","汐止區"
"221032","280-BY","2018/08/27 18:59:16","新北市汐止區橫科路407巷30弄28-5號","121.627663333333","25.048765","6501100","汐止區"
"221027","281-BY","2018/08/27 18:59:23","新北市汐止區康寧街901號","121.651413333333","25.0750116666667","6501100","汐止區"
"221029","298-VK","2018/08/27 18:59:26","新北市汐止區樟樹一路200號","121.642363333333","25.0660683333333","6501100","汐止區"
"221021","299-VK","2018/08/27 18:59:20","新北市汐止區康寧街901號","121.651438333333","25.07505","6501100","汐止區"
"221031","353-TW","2018/08/27 18:59:21","新北市汐止區中興路181巷29弄8號","121.629743333333","25.065785","6501100","汐止區"
"221002","129-UY","2018/08/27 18:59:24","新北市汐止區大同路一段4號","121.621136666667","25.0550666666667","6501100","汐止區"
"221035","622-UM","2018/08/27 18:59:27","新北市汐止區汐萬路一段256巷3號","121.652416666667","25.07458","6501100","汐止區"
"221025","623-UM","2018/08/27 18:59:23","新北市汐止區汐萬路一段125號","121.653998333333","25.0712433333333","6501100","汐止區"
"221038","646-BX","2018/08/27 18:59:28","新北市汐止區康寧街901號","121.650738333333","25.0753066666667","6501100","汐止區"
"221018","753-BX","2018/08/27 18:59:24","新北市汐止區汐萬路一段39號","121.655135","25.0690316666667","6501100","汐止區"
"220079","145-BY","2018/08/27 18:59:33","新北市板橋區民權路202巷11弄2號","121.460558333333","25.01575","6500100","板橋區"
"220080","200-UY","2018/08/27 18:59:25","新北市板橋區合宜一路24-1號","121.443445","24.99635","6500100","板橋區"
"220082","610-BX","2018/08/27 18:59:30","新北市板橋區溪北路31號","121.427238333333","24.99024","6500100","板橋區"
"220056","276-BY","2018/08/27 18:59:36","新北市板橋區信義路152號","121.458925","24.9917266666667","6500100","板橋區"
"220072","277-BY","2018/08/27 18:59:28","新北市板橋區篤行路一段29號","121.432011666667","24.9945916666667","6500100","板橋區"
"220063","280-UM","2018/08/27 18:59:21","新北市板橋區中山路二段167號","121.475955","25.0167733333333","6500100","板橋區"
"220071","283-VK","2018/08/27 18:59:29","新北市板橋區重慶路245巷50弄2號","121.465183333333","25.0007","6500100","板橋區"
"220094","285-UM","2018/08/27 18:59:37","新北市板橋區光武街43號","121.467653333333","25.0253766666667","6500100","板橋區"
"220053","285-VK","2018/08/27 18:59:02","新北市板橋區中山路二段89巷42號","121.473801666667","25.0170433333333","6500100","板橋區"
"220083","286-VK","2018/08/27 18:59:26","新北市板橋區大觀路一段38巷182號","121.441513333333","25.0046516666667","6500100","板橋區"
"220081","287-VK","2018/08/27 18:59:23","新北市板橋區光華街21號","121.453908333333","25.0123416666667","6500100","板橋區"
"220090","288-VK","2018/08/27 18:59:33","新北市板橋區四維路177巷2弄1號","121.464075","25.0262583333333","6500100","板橋區"
"220061","295-UM","2018/08/27 18:59:26","新北市板橋區縣民大道三段138號","121.475136666667","25.0211266666667","6500100","板橋區"
"220084","296-UM","2018/08/27 18:59:37","新北市板橋區龍興街47號","121.443091666667","25.0007766666667","6500100","板橋區"
"220062","299-UM","2018/08/27 18:59:29","新北市板橋區三民路二段204-8號","121.478246666667","25.0124533333333","6500100","板橋區"
"220075","303-R5","2018/08/27 18:59:26","新北市板橋區後菜園街32巷11號","121.456636666667","25.0104383333333","6500100","板橋區"
"220092","307-R5","2018/08/27 18:59:22","新北市板橋區文化路一段239號","121.464171666667","25.0176633333333","6500100","板橋區"
"220098","317-R6","2018/08/27 18:59:38","新北市板橋區民有街16號","121.466253333333","25.0249166666667","6500100","板橋區"
"220064","486-VK","2018/08/27 18:59:31","新北市板橋區縣民大道二段102號","121.466625","25.0150783333333","6500100","板橋區"
"220088","491-VK","2018/08/27 18:59:22","新北市板橋區民生路二段210-1號","121.469381666667","25.0213383333333","6500100","板橋區"
"220035","560-BX","2018/08/27 18:59:21","新北市板橋區中正路325巷21號","121.454271666667","25.01972","6500100","板橋區"
"220103","561-BX","2018/08/27 18:59:23","新北市板橋區縣民大道二段279號","121.470016666667","25.0179266666667","6500100","板橋區"
"220091","637-BX","2018/08/27 18:59:23","新北市板橋區雙十路二段47巷17號","121.475563333333","25.0257683333333","6500100","板橋區"
"220057","686-BX","2018/08/27 18:59:35","新北市板橋區重慶路101號","121.462075","25.0054616666667","6500100","板橋區"
"220077","687-BX","2018/08/27 18:59:38","新北市板橋區大觀路二段299號","121.442096666667","24.9987433333333","6500100","板橋區"
"220093","689-BX","2018/08/27 18:59:34","新北市板橋區民生路三段68-1號","121.466813333333","25.0258816666667","6500100","板橋區"
"220054","741-BX","2018/08/27 18:59:37","新北市板橋區重慶路139巷17號","121.463495","25.0045933333333","6500100","板橋區"
"220102","KEA-2699","2018/08/27 18:59:20","新北市板橋區萬板路710號","121.48182","25.0274116666667","6500100","板橋區"
"220055","827-TW","2018/08/27 18:59:34","新北市板橋區中山路一段158巷20號","121.466328333333","25.0111383333333","6500100","板橋區"
"220067","829-TW","2018/08/27 18:59:31","新北市板橋區三民路二段154巷9號","121.478791666667","25.0150633333333","6500100","板橋區"
"220068","830-TW","2018/08/27 18:59:35","新北市板橋區中山路二段443巷82號","121.481063333333","25.0225016666667","6500100","板橋區"
"220096","831-TW","2018/08/27 18:59:37","新北市板橋區莒光路137號","121.473321666667","25.0239883333333","6500100","板橋區"
"220089","833-TW","2018/08/27 18:59:23","新北市板橋區文化路二段410巷2號","121.473946666667","25.0315333333333","6500100","板橋區"
"220074","895-R6","2018/08/27 18:59:31","新北市板橋區茶館街41號","121.456001666667","25.0103466666667","6500100","板橋區"
"220073","985-R7","2018/08/27 18:59:31","新北市板橋區民權路217號","121.457726666667","25.015195","6500100","板橋區"
"220097","AAC-210","2018/08/27 18:59:32","新北市板橋區國光路216號","121.4623","25.018495","6500100","板橋區"
"220070","AAC-253","2018/08/27 18:59:35","新北市板橋區四川路一段351號","121.45844","24.99992","6500100","板橋區"
"235068","KEA-2873","2018/08/27 18:59:18","新北市中和區中正路271號","121.496011666667","24.9936866666667","6500300","中和區"
"235061","KEA-2875","2018/08/27 18:59:12","新北市中和區民享街89巷9弄3號","121.474936666667","25.0020083333333","6500300","中和區"
