"lineid","car","time","location","longitude","latitude","cityid","cityname"
"234046","148-BY","2018/08/27 19:09:38","新北市永和區永元路18巷16號","121.52309","25.0002","6500400","永和區"
"234007","207-UY","2018/08/27 19:09:32","新北市永和區中山路一段175-1號","121.509568333333","25.009045","6500400","永和區"
"234081","298-R6","2018/08/27 19:09:37","新北市永和區福和路57巷14弄1號","121.522773333333","25.0069366666667","6500400","永和區"
"234038","336-UY","2018/08/27 19:09:33","新北市永和區民樂街71巷1號","121.527428333333","24.997525","6500400","永和區"
"234064","337-UY","2018/08/27 19:09:21","新北市永和區秀朗路二段46號","121.521395","25.002375","6500400","永和區"
"234086","338-UY","2018/08/27 19:09:34","新北市永和區永貞路55號","121.519253333333","25.00426","6500400","永和區"
"234070","552-UM","2018/08/27 19:09:20","新北市永和區豫溪街137巷1弄24號","121.518441666667","25.0104433333333","6500400","永和區"
"234005","693-BX","2018/08/27 18:41:21","新北市永和區福和路1號","121.526476666667","25.01007","6500400","永和區"
"234017","745-BX","2018/08/27 19:09:28","新北市永和區忠孝街27號","121.51393","25.01552","6500400","永和區"
"234030","746-BX","2018/08/27 19:09:19","新北市永和區四維街76號","121.523485","24.9982983333333","6500400","永和區"
"234054","KEA-2590","2018/08/27 19:09:27","新北市永和區中興街133巷8號","121.51874","25.0127716666667","6500400","永和區"
"234013","KEA-2591","2018/08/27 19:09:37","新北市永和區中山路一段62號","121.512826666667","25.01072","6500400","永和區"
"234061","AAD-866","2018/08/27 19:09:25","新北市永和區安樂路304巷12號","121.514713333333","25.0050866666667","6500400","永和區"
"234042","862-TW","2018/08/27 19:09:37","新北市永和區永貞路307號","121.51054","25.0060166666667","6500400","永和區"
"234050","863-TW","2018/08/27 19:09:33","新北市永和區保福路二段150巷18號","121.51045","25.0149416666667","6500400","永和區"
"234026","9371-KE","2018/08/27 19:09:31","新北市永和區安樂路272巷9弄7號","121.515065","25.0046066666667","6500400","永和區"
"234011","9373-KE","2018/08/27 19:09:31","新北市永和區仁愛路141巷30弄2號","121.511586666667","25.0116883333333","6500400","永和區"
"249005","172-UM","2018/08/27 19:09:34","新北市八里區中華路三段159號","121.392135","25.1315566666667","6502300","八里區"
"249001","173-UM","2018/08/27 19:09:30","新北市八里區龍米路二段203-1號","121.432836666667","25.1583233333333","6502300","八里區"
"249003","593-UM","2018/08/27 19:09:17","新北市八里區博物館路10-1號","121.415161666667","25.16397","6502300","八里區"
"248016","026-BX","2018/08/27 19:09:27","新北市五股區成泰路三段543巷30號","121.45064","25.1024733333333","6501500","五股區"
"248006","077-UY","2018/08/27 19:09:27","新北市五股區四維路183號","121.468073333333","25.0753866666667","6501500","五股區"
"248008","095-VK","2018/08/27 19:09:34","新北市五股區中興路一段118巷17號","121.465936666667","25.0742583333333","6501500","五股區"
"248018","225-UY","2018/08/27 19:09:34","新北市五股區民義路二段22巷30-3號","121.424245","25.099925","6501500","五股區"
"248012","247-BX","2018/08/27 19:09:35","新北市五股區中興路四段48巷16號","121.438633333333","25.0834283333333","6501500","五股區"
"248004","677-BX","2018/08/27 19:09:38","新北市五股區五福路8號","121.434383333333","25.0884633333333","6501500","五股區"
"248002","678-BX","2018/08/27 19:09:20","新北市五股區凌雲路一段158巷14-1號","121.447851666667","25.1034783333333","6501500","五股區"
"248010","682-TV","2018/08/27 19:09:22","新北市五股區水碓二路1號","121.430605","25.0712766666667","6501500","五股區"
"234023","9380-KE","2018/08/27 19:09:28","新北市永和區中興街10巷40號","121.515888333333","25.0111383333333","6500400","永和區"
"234077","969-R7","2018/08/27 19:09:37","新北市永和區民權路38號","121.52016","24.9988166666667","6500400","永和區"
"234074","AAC-211","2018/08/27 19:09:34","新北市永和區竹林路239號","121.520835","25.0081483333333","6500400","永和區"
"234067","AAC-212","2018/08/27 19:09:18","新北市永和區永和路一段65巷1號","121.512723333333","25.006985","6500400","永和區"
"234003","AAC-295","2018/08/27 19:09:34","新北市永和區保福路一段86號","121.512201666667","25.010275","6500400","永和區"
"244007","080-UY","2018/08/27 19:09:23","新北市林口區太平里5鄰23號","121.376473333333","25.1158466666667","6501700","林口區"
"244019","403-UM","2018/08/27 19:09:36","新北市林口區文化二路一段551號","121.374748333333","25.0768916666667","6501700","林口區"
"244013","KEA-2802","2018/08/27 19:09:27","新北市林口區麗園一街2巷1號","121.375915","25.0719633333333","6501700","林口區"
"244023","483-VK","2018/08/27 19:09:33","新北市林口區仁愛路二段700號","121.369351666667","25.0807983333333","6501700","林口區"
"244017","485-VK","2018/08/27 19:09:34","新北市林口區文化二路一段120巷13號","121.368331666667","25.0694616666667","6501700","林口區"
"244011","657-BX","2018/08/27 19:09:35","新北市林口區竹林路72號","121.38774","25.0784216666667","6501700","林口區"
"244025","837-TS","2018/08/27 19:09:39","新北市林口區民族路82巷28號","121.366738333333","25.0748333333333","6501700","林口區"
"243013","AAD-798","2018/08/27 19:09:35","新北市泰山區明志路三段277號","121.42307","25.0368183333333","6501600","泰山區"
"243009","297-R6","2018/08/27 19:09:26","新北市泰山區明志路一段117巷26號","121.434163333333","25.0636233333333","6501600","泰山區"
"243016","KEA-2801","2018/08/27 19:09:35","新北市泰山區明志路二段355號","121.425363333333","25.0443533333333","6501600","泰山區"
"243015","421-VK","2018/08/27 19:09:30","新北市泰山區明志路一段403號","121.430836666667","25.0572733333333","6501600","泰山區"
"243011","KEA-2215","2018/08/27 19:09:23","新北市泰山區明志路二段324號","121.426058333333","25.0459583333333","6501600","泰山區"
"243012","646-TV","2018/08/27 19:09:31","新北市泰山區辭修路36巷8弄5號","121.427856666667","25.058665","6501600","泰山區"
"243014","680-BX","2018/08/27 19:09:34","新北市泰山區泰林路二段370號","121.428483333333","25.0638016666667","6501600","泰山區"
"222003","436-BY","2018/08/27 19:09:22","新北市深坑區深南路162號","121.626123333333","25.0149766666667","6501800","深坑區"
"222002","659-BX","2018/08/27 19:09:24","新北市深坑區北深路一段240號","121.630026666667","25.0087933333333","6501800","深坑區"
"231041","002-UM","2018/08/27 19:09:20","新北市新店區中央一街20-1號","121.528153333333","24.97288","6500600","新店區"
"231059","046-UY","2018/08/27 19:09:37","新北市新店區安康路一段351-1號","121.519396666667","24.9640866666667","6500600","新店區"
"231040","047-UY","2018/08/27 19:09:35","新北市新店區三民路155-1號","121.533791666667","24.9734266666667","6500600","新店區"
"231046","107-UY","2018/08/27 19:09:37","新北市新店區華潭街6號","121.529815","24.9519566666667","6500600","新店區"
"231052","108-UY","2018/08/27 19:09:25","新北市新店區自強路90號","121.546368333333","24.92405","6500600","新店區"
"231047","187-VK","2018/08/27 19:09:35","新北市新店區德正街27巷29弄60號","121.545845","24.9729333333333","6500600","新店區"
"231054","KEA-2219","2018/08/27 19:09:37","新北市新店區新店路112號","121.537116666667","24.9546983333333","6500600","新店區"
"231042","268-BY","2018/08/27 19:09:21","新北市新店區大新街9巷28號","121.544315","24.9666833333333","6500600","新店區"
"231051","278-BY","2018/08/27 19:09:20","新北市新店區中正路400巷14號","121.535038333333","24.9780183333333","6500600","新店區"
"231050","AAD-862","2018/08/27 19:09:37","新北市新店區竹林路2巷27弄1號","121.550201666667","24.9508716666667","6500600","新店區"
"231044","355-BY","2018/08/27 19:09:31","新北市新店區中興路三段184號","121.544085","24.9813916666667","6500600","新店區"
"231058","3713-VJ","2018/08/27 19:09:25","新北市新店區光明街168巷16號","121.540271666667","24.9616783333333","6500600","新店區"
"231066","4716-K9","2018/08/27 19:09:26","新北市新店區安祥路34號","121.493123333333","24.955775","6500600","新店區"
"231056","4715-K9","2018/08/27 19:09:23","新北市新店區民權路105-1號","121.53641","24.9825033333333","6500600","新店區"
"231067","4772-VM","2018/08/27 19:09:38","新北市新店區安康路一段106巷14號","121.527786666667","24.9629716666667","6500600","新店區"
"231065","512-UM","2018/08/27 19:09:20","新北市新店區安祥路147巷24號","121.475746666667","24.9562316666667","6500600","新店區"
"231049","513-UM","2018/08/27 19:09:30","新北市新店區二十張路25巷3號","121.53896","24.9820933333333","6500600","新店區"
"231061","619-UM","2018/08/27 19:09:23","新北市新店區安康路一段190號","121.524705","24.9633","6500600","新店區"
"231063","641-BX","2018/08/27 19:09:26","新北市新店區車子路134號","121.505126666667","24.948795","6500600","新店區"
"231064","719-UM","2018/08/27 19:09:35","新北市新店區安忠路56巷6號","121.51299","24.959395","6500600","新店區"
"231062","720-UM","2018/08/27 19:09:30","新北市新店區安平路52號","121.520323333333","24.9684916666667","6500600","新店區"
"231060","897-TW","2018/08/27 19:09:37","新北市新店區安康路二段308-1號","121.506938333333","24.9582183333333","6500600","新店區"
"231045","898-TW","2018/08/27 19:09:37","新北市新店區北宜路一段150號","121.540155","24.9539","6500600","新店區"
"231043","899-TW","2018/08/27 19:09:22","新北市新店區寶橋路98號","121.54672","24.9758033333333","6500600","新店區"
"241026","066-VK","2018/08/27 19:09:24","新北市三重區泉州街57號","121.494635","25.054905","6500200","三重區"
"241035","462-BY","2018/08/27 19:09:29","新北市三重區重新路四段121號","121.48467","25.0520533333333","6500200","三重區"
"241029","942-UM","2018/08/27 19:09:34","新北市三重區重安街57號","121.49189","25.0563","6500200","三重區"
"235066","003-UY","2018/08/27 19:09:36","新北市中和區廣福路2號","121.506048333333","25.0033466666667","6500300","中和區"
"235064","005-UY","2018/08/27 19:09:27","新北市中和區泰和街38巷23號","121.498641666667","25.0008966666667","6500300","中和區"
"235063","006-UY","2018/08/27 19:09:29","新北市中和區連城路249巷8弄1號","121.493623333333","24.9966183333333","6500300","中和區"
"235056","096-UM","2018/08/27 19:09:29","新北市中和區員山路538號","121.478845","25.0100033333333","6500300","中和區"
"235039","097-UM","2018/08/27 19:09:29","新北市中和區秀朗路三段128巷1弄22號","121.523691666667","24.9916216666667","6500300","中和區"
"235065","098-UM","2018/08/27 19:09:19","新北市中和區中山路二段136巷40號","121.50124","25.0044716666667","6500300","中和區"
"235040","150-BY","2018/08/27 19:09:35","新北市中和區宜安路32號","121.512806666667","24.9960933333333","6500300","中和區"
"235058","151-BY","2018/08/27 19:09:19","新北市中和區員山路143巷2號","121.480783333333","24.99616","6500300","中和區"
"235055","183-VK","2018/08/27 19:09:30","新北市中和區德光路43號","121.470423333333","25.004065","6500300","中和區"
"235038","185-VK","2018/08/27 19:09:27","新北市中和區大仁街10巷9弄29號","121.51924","24.9930183333333","6500300","中和區"
"235049","186-VK","2018/08/27 19:09:22","新北市中和區明仁街2號","121.505778333333","24.99553","6500300","中和區"
"235067","255-BX","2018/08/27 19:09:31","新北市中和區新生街166巷11號","121.483008333333","25.0001383333333","6500300","中和區"
"235044","293-VK","2018/08/27 19:09:33","新北市中和區中興街235巷2號","121.500675","24.9894183333333","6500300","中和區"
"235072","301-VK","2018/08/27 19:09:29","新北市中和區中山路二段220號","121.499525","25.002815","6500300","中和區"
"235043","352-BY","2018/08/27 19:09:34","新北市中和區景平路134號","121.5188","24.99189","6500300","中和區"
"235042","KEA-2878","2018/08/27 19:09:33","新北市中和區自強路15巷6號","121.520645","24.9934933333333","6500300","中和區"
"235069","4980-A6","2018/08/27 19:09:28","新北市中和區中和路217巷10號","121.50441","25.0005","6500300","中和區"
"235070","558-UM","2018/08/27 19:09:27","新北市中和區中和路30號","121.499798333333","25.00176","6500300","中和區"
"235045","565-BX","2018/08/27 19:09:37","新北市中和區景新街467巷15弄11號","121.513758333333","24.9887733333333","6500300","中和區"
"235054","640-BX","2018/08/27 19:09:34","新北市中和區民德路149號","121.46868","25.0002766666667","6500300","中和區"
"235060","647-TV","2018/08/27 19:09:28","新北市中和區民有街11號","121.47566","25.005505","6500300","中和區"
"235047","732-UM","2018/08/27 19:09:31","新北市中和區興南路一段147號","121.508715","24.9873883333333","6500300","中和區"
"235046","733-UM","2018/08/27 19:09:26","新北市中和區忠孝街1巷49號","121.508408333333","24.9841266666667","6500300","中和區"
"235071","783-BX","2018/08/27 19:09:38","新北市中和區連城路467-5號","121.483641666667","24.9961216666667","6500300","中和區"
"235062","800-TS","2018/08/27 19:09:21","新北市中和區建一路2號","121.487975","25.0044216666667","6500300","中和區"
"235057","801-TS","2018/08/27 19:09:23","新北市中和區民利街87號","121.478221666667","24.9981283333333","6500300","中和區"
"235052","805-TS","2018/08/27 19:09:33","新北市中和區興南路二段142巷19弄13號","121.502786666667","24.983495","6500300","中和區"
"235048","896-TW","2018/08/27 19:09:30","新北市中和區忠孝街2-9號","121.509291666667","24.9829666666667","6500300","中和區"
"235053","900-TW","2018/08/27 19:09:30","新北市中和區民德路274號","121.467796666667","24.9964216666667","6500300","中和區"
"235041","911-UM","2018/08/27 19:09:29","新北市中和區中和路236號","121.507103333333","24.9995133333333","6500300","中和區"
"235051","157-BY","2018/08/27 19:09:33","新北市中和區興南路一段71號","121.510138333333","24.9893116666667","6500300","中和區"
"235037","AAC-213","2018/08/27 19:09:23","新北市中和區秀朗路三段60巷27號","121.525396666667","24.9949416666667","6500300","中和區"
"235059","AAC-215","2018/08/27 19:09:23","新北市中和區圓通路294巷17-5號","121.488606666667","24.9904433333333","6500300","中和區"
"220065","072-UY","2018/08/27 19:09:34","新北市板橋區民族路219巷42號","121.469468333333","25.0087666666667","6500100","板橋區"
"220086","073-UY","2018/08/27 19:09:33","新北市板橋區國光路173巷1弄2-2號","121.460416666667","25.0185316666667","6500100","板橋區"
"220106","075-UY","2018/08/27 19:09:31","新北市板橋區雙十路三段8-1號","121.471971666667","25.0306133333333","6500100","板橋區"
"220069","AAD-861","2018/08/27 19:09:26","新北市板橋區華興街18號","121.459383333333","25.004735","6500100","板橋區"
"226004","312-R5","2018/08/27 19:09:23","新北市平溪區十分里十分街96-1號","121.776708333333","25.042545","6502400","平溪區"
"228003","097-TW","2018/08/27 19:09:21","新北市貢寮區和美里和美街39號","121.912271666667","25.0893533333333","6502600","貢寮區"
"228002","663-BX","2018/08/27 19:09:34","新北市貢寮區福隆里虎子山街21號","121.938531666667","25.0184916666667","6502600","貢寮區"
"228001","670-TC","2018/08/27 19:09:22","新北市貢寮區真理里新港街10號","121.925518333333","25.0543933333333","6502600","貢寮區"
"224010","AGQ-8101","2018/08/27 19:07:39","新北市瑞芳區街頂巷61-1號","121.845051666667","25.1078066666667","6501200","瑞芳區"
"224006","676-BX","2018/08/27 19:09:36","新北市瑞芳區中山路201號","121.801438333333","25.10666","6501200","瑞芳區"
"224008","285-BY","2018/08/27 19:09:33","新北市瑞芳區瑞芳街112巷9號","121.801536666667","25.1109833333333","6501200","瑞芳區"
"224007","275-VK","2018/08/27 19:09:38","新北市瑞芳區瑞竹路46號","121.7635","25.1033833333333","6501200","瑞芳區"
"224009","273-VK","2018/08/27 19:09:19","新北市瑞芳區洞頂路128號","121.860273333333","25.118725","6501200","瑞芳區"
"227001","642-TC","2018/08/27 19:09:24","新北市雙溪區平林里外平林10-3號","121.85909","25.038095","6502500","雙溪區"
"227008","400-TW","2018/08/27 19:09:35","新北市雙溪區牡丹里中正路46-5號","121.865061666667","25.03909","6502500","雙溪區"
"253005","032-BX","2018/08/27 19:09:27","新北市石門區阿里荖41-1號","121.60551","25.280545","6502200","石門區"
"253006","295-VK","2018/08/27 19:09:26","新北市石門區崁子腳58-19號","121.531341666667","25.2873883333333","6502200","石門區"
"222001","KEA-2212","2018/08/27 19:09:40","新北市深坑區北深路一段300號","121.62421","25.005745","6501800","深坑區"
"208002","KEA-2872","2018/08/27 19:09:35","新北市金山區仁愛路67巷26號","121.634246666667","25.2209983333333","6502700","金山區"
"208003","665-BX","2018/08/27 19:09:39","新北市金山區中正路131號","121.63255","25.2215666666667","6502700","金山區"
"208001","761-BX","2018/08/27 19:09:31","新北市金山區溫泉路4號","121.63961","25.22198","6502700","金山區"
"251009","008-UM","2018/08/27 19:09:35","新北市淡水區重建街44號","121.439891666667","25.1714733333333","6501000","淡水區"
"251005","010-UM","2018/08/27 19:09:28","新北市淡水區原德路11號","121.442158333333","25.1712916666667","6501000","淡水區"
"251001","011-UM","2018/08/27 19:09:34","新北市淡水區自強路201巷39號","121.462121666667","25.126855","6501000","淡水區"
"251013","KEA-2871","2018/08/27 19:09:27","新北市淡水區安子內12-1號","121.48155","25.21911","6501000","淡水區"
"251016","179-VK","2018/08/27 19:09:32","新北市淡水區淡金路三段348號","121.449533333333","25.2088566666667","6501000","淡水區"
"251014","180-VK","2018/08/27 19:09:25","新北市淡水區小中寮19-7號","121.484543333333","25.2295733333333","6501000","淡水區"
"251015","181-VK","2018/08/27 19:09:23","新北市淡水區南勢埔27-2號","121.483298333333","25.18063","6501000","淡水區"
"251010","413-VK","2018/08/27 19:09:40","新北市淡水區中正路一段156巷3號","121.421246666667","25.1802883333333","6501000","淡水區"
"251007","577-R6","2018/08/27 19:09:24","新北市淡水區民生路145巷58號","121.468108333333","25.1389183333333","6501000","淡水區"
"251002","672-BX","2018/08/27 19:09:32","新北市淡水區中山路95巷2-2號","121.442045","25.17057","6501000","淡水區"
"251003","766-UM","2018/08/27 19:09:32","新北市淡水區中山北路一段96號","121.44246","25.17637","6501000","淡水區"
"207003","550-UM","2018/08/27 19:09:34","新北市萬里區大鵬里萬里加投15-2號","121.650465","25.2094016666667","6502800","萬里區"
"207004","225-TW","2018/08/27 19:09:14","新北市萬里區萬里里瑪鋉下街50號","121.691601666667","25.17947","6502800","萬里區"
"252002","178-VK","2018/08/27 19:09:28","新北市三芝區埔坪里埔頭坑84號","121.508075","25.2542583333333","6502100","三芝區"
"252003","249-BX","2018/08/27 19:09:24","新北市三芝區錫板里南勢崗11-3號","121.478443333333","25.2603466666667","6502100","三芝區"
"252001","292-VK","2018/08/27 19:09:19","新北市三芝區長勤街45巷2號","121.500336666667","25.2551433333333","6502100","三芝區"
"237004","KEA-2597","2018/08/27 19:09:31","新北市三峽區有木206號","121.439118333333","24.851515","6500900","三峽區"
"237007","153-BY","2018/08/27 19:09:32","新北市三峽區中正路二段42巷84號","121.364328333333","24.9206266666667","6500900","三峽區"
"237013","252-BX","2018/08/27 19:09:38","新北市三峽區光明路69巷27號","121.376863333333","24.9292466666667","6500900","三峽區"
"237012","275-BY","2018/08/27 19:09:23","新北市三峽區三樹路222巷254弄97-7號","121.395441666667","24.9440666666667","6500900","三峽區"
"237008","302-VK","2018/08/27 19:09:25","新北市三峽區大同路123號","121.374113333333","24.9267883333333","6500900","三峽區"
"237014","433-BY","2018/08/27 19:09:33","新北市三峽區隆恩街241號","121.35819","24.9413683333333","6500900","三峽區"
"237006","5529-G3","2018/08/27 19:09:20","新北市三峽區溪東路233巷45弄4號","121.40956","24.933315","6500900","三峽區"
"237011","KEA-2596","2018/08/27 19:09:25","新北市三峽區介壽路三段107號","121.395488333333","24.9392866666667","6500900","三峽區"
"237015","649-BX","2018/08/27 19:09:35","新北市三峽區建安96號","121.456135","24.92369","6500900","三峽區"
"237010","706-TV","2018/08/27 19:09:35","新北市三峽區復興路174巷4號","121.370756666667","24.9389366666667","6500900","三峽區"
"237005","AKY-6261","2018/08/27 19:09:22","新北市三峽區中山路459巷163-3號","121.348681666667","24.932955","6500900","三峽區"
"236069","105-UM","2018/08/27 19:09:36","新北市土城區裕生路84巷5-2號","121.446935","24.98547","6501300","土城區"
"236078","166-UM","2018/08/27 19:09:22","新北市土城區龍泉路46號","121.412301666667","24.9453166666667","6501300","土城區"
"236030","253-BX","2018/08/27 19:09:35","新北市土城區城林路6巷80號","121.438655","24.9796666666667","6501300","土城區"
"236026","269-VK","2018/08/27 19:09:25","新北市土城區中正路43號","121.443931666667","24.9754066666667","6501300","土城區"
"236014","270-VK","2018/08/27 19:09:36","新北市土城區學府路一段77號","121.456863333333","24.9882266666667","6501300","土城區"
"236020","401-BY","2018/08/27 19:09:29","新北市土城區延吉街185號","121.469115","24.9855683333333","6501300","土城區"
"236042","752-BX","2018/08/27 19:09:30","新北市土城區學府路一段276號","121.450258333333","24.983315","6501300","土城區"
"236059","912-UM","2018/08/27 19:09:23","新北市土城區金城路二段20號","121.44975","24.9778433333333","6501300","土城區"
"236048","913-UM","2018/08/27 19:09:24","新北市土城區明德路一段365-1號","121.453618333333","24.9790966666667","6501300","土城區"
"242058","986-R7","2018/08/27 18:55:50","新北市新莊區新泰路255巷83號","121.442345","25.03922","6500500","新莊區"
"242046","497-BY","2018/08/27 19:09:23","新北市樹林區環河路2號","121.428198333333","24.9790733333333","6500500","新莊區"
"238015","755-BX","2018/08/27 19:09:19","新北市樹林區光明街11號","121.411141666667","24.989475","6500700","樹林區"
"238023","601-UM","2018/08/27 19:09:38","新北市樹林區三興路41號","121.395966666667","25.01445","6500700","樹林區"
"238019","599-UM","2018/08/27 19:09:31","新北市樹林區東榮街60號","121.41676","24.98302","6500700","樹林區"
"238024","5061-A6","2018/08/27 19:09:29","新北市樹林區中山路二段249巷13號","121.40253","24.9757866666667","6500700","樹林區"
"238022","KEA-2213","2018/08/27 19:09:18","新北市樹林區中山路二段151巷12號","121.406636666667","24.9781616666667","6500700","樹林區"
"238021","KEA-2539","2018/08/27 19:09:21","新北市樹林區柑園街二段382巷1號","121.368205","24.94934","6500700","樹林區"
"238025","303-VK","2018/08/27 19:09:38","新北市樹林區民和街20號","121.385308333333","24.9686683333333","6500700","樹林區"
"238014","282-BY","2018/08/27 19:09:28","新北市樹林區千歲街90號","121.42655","24.997865","6500700","樹林區"
"238020","268-VK","2018/08/27 19:09:19","新北市樹林區俊英街133巷9號","121.423738333333","25.0111133333333","6500700","樹林區"
"238026","172-UY","2018/08/27 19:09:22","新北市樹林區佳園路二段29-1號","121.391723333333","24.963065","6500700","樹林區"
"238016","169-UY","2018/08/27 19:09:20","新北市樹林區備前街24號","121.417753333333","24.9858716666667","6500700","樹林區"
"239007","AAC-297","2018/08/27 19:09:12","新北市鶯歌區中山路138巷21號","121.35224","24.9605583333333","6500800","鶯歌區"
"239008","527-UM","2018/08/27 19:09:27","新北市鶯歌區國際二路18巷32號","121.337963333333","24.9755766666667","6500800","鶯歌區"
"239005","526-UM","2018/08/27 19:09:35","新北市鶯歌區鳳吉三街27號","121.327093333333","24.9737733333333","6500800","鶯歌區"
"239001","417-VK","2018/08/27 19:09:27","新北市鶯歌區永安街76號","121.33842","24.95608","6500800","鶯歌區"
"239003","360-BY","2018/08/27 19:09:33","新北市鶯歌區德昌街11號","121.33356","24.960205","6500800","鶯歌區"
"239004","193-VK","2018/08/27 19:09:29","新北市鶯歌區中正三路230巷6號","121.330821666667","24.9382066666667","6500800","鶯歌區"
"221008","489-VK","2018/08/27 19:09:34","新北市汐止區康寧街432號","121.630876666667","25.06818","6501100","汐止區"
"221036","130-UY","2018/08/27 19:09:29","新北市汐止區汐萬路一段256巷3號","121.652443333333","25.0745383333333","6501100","汐止區"
"221015","131-UY","2018/08/27 19:09:32","新北市汐止區大同路二段341-1號","121.656153333333","25.0672166666667","6501100","汐止區"
"221010","269-BY","2018/08/27 19:09:22","新北市汐止區康寧街901號","121.65148","25.0751816666667","6501100","汐止區"
"221012","278-VK","2018/08/27 19:09:38","新北市汐止區康寧街901號","121.650831666667","25.0752333333333","6501100","汐止區"
"221023","279-VK","2018/08/27 19:09:33","新北市汐止區康寧街901號","121.650953333333","25.0752283333333","6501100","汐止區"
"221032","280-BY","2018/08/27 19:09:36","新北市汐止區橫科路241-1號","121.622065","25.0492233333333","6501100","汐止區"
"221027","281-BY","2018/08/27 19:09:23","新北市汐止區康寧街901號","121.651476666667","25.075015","6501100","汐止區"
"221029","298-VK","2018/08/27 19:09:26","新北市汐止區康寧街777-1號","121.644931666667","25.0757416666667","6501100","汐止區"
"221021","299-VK","2018/08/27 19:09:20","新北市汐止區康寧街901號","121.651488333333","25.075105","6501100","汐止區"
"221031","353-TW","2018/08/27 19:09:21","新北市汐止區福德二路54巷6號","121.633796666667","25.0677016666667","6501100","汐止區"
"221002","129-UY","2018/08/27 19:09:30","新北市汐止區大同路一段99號","121.62867","25.0538516666667","6501100","汐止區"
"221025","623-UM","2018/08/27 19:09:23","新北市汐止區康寧街901號","121.651476666667","25.0749983333333","6501100","汐止區"
"221038","646-BX","2018/08/27 19:09:28","新北市汐止區康寧街901號","121.650758333333","25.0752633333333","6501100","汐止區"
"220079","145-BY","2018/08/27 19:09:39","新北市板橋區民權路260巷3號","121.458126666667","25.0153866666667","6500100","板橋區"
"220080","200-UY","2018/08/27 19:09:36","新北市板橋區大觀路二段3巷17號","121.44799","25.003745","6500100","板橋區"
"220082","610-BX","2018/08/27 19:09:30","新北市板橋區溪崑二街145號","121.426225","24.9882","6500100","板橋區"
"220056","276-BY","2018/08/27 19:09:37","新北市板橋區信義路74巷1弄14號","121.457486666667","24.99274","6500100","板橋區"
"220072","277-BY","2018/08/27 19:09:28","新北市板橋區溪城路91-1號","121.427131666667","24.9831333333333","6500100","板橋區"
"220063","280-UM","2018/08/27 19:09:34","新北市板橋區三民路二段212號","121.478858333333","25.0118366666667","6500100","板橋區"
"220071","283-VK","2018/08/27 19:09:31","新北市板橋區重慶路221號","121.462961666667","25.001105","6500100","板橋區"
"220094","285-UM","2018/08/27 19:09:37","新北市板橋區光武街148號","121.465221666667","25.030285","6500100","板橋區"
"220053","285-VK","2018/08/27 19:09:22","新北市板橋區懷仁街35巷13號","121.477185","25.0198983333333","6500100","板橋區"
"220083","286-VK","2018/08/27 19:09:26","新北市板橋區大觀路二段174巷176弄6號","121.442406666667","25.0033533333333","6500100","板橋區"
"220081","287-VK","2018/08/27 19:09:23","新北市板橋區南雅西路二段156巷7號","121.452243333333","25.01339","6500100","板橋區"
"220090","288-VK","2018/08/27 19:09:33","新北市板橋區裕民街29號","121.461848333333","25.0288483333333","6500100","板橋區"
"220061","295-UM","2018/08/27 19:09:22","新北市板橋區懷仁街85巷2弄2號","121.477663333333","25.0182966666667","6500100","板橋區"
"220084","296-UM","2018/08/27 19:09:37","新北市板橋區溪崑二街16號","121.428673333333","24.9917283333333","6500100","板橋區"
"220062","299-UM","2018/08/27 19:09:29","新北市板橋區三民路二段居仁巷1弄36號","121.480461666667","25.0136116666667","6500100","板橋區"
"220075","303-R5","2018/08/27 19:09:32","新北市板橋區南雅南路一段75號","121.455773333333","25.005565","6500100","板橋區"
"220092","307-R5","2018/08/27 19:09:22","新北市板橋區文化路二段225巷60弄40號","121.469293333333","25.0293633333333","6500100","板橋區"
"220098","317-R6","2018/08/27 19:09:38","新北市板橋區四維路103巷26號","121.464696666667","25.024115","6500100","板橋區"
"220064","486-VK","2018/08/27 19:09:31","新北市板橋區民生路一段53號","121.475395","25.0127483333333","6500100","板橋區"
"220088","491-VK","2018/08/27 19:09:22","新北市板橋區文化路二段182巷1弄2號","121.471186666667","25.0274233333333","6500100","板橋區"
"220035","560-BX","2018/08/27 19:09:26","新北市板橋區中正路379巷1弄1號","121.45412","25.02149","6500100","板橋區"
"220103","561-BX","2018/08/27 19:09:23","新北市板橋區文化路一段188巷11弄54號","121.46904","25.018775","6500100","板橋區"
"220091","637-BX","2018/08/27 19:09:35","新北市板橋區縣民大道三段247巷26號","121.481943333333","25.02651","6500100","板橋區"
"220057","686-BX","2018/08/27 19:09:35","新北市板橋區重慶路290-5號","121.463656666667","24.9988016666667","6500100","板橋區"
"220077","687-BX","2018/08/27 19:09:39","新北市板橋區大觀路二段67號","121.446548333333","25.00245","6500100","板橋區"
"220093","689-BX","2018/08/27 19:09:34","新北市板橋區民生路三段179號","121.465411666667","25.0272416666667","6500100","板橋區"
"220054","741-BX","2018/08/27 19:09:31","新北市板橋區實踐路30號","121.46351","25.0072383333333","6500100","板橋區"
"220102","KEA-2699","2018/08/27 19:09:41","新北市板橋區田單街42-1號","121.482595","25.027905","6500100","板橋區"
"220055","827-TW","2018/08/27 19:09:34","新北市板橋區新民街7巷4號","121.4637","25.01003","6500100","板橋區"
"220067","829-TW","2018/08/27 19:09:31","新北市板橋區民生路一段53號","121.475561666667","25.012775","6500100","板橋區"
"220068","830-TW","2018/08/27 19:09:36","新北市板橋區三民路一段31巷43號","121.48077","25.023265","6500100","板橋區"
"220096","831-TW","2018/08/27 19:09:37","新北市板橋區大同街2號","121.476831666667","25.0266966666667","6500100","板橋區"
"220089","833-TW","2018/08/27 19:09:36","新北市板橋區文化路二段344號","121.472895","25.0305283333333","6500100","板橋區"
"220074","895-R6","2018/08/27 19:09:31","新北市板橋區中正路自強新村91-1號","121.454841666667","25.0131866666667","6500100","板橋區"
"220073","985-R7","2018/08/27 19:09:36","新北市板橋區新生街89巷26號","121.457116666667","25.0225933333333","6500100","板橋區"
"220097","AAC-210","2018/08/27 19:09:32","新北市板橋區中正路250巷130號","121.460518333333","25.0201116666667","6500100","板橋區"
"220070","AAC-253","2018/08/27 19:09:31","新北市板橋區忠孝路56號","121.460985","25.001965","6500100","板橋區"
"235068","KEA-2873","2018/08/27 19:09:18","新北市中和區圓通路173號","121.497543333333","24.99519","6500300","中和區"
"235061","KEA-2875","2018/08/27 19:09:12","新北市中和區中山路三段63巷2號","121.476726666667","25.0053133333333","6500300","中和區"
