"lineid","car","time","location","longitude","latitude","cityid","cityname"
"234046","148-BY","2018/08/27 19:38:58","新北市永和區秀朗路二段84號","121.523268333333","25.001575","6500400","永和區"
"234007","207-UY","2018/08/27 19:38:52","新北市永和區中和路619號","121.512813333333","25.0047883333333","6500400","永和區"
"234081","298-R6","2018/08/27 19:39:00","新北市永和區國中路104巷8弄15號","121.525311666667","25.0066133333333","6500400","永和區"
"234038","336-UY","2018/08/27 19:38:59","新北市永和區成功路一段137號","121.527031666667","25.0015983333333","6500400","永和區"
"234064","337-UY","2018/08/27 19:39:01","新北市永和區秀朗路一段192巷6弄14號","121.519066666667","25.00229","6500400","永和區"
"234086","338-UY","2018/08/27 19:38:54","新北市永和區永亨路144號","121.525196666667","25.003775","6500400","永和區"
"234070","552-UM","2018/08/27 19:39:00","新北市永和區永和路二段200號","121.515651666667","25.013805","6500400","永和區"
"234017","745-BX","2018/08/27 19:39:08","新北市永和區環河西路一段51巷18號","121.51417","25.0177366666667","6500400","永和區"
"234030","746-BX","2018/08/27 19:38:59","新北市永和區民生路39號","121.522945","24.99813","6500400","永和區"
"234054","KEA-2590","2018/08/27 19:39:07","新北市永和區竹林路39巷15號","121.518583333333","25.0146683333333","6500400","永和區"
"234013","KEA-2591","2018/08/27 19:38:58","新北市永和區永平路234號","121.508718333333","25.010955","6500400","永和區"
"234061","AAD-866","2018/08/27 19:39:05","新北市永和區中正路456號","121.517485","25.00291","6500400","永和區"
"234042","862-TW","2018/08/27 19:38:59","新北市永和區中和路307號","121.506646666667","24.999865","6500400","永和區"
"234050","863-TW","2018/08/27 19:38:53","新北市永和區保福路二段158巷3號","121.509173333333","25.015145","6500400","永和區"
"234026","9371-KE","2018/08/27 19:38:51","新北市永和區中和路501巷10號","121.510581666667","25.0027516666667","6500400","永和區"
"234011","9373-KE","2018/08/27 19:39:10","新北市永和區保生路55-1號","121.504555","25.01089","6500400","永和區"
"249004","303-UY","2018/08/27 19:39:07","新北市八里區中山路一段268巷5弄1號","121.414481666667","25.1606283333333","6502300","八里區"
"249002","305-UY","2018/08/27 19:38:56","新北市八里區頂寮二街83號","121.45002","25.125515","6502300","八里區"
"249003","593-UM","2018/08/27 19:38:57","新北市八里區華峰三街23號","121.39967","25.1460316666667","6502300","八里區"
"248014","025-BX","2018/08/27 19:39:01","新北市五股區五福路35號","121.433636666667","25.08941","6501500","五股區"
"248016","026-BX","2018/08/27 19:39:06","新北市五股區成泰路四段88號","121.457255","25.1112083333333","6501500","五股區"
"248008","095-VK","2018/08/27 19:38:54","新北市五股區四維路118巷10弄1號","121.468846666667","25.0743166666667","6501500","五股區"
"248018","225-UY","2018/08/27 19:38:54","新北市五股區壟路7-2號","121.416325","25.0896433333333","6501500","五股區"
"248012","247-BX","2018/08/27 19:38:55","新北市五股區民義路一段48號","121.436986666667","25.084765","6501500","五股區"
"248004","677-BX","2018/08/27 19:38:51","新北市五股區成泰路二段10號","121.43686","25.0806916666667","6501500","五股區"
"248002","678-BX","2018/08/27 19:39:00","新北市五股區成泰路三段577巷77號","121.449823333333","25.1037416666667","6501500","五股區"
"248010","682-TV","2018/08/27 19:39:03","新北市五股區自強路111號","121.432268333333","25.0705716666667","6501500","五股區"
"234077","969-R7","2018/08/27 19:38:57","新北市永和區民治街59巷11號","121.518775","24.9972316666667","6500400","永和區"
"234074","AAC-211","2018/08/27 19:38:54","新北市永和區竹林路225巷52-1號","121.522716666667","25.0086916666667","6500400","永和區"
"234067","AAC-212","2018/08/27 19:38:58","新北市永和區中山路一段191巷9弄3號","121.509671666667","25.008135","6500400","永和區"
"234003","AAC-295","2018/08/27 19:38:55","新北市永和區自由街67號","121.513636666667","25.0053733333333","6500400","永和區"
"244019","403-UM","2018/08/27 19:38:51","新北市八里區中山路三段409號","121.368378333333","25.1349583333333","6501700","林口區"
"244023","483-VK","2018/08/27 19:38:53","新北市林口區文林四街33巷13號","121.373696666667","25.0856533333333","6501700","林口區"
"243013","AAD-798","2018/08/27 19:38:48","新北市泰山區應化街7號","121.423853333333","25.043745","6501600","泰山區"
"243009","297-R6","2018/08/27 19:39:05","新北市泰山區美寧街60號","121.430978333333","25.0647","6501600","泰山區"
"243016","KEA-2801","2018/08/27 19:38:55","新北市泰山區新北大道七段30號","121.419825","25.0321883333333","6501600","泰山區"
"243015","421-VK","2018/08/27 19:39:02","新北市泰山區民權街55號","121.429078333333","25.0502516666667","6501600","泰山區"
"243011","KEA-2215","2018/08/27 19:39:03","新北市泰山區貴子路47號","121.430025","25.039845","6501600","泰山區"
"243010","KEA-2216","2018/08/27 19:38:58","新北市泰山區民生路33號","121.430853333333","25.0520616666667","6501600","泰山區"
"243012","646-TV","2018/08/27 19:39:00","新北市泰山區仁愛路98號","121.433361666667","25.0551666666667","6501600","泰山區"
"243014","680-BX","2018/08/27 19:39:09","新北市泰山區泰林路二段33-7號","121.435208333333","25.0564983333333","6501600","泰山區"
"222003","436-BY","2018/08/27 19:33:31","新北市深坑區深南路51-1號","121.621246666667","25.009855","6501800","深坑區"
"222002","659-BX","2018/08/27 19:39:04","新北市深坑區北深路一段210號","121.632556666667","25.0109633333333","6501800","深坑區"
"231041","002-UM","2018/08/27 19:39:01","新北市新店區中正路487號","121.53386","24.982135","6500600","新店區"
"231059","046-UY","2018/08/27 19:39:02","新北市新店區安和路三段119號","121.517583333333","24.9849533333333","6500600","新店區"
"231040","047-UY","2018/08/27 19:38:58","新北市新店區北新路一段273號","121.541121666667","24.9667116666667","6500600","新店區"
"231046","107-UY","2018/08/27 19:38:57","新北市新店區自由街13號","121.535566666667","24.9749083333333","6500600","新店區"
"231052","108-UY","2018/08/27 19:39:05","新北市新店區新烏路二段393號","121.551048333333","24.90979","6500600","新店區"
"231047","187-VK","2018/08/27 19:38:55","新北市新店區五峰路63巷8弄106號","121.54795","24.96854","6500600","新店區"
"231054","KEA-2219","2018/08/27 19:38:57","新北市新店區文中路45號","121.539616666667","24.9566116666667","6500600","新店區"
"231057","256-BX","2018/08/27 19:38:59","新北市新店區橘園一路11號","121.548013333333","24.9340066666667","6500600","新店區"
"231042","268-BY","2018/08/27 19:39:01","新北市新店區中興路一段180號","121.54316","24.9647866666667","6500600","新店區"
"231051","278-BY","2018/08/27 19:39:00","新北市新店區中央四街17號","121.529338333333","24.9741916666667","6500600","新店區"
"231050","AAD-862","2018/08/27 19:38:57","新北市新店區秀水路34號","121.554978333333","24.95535","6500600","新店區"
"231044","355-BY","2018/08/27 19:39:00","新北市新店區北新路三段7號","121.542271666667","24.97949","6500600","新店區"
"231058","3713-VJ","2018/08/27 19:39:09","新北市新店區中正路102巷8弄6號","121.543643333333","24.9712166666667","6500600","新店區"
"231066","4716-K9","2018/08/27 19:39:06","新北市新店區安康路三段207巷15號","121.488368333333","24.950805","6500600","新店區"
"231056","4715-K9","2018/08/27 19:39:03","新北市新店區安民街121巷14號","121.51534","24.96907","6500600","新店區"
"231065","512-UM","2018/08/27 19:39:00","新北市新店區安祥路109巷2號","121.475353333333","24.9582483333333","6500600","新店區"
"231049","513-UM","2018/08/27 19:38:50","新北市新店區大豐路43號","121.540293333333","24.9798966666667","6500600","新店區"
"231061","619-UM","2018/08/27 19:39:02","新北市新店區安民街50號","121.5162","24.9657783333333","6500600","新店區"
"231063","641-BX","2018/08/27 19:39:06","新北市新店區達觀路16-7號","121.50234","24.9406666666667","6500600","新店區"
"231064","719-UM","2018/08/27 19:38:55","新北市新店區安和路一段52巷2-1號","121.517703333333","24.9662783333333","6500600","新店區"
"231062","720-UM","2018/08/27 19:38:50","新北市新店區秀山路11巷8號","121.531931666667","24.9594616666667","6500600","新店區"
"231060","897-TW","2018/08/27 19:38:56","新北市新店區安康路二段145號","121.51183","24.95991","6500600","新店區"
"231045","898-TW","2018/08/27 19:38:57","新北市新店區北宜路二段168號","121.55835","24.954085","6500600","新店區"
"231043","899-TW","2018/08/27 19:39:02","新北市新店區北新路二段24號","121.542838333333","24.9714616666667","6500600","新店區"
"231055","AKT-0513","2018/08/27 19:38:58","新北市新店區力行路14巷16弄8號","121.539408333333","24.9655783333333","6500600","新店區"
"241011","013-R5","2018/08/27 19:38:57","新北市三重區秀江街188號","121.497766666667","25.0716016666667","6500200","三重區"
"241028","022-UY","2018/08/27 19:38:51","新北市三重區中正南路186號","121.49393","25.0561816666667","6500200","三重區"
"241008","059-VK","2018/08/27 19:38:56","新北市三重區永福街135巷15號","121.478121666667","25.0770816666667","6500200","三重區"
"241022","060-VK","2018/08/27 19:38:58","新北市三重區三民街157巷23號","121.484185","25.06503","6500200","三重區"
"241015","062-VK","2018/08/27 19:38:56","新北市三重區福德北路34號","121.50217","25.0651133333333","6500200","三重區"
"241017","063-VK","2018/08/27 19:38:51","新北市三重區大仁街1號","121.491708333333","25.0635433333333","6500200","三重區"
"241026","066-VK","2018/08/27 19:39:04","新北市三重區光興街53號","121.498975","25.060185","6500200","三重區"
"241003","091-VK","2018/08/27 19:37:32","新北市三重區仁義街387號","121.494621666667","25.0854","6500200","三重區"
"241009","267-UM","2018/08/27 19:38:56","新北市三重區三和路四段406巷18號","121.480458333333","25.0794483333333","6500200","三重區"
"241013","270-UM","2018/08/27 19:39:00","新北市三重區仁賢街2號","121.49562","25.07462","6500200","三重區"
"241025","271-UM","2018/08/27 19:39:09","新北市三重區頂崁街206巷1弄2號","121.477016666667","25.0669433333333","6500200","三重區"
"241007","398-BY","2018/08/27 19:38:55","新北市三重區溪尾街126巷104號","121.48743","25.0786533333333","6500200","三重區"
"241035","462-BY","2018/08/27 19:38:59","新北市三重區正義北路104號","121.497023333333","25.065","6500200","三重區"
"241020","478-VK","2018/08/27 19:39:07","新北市三重區三和路四段20巷81號","121.488925","25.07341","6500200","三重區"
"241030","480-VK","2018/08/27 19:39:06","新北市三重區環河南路221巷19號","121.491521666667","25.0526083333333","6500200","三重區"
"241014","543-UM","2018/08/27 19:39:04","新北市三重區長壽街196號","121.504233333333","25.0690216666667","6500200","三重區"
"241023","545-UM","2018/08/27 19:38:57","新北市三重區忠孝路三段99巷21號","121.479435","25.0643383333333","6500200","三重區"
"241001","547-UM","2018/08/27 19:38:52","新北市三重區仁愛街315巷10號","121.493033333333","25.079535","6500200","三重區"
"241019","KEA-2593","2018/08/27 19:39:10","新北市三重區六張街194巷1弄8號","121.488356666667","25.0682066666667","6500200","三重區"
"241006","AAD-863","2018/08/27 19:39:06","新北市三重區三和路四段160巷70號","121.485953333333","25.0749416666667","6500200","三重區"
"241029","942-UM","2018/08/27 19:38:54","新北市三重區中正南路184-1號","121.494196666667","25.0563083333333","6500200","三重區"
"235066","003-UY","2018/08/27 19:38:56","新北市中和區安和路159號","121.506011666667","24.9972783333333","6500300","中和區"
"235064","005-UY","2018/08/27 19:39:07","新北市中和區南山路127巷8弄2號","121.502666666667","24.99722","6500300","中和區"
"235063","006-UY","2018/08/27 19:39:09","新北市中和區連城路263巷4弄1號","121.492111666667","24.9959633333333","6500300","中和區"
"235056","096-UM","2018/08/27 19:38:49","新北市中和區員山路581巷2弄1號","121.477656666667","25.0092366666667","6500300","中和區"
"235039","097-UM","2018/08/27 19:38:49","新北市中和區景平路71-7號","121.518308333333","24.9916716666667","6500300","中和區"
"235065","098-UM","2018/08/27 19:38:59","新北市中和區永和路9巷1號","121.499186666667","25.0039966666667","6500300","中和區"
"235040","150-BY","2018/08/27 19:38:55","新北市中和區宜安路117號","121.510141666667","24.99789","6500300","中和區"
"235058","151-BY","2018/08/27 19:38:59","新北市中和區連城路511號","121.482298333333","24.99541","6500300","中和區"
"235055","183-VK","2018/08/27 19:38:49","新北市中和區中山路三段203號","121.472198333333","25.006415","6500300","中和區"
"235038","185-VK","2018/08/27 19:38:47","新北市中和區自立路141巷3號","121.522446666667","24.9936333333333","6500300","中和區"
"235049","186-VK","2018/08/27 19:39:02","新北市中和區景新街225號","121.507798333333","24.9947133333333","6500300","中和區"
"235067","255-BX","2018/08/27 19:38:51","新北市中和區連城路340巷14弄17號","121.482925","24.99716","6500300","中和區"
"235044","293-VK","2018/08/27 19:38:53","新北市中和區興南路一段146號","121.508461666667","24.9870166666667","6500300","中和區"
"235072","301-VK","2018/08/27 19:38:49","新北市中和區板南路399巷2號","121.493368333333","24.9991016666667","6500300","中和區"
"235043","352-BY","2018/08/27 19:38:50","新北市中和區安和路15號","121.511353333333","24.9938283333333","6500300","中和區"
"235042","KEA-2878","2018/08/27 19:38:53","新北市中和區景安路79巷37弄16-6號","121.508275","24.9961283333333","6500300","中和區"
"235070","558-UM","2018/08/27 19:38:47","新北市中和區景平路634-9號","121.498791666667","24.9995183333333","6500300","中和區"
"235045","565-BX","2018/08/27 19:38:57","新北市中和區景新街493號","121.513725","24.9872016666667","6500300","中和區"
"235054","640-BX","2018/08/27 19:38:54","新北市中和區國光街107巷2弄29號","121.46934","24.9989566666667","6500300","中和區"
"235060","647-TV","2018/08/27 19:39:08","新北市中和區中山路二段519號","121.482008333333","25.0051516666667","6500300","中和區"
"235047","732-UM","2018/08/27 19:38:51","新北市中和區景安路203巷1號","121.505038333333","24.992755","6500300","中和區"
"235046","733-UM","2018/08/27 19:39:04","新北市中和區忠孝街67號","121.511903333333","24.98493","6500300","中和區"
"235071","783-BX","2018/08/27 19:38:58","新北市中和區新生街112-3號","121.483456666667","25.0025466666667","6500300","中和區"
"235057","801-TS","2018/08/27 19:39:03","新北市中和區員山路180號","121.481333333333","25.0001666666667","6500300","中和區"
"235052","805-TS","2018/08/27 19:38:52","新北市中和區華新街220巷18號","121.506001666667","24.98247","6500300","中和區"
"235048","896-TW","2018/08/27 19:38:50","新北市中和區忠孝街1巷2-1號","121.509173333333","24.98309","6500300","中和區"
"235053","900-TW","2018/08/27 19:38:49","新北市中和區國光街184號","121.466843333333","25.0020316666667","6500300","中和區"
"235041","911-UM","2018/08/27 19:38:48","新北市中和區中和路460號","121.512225","25.003845","6500300","中和區"
"235051","157-BY","2018/08/27 19:38:53","新北市中和區中正路2號","121.503255","24.9938616666667","6500300","中和區"
"235037","AAC-213","2018/08/27 19:39:03","新北市中和區秀朗路三段10巷29弄5號","121.525","24.9960416666667","6500300","中和區"
"235059","AAC-215","2018/08/27 19:39:03","新北市中和區錦和路183號","121.49068","24.9910516666667","6500300","中和區"
"220065","072-UY","2018/08/27 19:39:00","新北市板橋區國泰街39巷5弄14號","121.468795","25.006025","6500100","板橋區"
"220086","073-UY","2018/08/27 19:38:53","新北市板橋區西門街18-3號","121.45456","25.0112083333333","6500100","板橋區"
"220106","075-UY","2018/08/27 19:38:50","新北市板橋區文化路二段548巷10弄1號","121.47684","25.0336566666667","6500100","板橋區"
"220069","AAD-861","2018/08/27 19:39:06","新北市板橋區貴興路123號","121.45541","25.0023116666667","6500100","板橋區"
"247004","337-TH","2018/08/27 19:39:06","新北市蘆洲區長安街98巷22號","121.463171666667","25.0817816666667","6501400","蘆洲區"
"247008","056-VK","2018/08/27 19:39:05","新北市蘆洲區中山一路165號","121.47527","25.0814516666667","6501400","蘆洲區"
"226004","312-R5","2018/08/27 19:39:02","新北市平溪區十分里十分街58巷7號","121.775353333333","25.0420683333333","6502400","平溪區"
"228003","097-TW","2018/08/27 19:39:01","新北市貢寮區真理里美艷山街31號","121.923313333333","25.0690383333333","6502600","貢寮區"
"228001","670-TC","2018/08/27 19:39:02","新北市貢寮區真理里延平街49號","121.924625","25.0556483333333","6502600","貢寮區"
"224010","AGQ-8101","2018/08/27 19:36:44","新北市瑞芳區豎崎路13號","121.843655","25.1083066666667","6501200","瑞芳區"
"224002","639-TC","2018/08/27 19:39:04","新北市瑞芳區三爪子坑路13巷281-13號","121.814923333333","25.1062166666667","6501200","瑞芳區"
"227001","642-TC","2018/08/27 19:39:05","新北市雙溪區雙溪里太平路64號","121.865293333333","25.0359433333333","6502500","雙溪區"
"227008","400-TW","2018/08/27 19:38:56","新北市雙溪區新基里新基南街18號","121.867051666667","25.0376783333333","6502500","雙溪區"
"253006","295-VK","2018/08/27 19:39:06","新北市石門區小坑9號","121.594448333333","25.28831","6502200","石門區"
"222001","KEA-2212","2018/08/27 19:38:59","新北市深坑區北深路二段188號","121.613938333333","25.0023866666667","6501800","深坑區"
"208002","KEA-2872","2018/08/27 19:38:55","新北市金山區八德街5號","121.635366666667","25.2236216666667","6502700","金山區"
"208003","665-BX","2018/08/27 19:39:09","新北市金山區忠孝一路19巷12號","121.637031666667","25.219165","6502700","金山區"
"208001","761-BX","2018/08/27 19:38:51","新北市金山區南勢72號","121.626833333333","25.220435","6502700","金山區"
"251009","008-UM","2018/08/27 19:38:59","新北市淡水區中山北路一段186巷13弄4號","121.445455","25.17898","6501000","淡水區"
"251005","010-UM","2018/08/27 19:39:08","新北市淡水區原德路108巷2號","121.4433","25.1735166666667","6501000","淡水區"
"251001","011-UM","2018/08/27 19:38:54","新北市淡水區民權路51號","121.459763333333","25.1389216666667","6501000","淡水區"
"251013","KEA-2871","2018/08/27 19:39:07","新北市淡水區頂田寮路143號","121.461325","25.216495","6501000","淡水區"
"251016","179-VK","2018/08/27 19:38:52","新北市淡水區下圭柔山119-51號","121.450656666667","25.2085066666667","6501000","淡水區"
"251014","180-VK","2018/08/27 19:39:05","新北市淡水區中和里12-1號","121.478871666667","25.2313716666667","6501000","淡水區"
"251015","181-VK","2018/08/27 19:39:03","新北市淡水區泉洲厝25-1號","121.484721666667","25.1893233333333","6501000","淡水區"
"251010","413-VK","2018/08/27 19:39:00","新北市淡水區濱海路二段202巷9號","121.434855","25.1910483333333","6501000","淡水區"
"251012","441-VK","2018/08/27 19:39:02","新北市淡水區中山北路三段158號","121.445691666667","25.1962416666667","6501000","淡水區"
"251006","561-UM","2018/08/27 19:38:50","新北市淡水區中山北路一段207巷73號","121.44143","25.1792816666667","6501000","淡水區"
"251007","577-R6","2018/08/27 19:39:04","新北市淡水區中正東路一段111巷30號","121.455488333333","25.1611983333333","6501000","淡水區"
"251011","650-BX","2018/08/27 19:39:08","新北市淡水區紅樹林路223號","121.461281666667","25.15526","6501000","淡水區"
"207003","550-UM","2018/08/27 19:38:54","新北市萬里區大鵬里下社17-4號","121.648203333333","25.21772","6502800","萬里區"
"207004","225-TW","2018/08/27 19:38:54","新北市萬里區萬里里瑪鋉路21號","121.687245","25.1754633333333","6502800","萬里區"
"252002","178-VK","2018/08/27 19:39:04","新北市三芝區中正路一段18巷52號","121.504206666667","25.2588133333333","6502100","三芝區"
"252001","292-VK","2018/08/27 19:38:59","新北市三芝區公正街9號","121.499716666667","25.257505","6502100","三芝區"
"237004","KEA-2597","2018/08/27 19:38:51","新北市三峽區有木2-2號","121.41955","24.8664516666667","6500900","三峽區"
"237007","153-BY","2018/08/27 19:38:52","新北市三峽區二鬮路136巷113號","121.35578","24.9101633333333","6500900","三峽區"
"237009","210-TH","2018/08/27 19:39:01","新北市三峽區民權街153-1號","121.368288333333","24.93118","6500900","三峽區"
"237013","252-BX","2018/08/27 19:38:58","新北市三峽區介壽路一段346號","121.38158","24.9303183333333","6500900","三峽區"
"237012","275-BY","2018/08/27 19:39:04","新北市三峽區光明路39-1號","121.37438","24.9300316666667","6500900","三峽區"
"237008","302-VK","2018/08/27 19:39:05","新北市三峽區永安街95巷2號","121.374738333333","24.9288283333333","6500900","三峽區"
"237014","433-BY","2018/08/27 19:38:53","新北市三峽區中山路67巷32號","121.366876666667","24.9342933333333","6500900","三峽區"
"237006","5529-G3","2018/08/27 19:39:00","新北市三峽區中正路一段336巷15弄2號","121.369981666667","24.92494","6500900","三峽區"
"237011","KEA-2596","2018/08/27 19:39:05","新北市三峽區介壽路二段165號","121.394033333333","24.93596","6500900","三峽區"
"237015","649-BX","2018/08/27 19:38:55","新北市三峽區成福路221號","121.426888333333","24.92658","6500900","三峽區"
"237010","706-TV","2018/08/27 19:38:56","新北市三峽區復興路46號","121.373608333333","24.936995","6500900","三峽區"
"237005","AKY-6261","2018/08/27 19:39:02","新北市三峽區中山路231巷3號","121.362885","24.9367733333333","6500900","三峽區"
"236069","105-UM","2018/08/27 19:39:00","新北市土城區裕民路234號","121.453905","24.98364","6501300","土城區"
"236078","166-UM","2018/08/27 19:39:02","新北市土城區中州路27巷87號","121.412585","24.9562266666667","6501300","土城區"
"236030","253-BX","2018/08/27 19:39:03","新北市土城區福祥街61號","121.44096","24.98033","6501300","土城區"
"236026","269-VK","2018/08/27 19:39:05","新北市土城區中央路二段61巷26號","121.443286666667","24.9786383333333","6501300","土城區"
"236039","271-VK","2018/08/27 19:39:06","新北市土城區青雲路269巷10-3號","121.45976","24.9803816666667","6501300","土城區"
"236020","401-BY","2018/08/27 19:38:49","新北市土城區明峰街83號","121.468971666667","24.9873466666667","6501300","土城區"
"236042","752-BX","2018/08/27 19:39:04","新北市土城區學士路28號","121.45287","24.98241","6501300","土城區"
"236048","913-UM","2018/08/27 19:39:03","新北市土城區明德路一段71號","121.465765","24.9834883333333","6501300","土城區"
"236063","915-UM","2018/08/27 19:39:00","新北市中和區莒光路260-1號","121.467476666667","24.9934683333333","6501300","土城區"
"236055","AAC-216","2018/08/27 19:39:10","新北市土城區學府路一段103號","121.456136666667","24.987675","6501300","土城區"
"242027","615-BX","2018/08/27 19:38:51","新北市新莊區新泰路255巷83號","121.442256666667","25.0388783333333","6500500","新莊區"
"242046","497-BY","2018/08/27 19:39:03","新北市新莊區瓊林路59-88號","121.439688333333","25.0212466666667","6500500","新莊區"
"242021","442-UM","2018/08/27 19:38:59","新北市新莊區景德路408號","121.444935","25.0333166666667","6500500","新莊區"
"242007","413-TV","2018/08/27 19:38:57","新北市新莊區思源路593巷6弄23號","121.457653333333","25.0598283333333","6500500","新莊區"
"242023","362-BY","2018/08/27 19:39:01","新北市新莊區復興路三段20號","121.460858333333","25.044495","6500500","新莊區"
"242031","135-UY","2018/08/27 19:39:05","新北市新莊區新泰路199巷10號","121.446393333333","25.037995","6500500","新莊區"
"242048","172-VK","2018/08/27 19:38:50","新北市新莊區民安路37巷1號","121.42379","25.0268583333333","6500500","新莊區"
"242004","176-VK","2018/08/27 19:39:00","新北市新莊區化成路29巷56號","121.46299","25.0438883333333","6500500","新莊區"
"238015","755-BX","2018/08/27 19:38:59","新北市樹林區日新街72號","121.421758333333","24.9907483333333","6500700","樹林區"
"238023","601-UM","2018/08/27 19:26:18","新北市樹林區中正路865號","121.408833333333","25.0181416666667","6500700","樹林區"
"238019","599-UM","2018/08/27 19:38:51","新北市樹林區中華路190-1號","121.411568333333","24.980615","6500700","樹林區"
"238024","5061-A6","2018/08/27 19:39:06","新北市樹林區育德街19巷30號","121.392693333333","24.970035","6500700","樹林區"
"238022","KEA-2213","2018/08/27 19:38:58","新北市樹林區名園街51巷6弄2號","121.420505","24.97838","6500700","樹林區"
"238021","KEA-2539","2018/08/27 19:39:01","新北市樹林區佳園路三段183號","121.385275","24.9480266666667","6500700","樹林區"
"238025","303-VK","2018/08/27 19:38:58","新北市樹林區中山路一段66號","121.423505","24.9917983333333","6500700","樹林區"
"238017","283-BY","2018/08/27 19:39:06","新北市樹林區光興街63巷8號","121.410801666667","25.0021016666667","6500700","樹林區"
"238014","282-BY","2018/08/27 19:39:08","新北市樹林區千歲街30巷26弄4號","121.426333333333","24.995955","6500700","樹林區"
"238026","172-UY","2018/08/27 19:39:02","新北市樹林區佳園路二段15巷9弄7號","121.393843333333","24.96327","6500700","樹林區"
"239007","AAC-297","2018/08/27 19:36:32","新北市鶯歌區大湖路338巷15號","121.34676","24.9690416666667","6500800","鶯歌區"
"239006","891-R6","2018/08/27 19:38:54","新北市鶯歌區鶯桃路91巷33號","121.338065","24.95217","6500800","鶯歌區"
"239005","526-UM","2018/08/27 19:38:55","新北市鶯歌區大湖路361巷24弄24號","121.329781666667","24.9778916666667","6500800","鶯歌區"
"239001","417-VK","2018/08/27 19:39:07","新北市鶯歌區尖山埔路二段49號","121.342088333333","24.9486716666667","6500800","鶯歌區"
"239003","360-BY","2018/08/27 19:37:33","新北市樹林區中山路三段214號","121.380375","24.9680166666667","6500800","鶯歌區"
"239004","193-VK","2018/08/27 19:38:49","新北市鶯歌區二甲路2-1號","121.34044","24.9370966666667","6500800","鶯歌區"
"221008","489-VK","2018/08/27 19:38:54","新北市汐止區康寧街141巷22弄2號","121.621405","25.06805","6501100","汐止區"
"221036","130-UY","2018/08/27 19:38:49","新北市汐止區康寧街901號","121.651638333333","25.0749466666667","6501100","汐止區"
"221015","131-UY","2018/08/27 19:38:52","新北市汐止區康寧街901號","121.651646666667","25.0749033333333","6501100","汐止區"
"221010","269-BY","2018/08/27 19:39:01","新北市汐止區汐萬路二段23巷2號","121.649468333333","25.0811633333333","6501100","汐止區"
"221012","278-VK","2018/08/27 19:38:59","新北市汐止區茄安路234號","121.679021666667","25.070625","6501100","汐止區"
"221023","279-VK","2018/08/27 19:38:59","新北市汐止區中興路282號","121.628496666667","25.0693","6501100","汐止區"
"221032","280-BY","2018/08/27 19:38:55","新北市汐止區汐萬路一段150號","121.652771666667","25.0711883333333","6501100","汐止區"
"221027","281-BY","2018/08/27 19:39:08","新北市汐止區忠孝東路9號","121.658333333333","25.0659833333333","6501100","汐止區"
"221029","298-VK","2018/08/27 19:39:05","新北市汐止區康寧街901號","121.651636666667","25.0749466666667","6501100","汐止區"
"221021","299-VK","2018/08/27 19:39:00","新北市汐止區南興路9號","121.652008333333","25.0623116666667","6501100","汐止區"
"221031","353-TW","2018/08/27 19:39:01","新北市汐止區康寧街901號","121.650798333333","25.07527","6501100","汐止區"
"221002","129-UY","2018/08/27 19:39:04","新北市汐止區大同路一段219巷26號","121.633226666667","25.058445","6501100","汐止區"
"221025","623-UM","2018/08/27 19:39:03","新北市汐止區新台五路二段1號","121.661746666667","25.06575","6501100","汐止區"
"221038","646-BX","2018/08/27 19:39:08","新北市汐止區忠孝東路245號","121.66289","25.067445","6501100","汐止區"
"221033","647-BX","2018/08/27 19:39:03","新北市汐止區南勢街3號","121.627076666667","25.03739","6501100","汐止區"
"220079","145-BY","2018/08/27 19:38:53","新北市板橋區復興街87號","121.459423333333","25.0177233333333","6500100","板橋區"
"220080","200-UY","2018/08/27 19:39:05","新北市板橋區大觀路二段153巷46弄10號","121.448986666667","24.9995366666667","6500100","板橋區"
"220082","610-BX","2018/08/27 19:38:50","新北市板橋區篤行路一段22號","121.431648333333","24.99428","6500100","板橋區"
"220056","276-BY","2018/08/27 19:38:57","新北市板橋區四川路二段47巷2弄2號","121.453956666667","24.99497","6500100","板橋區"
"220072","277-BY","2018/08/27 19:38:48","新北市板橋區金門街255號","121.431933333333","24.9889016666667","6500100","板橋區"
"220063","280-UM","2018/08/27 19:39:01","新北市板橋區中山路二段553巷4弄2號","121.483458333333","25.022595","6500100","板橋區"
"220071","283-VK","2018/08/27 19:38:49","新北市板橋區五權街30巷37弄11號","121.46358","24.9923133333333","6500100","板橋區"
"220094","285-UM","2018/08/27 19:38:57","新北市板橋區銘傳街92號","121.469481666667","25.03152","6500100","板橋區"
"220053","285-VK","2018/08/27 19:39:02","新北市板橋區中山路二段148巷28號","121.477171666667","25.0162583333333","6500100","板橋區"
"220083","286-VK","2018/08/27 19:39:06","新北市板橋區龍興街65巷6號","121.443438333333","25.00144","6500100","板橋區"
"220081","287-VK","2018/08/27 19:39:05","新北市板橋區大觀路一段29巷10弄33號","121.449425","25.0055233333333","6500100","板橋區"
"220090","288-VK","2018/08/27 19:38:52","新北市板橋區長江路一段48巷12號","121.4595","25.0278833333333","6500100","板橋區"
"220061","295-UM","2018/08/27 19:39:02","新北市板橋區中山路一段291-2號","121.470626666667","25.01423","6500100","板橋區"
"220084","296-UM","2018/08/27 19:38:56","新北市板橋區滿平二街45號","121.425006666667","24.98799","6500100","板橋區"
"220062","299-UM","2018/08/27 19:38:49","新北市板橋區三民路二段29巷2號","121.481373333333","25.0179816666667","6500100","板橋區"
"242013","281-VK","2018/08/27 19:39:01","新北市新莊區中誠街121巷9號","121.449535","25.0471216666667","6500500","新莊區"
"220075","303-R5","2018/08/27 19:39:05","新北市板橋區大勇街17號","121.454525","25.0172316666667","6500100","板橋區"
"220092","307-R5","2018/08/27 19:39:03","新北市板橋區文化路一段387巷27號","121.46575","25.0222533333333","6500100","板橋區"
"220098","317-R6","2018/08/27 19:38:58","新北市板橋區民生路三段263巷6號","121.463928333333","25.0293633333333","6500100","板橋區"
"220064","486-VK","2018/08/27 19:38:51","新北市板橋區民族路80號","121.46294","25.00931","6500100","板橋區"
"242011","280-VK","2018/08/27 19:39:00","新北市新莊區三和路12-21號","121.442031666667","25.0382966666667","6500500","新莊區"
"220088","491-VK","2018/08/27 19:39:02","新北市板橋區仁化街179號","121.478195","25.0337533333333","6500100","板橋區"
"220035","560-BX","2018/08/27 19:39:01","新北市板橋區金華街85巷42號","121.45915","25.021325","6500100","板橋區"
"220103","561-BX","2018/08/27 19:39:03","新北市板橋區文化路一段341號","121.466788333333","25.0208333333333","6500100","板橋區"
"220091","637-BX","2018/08/27 19:39:03","新北市板橋區懷德街139巷21號","121.479938333333","25.030915","6500100","板橋區"
"220057","686-BX","2018/08/27 19:38:55","新北市板橋區和平路安樂巷27號","121.461585","24.9934883333333","6500100","板橋區"
"220077","687-BX","2018/08/27 19:39:01","新北市板橋區僑中一街70號","121.447496666667","25.0114833333333","6500100","板橋區"
"220093","689-BX","2018/08/27 19:39:06","新北市板橋區長江路一段55號","121.458785","25.0293016666667","6500100","板橋區"
"220054","741-BX","2018/08/27 19:39:02","新北市板橋區忠孝路239巷26號","121.467036666667","25.0034566666667","6500100","板橋區"
"220102","KEA-2699","2018/08/27 19:39:05","新北市板橋區文化路二段410巷50號","121.47475","25.0303066666667","6500100","板橋區"
"220055","827-TW","2018/08/27 19:38:58","新北市板橋區國慶路149巷4弄2-1號","121.461248333333","24.9968533333333","6500100","板橋區"
"220067","829-TW","2018/08/27 19:38:51","新北市板橋區長安街261巷5號","121.47324","25.01076","6500100","板橋區"
"220068","830-TW","2018/08/27 19:38:55","新北市板橋區中山路二段482號","121.485071666667","25.0219716666667","6500100","板橋區"
"220096","831-TW","2018/08/27 19:38:57","新北市板橋區民生路二段234巷9號","121.468536666667","25.0226883333333","6500100","板橋區"
"220089","833-TW","2018/08/27 19:39:03","新北市板橋區陽明街259號","121.46268","25.02539","6500100","板橋區"
"220074","895-R6","2018/08/27 19:39:11","新北市板橋區東門街1-1號","121.458015","25.0088083333333","6500100","板橋區"
"220073","985-R7","2018/08/27 19:38:51","新北市板橋區國光路31巷16號","121.45794","25.018175","6500100","板橋區"
"220097","AAC-210","2018/08/27 19:38:52","新北市板橋區漢生西路89巷2弄4號","121.461943333333","25.0194133333333","6500100","板橋區"
"220070","AAC-253","2018/08/27 19:38:51","新北市板橋區民族路288號","121.470261666667","25.006855","6500100","板橋區"
"235068","KEA-2873","2018/08/27 19:38:47","新北市中和區廟美街7號","121.500845","25.0017133333333","6500300","中和區"
"235061","KEA-2875","2018/08/27 19:38:42","新北市中和區民利街69號","121.478756666667","24.9982616666667","6500300","中和區"
