"lineid","car","time","location","longitude","latitude","cityid","cityname"
"234046","148-BY","2018/08/27 20:09:04","新北市永和區成功路二段75號","121.526766666667","24.9997633333333","6500400","永和區"
"234007","207-UY","2018/08/27 20:08:52","新北市永和區保順路35號","121.503405","25.0106233333333","6500400","永和區"
"234081","298-R6","2018/08/27 20:08:57","新北市永和區國中路27號","121.52454","25.0053366666667","6500400","永和區"
"234038","336-UY","2018/08/27 20:08:53","新北市永和區成功路二段61號","121.52678","25.00024","6500400","永和區"
"234064","337-UY","2018/08/27 20:09:01","新北市永和區永元路124號","121.522686666667","25.0028733333333","6500400","永和區"
"234086","338-UY","2018/08/27 20:09:05","新北市永和區福和路233號","121.518518333333","25.0074916666667","6500400","永和區"
"234070","552-UM","2018/08/27 20:09:00","新北市永和區中正路652號","121.516985","25.0084916666667","6500400","永和區"
"234017","745-BX","2018/08/27 20:09:08","新北市永和區文化路170號","121.511918333333","25.0154483333333","6500400","永和區"
"234030","746-BX","2018/08/27 20:09:07","新北市永和區民權路49巷5弄24號","121.521661666667","24.9978133333333","6500400","永和區"
"234054","KEA-2590","2018/08/27 20:08:27","新北市永和區博愛街20巷2號","121.517716666667","25.015745","6500400","永和區"
"234013","KEA-2591","2018/08/27 20:08:58","新北市永和區仁愛路277號","121.505866666667","25.009675","6500400","永和區"
"234061","AAD-866","2018/08/27 20:09:05","新北市永和區安樂路100巷28號","121.51551","24.9987416666667","6500400","永和區"
"234042","862-TW","2018/08/27 20:08:51","新北市永和區雙和街24號","121.508953333333","25.0023133333333","6500400","永和區"
"234050","863-TW","2018/08/27 20:08:53","新北市永和區保安路292號","121.505245","25.0119366666667","6500400","永和區"
"234011","9373-KE","2018/08/27 20:08:50","新北市永和區仁愛路352巷122弄9號","121.500565","25.0087633333333","6500400","永和區"
"249005","172-UM","2018/08/27 20:08:54","新北市八里區下罟子50-1號","121.383723333333","25.13824","6502300","八里區"
"249001","173-UM","2018/08/27 20:08:51","新北市八里區中華路二段310號","121.403781666667","25.1484","6502300","八里區"
"249004","303-UY","2018/08/27 20:09:07","新北市八里區中山路一段398巷8號","121.411616666667","25.158575","6502300","八里區"
"249002","305-UY","2018/08/27 20:08:56","新北市五股區成泰路四段22巷46-3號","121.457896666667","25.1126533333333","6502300","八里區"
"249003","593-UM","2018/08/27 20:08:57","新北市八里區中山路二段540巷26號","121.397146666667","25.1468666666667","6502300","八里區"
"248014","025-BX","2018/08/27 20:09:01","新北市五股區成泰路三段67號","121.443351666667","25.0896533333333","6501500","五股區"
"248016","026-BX","2018/08/27 20:09:06","新北市五股區成泰路三段577巷134號","121.448065","25.1043316666667","6501500","五股區"
"248008","095-VK","2018/08/27 20:08:54","新北市三重區中正北路598巷5號","121.469685","25.0715683333333","6501500","五股區"
"248018","225-UY","2018/08/27 20:08:54","新北市五股區登林路99-1號","121.412888333333","25.0767016666667","6501500","五股區"
"248012","247-BX","2018/08/27 20:08:55","新北市五股區六合街118號","121.430245","25.090825","6501500","五股區"
"248004","677-BX","2018/08/27 20:09:11","新北市五股區成泰路二段24號","121.436933333333","25.08097","6501500","五股區"
"248002","678-BX","2018/08/27 20:08:59","新北市五股區成泰路三段323號","121.447946666667","25.0949683333333","6501500","五股區"
"248010","682-TV","2018/08/27 20:09:02","新北市五股區成泰路一段7巷66號","121.432673333333","25.0679466666667","6501500","五股區"
"234023","9380-KE","2018/08/27 20:09:08","新北市永和區中正路613號","121.516233333333","25.0098283333333","6500400","永和區"
"234077","969-R7","2018/08/27 20:08:57","新北市永和區智光街94號","121.516131666667","24.9969383333333","6500400","永和區"
"234074","AAC-211","2018/08/27 20:08:54","新北市永和區豫溪街185號","121.522503333333","25.01033","6500400","永和區"
"234067","AAC-212","2018/08/27 20:09:01","新北市永和區保平路214巷8弄1號","121.509446666667","25.0063983333333","6500400","永和區"
"234003","AAC-295","2018/08/27 20:08:58","新北市永和區中正路612號","121.517093333333","25.0074233333333","6500400","永和區"
"243013","AAD-798","2018/08/27 20:09:02","新北市泰山區明志路三段74巷25弄2號","121.423615","25.0416633333333","6501600","泰山區"
"243009","297-R6","2018/08/27 20:09:05","新北市泰山區泰林路二段146號","121.434258333333","25.05987","6501600","泰山區"
"243016","KEA-2801","2018/08/27 20:08:55","新北市泰山區中山路二段776號","121.423575","25.033865","6501600","泰山區"
"243015","421-VK","2018/08/27 20:09:04","新北市泰山區明志路一段344號","121.43096","25.05857","6501600","泰山區"
"243011","KEA-2215","2018/08/27 20:09:03","新北市泰山區貴陽街3號","121.420981666667","25.0337","6501600","泰山區"
"243010","KEA-2216","2018/08/27 20:09:07","新北市泰山區明志路二段136巷10號","121.426936666667","25.0505983333333","6501600","泰山區"
"243012","646-TV","2018/08/27 20:08:52","新北市泰山區楓江路39-2號","121.435146666667","25.06242","6501600","泰山區"
"243014","680-BX","2018/08/27 20:08:55","新北市泰山區明志路一段16號","121.433621666667","25.0658066666667","6501600","泰山區"
"222003","436-BY","2018/08/27 20:09:07","新北市深坑區埔新街67號","121.620086666667","25.002355","6501800","深坑區"
"222002","659-BX","2018/08/27 20:09:04","新北市深坑區北深路三段143號","121.603571666667","25.002815","6501800","深坑區"
"231041","002-UM","2018/08/27 20:09:00","新北市新店區中正路444號","121.53408","24.9784983333333","6500600","新店區"
"231059","046-UY","2018/08/27 20:08:57","新北市新店區安成街28-1號","121.510208333333","24.9609816666667","6500600","新店區"
"231040","047-UY","2018/08/27 20:08:58","新北市新店區中正路110號","121.542975","24.9705966666667","6500600","新店區"
"231046","107-UY","2018/08/27 20:08:57","新北市新店區安興路65巷18號","121.516118333333","24.97321","6500600","新店區"
"231052","108-UY","2018/08/27 20:09:05","新北市新店區新烏路三段寶島巷2弄3號","121.55204","24.8986483333333","6500600","新店區"
"231047","187-VK","2018/08/27 20:08:55","新北市新店區寶橋路75號","121.545525","24.9751683333333","6500600","新店區"
"231054","KEA-2219","2018/08/27 20:08:57","新北市新店區光明街314號","121.540896666667","24.9650333333333","6500600","新店區"
"231057","256-BX","2018/08/27 20:08:59","新北市新店區花園一路一段2號","121.553148333333","24.9324933333333","6500600","新店區"
"231042","268-BY","2018/08/27 20:09:01","新北市新店區中興路二段99巷1號","121.547233333333","24.971685","6500600","新店區"
"231051","278-BY","2018/08/27 20:09:00","新北市新店區中央五街5號","121.53012","24.9741883333333","6500600","新店區"
"231050","AAD-862","2018/08/27 20:08:57","新北市新店區北新路一段48號","121.541008333333","24.9662366666667","6500600","新店區"
"231044","355-BY","2018/08/27 20:08:51","新北市新店區寶元路一段15巷20號","121.541983333333","24.9869866666667","6500600","新店區"
"231056","4715-K9","2018/08/27 20:09:03","新北市新店區中正路154巷4號","121.541785","24.97201","6500600","新店區"
"231067","4772-VM","2018/08/27 20:08:58","新北市新店區溪洲路56號","121.532755","24.96147","6500600","新店區"
"231065","512-UM","2018/08/27 20:09:00","新北市新店區安祥路106巷66號","121.475241666667","24.9606133333333","6500600","新店區"
"231049","513-UM","2018/08/27 20:08:50","新北市新店區北新路二段139巷12弄20號","121.542215","24.9761083333333","6500600","新店區"
"231061","619-UM","2018/08/27 20:09:02","新北市新店區安興路69號","121.515938333333","24.975215","6500600","新店區"
"231063","641-BX","2018/08/27 20:09:06","新北市新店區黎明路54巷1號","121.502363333333","24.9479983333333","6500600","新店區"
"231068","718-UY","2018/08/27 20:08:59","新北市新店區中興路三段204號","121.543873333333","24.9820766666667","6500600","新店區"
"231064","719-UM","2018/08/27 20:00:55","新北市新店區安民街21號","121.515591666667","24.9648716666667","6500600","新店區"
"231062","720-UM","2018/08/27 20:09:10","新北市新店區安康路一段140號","121.52657","24.9628883333333","6500600","新店區"
"231060","897-TW","2018/08/27 20:08:56","新北市新店區安康路三段450號","121.484526666667","24.9512766666667","6500600","新店區"
"231045","898-TW","2018/08/27 20:08:57","新北市新店區北宜路一段121-1號","121.540381666667","24.95382","6500600","新店區"
"231043","899-TW","2018/08/27 20:09:03","新北市新店區民族路219號","121.536825","24.97597","6500600","新店區"
"231055","AKT-0513","2018/08/27 20:08:58","新北市新店區中華路42巷10號","121.540381666667","24.9684433333333","6500600","新店區"
"241011","013-R5","2018/08/27 20:08:57","新北市三重區龍門路19巷15號","121.495873333333","25.071735","6500200","三重區"
"241028","022-UY","2018/08/27 20:08:51","新北市三重區仁化街169號","121.49469","25.0566","6500200","三重區"
"241008","059-VK","2018/08/27 20:08:56","新北市三重區永福街197巷37弄1號","121.47805","25.0743583333333","6500200","三重區"
"241022","060-VK","2018/08/27 20:09:10","新北市三重區新北大道一段42號","121.487973333333","25.06149","6500200","三重區"
"241015","062-VK","2018/08/27 20:08:56","新北市三重區福德北路24號","121.5023","25.064735","6500200","三重區"
"241017","063-VK","2018/08/27 20:08:51","新北市三重區大智街124號","121.49298","25.0671066666667","6500200","三重區"
"241024","065-VK","2018/08/27 20:08:59","新北市三重區後竹圍街275巷6號","121.481796666667","25.0708266666667","6500200","三重區"
"241026","066-VK","2018/08/27 20:09:04","新北市三重區福德南路65巷1號","121.502418333333","25.0605283333333","6500200","三重區"
"241002","090-VK","2018/08/27 20:09:03","新北市三重區仁忠街41號","121.495403333333","25.081715","6500200","三重區"
"241003","091-VK","2018/08/27 20:08:52","新北市三重區仁愛街472號","121.489731666667","25.082475","6500200","三重區"
"241016","266-UM","2018/08/27 20:08:56","新北市三重區大同北路59號","121.495365","25.0633433333333","6500200","三重區"
"241009","267-UM","2018/08/27 20:08:56","新北市三重區永福街113號","121.479373333333","25.077155","6500200","三重區"
"241018","268-UM","2018/08/27 20:08:52","新北市三重區大智街49號","121.492898333333","25.06769","6500200","三重區"
"241013","270-UM","2018/08/27 20:09:00","新北市三重區三和路三段139巷28號","121.493571666667","25.0739683333333","6500200","三重區"
"241025","271-UM","2018/08/27 20:09:09","新北市三重區中正北路430號","121.474615","25.0711166666667","6500200","三重區"
"241007","398-BY","2018/08/27 20:08:55","新北市三重區三和路四段111-28號","121.48698","25.0776366666667","6500200","三重區"
"241035","462-BY","2018/08/27 20:09:09","新北市三重區平安街3號","121.498941666667","25.0642933333333","6500200","三重區"
"241004","475-VK","2018/08/27 20:09:07","新北市三重區自強路四段112號","121.491533333333","25.0800233333333","6500200","三重區"
"241020","478-VK","2018/08/27 20:09:06","新北市三重區大智街179巷21號","121.490721666667","25.0729083333333","6500200","三重區"
"241030","480-VK","2018/08/27 20:09:06","新北市三重區成功路145巷33號","121.48764","25.0531733333333","6500200","三重區"
"241014","543-UM","2018/08/27 20:09:04","新北市三重區安和路38號","121.500826666667","25.0692566666667","6500200","三重區"
"241023","545-UM","2018/08/27 20:09:10","新北市三重區頂崁街229號","121.477008333333","25.0682616666667","6500200","三重區"
"241001","547-UM","2018/08/27 20:08:52","新北市三重區三和路四段89巷40號","121.490738333333","25.076275","6500200","三重區"
"241019","KEA-2593","2018/08/27 20:08:50","新北市三重區自強路二段33巷10號","121.489905","25.0696516666667","6500200","三重區"
"241006","AAD-863","2018/08/27 20:09:06","新北市三重區力行路二段93號","121.482578333333","25.0758583333333","6500200","三重區"
"241005","887-TS","2018/08/27 20:09:05","新北市三重區五華街180巷27號","121.4881","25.08555","6500200","三重區"
"241029","942-UM","2018/08/27 20:08:54","新北市三重區光明路32巷14號","121.491681666667","25.0587466666667","6500200","三重區"
"241033","AAC-255","2018/08/27 20:09:09","新北市三重區光復路一段68巷7號","121.471173333333","25.0493833333333","6500200","三重區"
"235066","003-UY","2018/08/27 20:08:56","新北市中和區中山路二段3巷28-3號","121.507008333333","25.0051316666667","6500300","中和區"
"235039","097-UM","2018/08/27 20:09:11","新北市中和區大勇街25巷5號","121.517003333333","24.9931916666667","6500300","中和區"
"235065","098-UM","2018/08/27 20:08:59","新北市中和區福祥路85巷6弄2號","121.498478333333","25.00566","6500300","中和區"
"235040","150-BY","2018/08/27 20:08:55","新北市中和區保健路26巷27號","121.508846666667","24.9970783333333","6500300","中和區"
"235058","151-BY","2018/08/27 20:08:59","新北市中和區員山路150巷2弄49號","121.48215","24.9973433333333","6500300","中和區"
"247010","KEA-2869","2018/08/27 20:08:57","新北市蘆洲區集賢路406號","121.480073333333","25.08196","6501400","蘆洲區"
"235069","4980-A6","2018/08/27 20:08:48","新北市中和區景新街96巷6號","121.504553333333","24.9983233333333","6500300","中和區"
"235070","558-UM","2018/08/27 20:09:07","新北市中和區橋和路172號","121.494586666667","25.00636","6500300","中和區"
"235054","640-BX","2018/08/27 20:08:54","新北市三重區重新路5段221巷6弄11-1號","121.479153333333","25.0508416666667","6500300","中和區"
"235046","733-UM","2018/08/27 20:09:04","新北市中和區忠孝街80號","121.51214","24.9843","6500300","中和區"
"235052","805-TS","2018/08/27 20:08:52","新北市中和區忠孝街112號","121.512181666667","24.9852683333333","6500300","中和區"
"235051","157-BY","2018/08/27 20:08:53","新北市中和區景安路220巷4弄1號","121.503345","24.9909616666667","6500300","中和區"
"235037","AAC-213","2018/08/27 20:09:03","新北市中和區自強路50號","121.520198333333","24.994905","6500300","中和區"
"235059","AAC-215","2018/08/27 20:09:03","新北市中和區圓通路335巷5弄2號","121.492975","24.9897433333333","6500300","中和區"
"220106","075-UY","2018/08/27 20:08:50","新北市板橋區文聖街5號","121.475545","25.032425","6500100","板橋區"
"220069","AAD-861","2018/08/27 20:09:05","新北市板橋區大明街20巷19弄22號","121.4578","25.003295","6500100","板橋區"
"247024","893-R6","2018/08/27 20:08:57","新北市蘆洲區光明路90號","121.462983333333","25.087705","6501400","蘆洲區"
"247014","546-UM","2018/08/27 20:09:01","新北市蘆洲區中山二路265巷8號","121.47023","25.079505","6501400","蘆洲區"
"247022","500-BY","2018/08/27 20:08:49","新北市蘆洲區三民路120號","121.471161666667","25.0872733333333","6501400","蘆洲區"
"247012","339-TH","2018/08/27 20:09:08","新北市蘆洲區民族路244號","121.47924","25.0885866666667","6501400","蘆洲區"
"247004","337-TH","2018/08/27 20:09:06","新北市蘆洲區永安南路二段328巷15弄13號","121.45608","25.08356","6501400","蘆洲區"
"247006","336-TH","2018/08/27 20:09:07","新北市蘆洲區中山二路286號","121.468871666667","25.0778816666667","6501400","蘆洲區"
"247018","057-VK","2018/08/27 20:09:07","新北市蘆洲區民族路314巷11-2號","121.478011666667","25.0905266666667","6501400","蘆洲區"
"247008","056-VK","2018/08/27 20:09:05","新北市蘆洲區中山一路201號","121.474413333333","25.0808566666667","6501400","蘆洲區"
"247016","007-UY","2018/08/27 20:08:52","新北市蘆洲區光華路134號","121.466303333333","25.08237","6501400","蘆洲區"
"247002","002-UY","2018/08/27 20:09:03","新北市蘆洲區永康街2巷8號","121.459293333333","25.0861766666667","6501400","蘆洲區"
"247020","001-UY","2018/08/27 20:09:00","新北市蘆洲區民權路106巷5弄2-1號","121.47442","25.089005","6501400","蘆洲區"
"224010","AGQ-8101","2018/08/27 20:08:08","新北市瑞芳區豎崎路18號","121.84363","25.1086466666667","6501200","瑞芳區"
"224002","639-TC","2018/08/27 20:09:01","新北市瑞芳區蛇子形路2號","121.823913333333","25.10285","6501200","瑞芳區"
"222001","KEA-2212","2018/08/27 20:08:59","新北市深坑區北深路三段191號","121.601173333333","25.0036233333333","6501800","深坑區"
"208002","KEA-2872","2018/08/27 20:08:55","新北市金山區龜子山路36號","121.639275","25.21724","6502700","金山區"
"208003","665-BX","2018/08/27 20:09:05","新北市金山區海興路38號","121.630746666667","25.2384516666667","6502700","金山區"
"208001","761-BX","2018/08/27 20:09:11","新北市金山區南勢80號","121.626631666667","25.2203033333333","6502700","金山區"
"251009","008-UM","2018/08/27 20:08:59","新北市淡水區清水街1號","121.445238333333","25.1703933333333","6501000","淡水區"
"251005","010-UM","2018/08/27 20:08:48","新北市淡水區學府路100巷16-1號","121.45062","25.1715033333333","6501000","淡水區"
"251001","011-UM","2018/08/27 20:08:54","新北市淡水區新市二路四段265號","121.445746666667","25.1925116666667","6501000","淡水區"
"251013","KEA-2871","2018/08/27 20:09:07","新北市淡水區奎柔山路75號","121.453245","25.2060316666667","6501000","淡水區"
"251016","179-VK","2018/08/27 20:08:52","新北市淡水區番子田18-7號","121.456438333333","25.2296366666667","6501000","淡水區"
"251014","180-VK","2018/08/27 20:09:05","新北市淡水區石頭厝1號","121.458736666667","25.2355233333333","6501000","淡水區"
"251015","181-VK","2018/08/27 20:09:03","新北市淡水區淡金路二段507號","121.447145","25.18961","6501000","淡水區"
"251010","413-VK","2018/08/27 20:09:00","新北市淡水區新市三路一段306號","121.4287","25.19771","6501000","淡水區"
"251012","441-VK","2018/08/27 20:09:09","新北市淡水區淡金路三段266號","121.448945","25.2065933333333","6501000","淡水區"
"251004","443-VK","2018/08/27 20:09:02","新北市淡水區民族路31巷21-1號","121.46197","25.1364583333333","6501000","淡水區"
"251006","561-UM","2018/08/27 20:08:50","新北市淡水區北新路141巷60弄11號","121.448191666667","25.17969","6501000","淡水區"
"251007","577-R6","2018/08/27 20:09:04","新北市淡水區淡金路一段69號","121.458076666667","25.173445","6501000","淡水區"
"251011","650-BX","2018/08/27 20:09:08","新北市淡水區下圭柔山91-2號","121.430351666667","25.2091666666667","6501000","淡水區"
"251003","766-UM","2018/08/27 20:08:52","新北市淡水區中山北路二段189巷15弄29號","121.443315","25.1844","6501000","淡水區"
"207003","550-UM","2018/08/27 20:08:54","新北市萬里區大鵬里萬里加投68-6號","121.64249","25.215375","6502800","萬里區"
"207004","225-TW","2018/08/27 20:08:54","新北市萬里區北基里愛二街2號","121.682448333333","25.1767183333333","6502800","萬里區"
"252002","178-VK","2018/08/27 20:09:08","新北市三芝區三民街5號","121.504088333333","25.257975","6502100","三芝區"
"252001","292-VK","2018/08/27 20:08:59","新北市三芝區公正街66號","121.49977","25.2574466666667","6502100","三芝區"
"237009","210-TH","2018/08/27 20:09:01","新北市三峽區民族街76-5號","121.369381666667","24.929925","6500900","三峽區"
"237012","275-BY","2018/08/27 20:09:04","新北市三峽區中正路一段216巷4號","121.371635","24.92798","6500900","三峽區"
"237008","302-VK","2018/08/27 20:09:05","新北市三峽區中正路一段174巷4弄19號","121.372676666667","24.9291416666667","6500900","三峽區"
"237014","433-BY","2018/08/27 20:08:53","新北市三峽區添福11-16號","121.372923333333","24.90704","6500900","三峽區"
"237006","5529-G3","2018/08/27 20:09:00","新北市三峽區中正路二段260號","121.365101666667","24.9127283333333","6500900","三峽區"
"237015","649-BX","2018/08/27 20:08:55","新北市三峽區介壽路二段138巷1弄13號","121.396431666667","24.93373","6500900","三峽區"
"237005","AKY-6261","2018/08/27 20:09:02","新北市三峽區三樹路44巷19號","121.378536666667","24.9375416666667","6500900","三峽區"
"236069","105-UM","2018/08/27 20:09:00","新北市土城區中央路三段147巷2弄16號","121.431953333333","24.9649","6501300","土城區"
"236078","166-UM","2018/08/27 20:09:02","新北市土城區三民路47-1號","121.419873333333","24.964145","6501300","土城區"
"236030","253-BX","2018/08/27 20:08:55","新北市土城區中央路一段116號","121.446586666667","24.9880566666667","6501300","土城區"
"236026","269-VK","2018/08/27 20:09:05","新北市土城區中央路一段289號","121.4445","24.9843283333333","6501300","土城區"
"236014","270-VK","2018/08/27 20:08:57","新北市土城區廣興街35號","121.455146666667","24.9915916666667","6501300","土城區"
"236039","271-VK","2018/08/27 20:09:05","新北市土城區延吉街296巷2號","121.464545","24.98434","6501300","土城區"
"236020","401-BY","2018/08/27 20:08:49","新北市土城區延吉街111巷15號","121.471976666667","24.9859316666667","6501300","土城區"
"236042","752-BX","2018/08/27 20:08:50","新北市土城區學成路22巷4號","121.4535","24.98727","6501300","土城區"
"236059","912-UM","2018/08/27 20:09:07","新北市土城區光明街4號","121.441905","24.9746016666667","6501300","土城區"
"236048","913-UM","2018/08/27 20:09:03","新北市土城區清水路332號","121.464028333333","24.9855866666667","6501300","土城區"
"236063","915-UM","2018/08/27 20:08:40","新北市土城區延和路12巷15號","121.464663333333","24.98752","6501300","土城區"
"236055","AAC-216","2018/08/27 20:09:10","新北市土城區中央路一段43號","121.44826","24.990425","6501300","土城區"
"242034","AAC-296","2018/08/27 19:43:55","新北市新莊區仁愛街16號","121.444416666667","25.0354566666667","6500500","新莊區"
"242058","986-R7","2018/08/27 20:09:06","新北市新莊區八德街104號","121.424183333333","25.0212283333333","6500500","新莊區"
"242053","751-BX","2018/08/27 20:08:49","新北市新莊區西盛街387巷34弄5號","121.428586666667","25.0129733333333","6500500","新莊區"
"242027","615-BX","2018/08/27 20:08:51","新北市新莊區幸福路829號","121.44489","25.048985","6500500","新莊區"
"242025","613-BX","2018/08/27 20:08:10","新北市新莊區五工三路78巷14號","121.459553333333","25.0654066666667","6500500","新莊區"
"242042","566-BX","2018/08/27 20:09:08","新北市新莊區天泉路50號","121.399761666667","25.0307183333333","6500500","新莊區"
"242046","497-BY","2018/08/27 20:09:03","新北市新莊區福營路591-1號","121.419573333333","25.0229433333333","6500500","新莊區"
"242021","442-UM","2018/08/27 20:08:58","新北市新莊區中興街59號","121.449018333333","25.0374316666667","6500500","新莊區"
"242050","441-UM","2018/08/27 20:08:52","新北市新莊區民安西路172巷6號","121.42527","25.0160716666667","6500500","新莊區"
"242056","440-UM","2018/08/27 20:09:09","新北市新莊區新莊路649巷15弄1號","121.444973333333","25.031515","6500500","新莊區"
"242036","415-TV","2018/08/27 20:08:58","新北市新莊區後港一路130巷45號","121.430061666667","25.0257383333333","6500500","新莊區"
"242007","413-TV","2018/08/27 20:08:57","新北市新莊區福壽街202巷24號","121.459225","25.053645","6500500","新莊區"
"242044","400-BY","2018/08/27 20:08:58","桃園市龜山區萬壽路一段19號","121.41013","25.02075","6500500","新莊區"
"242023","362-BY","2018/08/27 20:09:01","新北市新莊區化成路608號","121.466166666667","25.054675","6500500","新莊區"
"242060","353-BY","2018/08/27 20:09:03","新北市新莊區瓊林路瓊英巷9號","121.443345","25.0275916666667","6500500","新莊區"
"242009","132-UY","2018/08/27 20:08:57","新北市新莊區昌盛街35巷1弄2號","121.454083333333","25.0503866666667","6500500","新莊區"
"242039","133-UY","2018/08/27 20:09:05","新北市新莊區民安西路101巷4號","121.427023333333","25.018575","6500500","新莊區"
"242031","135-UY","2018/08/27 20:09:05","新北市新莊區中正路449號","121.443068333333","25.0340383333333","6500500","新莊區"
"242048","172-VK","2018/08/27 20:08:50","新北市新莊區四維路152巷20號","121.422128333333","25.0228416666667","6500500","新莊區"
"242017","175-VK","2018/08/27 20:09:09","新北市新莊區中港路397號","121.451781666667","25.0468233333333","6500500","新莊區"
"242004","176-VK","2018/08/27 20:09:08","新北市新莊區頭興街1-8號","121.463673333333","25.0535716666667","6500500","新莊區"
"242015","346-TH","2018/08/27 20:09:01","新北市新莊區中平路26巷41號","121.446743333333","25.0433166666667","6500500","新莊區"
"242002","349-TH","2018/08/27 20:09:10","新北市新莊區中正路161-1號","121.455393333333","25.036665","6500500","新莊區"
"242019","350-TH","2018/08/27 20:09:04","新北市新莊區思源路38號","121.459873333333","25.0428966666667","6500500","新莊區"
"238021","KEA-2539","2018/08/27 20:09:01","新北市樹林區佳園路一段94號","121.393628333333","24.968685","6500700","樹林區"
"239006","891-R6","2018/08/27 20:08:54","新北市鶯歌區文化路223號","121.354295","24.9534033333333","6500800","鶯歌區"
"239005","526-UM","2018/08/27 20:08:55","新北市鶯歌區中湖街313號","121.346486666667","24.9781683333333","6500800","鶯歌區"
"221008","489-VK","2018/08/27 20:08:54","新北市汐止區忠三街9巷5號","121.624681666667","25.0787966666667","6501100","汐止區"
"221036","130-UY","2018/08/27 20:09:09","新北市汐止區新台五路二段7-1號","121.662225","25.06597","6501100","汐止區"
"221015","131-UY","2018/08/27 20:09:02","新北市汐止區建成路35號","121.663821666667","25.0727616666667","6501100","汐止區"
"221010","269-BY","2018/08/27 20:09:01","新北市汐止區八連路一段198巷2號","121.64284","25.0825383333333","6501100","汐止區"
"221012","278-VK","2018/08/27 20:08:59","新北市汐止區汐平路一段47號","121.682108333333","25.0707483333333","6501100","汐止區"
"221023","279-VK","2018/08/27 20:08:53","新北市汐止區明峰街298巷7弄2號","121.624955","25.06894","6501100","汐止區"
"221032","280-BY","2018/08/27 20:08:55","新北市汐止區弘道街8巷3弄2號","121.617105","25.0480016666667","6501100","汐止區"
"221027","281-BY","2018/08/27 20:09:08","新北市汐止區中正路113號","121.660578333333","25.0694233333333","6501100","汐止區"
"221029","298-VK","2018/08/27 20:09:05","新北市汐止區樟樹一路119巷10弄1號","121.641266666667","25.064555","6501100","汐止區"
"221021","299-VK","2018/08/27 20:09:00","新北市汐止區連興街138號","121.653981666667","25.0616033333333","6501100","汐止區"
"221031","353-TW","2018/08/27 20:09:01","新北市汐止區原興路76巷1號","121.631911666667","25.066485","6501100","汐止區"
"221002","129-UY","2018/08/27 20:09:04","新北市汐止區工建路308號","121.634091666667","25.0601416666667","6501100","汐止區"
"221035","622-UM","2018/08/27 20:09:07","新北市汐止區長江街71號","121.656973333333","25.0719233333333","6501100","汐止區"
"221025","623-UM","2018/08/27 20:09:03","新北市汐止區秀峰路74號","121.65983","25.0643233333333","6501100","汐止區"
"221038","646-BX","2018/08/27 20:09:08","新北市汐止區大同路三段66號","121.668028333333","25.0771633333333","6501100","汐止區"
"221033","647-BX","2018/08/27 20:09:03","新北市汐止區東勢街201巷98號","121.633786666667","25.0431","6501100","汐止區"
"221018","753-BX","2018/08/27 20:09:04","新北市汐止區招商街156-1號","121.671725","25.06682","6501100","汐止區"
"220053","285-VK","2018/08/27 20:09:02","新北市板橋區懷仁街91號","121.477526666667","25.0181433333333","6500100","板橋區"
"220083","286-VK","2018/08/27 20:09:06","新北市板橋區僑中二街88巷31號","121.444761666667","25.009565","6500100","板橋區"
"220081","287-VK","2018/08/27 20:09:03","新北市板橋區僑中一街124巷18弄15號","121.446746666667","25.0136766666667","6500100","板橋區"
"220061","295-UM","2018/08/27 20:09:02","新北市板橋區縣民大道二段200巷5號","121.46982","25.017285","6500100","板橋區"
"242013","281-VK","2018/08/27 20:09:01","新北市新莊區幸福路698號","121.450003333333","25.04936","6500500","新莊區"
"220092","307-R5","2018/08/27 20:09:03","新北市板橋區光正街9巷24弄11號","121.461953333333","25.01598","6500100","板橋區"
"220098","317-R6","2018/08/27 20:08:58","新北市板橋區漢生西路165巷16號","121.462838333333","25.0235283333333","6500100","板橋區"
"242011","280-VK","2018/08/27 20:09:00","新北市新莊區中和街204巷7弄11號","121.44829","25.0506016666667","6500500","新莊區"
"220088","491-VK","2018/08/27 20:09:04","新北市板橋區民治街57巷2號","121.479485","25.0333416666667","6500100","板橋區"
"220103","561-BX","2018/08/27 20:09:07","新北市板橋區自由路26巷12號","121.466173333333","25.0225516666667","6500100","板橋區"
"220093","689-BX","2018/08/27 20:08:54","新北市板橋區民生路三段309號","121.463708333333","25.03119","6500100","板橋區"
"220102","KEA-2699","2018/08/27 20:09:03","新北市板橋區懷德街78巷21號","121.477841666667","25.031165","6500100","板橋區"
"220055","827-TW","2018/08/27 20:08:54","新北市板橋區仁愛路75號","121.460931666667","24.9996816666667","6500100","板橋區"
"220067","829-TW","2018/08/27 20:08:51","新北市板橋區中山路一段206巷22號","121.470971666667","25.012785","6500100","板橋區"
"220068","830-TW","2018/08/27 20:09:06","新北市板橋區中山路二段387號","121.480268333333","25.0193333333333","6500100","板橋區"
"220089","833-TW","2018/08/27 20:09:03","新北市板橋區互助街32號","121.462163333333","25.0272666666667","6500100","板橋區"
"220097","AAC-210","2018/08/27 20:08:52","新北市板橋區光正街30號","121.462163333333","25.0173383333333","6500100","板橋區"
"220070","AAC-253","2018/08/27 20:08:51","新北市板橋區四川路二段245巷93號","121.452853333333","24.9932083333333","6500100","板橋區"
"235068","KEA-2873","2018/08/27 20:08:47","新北市中和區福美路256巷16弄18號","121.498558333333","25.006065","6500300","中和區"
