"lineid","car","time","location","longitude","latitude","cityid","cityname"
"234046","148-BY","2018/08/27 21:35:38","新北市五股區天乙路102-22號","121.448533333333","25.106945","6500400","永和區"
"234005","693-BX","2018/08/27 21:26:55","新北市永和區福和路1號","121.52614","25.009565","6500400","永和區"
"231063","641-BX","2018/08/27 21:38:06","新北市新店區安康路三段2號","121.494041666667","24.953925","6500600","新店區"
"241030","480-VK","2018/08/27 21:38:06","新北市林口區太平里180號","121.367093333333","25.1351083333333","6500200","三重區"
"241005","887-TS","2018/08/27 21:38:05","新北市三重區碧華街50號","121.483508333333","25.0812416666667","6500200","三重區"
"247010","KEA-2869","2018/08/27 21:37:56","新北市五股區中直路15-2號","121.423645","25.1109833333333","6501400","蘆洲區"
"247024","893-R6","2018/08/27 21:37:57","新北市八里區下罟子30-35號","121.367696666667","25.13516","6501400","蘆洲區"
"247012","339-TH","2018/08/27 21:37:08","新北市五股區中直路21號","121.421116666667","25.11203","6501400","蘆洲區"
"251009","008-UM","2018/08/27 21:37:59","新北市淡水區民族路31巷60號","121.4629","25.1367733333333","6501000","淡水區"
"251005","010-UM","2018/08/27 21:38:08","新北市淡水區學府路88號","121.449163333333","25.17092","6501000","淡水區"
"251001","011-UM","2018/08/27 21:37:54","新北市淡水區新市二路三段152號","121.435375","25.19424","6501000","淡水區"
"251016","179-VK","2018/08/27 21:37:52","新北市淡水區淡金路三段28號","121.447811666667","25.198865","6501000","淡水區"
"251014","180-VK","2018/08/27 21:38:05","新北市淡水區牛埔子10-1號","121.449993333333","25.2185433333333","6501000","淡水區"
"251010","413-VK","2018/08/27 21:38:00","新北市淡水區沙崙路232號","121.425545","25.1846533333333","6501000","淡水區"
"251012","441-VK","2018/08/27 21:38:02","新北市淡水區淡金路四段478號","121.451873333333","25.22407","6501000","淡水區"
"251008","442-VK","2018/08/27 21:38:05","新北市淡水區水源街二段90號","121.451753333333","25.1742866666667","6501000","淡水區"
"251004","443-VK","2018/08/27 21:38:02","新北市淡水區民生路12號","121.460878333333","25.13787","6501000","淡水區"
"251006","561-UM","2018/08/27 21:38:10","新北市淡水區中正路97號","121.440178333333","25.16949","6501000","淡水區"
"251011","650-BX","2018/08/27 21:38:07","新北市淡水區新民街218號","121.436021666667","25.18024","6501000","淡水區"
"251002","672-BX","2018/08/27 21:38:02","新北市淡水區學府路159號","121.445883333333","25.174285","6501000","淡水區"
"251003","766-UM","2018/08/27 21:37:52","新北市淡水區新春街53號","121.437976666667","25.18198","6501000","淡水區"
"242039","133-UY","2018/08/27 21:37:54","新北市新莊區新泰路255巷83號","121.442058333333","25.0389666666667","6500500","新莊區"
