"lineid","car","time","location","longitude","latitude","cityid","cityname"
"247010","KEA-2869","2018/08/27 22:18:56","新北市五股區中興路三段163號","121.449098333333","25.0807383333333","6501400","蘆洲區"
"247005","336-TH","2018/08/27 22:19:06","新北市五股區中興路三段2巷10號","121.449166666667","25.0809233333333","6501400","蘆洲區"
"251010","413-VK","2018/08/27 22:18:59","新北市淡水區沙崙路200號","121.424705","25.1839066666667","6501000","淡水區"
"251008","442-VK","2018/08/27 22:19:04","新北市淡水區學府路104號","121.44983","25.1719016666667","6501000","淡水區"
"251004","443-VK","2018/08/27 22:19:02","新北市淡水區民族路33號","121.462251666667","25.1357916666667","6501000","淡水區"
"251011","650-BX","2018/08/27 22:19:07","新北市淡水區水碓街15-1號","121.443196666667","25.1772333333333","6501000","淡水區"
