"lineid","car","time","location","longitude","latitude","cityid","cityname"
"247005","336-TH","2018/08/27 22:22:41","新北市五股區中興路三段2巷10號","121.44907","25.0808683333333","6501400","蘆洲區"
"251010","413-VK","2018/08/27 22:28:59","新北市淡水區沙崙路200號","121.424695","25.1839183333333","6501000","淡水區"
"251008","442-VK","2018/08/27 22:29:04","新北市淡水區學府路104號","121.44986","25.171835","6501000","淡水區"
"251004","443-VK","2018/08/27 22:29:02","新北市淡水區民族路33號","121.46224","25.1357983333333","6501000","淡水區"
"251011","650-BX","2018/08/27 22:29:07","新北市淡水區水碓街15-1號","121.443213333333","25.1772683333333","6501000","淡水區"
