"lineid","car","time","location","longitude","latitude","cityid","cityname"
"248005","653-BX","2018/08/28 07:09:15","新北市五股區新五路二段85號","121.43671","25.0739866666667","6501500","五股區"
"232002","290-BY","2018/08/28 07:08:16","新北市坪林區大粗坑24號","121.709576666667","24.9614883333333","6502000","坪林區"
"232013","291-BY","2018/08/28 07:09:07","新北市坪林區灣潭5-1號","121.675531666667","24.9320866666667","6502000","坪林區"
"232006","758-BX","2018/08/28 07:09:13","新北市坪林區北宜路九段86號","121.7362","24.8945483333333","6502000","坪林區"
"244002","248-BX","2018/08/28 07:09:14","新北市林口區文化北路一段370號","121.36256","25.074225","6501700","林口區"
"235001","611-BX","2018/08/28 07:09:05","新北市中和區圓通路367巷4號","121.491351666667","24.98928","6500300","中和區"
"226005","5620-A6","2018/08/28 07:09:01","新北市平溪區菁桐里菁桐街2號","121.728265","25.0244816666667","6502400","平溪區"
"226002","7418-A5","2018/08/28 07:09:07","新北市平溪區石底里公園街18-3號","121.734066666667","25.0254183333333","6502400","平溪區"
"226006","AGD-0702","2018/08/28 07:09:18","新北市平溪區靜安路二段500號","121.743823333333","25.02672","6502400","平溪區"
"223006","022-BY","2018/08/28 07:09:05","新北市石碇區碇坪路一段196號","121.66974","24.98246","6501900","石碇區"
"223002","KEA-2673","2018/08/28 07:09:16","新北市石碇區碇格路二段16-1號","121.639985","24.9553383333333","6501900","石碇區"
"223003","205-TH","2018/08/28 07:09:00","新北市石碇區摸乳巷6-1號","121.66096","24.9831766666667","6501900","石碇區"
"223008","406-TH","2018/08/28 07:09:03","新北市石碇區十八重溪6號","121.67813","25.0111983333333","6501900","石碇區"
"223001","592-UM","2018/08/28 07:09:07","新北市石碇區摸乳巷6-1號","121.661046666667","24.9831083333333","6501900","石碇區"
"223004","660-BX","2018/08/28 07:09:12","新北市石碇區碇坪路一段18號","121.651961666667","25.0049233333333","6501900","石碇區"
"223005","677-TV","2018/08/28 07:09:02","新北市石碇區碇坪路一段18號","121.651578333333","25.0035833333333","6501900","石碇區"
"227006","282-VK","2018/08/28 06:47:41","新北市雙溪區新基里自強路5號","121.866396666667","25.0390366666667","6502500","雙溪區"
"252004","249-BX","2018/08/28 07:09:04","新北市三芝區錫板里小坑子20號","121.501076666667","25.2353383333333","6502100","三芝區"
"252007","AAC-283","2018/08/28 07:09:05","新北市三芝區福德里埔尾2號","121.502021666667","25.2461483333333","6502100","三芝區"
"236008","165-UM","2018/08/28 07:09:08","新北市土城區中央路三段85-5號","121.437931666667","24.968035","6501300","土城區"
"236002","339-SR","2018/08/28 07:09:04","新北市土城區承天路1號","121.435703333333","24.9662816666667","6501300","土城區"
