"lineid","car","time","location","longitude","latitude","cityid","cityname"
"249005","172-UM","2018/09/10 16:39:25","新北市八里區忠孝路462號","121.41488","25.1613433333333","6502300","八里區"
"249003","593-UM","2018/09/10 16:39:27","新北市八里區博物館路105號","121.409088333333","25.1594566666667","6502300","八里區"
"231046","107-UY","2018/09/10 16:39:44","新北市新店區灣潭路46-1號","121.542536666667","24.945555","6500600","新店區"
"241011","013-R5","2018/09/10 16:39:36","新北市三重區仁愛街43巷8號","121.49706","25.071815","6500200","三重區"
"241028","022-UY","2018/09/10 16:39:27","新北市三重區重新路三段82號","121.49331","25.0608933333333","6500200","三重區"
"241008","059-VK","2018/09/10 16:39:26","新北市三重區永安北路一段27巷41號","121.477618333333","25.07555","6500200","三重區"
"241022","060-VK","2018/09/10 16:39:26","新北市三重區三民街86號","121.48544","25.062705","6500200","三重區"
"241031","061-VK","2018/09/10 16:39:29","新北市三重區重新路四段41巷2弄7號","121.487638333333","25.0576866666667","6500200","三重區"
"241015","062-VK","2018/09/10 16:39:36","新北市三重區文化北路37-2號","121.498945","25.065055","6500200","三重區"
"241017","063-VK","2018/09/10 16:39:33","新北市三重區中正北路25巷9號","121.49254","25.0621966666667","6500200","三重區"
"241024","065-VK","2018/09/10 16:39:40","新北市三重區中正北路315巷6弄70號","121.476626666667","25.0725616666667","6500200","三重區"
"241026","066-VK","2018/09/10 16:39:28","新北市三重區和平街34號","121.501823333333","25.0627033333333","6500200","三重區"
"241002","090-VK","2018/09/10 16:39:24","新北市三重區仁義街241巷1號","121.496503333333","25.0826766666667","6500200","三重區"
"241003","091-VK","2018/09/10 16:39:37","新北市三重區五華街71巷10號","121.492708333333","25.0830166666667","6500200","三重區"
"241009","265-UM","2018/09/10 16:39:30","新北市三重區三和路四段197號","121.482285","25.0792366666667","6500200","三重區"
"241016","266-UM","2018/09/10 16:39:31","新北市三重區大智街5號","121.494711666667","25.0649416666667","6500200","三重區"
"241029","267-UM","2018/09/10 16:39:28","新北市三重區集美街164號","121.490058333333","25.053105","6500200","三重區"
"241018","268-UM","2018/09/10 16:39:45","新北市三重區正義北路338巷35號","121.493455","25.0705266666667","6500200","三重區"
"241032","269-UM","2018/09/10 16:39:23","新北市三重區新北大道一段57巷1號","121.485476666667","25.06131","6500200","三重區"
"241013","270-UM","2018/09/10 16:39:40","新北市三重區三和路三段101巷30號","121.495046666667","25.0728133333333","6500200","三重區"
"241025","271-UM","2018/09/10 16:39:43","新北市三重區中正北路428巷17號","121.474511666667","25.069975","6500200","三重區"
"241007","398-BY","2018/09/10 16:39:34","新北市三重區三和路四段167巷102號","121.485821666667","25.07975","6500200","三重區"
"241004","475-VK","2018/09/10 16:39:44","新北市三重區五福街23號","121.49242","25.0814416666667","6500200","三重區"
"241020","478-VK","2018/09/10 16:39:38","新北市三重區車路頭街62巷7號","121.483983333333","25.07257","6500200","三重區"
"241030","480-VK","2018/09/10 16:39:30","新北市三重區環河南路286號","121.489023333333","25.0489216666667","6500200","三重區"
"241014","543-UM","2018/09/10 16:39:39","新北市三重區龍濱路32號","121.502851666667","25.0681633333333","6500200","三重區"
"241023","545-UM","2018/09/10 16:39:43","新北市三重區忠孝路三段50巷80號","121.482933333333","25.0645283333333","6500200","三重區"
"241001","547-UM","2018/09/10 16:39:42","新北市三重區仁愛街249號","121.493325","25.0780666666667","6500200","三重區"
"241019","KEA-2593","2018/09/10 16:39:29","新北市三重區力行路一段36號","121.486355","25.0679166666667","6500200","三重區"
"241006","AAD-863","2018/09/10 16:39:28","新北市三重區力行路二段162巷9號","121.482551666667","25.0767","6500200","三重區"
"241005","887-TS","2018/09/10 16:39:38","新北市三重區仁華街107號","121.486341666667","25.082995","6500200","三重區"
"241012","941-UM","2018/09/10 16:39:34","新北市三重區仁興街3巷38號","121.500748333333","25.0741016666667","6500200","三重區"
"241033","AAC-255","2018/09/10 16:39:27","新北市三重區光復路一段138-1號","121.472095","25.0528","6500200","三重區"
"247012","KEA-2869","2018/09/10 16:39:29","新北市五股區中興路三段2巷10號","121.448998333333","25.0809133333333","6501400","蘆洲區"
"235026","800-TS","2018/09/10 16:39:38","新北市中和區建八路160號","121.49004","24.99861","6500300","中和區"
"247008","336-TH","2018/09/10 16:39:26","新北市五股區工商路8號","121.440881666667","25.08257","6501400","蘆洲區"
"247010","056-VK","2018/09/10 16:39:26","新北市五股區中興路三段163號","121.449145","25.080545","6501400","蘆洲區"
"247022","001-UY","2018/09/10 16:39:35","新北市五股區中興路三段2巷10號","121.4492","25.0808616666667","6501400","蘆洲區"
"228002","663-BX","2018/09/10 16:39:37","新北市貢寮區貢寮里朝陽街26號","121.91128","25.0216616666667","6502600","貢寮區"
"224007","275-VK","2018/09/10 16:39:38","新北市瑞芳區瑞竹路122號","121.761976666667","25.10396","6501200","瑞芳區"
"224005","271-BY","2018/09/10 16:39:35","新北市瑞芳區洞頂路210-4號","121.86132","25.1246216666667","6501200","瑞芳區"
"227008","642-TC","2018/09/10 16:39:24","新北市雙溪區牡丹里中正路67號","121.864713333333","25.0438766666667","6502500","雙溪區"
"227001","400-TW","2018/09/10 16:39:23","新北市雙溪區外柑里外柑腳56號","121.80798","25.0179083333333","6502500","雙溪區"
"251013","KEA-2871","2018/09/10 16:39:42","新北市淡水區楓樹湖2-2號","121.496545","25.1865816666667","6501000","淡水區"
"251016","179-VK","2018/09/10 16:39:24","新北市淡水區中山北路一段261號","121.444583333333","25.1809283333333","6501000","淡水區"
"251014","180-VK","2018/09/10 16:39:44","新北市淡水區中山北路三段79號","121.44428","25.1923733333333","6501000","淡水區"
"251008","443-VK","2018/09/10 16:39:26","新北市淡水區民生路169號","121.470015","25.1424983333333","6501000","淡水區"
"252002","178-VK","2018/09/10 16:39:43","新北市三芝區茂長里陳厝坑12-9號","121.513815","25.2551966666667","6502100","三芝區"
"252001","292-VK","2018/09/10 16:39:26","新北市三芝區橫山里大坑1-1號","121.511806666667","25.2644","6502100","三芝區"
"238018","571-TV","2018/09/10 16:27:21","新北市樹林區育德街78-1號","121.388061666667","24.9681566666667","6500700","樹林區"
"238022","KEA-2213","2018/09/10 16:09:33","新北市樹林區育德街78-1號","121.387683333333","24.9680133333333","6500700","樹林區"
"238004","283-BY","2018/09/10 16:39:31","新北市樹林區中正路433-2號","121.414778333333","25.0082083333333","6500700","樹林區"
"238001","282-BY","2018/09/10 16:39:39","新北市樹林區大慶街99-1號","121.427805","24.9997233333333","6500700","樹林區"
"238007","268-VK","2018/09/10 16:39:36","新北市樹林區中山路二段237號","121.402116666667","24.9760016666667","6500700","樹林區"
"220062","305-R5","2018/09/10 16:24:25","新北市板橋區民生路二段120號","121.470351666667","25.0198683333333","6500100","板橋區"
