"lineid","car","time","location","longitude","latitude","cityid","cityname"
"234046","148-BY","2018/09/10 19:19:10","新北市永和區得和路373巷27號","121.525008333333","25.0002316666667","6500400","永和區"
"234007","207-UY","2018/09/10 19:19:05","新北市永和區中山路一段240號","121.507576666667","25.0077783333333","6500400","永和區"
"234081","298-R6","2018/09/10 19:19:03","新北市永和區福和路57巷4弄2號","121.522978333333","25.0076033333333","6500400","永和區"
"234038","336-UY","2018/09/10 19:19:00","新北市永和區民樂街55巷2號","121.527421666667","24.99844","6500400","永和區"
"234064","337-UY","2018/09/10 19:19:05","新北市永和區永元路17巷5號","121.521293333333","25.0006033333333","6500400","永和區"
"234086","338-UY","2018/09/10 19:19:04","新北市永和區永貞路158號","121.517591666667","25.0046016666667","6500400","永和區"
"234070","552-UM","2018/09/10 19:19:01","新北市永和區豫溪街74巷1號","121.517175","25.00986","6500400","永和區"
"234017","745-BX","2018/09/10 19:19:09","新北市永和區文化路144巷31弄8號","121.512398333333","25.01679","6500400","永和區"
"234030","746-BX","2018/09/10 19:19:16","新北市永和區厚德街91號","121.52389","24.9988683333333","6500400","永和區"
"234054","KEA-2590","2018/09/10 19:19:13","新北市永和區中興街20號","121.5161","25.0118416666667","6500400","永和區"
"234013","KEA-2591","2018/09/10 19:19:10","新北市永和區保福路二段85號","121.510646666667","25.0127066666667","6500400","永和區"
"234061","AAD-866","2018/09/10 19:19:06","新北市永和區秀朗路一段175號","121.516976666667","25.00371","6500400","永和區"
"234042","862-TW","2018/09/10 19:18:56","新北市永和區保平路151巷9號","121.510338333333","25.0054316666667","6500400","永和區"
"234050","863-TW","2018/09/10 19:19:00","新北市永和區保福路二段88巷1號","121.510591666667","25.0134783333333","6500400","永和區"
"234026","9371-KE","2018/09/10 19:19:03","新北市永和區安樂路144巷19號","121.514686666667","25.0000833333333","6500400","永和區"
"234011","9373-KE","2018/09/10 19:19:08","新北市永和區保福路二段23巷21號","121.51008","25.0112016666667","6500400","永和區"
"249005","172-UM","2018/09/10 19:19:04","新北市八里區中華路三段27號","121.396453333333","25.1431416666667","6502300","八里區"
"249001","173-UM","2018/09/10 19:18:55","新北市八里區中山路一段217巷38號","121.411728333333","25.155615","6502300","八里區"
"248014","025-BX","2018/09/10 19:19:11","新北市五股區民義路一段134-3號","121.434166666667","25.0863733333333","6501500","五股區"
"248008","095-VK","2018/09/10 19:19:06","新北市五股區中興路二段57-6號","121.460483333333","25.07551","6501500","五股區"
"248018","225-UY","2018/09/10 19:19:06","新北市五股區民義路一段255-6號","121.426081666667","25.0914616666667","6501500","五股區"
"248012","247-BX","2018/09/10 19:18:59","新北市五股區中興路四段48巷19號","121.438546666667","25.083565","6501500","五股區"
"248016","261-SL","2018/09/10 19:19:16","新北市五股區成洲五路20號","121.452515","25.1016116666667","6501500","五股區"
"248004","677-BX","2018/09/10 19:18:59","新北市五股區五福路149號","121.431911666667","25.0914966666667","6501500","五股區"
"248002","678-BX","2018/09/10 19:19:11","新北市五股區凌雲路一段158巷6號","121.447766666667","25.1030383333333","6501500","五股區"
"248010","682-TV","2018/09/10 19:18:57","新北市五股區水碓二路1號","121.4306","25.0712816666667","6501500","五股區"
"234023","9380-KE","2018/09/10 19:19:13","新北市永和區竹林路126號","121.519863333333","25.0114033333333","6500400","永和區"
"234077","969-R7","2018/09/10 19:19:18","新北市永和區民族街42號","121.518386666667","24.9988383333333","6500400","永和區"
"234074","AAC-211","2018/09/10 19:19:03","新北市永和區竹林路101號","121.519725","25.01198","6500400","永和區"
"234067","AAC-212","2018/09/10 19:19:10","新北市永和區保平路30巷3號","121.511761666667","25.0075033333333","6500400","永和區"
"234003","AAC-295","2018/09/10 19:19:13","新北市永和區中山路一段147號","121.51026","25.0095566666667","6500400","永和區"
"244023","069-UM","2018/09/10 19:18:55","新北市林口區民族路288號","121.370755","25.07872","6501700","林口區"
"244019","403-UM","2018/09/10 19:19:07","新北市林口區文化三路二段302號","121.377315","25.084185","6501700","林口區"
"244017","485-VK","2018/09/10 19:19:14","新北市林口區文化北路二段70號","121.37046","25.0824466666667","6501700","林口區"
"243013","AAD-798","2018/09/10 19:19:14","新北市泰山區明志路三段145巷2弄5號","121.425308333333","25.0397183333333","6501600","泰山區"
"243009","297-R6","2018/09/10 19:18:56","新北市泰山區文化街1巷2號","121.433851666667","25.0639683333333","6501600","泰山區"
"243016","KEA-2801","2018/09/10 19:19:17","新北市泰山區明志路三段129號","121.425001666667","25.040515","6501600","泰山區"
"243015","421-VK","2018/09/10 19:19:08","新北市泰山區公園路71號","121.426335","25.0554783333333","6501600","泰山區"
"243011","KEA-2215","2018/09/10 19:19:08","新北市泰山區中央路7巷2號","121.426483333333","25.0433383333333","6501600","泰山區"
"243010","KEA-2216","2018/09/10 19:19:14","新北市泰山區明志路一段500號","121.430378333333","25.0545433333333","6501600","泰山區"
"243012","646-TV","2018/09/10 19:19:16","新北市泰山區仁愛路98號","121.433381666667","25.0552083333333","6501600","泰山區"
"243014","680-BX","2018/09/10 19:19:10","新北市泰山區泰林路二段118號","121.434541666667","25.0592733333333","6501600","泰山區"
"222003","436-BY","2018/09/10 19:19:08","新北市深坑區深南路204號","121.626673333333","25.016025","6501800","深坑區"
"222002","659-BX","2018/09/10 19:18:59","新北市深坑區北深路一段210號","121.632675","25.0109316666667","6501800","深坑區"
"231041","002-UM","2018/09/10 19:18:57","新北市新店區溪園路247號","121.525431666667","24.9833333333333","6500600","新店區"
"231059","046-UY","2018/09/10 19:19:07","新北市新店區安和路二段138號","121.51954","24.97248","6500600","新店區"
"231040","047-UY","2018/09/10 19:19:11","新北市新店區三民路45號","121.53706","24.9708666666667","6500600","新店區"
"231044","106-UY","2018/09/10 19:19:07","新北市新店區中興路三段326號","121.542033333333","24.9863283333333","6500600","新店區"
"231046","107-UY","2018/09/10 19:19:04","新北市新店區華城路5-3號","121.529268333333","24.9579","6500600","新店區"
"231052","108-UY","2018/09/10 19:19:05","新北市新店區屈尺路60號","121.547321666667","24.9226816666667","6500600","新店區"
"231047","187-VK","2018/09/10 19:19:03","新北市新店區中興路二段67巷2號","121.546446666667","24.9709166666667","6500600","新店區"
"231054","KEA-2219","2018/09/10 19:19:04","新北市新店區國校路47號","121.537933333333","24.9548916666667","6500600","新店區"
"231042","268-BY","2018/09/10 19:19:10","新北市新店區中興路一段121號","121.541661666667","24.9629933333333","6500600","新店區"
"231051","278-BY","2018/09/10 19:19:00","新北市新店區中央路63號","121.532763333333","24.97706","6500600","新店區"
"231050","AAD-862","2018/09/10 19:19:03","新北市新店區竹林路25巷10號","121.552318333333","24.9513466666667","6500600","新店區"
"231058","3713-VJ","2018/09/10 19:19:04","新北市新店區北新路二段98號","121.542931666667","24.9732483333333","6500600","新店區"
"231066","4716-K9","2018/09/10 19:19:08","新北市新店區安康路三段359巷12弄2號","121.484541666667","24.9501416666667","6500600","新店區"
"231056","4715-K9","2018/09/10 19:19:04","新北市新店區安興路141號","121.516828333333","24.979415","6500600","新店區"
"231067","4772-VM","2018/09/10 19:19:07","新北市新店區安康路一段152號","121.52634","24.9629666666667","6500600","新店區"
"231065","512-UM","2018/09/10 19:19:12","新北市新店區安祥路110巷53號","121.47365","24.9567383333333","6500600","新店區"
"231049","513-UM","2018/09/10 19:19:11","新北市新店區明德路64號","121.541558333333","24.979455","6500600","新店區"
"231061","619-UM","2018/09/10 19:19:10","新北市新店區安康路一段20號","121.531041666667","24.9610766666667","6500600","新店區"
"231063","641-BX","2018/09/10 19:19:20","新北市新店區達觀路14巷1號","121.504633333333","24.9415133333333","6500600","新店區"
"231064","719-UM","2018/09/10 19:19:18","新北市新店區安忠路57巷1-5號","121.513423333333","24.95946","6500600","新店區"
"231062","720-UM","2018/09/10 19:19:16","新北市新店區安康路一段231號","121.525408333333","24.963115","6500600","新店區"
"231060","897-TW","2018/09/10 19:19:03","新北市新店區安康路二段115號","121.512513333333","24.9617066666667","6500600","新店區"
"231045","898-TW","2018/09/10 19:19:12","新北市新店區北宜路一段260號","121.54573","24.9527933333333","6500600","新店區"
"231043","899-TW","2018/09/10 19:19:02","新北市新店區寶橋路3號","121.543611666667","24.97368","6500600","新店區"
"241022","060-VK","2018/09/10 19:19:05","新北市三重區重陽路二段72號","121.48718","25.06424","6500200","三重區"
"241031","061-VK","2018/09/10 19:19:08","新北市三重區重新路四段242號","121.485745","25.0538183333333","6500200","三重區"
"241017","063-VK","2018/09/10 19:19:13","新北市三重區大同北路170號","121.491885","25.0655833333333","6500200","三重區"
"241026","066-VK","2018/09/10 19:19:16","新北市三重區重安街160號","121.495988333333","25.0546366666667","6500200","三重區"
"241009","265-UM","2018/09/10 19:19:08","新北市三重區仁美街115號","121.485668333333","25.0810683333333","6500200","三重區"
"241029","267-UM","2018/09/10 19:19:07","新北市三重區重安街24號","121.490435","25.0580516666667","6500200","三重區"
"241032","269-UM","2018/09/10 19:19:11","新北市三重區新生街97號","121.483431666667","25.0593783333333","6500200","三重區"
"241013","270-UM","2018/09/10 19:19:03","新北市三重區仁愛街99號","121.495696666667","25.073875","6500200","三重區"
"241025","271-UM","2018/09/10 19:19:00","新北市三重區中正北路404號","121.475445","25.0705066666667","6500200","三重區"
"241007","398-BY","2018/09/10 19:19:13","新北市三重區慈愛街52號","121.486328333333","25.079275","6500200","三重區"
"241035","462-BY","2018/09/10 19:19:12","新北市三重區重陽路三段5巷30號","121.491201666667","25.0653783333333","6500200","三重區"
"241020","478-VK","2018/09/10 19:18:58","新北市三重區忠孝路一段87號","121.49","25.07226","6500200","三重區"
"241030","480-VK","2018/09/10 19:19:10","新北市三重區新興路40號","121.491503333333","25.0534533333333","6500200","三重區"
"235066","003-UY","2018/09/10 19:19:18","新北市中和區中和路119號","121.501611666667","25.00008","6500300","中和區"
"235063","006-UY","2018/09/10 19:19:06","新北市中和區連城路249巷3號","121.49373","24.9968616666667","6500300","中和區"
"235056","096-UM","2018/09/10 19:19:12","新北市中和區中正路1191號","121.480568333333","25.009945","6500300","中和區"
"235039","097-UM","2018/09/10 19:19:02","新北市中和區秀峰街79巷2號","121.521818333333","24.9901716666667","6500300","中和區"
"235065","098-UM","2018/09/10 19:19:01","新北市中和區中山路二段64巷6號","121.503705","25.0049666666667","6500300","中和區"
"235040","150-BY","2018/09/10 19:19:07","新北市中和區保健路50巷68號","121.509205","24.9951333333333","6500300","中和區"
"235058","151-BY","2018/09/10 19:19:09","新北市中和區員山路36巷16-8號","121.485395","24.9923933333333","6500300","中和區"
"235055","183-VK","2018/09/10 19:19:06","新北市中和區中山路三段213-15號","121.472045","25.0027016666667","6500300","中和區"
"235038","185-VK","2018/09/10 19:19:03","新北市中和區大仁街108號","121.52051","24.9927816666667","6500300","中和區"
"235049","186-VK","2018/09/10 19:18:55","新北市中和區景新街165號","121.506555","24.9958366666667","6500300","中和區"
"235067","255-BX","2018/09/10 19:19:18","新北市中和區民樂路81號","121.484533333333","25.0013366666667","6500300","中和區"
"235044","293-VK","2018/09/10 19:19:14","新北市中和區中興街266巷2號","121.49853","24.9875116666667","6500300","中和區"
"235072","301-VK","2018/09/10 19:19:13","新北市中和區連城路215號","121.49439","24.9978133333333","6500300","中和區"
"235043","352-BY","2018/09/10 19:19:07","新北市中和區景平路370號","121.510966666667","24.9928416666667","6500300","中和區"
"235042","KEA-2878","2018/09/10 19:18:59","新北市中和區安樂路217巷21弄16號","121.513976666667","24.9977433333333","6500300","中和區"
"235050","4979-A6","2018/09/10 19:19:10","新北市中和區景安路208巷31號","121.502326666667","24.9922983333333","6500300","中和區"
"235069","4980-A6","2018/09/10 19:19:15","新北市中和區中山路二段181巷16號","121.50107","25.0021816666667","6500300","中和區"
"235070","558-UM","2018/09/10 19:19:06","新北市中和區中山路二段264號","121.497281666667","25.002425","6500300","中和區"
"235045","565-BX","2018/09/10 19:19:10","新北市中和區景新街423巷35弄23號","121.513876666667","24.9904933333333","6500300","中和區"
"235054","640-BX","2018/09/10 19:19:01","新北市中和區國光街107巷2弄25號","121.46963","24.999265","6500300","中和區"
"235047","732-UM","2018/09/10 19:19:08","新北市中和區和平街38巷27號","121.509546666667","24.9912066666667","6500300","中和區"
"235046","733-UM","2018/09/10 19:19:06","新北市中和區華新街117號","121.507125","24.9821066666667","6500300","中和區"
"235071","783-BX","2018/09/10 19:19:11","新北市中和區中正路639號","121.485136666667","24.995455","6500300","中和區"
"235062","800-TS","2018/09/10 19:19:15","新北市中和區中山路二段552號","121.483758333333","25.005155","6500300","中和區"
"235057","801-TS","2018/09/10 19:18:56","新北市中和區員山路184號","121.481266666667","25.000295","6500300","中和區"
"235041","802-TS","2018/09/10 19:19:13","新北市中和區中和路294號","121.508666666667","24.9997183333333","6500300","中和區"
"235052","805-TS","2018/09/10 19:19:16","新北市中和區興南路二段116號","121.504785","24.9838366666667","6500300","中和區"
"235048","896-TW","2018/09/10 19:19:14","新北市中和區忠孝街60巷7號","121.51163","24.9837866666667","6500300","中和區"
"235053","900-TW","2018/09/10 19:19:11","新北市中和區華安街21巷4號","121.467536666667","24.9974216666667","6500300","中和區"
"235060","911-UM","2018/09/10 19:18:47","新北市中和區台新街9號","121.479213333333","25.0053","6500300","中和區"
"235051","157-BY","2018/09/10 19:19:14","新北市中和區和平街2巷3號","121.510073333333","24.99033","6500300","中和區"
"235037","AAC-213","2018/09/10 19:19:01","新北市中和區秀朗路三段10巷37弄4號","121.524006666667","24.9958433333333","6500300","中和區"
"235059","AAC-215","2018/09/10 19:19:12","新北市中和區錦和路400號","121.491036666667","24.9899416666667","6500300","中和區"
"220069","015-TV","2018/09/10 19:19:08","新北市板橋區華興街46號","121.458406666667","25.0047716666667","6500100","板橋區"
"220065","072-UY","2018/09/10 19:19:10","新北市板橋區長安街48巷1號","121.468143333333","25.0088566666667","6500100","板橋區"
"220086","073-UY","2018/09/10 19:19:05","新北市板橋區中正路216巷56號","121.45755","25.0187783333333","6500100","板橋區"
"220106","075-UY","2018/09/10 19:19:04","新北市板橋區雙十路三段15號","121.471045","25.0311066666667","6500100","板橋區"
"220090","120-SR","2018/09/10 19:19:18","新北市板橋區長江路一段106巷13弄24號","121.461036666667","25.029545","6500100","板橋區"
"226004","312-R5","2018/09/10 19:19:09","新北市平溪區南山里南山坪38號","121.775443333333","25.0391716666667","6502400","平溪區"
"228003","097-TW","2018/09/10 19:19:09","新北市貢寮區和美里和美街22-1號","121.912836666667","25.08267","6502600","貢寮區"
"228002","663-BX","2018/09/10 19:19:17","新北市貢寮區龍門里復興街46-1號","121.928341666667","25.0296016666667","6502600","貢寮區"
"228001","670-TC","2018/09/10 19:19:15","新北市貢寮區真理里新港街10號","121.925541666667","25.05436","6502600","貢寮區"
"224010","AGQ-8101","2018/09/10 18:52:51","新北市瑞芳區汽車路9-7號","121.845063333333","25.10999","6501200","瑞芳區"
"224002","639-TC","2018/09/10 19:19:00","新北市瑞芳區靜安路四段67號","121.794533333333","25.1040183333333","6501200","瑞芳區"
"224008","285-BY","2018/09/10 19:19:13","新北市瑞芳區一坑路122號","121.802443333333","25.1085633333333","6501200","瑞芳區"
"227008","642-TC","2018/09/10 19:18:59","新北市雙溪區新基里新基北街40號","121.868565","25.0380716666667","6502500","雙溪區"
"227001","400-TW","2018/09/10 19:19:03","新北市雙溪區平林里梅竹蹊66-1號","121.860178333333","25.0358483333333","6502500","雙溪區"
"253006","032-BX","2018/09/10 19:19:01","新北市石門區崁子腳18-9號","121.534323333333","25.2901366666667","6502200","石門區"
"253005","295-VK","2018/09/10 19:18:58","新北市石門區阿里荖5號","121.611571666667","25.279455","6502200","石門區"
"222001","KEA-2212","2018/09/10 19:19:14","新北市深坑區北深路二段97號","121.617655","25.0035033333333","6501800","深坑區"
"208002","KEA-2872","2018/09/10 19:19:05","新北市金山區中正路67號","121.633895","25.2218283333333","6502700","金山區"
"208003","665-BX","2018/09/10 19:18:57","新北市金山區忠孝一路24-1號","121.638331666667","25.2196533333333","6502700","金山區"
"208001","761-BX","2018/09/10 19:19:12","新北市金山區中山路111號","121.639556666667","25.2195516666667","6502700","金山區"
"251005","010-UM","2018/09/10 19:19:07","新北市淡水區水源街一段25號","121.442966666667","25.1723133333333","6501000","淡水區"
"251013","KEA-2871","2018/09/10 19:19:02","新北市淡水區安子內12號","121.480953333333","25.219445","6501000","淡水區"
"251016","179-VK","2018/09/10 19:19:04","新北市淡水區下圭柔山119-51號","121.450716666667","25.20848","6501000","淡水區"
"251014","180-VK","2018/09/10 19:19:03","新北市淡水區小中寮19-7號","121.48478","25.2296216666667","6501000","淡水區"
"251015","181-VK","2018/09/10 19:19:16","新北市淡水區山子邊16巷2號","121.485305","25.1833233333333","6501000","淡水區"
"251010","413-VK","2018/09/10 19:19:08","新北市淡水區沙崙路27號","121.421438333333","25.181575","6501000","淡水區"
"251007","442-VK","2018/09/10 19:19:07","新北市淡水區民生路145巷58號","121.468016666667","25.138805","6501000","淡水區"
"251001","559-UM","2018/09/10 19:19:14","新北市淡水區自強路201巷39號","121.462101666667","25.1268066666667","6501000","淡水區"
"251006","561-UM","2018/09/10 19:19:15","新北市淡水區大信街40-8號","121.441981666667","25.17737","6501000","淡水區"
"251009","575-R6","2018/09/10 19:19:02","新北市淡水區中山路95巷2-9號","121.44162","25.1704666666667","6501000","淡水區"
"251003","766-UM","2018/09/10 19:19:01","新北市淡水區中山北路一段168號","121.444453333333","25.178835","6501000","淡水區"
"207003","550-UM","2018/09/10 19:19:03","新北市萬里區大鵬里萬里加投79-3號","121.647691666667","25.2126516666667","6502800","萬里區"
"207004","225-TW","2018/09/10 19:18:57","新北市萬里區萬里里成功新村63號","121.68827","25.17462","6502800","萬里區"
"252002","178-VK","2018/09/10 19:19:01","新北市三芝區淡金路二段18-1號","121.502706666667","25.259545","6502100","三芝區"
"252001","292-VK","2018/09/10 19:19:06","新北市三芝區長勤街9巷11弄3號","121.501843333333","25.2547","6502100","三芝區"
"237007","153-BY","2018/09/10 19:19:00","新北市三峽區二鬮路178號","121.359135","24.9068616666667","6500900","三峽區"
"237009","210-TH","2018/09/10 19:19:18","新北市三峽區民生街165號","121.372565","24.9347766666667","6500900","三峽區"
"237013","252-BX","2018/09/10 19:19:08","新北市三峽區大同路39巷7號","121.377021666667","24.9278833333333","6500900","三峽區"
"237012","275-BY","2018/09/10 19:19:07","新北市三峽區三樹路222巷196-31號","121.389405","24.9426016666667","6500900","三峽區"
"237008","302-VK","2018/09/10 19:19:01","新北市三峽區光明路106巷10號","121.376363333333","24.92738","6500900","三峽區"
"237014","433-BY","2018/09/10 19:19:07","新北市三峽區中山路184巷2號","121.364098333333","24.9368416666667","6500900","三峽區"
"237004","280-TH","2018/09/10 19:19:14","新北市三峽區有木206號","121.439166666667","24.8517633333333","6500900","三峽區"
"237006","5529-G3","2018/09/10 19:19:13","新北市三峽區介壽路一段383-1號","121.38762","24.9338233333333","6500900","三峽區"
"237011","KEA-2596","2018/09/10 19:19:14","新北市三峽區介壽路三段107號","121.395498333333","24.939315","6500900","三峽區"
"237015","649-BX","2018/09/10 19:19:03","新北市三峽區建安77-1號","121.451071666667","24.9241616666667","6500900","三峽區"
"237010","706-TV","2018/09/10 19:19:13","新北市三峽區國光街45號","121.374733333333","24.93779","6500900","三峽區"
"237005","AKY-6261","2018/09/10 19:19:10","新北市三峽區中山路459巷24號","121.357531666667","24.9390283333333","6500900","三峽區"
"236069","105-UM","2018/09/10 19:19:13","新北市土城區中央路一段67-1號","121.44773","24.98978","6501300","土城區"
"236078","166-UM","2018/09/10 19:16:34","新北市土城區龍泉路41-1號","121.416148333333","24.9434266666667","6501300","土城區"
"236026","269-VK","2018/09/10 19:19:02","新北市土城區中正路67巷27號","121.444338333333","24.9766266666667","6501300","土城區"
"236014","270-VK","2018/09/10 19:19:02","新北市土城區學府路一段23巷25弄32號","121.457408333333","24.9862433333333","6501300","土城區"
"236020","401-BY","2018/09/10 19:19:05","新北市土城區金城路三段198號","121.468646666667","24.9878616666667","6501300","土城區"
"236059","752-BX","2018/09/10 19:19:04","新北市土城區中央路二段274號","121.441185","24.9743183333333","6501300","土城區"
"236048","913-UM","2018/09/10 19:19:16","新北市土城區明德路一段365-1號","121.453668333333","24.9791066666667","6501300","土城區"
"236063","915-UM","2018/09/10 19:19:09","新北市土城區金城路三段171號","121.469273333333","24.9885866666667","6501300","土城區"
"242048","497-BY","2018/09/10 19:19:04","新北市新莊區後港一路3號","121.424153333333","25.02633","6500500","新莊區"
"242013","173-VK","2018/09/10 19:19:00","新北市新莊區三和路12-21號","121.44194","25.0389083333333","6500500","新莊區"
"238015","755-BX","2018/09/10 19:19:11","新北市樹林區大安路502號","121.413866666667","24.9863183333333","6500700","樹林區"
"238023","601-UM","2018/09/10 19:19:15","新北市樹林區三興路77號","121.392876666667","25.0145466666667","6500700","樹林區"
"238019","599-UM","2018/09/10 19:19:07","新北市樹林區鎮前街347巷3弄27號","121.417383333333","24.9838466666667","6500700","樹林區"
"238018","571-TV","2018/09/10 19:19:14","新北市樹林區太元街1號","121.417578333333","24.981115","6500700","樹林區"
"238024","5061-A6","2018/09/10 19:19:04","新北市樹林區福德街22號","121.40107","24.9757883333333","6500700","樹林區"
"238022","KEA-2213","2018/09/10 19:18:59","新北市樹林區中華路275號","121.41757","24.980185","6500700","樹林區"
"238021","KEA-2539","2018/09/10 19:19:07","新北市樹林區柑園街二段303巷18-1號","121.37245","24.9494183333333","6500700","樹林區"
"238012","303-VK","2018/09/10 19:19:12","新北市樹林區中山路三段125-1號","121.397208333333","24.9735516666667","6500700","樹林區"
"238017","283-BY","2018/09/10 19:18:31","新北市樹林區光興街249號","121.407041666667","25.005385","6500700","樹林區"
"238014","282-BY","2018/09/10 19:18:59","新北市樹林區千歲街57號","121.425725","24.9968533333333","6500700","樹林區"
"238020","268-VK","2018/09/10 19:19:16","新北市樹林區俊英街123巷25號","121.4238","25.01051","6500700","樹林區"
"238026","172-UY","2018/09/10 19:19:09","新北市樹林區地政街17號","121.394295","24.9718033333333","6500700","樹林區"
"238016","169-UY","2018/09/10 19:19:10","新北市樹林區復興路466號","121.41336","24.9836183333333","6500700","樹林區"
"239007","AAC-297","2018/09/10 19:19:11","新北市鶯歌區中山路138巷34號","121.349653333333","24.957895","6500800","鶯歌區"
"239006","891-R6","2018/09/10 19:19:11","新北市鶯歌區鶯桃路296巷32號","121.33533","24.9608583333333","6500800","鶯歌區"
"239008","527-UM","2018/09/10 19:19:03","新北市鶯歌區大湖路564號","121.336696666667","24.9731066666667","6500800","鶯歌區"
"239005","526-UM","2018/09/10 19:19:05","新北市鶯歌區中湖街19號","121.346888333333","24.97286","6500800","鶯歌區"
"239001","417-VK","2018/09/10 19:19:14","新北市鶯歌區建國路596巷12號","121.340226666667","24.9517966666667","6500800","鶯歌區"
"239003","360-BY","2018/09/10 19:19:09","新北市鶯歌區重慶街10巷2號","121.351866666667","24.95271","6500800","鶯歌區"
"239004","193-VK","2018/09/10 19:19:06","新北市鶯歌區二甲路106巷2號","121.333886666667","24.9313383333333","6500800","鶯歌區"
"221008","489-VK","2018/09/10 19:19:10","新北市汐止區康寧街334號","121.627693333333","25.0674266666667","6501100","汐止區"
"221036","130-UY","2018/09/10 19:19:04","新北市汐止區康寧街901號","121.65173","25.0749533333333","6501100","汐止區"
"221012","278-VK","2018/09/10 19:19:16","新北市汐止區汐萬路一段312號","121.650476666667","25.0751233333333","6501100","汐止區"
"221023","279-VK","2018/09/10 19:18:57","新北市汐止區康寧街901號","121.650995","25.07516","6501100","汐止區"
"221027","281-BY","2018/09/10 19:19:00","新北市汐止區康寧街901號","121.650801666667","25.07524","6501100","汐止區"
"221029","298-VK","2018/09/10 19:19:08","新北市汐止區康寧街901號","121.651453333333","25.0749616666667","6501100","汐止區"
"221021","299-VK","2018/09/10 19:19:01","新北市汐止區康寧街901號","121.651508333333","25.075035","6501100","汐止區"
"221031","353-TW","2018/09/10 19:19:12","新北市汐止區連峰街1巷1號","121.646931666667","25.07608","6501100","汐止區"
"221025","623-UM","2018/09/10 19:19:02","新北市汐止區康寧街901號","121.651616666667","25.07492","6501100","汐止區"
"221038","646-BX","2018/09/10 19:19:07","新北市汐止區汐萬路一段312號","121.650686666667","25.0753566666667","6501100","汐止區"
"221002","707-TV","2018/09/10 19:19:09","新北市汐止區大同路一段312號","121.637308333333","25.0587933333333","6501100","汐止區"
"220079","145-BY","2018/09/10 19:19:16","新北市板橋區民權路202巷17弄20號","121.459961666667","25.016715","6500100","板橋區"
"220080","200-UY","2018/09/10 19:19:07","新北市板橋區大觀路二段19巷78號","121.448705","25.0028733333333","6500100","板橋區"
"220082","610-BX","2018/09/10 19:19:17","新北市板橋區金門街299號","121.43012","24.9864816666667","6500100","板橋區"
"220101","245-BX","2018/09/10 19:19:15","新北市板橋區莊敬路39號","121.47362","25.0272183333333","6500100","板橋區"
"220091","267-BY","2018/09/10 19:19:08","新北市板橋區萬板路456號","121.479228333333","25.0256033333333","6500100","板橋區"
"220056","276-BY","2018/09/10 19:18:59","新北市板橋區信義路85號","121.45729","24.993955","6500100","板橋區"
"220071","283-VK","2018/09/10 19:19:15","新北市板橋區重慶路295巷5號","121.463981666667","24.9992433333333","6500100","板橋區"
"220094","285-UM","2018/09/10 19:19:13","新北市板橋區吳鳳路82號","121.467036666667","25.0312183333333","6500100","板橋區"
"220053","285-VK","2018/09/10 19:12:09","新北市中和區工專路133號","121.50845","24.979195","6500100","板橋區"
"220083","286-VK","2018/09/10 19:19:19","新北市板橋區大觀路二段174巷186弄9號","121.442863333333","25.0034866666667","6500100","板橋區"
"220081","287-VK","2018/09/10 19:19:07","新北市板橋區南雅西路一段63巷2號","121.452571666667","25.0076616666667","6500100","板橋區"
"220061","293-UM","2018/09/10 19:19:13","新北市板橋區三民路二段21巷28號","121.48033","25.0181216666667","6500100","板橋區"
"220084","296-UM","2018/09/10 19:19:15","新北市板橋區溪北路71號","121.428221666667","24.9897383333333","6500100","板橋區"
"220075","303-R5","2018/09/10 19:19:03","新北市板橋區中正路275巷93號","121.450641666667","25.0180116666667","6500100","板橋區"
"220062","305-R5","2018/09/10 19:19:18","新北市板橋區三民路二段153巷36弄2號","121.481103333333","25.0140816666667","6500100","板橋區"
"220092","307-R5","2018/09/10 19:19:03","新北市板橋區光武街46巷11號","121.46774","25.0264766666667","6500100","板橋區"
"220098","317-R6","2018/09/10 19:19:01","新北市板橋區民有街67號","121.465181666667","25.02684","6500100","板橋區"
"220064","486-VK","2018/09/10 19:19:06","新北市板橋區縣民大道二段82號","121.465151666667","25.0143333333333","6500100","板橋區"
"220088","491-VK","2018/09/10 19:19:06","新北市板橋區雙十路二段4號","121.477215","25.02547","6500100","板橋區"
"220035","560-BX","2018/09/10 19:19:14","新北市板橋區中正路360巷33號","121.455573333333","25.02335","6500100","板橋區"
"220103","561-BX","2018/09/10 19:19:12","新北市板橋區文化路一段188巷7弄13號","121.46766","25.0197516666667","6500100","板橋區"
"220063","609-BX","2018/09/10 19:19:05","新北市板橋區三民路二段201號","121.479141666667","25.013805","6500100","板橋區"
"220057","686-BX","2018/09/10 19:19:15","新北市板橋區和平路153號","121.46336","24.9955983333333","6500100","板橋區"
"220077","687-BX","2018/09/10 19:19:15","新北市板橋區僑中一街2號","121.449546666667","25.01119","6500100","板橋區"
"220093","689-BX","2018/09/10 19:19:03","新北市板橋區文化路一段190號","121.465995","25.0198833333333","6500100","板橋區"
"220054","741-BX","2018/09/10 19:19:14","新北市板橋區重慶路153號","121.462445","25.0039966666667","6500100","板橋區"
"220102","KEA-2699","2018/09/10 19:18:57","新北市板橋區文聖街176號","121.479136666667","25.0270383333333","6500100","板橋區"
"220055","827-TW","2018/09/10 19:19:13","新北市板橋區館前東路156巷8號","121.46435","25.00726","6500100","板橋區"
"220067","829-TW","2018/09/10 19:19:06","新北市板橋區長安街138巷1弄57號","121.474291666667","25.010515","6500100","板橋區"
"220068","830-TW","2018/09/10 19:19:05","新北市板橋區翠華街6巷71-1號","121.481126666667","25.02503","6500100","板橋區"
"220096","831-TW","2018/09/10 19:19:13","新北市板橋區大同街8巷43號","121.477838333333","25.0262883333333","6500100","板橋區"
"220089","833-TW","2018/09/10 19:19:15","新北市板橋區文化路一段322-1號","121.467736666667","25.02229","6500100","板橋區"
"220074","895-R6","2018/09/10 19:19:01","新北市板橋區中正路25巷16號","121.45482","25.0128983333333","6500100","板橋區"
"220073","985-R7","2018/09/10 19:19:14","新北市板橋區新生街16號","121.455636666667","25.021035","6500100","板橋區"
"220097","AAC-210","2018/09/10 19:19:16","新北市板橋區幸福路60巷4號","121.460753333333","25.020895","6500100","板橋區"
"220070","AAC-253","2018/09/10 19:19:19","新北市板橋區忠孝路128號","121.463195","25.00226","6500100","板橋區"
"235068","KEA-2873","2018/09/10 19:19:05","新北市中和區連城路203巷10弄31號","121.49535","24.9962266666667","6500300","中和區"
"235061","KEA-2875","2018/09/10 19:19:16","新北市中和區員山路244號","121.481378333333","25.0014566666667","6500300","中和區"
