"lineid","car","time","location","longitude","latitude","cityid","cityname"
"234046","148-BY","2018/09/10 19:48:31","新北市永和區成功路一段84號","121.526351666667","25.0029983333333","6500400","永和區"
"234007","207-UY","2018/09/10 19:48:44","新北市中和區中和路236號","121.506886666667","24.99958","6500400","永和區"
"234081","298-R6","2018/09/10 19:48:43","新北市永和區國中路2號","121.524273333333","25.0043083333333","6500400","永和區"
"234038","336-UY","2018/09/10 19:48:48","新北市永和區民樂街39巷18弄42號","121.528465","24.99913","6500400","永和區"
"234064","337-UY","2018/09/10 19:48:45","新北市永和區中正路368巷8號","121.51807","25.000725","6500400","永和區"
"234086","338-UY","2018/09/10 19:48:44","新北市永和區永亨路132號","121.524718333333","25.00396","6500400","永和區"
"234070","552-UM","2018/09/10 19:48:41","新北市永和區竹林路88號","121.519336666667","25.0125383333333","6500400","永和區"
"234017","745-BX","2018/09/10 19:48:43","新北市永和區忠孝街26巷8號","121.515486666667","25.0167566666667","6500400","永和區"
"234030","746-BX","2018/09/10 19:48:47","新北市永和區民生路67巷29號","121.524265","24.997335","6500400","永和區"
"234054","KEA-2590","2018/09/10 19:48:32","新北市永和區竹林路75巷15-1號","121.51958","25.0136366666667","6500400","永和區"
"234013","KEA-2591","2018/09/10 19:48:31","新北市永和區仁愛路203號","121.50992","25.01255","6500400","永和區"
"234061","AAD-866","2018/09/10 19:48:46","新北市永和區民有街1號","121.515823333333","24.997555","6500400","永和區"
"234042","862-TW","2018/09/10 19:48:36","新北市永和區中和路305巷20弄1號","121.507773333333","25.0019766666667","6500400","永和區"
"234050","863-TW","2018/09/10 19:48:40","新北市永和區環河西路一段107號","121.511091666667","25.0174183333333","6500400","永和區"
"234026","9371-KE","2018/09/10 19:48:48","新北市永和區雙和街5號","121.509691666667","25.0017116666667","6500400","永和區"
"234011","9373-KE","2018/09/10 19:48:46","新北市永和區仁愛路352巷86號","121.501351666667","25.0077666666667","6500400","永和區"
"249001","173-UM","2018/09/10 19:48:45","新北市八里區中華路二段252號","121.405368333333","25.149665","6502300","八里區"
"249004","303-UY","2018/09/10 19:48:34","新北市八里區仁愛路79號","121.411673333333","25.1598633333333","6502300","八里區"
"249002","305-UY","2018/09/10 19:48:43","新北市八里區頂寮三街16號","121.451633333333","25.12584","6502300","八里區"
"249003","593-UM","2018/09/10 19:48:47","新北市八里區華峰三街35號","121.398436666667","25.1453533333333","6502300","八里區"
"248014","025-BX","2018/09/10 19:48:31","新北市五股區五福路32巷23號","121.435101666667","25.0898933333333","6501500","五股區"
"248008","095-VK","2018/09/10 19:48:26","新北市蘆洲區中山二路300巷2號","121.46872","25.0770466666667","6501500","五股區"
"248018","225-UY","2018/09/10 19:48:46","新北市五股區外寮路1-5號","121.426188333333","25.076975","6501500","五股區"
"248012","247-BX","2018/09/10 19:48:39","新北市五股區蓬萊路24號","121.433908333333","25.0798966666667","6501500","五股區"
"248016","261-SL","2018/09/10 19:48:36","新北市五股區成泰路三段544-18號","121.452583333333","25.1031566666667","6501500","五股區"
"248004","677-BX","2018/09/10 19:48:38","新北市五股區成泰路一段103號","121.435738333333","25.07096","6501500","五股區"
"248002","678-BX","2018/09/10 19:48:31","新北市五股區成泰路三段544-18號","121.452818333333","25.1034666666667","6501500","五股區"
"248010","682-TV","2018/09/10 19:48:37","新北市五股區登林路貿商巷1弄1號","121.430475","25.0695983333333","6501500","五股區"
"234077","969-R7","2018/09/10 19:48:38","新北市永和區民權路1巷18號","121.521163333333","24.9980383333333","6500400","永和區"
"234074","AAC-211","2018/09/10 19:48:43","新北市永和區竹林路213巷21號","121.522193333333","25.0089733333333","6500400","永和區"
"234067","AAC-212","2018/09/10 19:48:30","新北市永和區中山路一段213號","121.508653333333","25.00809","6500400","永和區"
"234003","AAC-295","2018/09/10 19:48:33","新北市永和區福和路346號","121.514998333333","25.0072266666667","6500400","永和區"
"243013","AAD-798","2018/09/10 19:42:53","新北市泰山區應化街7號","121.423906666667","25.04372","6501600","泰山區"
"243009","297-R6","2018/09/10 19:48:37","新北市泰山區美寧街60號","121.430973333333","25.064645","6501600","泰山區"
"243016","KEA-2801","2018/09/10 19:48:37","新北市泰山區新北大道七段97號","121.417773333333","25.0320533333333","6501600","泰山區"
"243015","421-VK","2018/09/10 19:48:48","新北市泰山區明志路二段235號","121.427348333333","25.0481666666667","6501600","泰山區"
"243011","KEA-2215","2018/09/10 19:48:48","新北市泰山區明志路三段196巷21弄5號","121.423325","25.0383466666667","6501600","泰山區"
"243010","KEA-2216","2018/09/10 19:48:30","新北市泰山區民生路33號","121.430801666667","25.0521416666667","6501600","泰山區"
"243012","646-TV","2018/09/10 19:48:36","新北市泰山區全興路13號","121.43232","25.0589466666667","6501600","泰山區"
"243014","680-BX","2018/09/10 19:48:50","新北市泰山區泰林路二段33-7號","121.435201666667","25.05637","6501600","泰山區"
"222003","436-BY","2018/09/10 19:48:28","新北市深坑區深南路51-1號","121.62116","25.0099933333333","6501800","深坑區"
"222002","659-BX","2018/09/10 19:48:39","新北市深坑區翠谷街17巷3弄9號","121.62554","25.00711","6501800","深坑區"
"231041","002-UM","2018/09/10 19:48:37","新北市新店區中央路210號","121.530075","24.9736916666667","6500600","新店區"
"231059","046-UY","2018/09/10 19:48:46","新北市新店區安和路二段193號","121.51802","24.9749116666667","6500600","新店區"
"231040","047-UY","2018/09/10 19:48:31","新北市新店區中正路75巷71號","121.543101666667","24.968755","6500600","新店區"
"231044","106-UY","2018/09/10 19:48:47","新北市新店區復興路107號","121.534561666667","24.987935","6500600","新店區"
"231046","107-UY","2018/09/10 19:48:44","新北市新店區福園街10巷1號","121.532723333333","24.972795","6500600","新店區"
"231052","108-UY","2018/09/10 19:48:45","新北市新店區新烏路三段115號","121.552241666667","24.9029366666667","6500600","新店區"
"231047","187-VK","2018/09/10 19:48:43","新北市新店區五峰路61巷16號","121.549141666667","24.96956","6500600","新店區"
"231054","KEA-2219","2018/09/10 19:48:44","新北市新店區光明街55號","121.538771666667","24.9601933333333","6500600","新店區"
"231057","256-BX","2018/09/10 19:48:46","新北市新店區梅崗三路1號","121.55838","24.931245","6500600","新店區"
"231042","268-BY","2018/09/10 19:48:30","新北市新店區中興路一段266號","121.544908333333","24.9672566666667","6500600","新店區"
"231051","278-BY","2018/09/10 19:48:44","新北市新店區中央二街32號","121.528056666667","24.9737466666667","6500600","新店區"
"231050","AAD-862","2018/09/10 19:48:43","新北市新店區郵政路4巷59號","121.555668333333","24.9518416666667","6500600","新店區"
"231066","4716-K9","2018/09/10 19:48:28","新北市新店區安康路三段23號","121.493308333333","24.9533166666667","6500600","新店區"
"231056","4715-K9","2018/09/10 19:48:44","新北市新店區民權路72號","121.538193333333","24.982995","6500600","新店區"
"231067","4772-VM","2018/09/10 19:48:47","新北市新店區精忠路10-1號","121.532621666667","24.9591016666667","6500600","新店區"
"231065","512-UM","2018/09/10 19:48:32","新北市新店區安祥路109巷90弄20號","121.477465","24.95949","6500600","新店區"
"231049","513-UM","2018/09/10 19:48:31","新北市新店區民權路88-5號","121.536363333333","24.983385","6500600","新店區"
"231061","619-UM","2018/09/10 19:48:30","新北市新店區安民街176號","121.516891666667","24.9708933333333","6500600","新店區"
"231063","641-BX","2018/09/10 19:48:40","新北市新店區車子路11號","121.503023333333","24.952045","6500600","新店區"
"231068","718-UY","2018/09/10 19:48:39","新北市新店區安華路28-1號","121.51945","24.9609883333333","6500600","新店區"
"231064","719-UM","2018/09/10 19:48:49","新北市新店區安和路二段111號","121.518818333333","24.9700166666667","6500600","新店區"
"231062","720-UM","2018/09/10 19:48:35","新北市新店區永業路28號","121.532861666667","24.9555766666667","6500600","新店區"
"231060","897-TW","2018/09/10 19:48:46","新北市新店區安康路二段191號","121.509318333333","24.9590433333333","6500600","新店區"
"231045","898-TW","2018/09/10 19:48:32","新北市新店區中生路83巷3號","121.564703333333","24.9518783333333","6500600","新店區"
"231043","899-TW","2018/09/10 19:48:32","新北市新店區中正路219號","121.53961","24.9728416666667","6500600","新店區"
"231055","AKT-0513","2018/09/10 19:48:31","新北市新店區新生街1號","121.540378333333","24.9656533333333","6500600","新店區"
"241011","013-R5","2018/09/10 19:48:40","新北市三重區三和路二段173巷21號","121.49848","25.0700866666667","6500200","三重區"
"241028","022-UY","2018/09/10 19:48:36","新北市三重區中正南路139號","121.494008333333","25.0567783333333","6500200","三重區"
"241008","059-VK","2018/09/10 19:48:37","新北市三重區永福街101號","121.479363333333","25.0773716666667","6500200","三重區"
"241022","060-VK","2018/09/10 19:48:45","新北市三重區過圳街3-1號","121.489433333333","25.0585683333333","6500200","三重區"
"241031","061-VK","2018/09/10 19:48:28","新北市三重區重新路四段258號","121.486003333333","25.05322","6500200","三重區"
"241015","062-VK","2018/09/10 19:48:45","新北市三重區三和路一段2號","121.503838333333","25.0642383333333","6500200","三重區"
"241017","063-VK","2018/09/10 19:48:33","新北市三重區重陽路三段5巷8弄29號","121.48962","25.066605","6500200","三重區"
"241024","065-VK","2018/09/10 19:48:27","新北市三重區國道路一段58巷20號","121.481308333333","25.07213","6500200","三重區"
"241026","066-VK","2018/09/10 19:48:36","新北市三重區文化南路42號","121.50039","25.0602916666667","6500200","三重區"
"241003","091-VK","2018/09/10 19:48:35","新北市三重區五華街93巷14號","121.492476666667","25.0840816666667","6500200","三重區"
"241009","265-UM","2018/09/10 19:48:48","新北市三重區三和路四段400巷10號","121.480845","25.07933","6500200","三重區"
"241016","266-UM","2018/09/10 19:48:31","新北市三重區正義北路16巷33號","121.496455","25.0628233333333","6500200","三重區"
"241029","267-UM","2018/09/10 19:48:27","新北市三重區光明路67號","121.491788333333","25.0574","6500200","三重區"
"241018","268-UM","2018/09/10 19:48:45","新北市三重區雙園街57巷25號","121.494583333333","25.0683566666667","6500200","三重區"
"241032","269-UM","2018/09/10 19:48:31","新北市三重區重陽路一段43號","121.486725","25.0579433333333","6500200","三重區"
"241013","270-UM","2018/09/10 19:48:43","新北市三重區仁愛街112巷12號","121.494751666667","25.0741083333333","6500200","三重區"
"241025","271-UM","2018/09/10 19:48:40","新北市三重區忠孝路三段52號","121.480686666667","25.0656933333333","6500200","三重區"
"241007","398-BY","2018/09/10 19:48:33","新北市三重區三和路四段127號","121.484818333333","25.0778416666667","6500200","三重區"
"241035","462-BY","2018/09/10 19:48:32","新北市三重區文化北路33號","121.499375","25.064125","6500200","三重區"
"241004","475-VK","2018/09/10 19:48:44","新北市三重區仁愛街377巷132號","121.49355","25.081945","6500200","三重區"
"241020","478-VK","2018/09/10 19:48:38","新北市三重區三和路四段2號","121.491748333333","25.0738","6500200","三重區"
"241030","480-VK","2018/09/10 19:48:30","新北市三重區環河南路253號","121.491043333333","25.0506633333333","6500200","三重區"
"241014","543-UM","2018/09/10 19:48:39","新北市三重區長元街98巷18弄29號","121.50181","25.0674133333333","6500200","三重區"
"241023","545-UM","2018/09/10 19:48:43","新北市三重區大有街1-1號","121.47766","25.0656516666667","6500200","三重區"
"241001","547-UM","2018/09/10 19:48:35","新北市三重區仁愛街327巷103號","121.494243333333","25.080705","6500200","三重區"
"241019","KEA-2593","2018/09/10 19:48:48","新北市三重區自強路二段74巷23-1號","121.487831666667","25.0697366666667","6500200","三重區"
"241006","AAD-863","2018/09/10 19:48:48","新北市三重區永福街269號","121.48162","25.07422","6500200","三重區"
"241012","941-UM","2018/09/10 19:48:34","新北市三重區仁興街56巷38號","121.498211666667","25.0754916666667","6500200","三重區"
"241033","AAC-255","2018/09/10 19:48:35","新北市三重區中興南街31-3號","121.470638333333","25.04393","6500200","三重區"
"235066","003-UY","2018/09/10 19:48:38","新北市中和區南工路40號","121.505793333333","25.0011783333333","6500300","中和區"
"235063","006-UY","2018/09/10 19:48:46","新北市中和區連勝街137號","121.49479","24.9960383333333","6500300","中和區"
"235056","096-UM","2018/09/10 19:48:33","新北市中和區中山路三段114巷68號","121.475853333333","25.007595","6500300","中和區"
"235039","097-UM","2018/09/10 19:48:42","新北市中和區大勇街26號","121.517351666667","24.9930033333333","6500300","中和區"
"235065","098-UM","2018/09/10 19:48:41","新北市中和區永和路8巷11號","121.500451666667","25.0033866666667","6500300","中和區"
"235040","150-BY","2018/09/10 19:48:27","新北市中和區安平路59號","121.509635","24.9949316666667","6500300","中和區"
"235058","151-BY","2018/09/10 19:48:29","新北市中和區員山路146巷6號","121.481693333333","24.996765","6500300","中和區"
"235055","183-VK","2018/09/10 19:48:39","新北市中和區莒光路35號","121.472231666667","25.0051283333333","6500300","中和區"
"235038","185-VK","2018/09/10 19:48:43","新北市中和區自立路15巷1號","121.522466666667","24.9961566666667","6500300","中和區"
"235049","186-VK","2018/09/10 19:48:35","新北市中和區景平路522號","121.50325","24.9940233333333","6500300","中和區"
"235067","255-BX","2018/09/10 19:48:38","新北市中和區新生街211號","121.483815","24.9997166666667","6500300","中和區"
"235044","293-VK","2018/09/10 19:48:34","新北市中和區南山路176號","121.505501666667","24.9908433333333","6500300","中和區"
"235072","301-VK","2018/09/10 19:48:33","新北市中和區連城路263巷4弄4號","121.49157","24.9957383333333","6500300","中和區"
"235043","352-BY","2018/09/10 19:48:47","新北市中和區華新街230號","121.506041666667","24.9817716666667","6500300","中和區"
"235042","KEA-2878","2018/09/10 19:48:39","新北市中和區宜安路171號","121.50849","24.9991783333333","6500300","中和區"
"235050","4979-A6","2018/09/10 19:48:30","新北市中和區景安路181號","121.505058333333","24.993205","6500300","中和區"
"235070","558-UM","2018/09/10 19:48:46","新北市中和區景平路513號","121.499126666667","24.9985916666667","6500300","中和區"
"235054","640-BX","2018/09/10 19:48:41","新北市中和區莒光路65號","121.472291666667","25.0033833333333","6500300","中和區"
"235047","732-UM","2018/09/10 19:48:48","新北市中和區捷運路185號","121.505458333333","24.9913633333333","6500300","中和區"
"235046","733-UM","2018/09/10 19:48:47","新北市中和區仁愛街46號","121.511118333333","24.9881616666667","6500300","中和區"
"235071","783-BX","2018/09/10 19:48:31","新北市中和區中板路28號","121.483181666667","25.0121033333333","6500300","中和區"
"235057","801-TS","2018/09/10 19:48:36","新北市中和區員山路130號","121.481153333333","24.9962433333333","6500300","中和區"
"235041","802-TS","2018/09/10 19:48:33","新北市中和區永貞路225號","121.513468333333","25.00361","6500300","中和區"
"235052","805-TS","2018/09/10 19:48:36","新北市中和區興南路二段113巷2號","121.505481666667","24.9843116666667","6500300","中和區"
"235048","896-TW","2018/09/10 19:48:34","新北市中和區華新街2-6號","121.507356666667","24.9851916666667","6500300","中和區"
"235053","900-TW","2018/09/10 19:48:31","新北市中和區國光街189巷12弄1號","121.46753","25.0013083333333","6500300","中和區"
"235060","911-UM","2018/09/10 19:48:47","新北市中和區新生街16巷23號","121.48215","25.0043483333333","6500300","中和區"
"235051","157-BY","2018/09/10 19:48:34","新北市中和區中興街132巷26號","121.498763333333","24.9916633333333","6500300","中和區"
"235037","AAC-213","2018/09/10 19:48:41","新北市中和區秀朗路三段175巷2號","121.524526666667","24.9912916666667","6500300","中和區"
"235059","AAC-215","2018/09/10 19:48:32","新北市中和區圓通路305巷7弄1號","121.493738333333","24.989985","6500300","中和區"
"220069","015-TV","2018/09/10 19:48:40","新北市板橋區南雅南路二段11-29號","121.453941666667","25.001325","6500100","板橋區"
"220065","072-UY","2018/09/10 19:48:31","新北市板橋區民族路222巷13號","121.468716666667","25.00681","6500100","板橋區"
"220086","073-UY","2018/09/10 19:48:43","新北市板橋區南雅西路二段7巷25號","121.451943333333","25.0095","6500100","板橋區"
"220106","075-UY","2018/09/10 19:48:45","新北市板橋區文化路608巷50-1號","121.479455","25.03451","6500100","板橋區"
"220090","120-SR","2018/09/10 19:48:44","新北市板橋區龍泉街54巷7弄7號","121.456603333333","25.0263816666667","6500100","板橋區"
"247002","893-R6","2018/09/10 19:48:43","新北市蘆洲區永平街27號","121.45874","25.0907583333333","6501400","蘆洲區"
"247014","339-TH","2018/09/10 19:48:29","新北市蘆洲區中央路101號","121.472365","25.0841","6501400","蘆洲區"
"247008","336-TH","2018/09/10 19:48:36","新北市蘆洲區中山一路49號","121.478716666667","25.080995","6501400","蘆洲區"
"247004","002-UY","2018/09/10 19:48:38","新北市蘆洲區中原路48號","121.459298333333","25.082445","6501400","蘆洲區"
"226004","312-R5","2018/09/10 19:48:29","新北市平溪區靜安路三段392巷3號","121.784413333333","25.049535","6502400","平溪區"
"228003","097-TW","2018/09/10 19:48:29","新北市貢寮區真理里美艷山街6-2號","121.928843333333","25.061195","6502600","貢寮區"
"228001","670-TC","2018/09/10 19:48:35","新北市貢寮區真理里新港街58號","121.92619","25.0565683333333","6502600","貢寮區"
"224010","AGQ-8101","2018/09/10 19:48:11","新北市瑞芳區輕便路308號","121.843056666667","25.1085433333333","6501200","瑞芳區"
"224002","639-TC","2018/09/10 19:48:40","新北市瑞芳區三爪子坑路335號","121.818798333333","25.1050766666667","6501200","瑞芳區"
"227008","642-TC","2018/09/10 19:48:39","新北市雙溪區新基里朝陽街18號","121.86589","25.0387383333333","6502500","雙溪區"
"227001","400-TW","2018/09/10 19:48:43","新北市雙溪區雙溪里內挖路47號","121.86333","25.0366183333333","6502500","雙溪區"
"222001","KEA-2212","2018/09/10 19:48:33","新北市深坑區北深路三段71號","121.606796666667","25.0014183333333","6501800","深坑區"
"208002","KEA-2872","2018/09/10 19:48:45","新北市金山區三民街34號","121.6349","25.2235983333333","6502700","金山區"
"208003","665-BX","2018/09/10 19:48:37","新北市金山區海興路112-1號","121.631185","25.2387","6502700","金山區"
"208001","761-BX","2018/09/10 19:48:32","新北市金山區重和里六股林口81-1號","121.603801666667","25.21784","6502700","金山區"
"251005","010-UM","2018/09/10 19:48:47","新北市淡水區原德路11號","121.442186666667","25.171235","6501000","淡水區"
"251013","KEA-2871","2018/09/10 19:48:42","新北市淡水區頂田寮11-8號","121.46484","25.2139983333333","6501000","淡水區"
"251016","179-VK","2018/09/10 19:48:44","新北市淡水區三塊厝5-2號","121.457846666667","25.2102666666667","6501000","淡水區"
"251014","180-VK","2018/09/10 19:48:43","新北市淡水區石頭厝19號","121.469863333333","25.2370583333333","6501000","淡水區"
"251015","181-VK","2018/09/10 19:48:37","新北市淡水區北新路二段77-10號","121.480793333333","25.18555","6501000","淡水區"
"251010","413-VK","2018/09/10 19:48:48","新北市淡水區下圭柔山91-3號","121.43092","25.2097233333333","6501000","淡水區"
"251012","441-VK","2018/09/10 19:48:46","新北市淡水區淡金路三段64號","121.448258333333","25.1998266666667","6501000","淡水區"
"251007","442-VK","2018/09/10 19:48:27","新北市淡水區中正東路一段111巷23-1號","121.455316666667","25.1610433333333","6501000","淡水區"
"251008","443-VK","2018/09/10 19:48:46","新北市淡水區中正路二段24巷2-1號","121.426826666667","25.1769666666667","6501000","淡水區"
"251001","559-UM","2018/09/10 19:48:33","新北市淡水區中正東路二段37號","121.45927","25.1561983333333","6501000","淡水區"
"251006","561-UM","2018/09/10 19:48:35","新北市淡水區水碓街15號","121.443523333333","25.1769716666667","6501000","淡水區"
"251009","575-R6","2018/09/10 19:48:42","新北市淡水區中正路36號","121.443806666667","25.1692516666667","6501000","淡水區"
"251011","650-BX","2018/09/10 19:48:31","新北市淡水區淡金路二段30號","121.452125","25.1814616666667","6501000","淡水區"
"251003","766-UM","2018/09/10 19:48:41","新北市淡水區崁頂69號","121.439496666667","25.2017566666667","6501000","淡水區"
"207003","550-UM","2018/09/10 19:48:43","新北市萬里區大鵬里下社9-4號","121.64707","25.2172666666667","6502800","萬里區"
"207004","225-TW","2018/09/10 19:48:37","新北市萬里區萬里里瑪鋉路207號","121.690323333333","25.1793583333333","6502800","萬里區"
"252002","178-VK","2018/09/10 19:48:41","新北市三芝區三民街33-1號","121.504623333333","25.2585","6502100","三芝區"
"252001","292-VK","2018/09/10 19:48:26","新北市三芝區公正街9號","121.499731666667","25.2575416666667","6502100","三芝區"
"237007","153-BY","2018/09/10 19:48:40","新北市三峽區二鬮路136巷43號","121.358063333333","24.90879","6500900","三峽區"
"237009","210-TH","2018/09/10 19:48:38","新北市三峽區中園街64號","121.368021666667","24.9254733333333","6500900","三峽區"
"237013","252-BX","2018/09/10 19:48:28","新北市三峽區橫溪路65號","121.39737","24.93538","6500900","三峽區"
"237012","275-BY","2018/09/10 19:48:47","新北市三峽區光明路3巷36號","121.372793333333","24.9316416666667","6500900","三峽區"
"237008","302-VK","2018/09/10 19:48:37","新北市三峽區中正路一段231號","121.372108333333","24.9269566666667","6500900","三峽區"
"237014","433-BY","2018/09/10 19:48:47","新北市三峽區嘉添53號","121.368703333333","24.9107066666667","6500900","三峽區"
"237004","280-TH","2018/09/10 19:48:34","新北市三峽區圳頭119號","121.37966","24.88202","6500900","三峽區"
"237006","5529-G3","2018/09/10 19:48:33","新北市三峽區中正路一段336巷15弄2號","121.369965","24.9249533333333","6500900","三峽區"
"237011","KEA-2596","2018/09/10 19:48:34","新北市三峽區介壽路三段35號","121.395728333333","24.937085","6500900","三峽區"
"237015","649-BX","2018/09/10 19:48:43","新北市三峽區溪東路218巷5弄1號","121.407356666667","24.9312133333333","6500900","三峽區"
"237010","706-TV","2018/09/10 19:48:33","新北市三峽區復興路47號","121.373383333333","24.9369533333333","6500900","三峽區"
"237005","AKY-6261","2018/09/10 19:48:30","新北市三峽區介壽路一段27號","121.375548333333","24.933135","6500900","三峽區"
"236069","105-UM","2018/09/10 19:48:33","新北市土城區水源街32巷16號","121.441383333333","24.97586","6501300","土城區"
"236042","107-UM","2018/09/10 19:48:31","新北市土城區裕民路233巷7號","121.454733333333","24.9834966666667","6501300","土城區"
"236078","166-UM","2018/09/10 19:48:34","新北市土城區中央路四段324號","121.413576666667","24.955755","6501300","土城區"
"236030","253-BX","2018/09/10 19:48:36","新北市土城區中央路一段290號","121.4433","24.9824483333333","6501300","土城區"
"236026","269-VK","2018/09/10 19:48:42","新北市土城區中央路二段61巷26號","121.443325","24.9787866666667","6501300","土城區"
"236039","271-VK","2018/09/10 19:48:32","新北市土城區國際路158巷54號","121.467933333333","24.9748116666667","6501300","土城區"
"236020","401-BY","2018/09/10 19:48:45","新北市土城區延吉街120號","121.469821666667","24.9860233333333","6501300","土城區"
"236059","752-BX","2018/09/10 19:48:47","新北市土城區中央路一段229號","121.445556666667","24.9862833333333","6501300","土城區"
"236048","913-UM","2018/09/10 19:48:37","新北市土城區明德路一段323號","121.45914","24.977045","6501300","土城區"
"236063","915-UM","2018/09/10 19:48:49","新北市土城區延和路105巷3弄1號","121.467426666667","24.99071","6501300","土城區"
"236055","AAC-216","2018/09/10 19:48:36","新北市土城區延和路104號","121.4669","24.9897183333333","6501300","土城區"
"242036","AAC-296","2018/09/10 19:48:46","新北市新莊區建安街70號","121.426815","25.02454","6500500","新莊區"
"242058","986-R7","2018/09/10 19:48:28","新北市新莊區新樹路29號","121.44034","25.03237","6500500","新莊區"
"242056","751-BX","2018/09/10 19:48:35","新北市新莊區新泰路65號","121.449368333333","25.034205","6500500","新莊區"
"242048","497-BY","2018/09/10 19:48:44","新北市新莊區建安街76巷1弄18號","121.425831666667","25.0244116666667","6500500","新莊區"
"242007","442-UM","2018/09/10 19:48:37","新北市新莊區思源路593巷6弄13號","121.458448333333","25.059895","6500500","新莊區"
"242002","440-UM","2018/09/10 19:48:29","新北市新莊區碧江街100號","121.450411666667","25.0325566666667","6500500","新莊區"
"242039","415-TV","2018/09/10 19:48:34","新北市新莊區民安路299巷33號","121.429295","25.0232833333333","6500500","新莊區"
"242009","413-TV","2018/09/10 19:48:41","新北市新莊區中平路132巷28號","121.445956666667","25.0466566666667","6500500","新莊區"
"242023","362-BY","2018/09/10 19:48:29","新北市新莊區化成路200號","121.465578333333","25.0462116666667","6500500","新莊區"
"242060","353-BY","2018/09/10 19:48:46","新北市新莊區中環路一段10號","121.442833333333","25.025815","6500500","新莊區"
"242042","133-UY","2018/09/10 19:48:26","新北市新莊區青山路一段8號","121.411771666667","25.02755","6500500","新莊區"
"242034","135-UY","2018/09/10 19:48:44","新北市新莊區公園一路126號","121.44565","25.0379816666667","6500500","新莊區"
"242050","172-VK","2018/09/10 19:48:30","新北市新莊區民安路296號","121.428088333333","25.0218216666667","6500500","新莊區"
"242013","173-VK","2018/09/10 19:48:40","新北市新莊區中誠街95巷4號","121.45003","25.047475","6500500","新莊區"
"242019","175-VK","2018/09/10 19:48:31","新北市新莊區明智街8號","121.454666666667","25.0414116666667","6500500","新莊區"
"242031","348-TH","2018/09/10 19:48:30","新北市新莊區忠孝街26號","121.444016666667","25.0355366666667","6500500","新莊區"
"242004","349-TH","2018/09/10 19:48:47","新北市新莊區化成路63巷24弄13號","121.462738333333","25.0459616666667","6500500","新莊區"
"242021","350-TH","2018/09/10 19:48:38","新北市新莊區新泰路151號","121.448013333333","25.03675","6500500","新莊區"
"242015","351-TH","2018/09/10 19:48:40","新北市新莊區中港一街161號","121.44729","25.0449633333333","6500500","新莊區"
"238015","755-BX","2018/09/10 19:48:31","新北市樹林區中山路二段168號","121.412353333333","24.98258","6500700","樹林區"
"238023","601-UM","2018/09/10 19:48:35","新北市樹林區三福街89號","121.406816666667","25.0163216666667","6500700","樹林區"
"238019","599-UM","2018/09/10 19:48:47","新北市樹林區中山路三段168號","121.389","24.9701783333333","6500700","樹林區"
"238018","571-TV","2018/09/10 19:48:35","新北市樹林區中山路三段210-2號","121.381215","24.965805","6500700","樹林區"
"238024","5061-A6","2018/09/10 19:48:40","新北市樹林區中山路三段206號","121.383785","24.966985","6500700","樹林區"
"238021","KEA-2539","2018/09/10 19:48:28","新北市樹林區佳園路三段101巷120號","121.396046666667","24.950365","6500700","樹林區"
"238012","303-VK","2018/09/10 19:48:32","新北市樹林區中山路二段54號","121.416316666667","24.9844733333333","6500700","樹林區"
"238017","283-BY","2018/09/10 19:48:31","新北市樹林區保安街二段111號","121.415293333333","25.0012316666667","6500700","樹林區"
"238014","282-BY","2018/09/10 19:48:39","新北市樹林區千歲街73號","121.427363333333","24.999035","6500700","樹林區"
"238026","172-UY","2018/09/10 19:48:49","新北市樹林區佳園路二段91號","121.390648333333","24.959375","6500700","樹林區"
"239006","891-R6","2018/09/10 19:48:31","新北市鶯歌區尖山埔路144號","121.343528333333","24.94971","6500800","鶯歌區"
"221008","489-VK","2018/09/10 19:48:50","新北市汐止區康寧街83巷11號","121.619928333333","25.0669333333333","6501100","汐止區"
"221036","130-UY","2018/09/10 19:48:45","新北市汐止區汐萬路一段167-1號","121.652891666667","25.071065","6501100","汐止區"
"221015","131-UY","2018/09/10 19:48:45","新北市汐止區忠孝東路497號","121.666436666667","25.07466","6501100","汐止區"
"221010","269-BY","2018/09/10 19:48:37","新北市汐止區汐萬路一段333巷1號","121.649878333333","25.076155","6501100","汐止區"
"221012","278-VK","2018/09/10 19:48:36","新北市汐止區保新街2號","121.683645","25.0733533333333","6501100","汐止區"
"221023","279-VK","2018/09/10 19:48:37","新北市汐止區民族六街8巷2號","121.629918333333","25.06962","6501100","汐止區"
"221032","280-BY","2018/09/10 19:48:32","新北市汐止區南興路9號","121.652048333333","25.0624266666667","6501100","汐止區"
"221027","281-BY","2018/09/10 19:48:40","新北市汐止區南昌街2巷19號","121.662471666667","25.06873","6501100","汐止區"
"221029","298-VK","2018/09/10 19:48:28","新北市汐止區康寧街901號","121.651466666667","25.0749566666667","6501100","汐止區"
"221021","299-VK","2018/09/10 19:48:41","新北市汐止區水源路一段262號","121.654003333333","25.0595833333333","6501100","汐止區"
"221031","353-TW","2018/09/10 19:48:31","新北市汐止區福德三路63號","121.637105","25.0692433333333","6501100","汐止區"
"221035","622-UM","2018/09/10 19:48:44","新北市汐止區長江街13巷4號","121.654765","25.0713983333333","6501100","汐止區"
"221025","623-UM","2018/09/10 19:48:42","新北市汐止區秀峰路81巷15弄29號","121.661338333333","25.0649483333333","6501100","汐止區"
"221038","646-BX","2018/09/10 19:48:31","新北市汐止區忠孝東路397號","121.665768333333","25.070875","6501100","汐止區"
"221002","707-TV","2018/09/10 19:48:29","新北市汐止區樟樹二路251巷46號","121.64047","25.0670833333333","6501100","汐止區"
"221018","753-BX","2018/09/10 19:48:42","新北市汐止區大同路二段423號","121.658596666667","25.0671916666667","6501100","汐止區"
"220079","145-BY","2018/09/10 19:48:37","新北市板橋區建國街54巷32號","121.459845","25.01687","6500100","板橋區"
"220080","200-UY","2018/09/10 19:48:47","新北市板橋區大觀路二段59巷5號","121.447208333333","25.0025566666667","6500100","板橋區"
"220082","610-BX","2018/09/10 19:48:39","新北市板橋區存德街38號","121.430391666667","24.9916183333333","6500100","板橋區"
"220101","245-BX","2018/09/10 19:48:35","新北市板橋區縣民大道三段93巷23號","121.474713333333","25.0224266666667","6500100","板橋區"
"220091","267-BY","2018/09/10 19:48:28","新北市板橋區懷德街127巷58號","121.480593333333","25.0319266666667","6500100","板橋區"
"220056","276-BY","2018/09/10 19:48:39","新北市板橋區四川路二段99-1號","121.45267","24.99455","6500100","板橋區"
"220071","283-VK","2018/09/10 19:48:50","新北市板橋區信義路279巷19號","121.464678333333","24.99036","6500100","板橋區"
"220094","285-UM","2018/09/10 19:48:33","新北市板橋區吳鳳路81巷1號","121.466776666667","25.031515","6500100","板橋區"
"220053","285-VK","2018/09/10 19:48:30","新北市板橋區中山路二段60巷1弄19號","121.474933333333","25.01575","6500100","板橋區"
"220083","286-VK","2018/09/10 19:48:39","新北市板橋區龍興街65巷2號","121.443728333333","25.0015133333333","6500100","板橋區"
"220081","287-VK","2018/09/10 19:48:47","新北市板橋區大觀路一段29巷77號","121.450433333333","25.0066766666667","6500100","板橋區"
"220061","293-UM","2018/09/10 19:48:32","新北市板橋區中山路一段265巷36弄2號","121.469175","25.0151","6500100","板橋區"
"220084","296-UM","2018/09/10 19:48:34","新北市板橋區滿平街64號","121.427088333333","24.9893033333333","6500100","板橋區"
"220075","303-R5","2018/09/10 19:48:43","新北市板橋區金華街10巷48弄7號","121.457283333333","25.0198833333333","6500100","板橋區"
"220062","305-R5","2018/09/10 19:48:38","新北市板橋區三民路二段29巷31弄1號","121.48138","25.0177033333333","6500100","板橋區"
"220092","307-R5","2018/09/10 19:48:37","新北市板橋區互助街14號","121.46284","25.0276683333333","6500100","板橋區"
"220098","317-R6","2018/09/10 19:48:40","新北市板橋區四維路269巷87號","121.459858333333","25.02666","6500100","板橋區"
"220064","486-VK","2018/09/10 19:48:46","新北市板橋區館前東路96號","121.462335","25.0074516666667","6500100","板橋區"
"220088","491-VK","2018/09/10 19:48:46","新北市板橋區文聖街151號","121.478595","25.0279866666667","6500100","板橋區"
"220035","560-BX","2018/09/10 19:48:34","新北市板橋區金華街112號","121.458885","25.0208433333333","6500100","板橋區"
"220103","561-BX","2018/09/10 19:48:36","新北市板橋區陽明街23巷6弄15號","121.465381666667","25.0211333333333","6500100","板橋區"
"220063","609-BX","2018/09/10 19:48:44","新北市板橋區中山路二段318巷4號","121.480243333333","25.0192266666667","6500100","板橋區"
"220057","686-BX","2018/09/10 19:48:35","新北市板橋區廣權路9號","121.460661666667","24.9913116666667","6500100","板橋區"
"220077","687-BX","2018/09/10 19:48:35","新北市板橋區僑中一街150號","121.444666666667","25.0120466666667","6500100","板橋區"
"220093","689-BX","2018/09/10 19:48:46","新北市板橋區長江路二段211號","121.467835","25.032435","6500100","板橋區"
"220054","741-BX","2018/09/10 19:48:34","新北市板橋區忠孝路忠義巷13號","121.465843333333","25.003755","6500100","板橋區"
"220102","KEA-2699","2018/09/10 19:48:36","新北市板橋區松柏街57-4號","121.475713333333","25.0303016666667","6500100","板橋區"
"220055","827-TW","2018/09/10 19:48:40","新北市板橋區國慶路149巷21弄12號","121.460243333333","24.9973433333333","6500100","板橋區"
"220067","829-TW","2018/09/10 19:48:46","新北市板橋區長安街255巷42弄5號","121.472723333333","25.01138","6500100","板橋區"
"220068","830-TW","2018/09/10 19:48:45","新北市板橋區中山路二段416巷1弄4-1號","121.483431666667","25.020845","6500100","板橋區"
"220096","831-TW","2018/09/10 19:48:45","新北市板橋區文化路二段2號","121.468703333333","25.023795","6500100","板橋區"
"220089","833-TW","2018/09/10 19:48:35","新北市板橋區龍泉街108巷104號","121.455335","25.0256233333333","6500100","板橋區"
"220074","895-R6","2018/09/10 19:48:41","新北市板橋區府中路23號","121.459256666667","25.008945","6500100","板橋區"
"220073","985-R7","2018/09/10 19:48:34","新北市板橋區大仁街51號","121.454663333333","25.01641","6500100","板橋區"
"220097","AAC-210","2018/09/10 19:48:35","新北市板橋區文化路一段285巷1弄2號","121.46428","25.018675","6500100","板橋區"
"220070","AAC-253","2018/09/10 19:48:48","新北市板橋區民族路83-1號","121.465808333333","25.0085733333333","6500100","板橋區"
"235068","KEA-2873","2018/09/10 19:48:35","新北市中和區泰和街9號","121.499546666667","25.00039","6500300","中和區"
"235061","KEA-2875","2018/09/10 19:48:46","新北市中和區員山路170號","121.48155","24.99991","6500300","中和區"
