"lineid","car","time","location","longitude","latitude","cityid","cityname"
"234077","969-R7","2018/09/10 21:38:38","新北市永和區環河西路二段89號","121.506643333333","25.0149566666667","6500400","永和區"
"241026","066-VK","2018/09/10 21:38:36","新北市三重區光復路二段143巷16號","121.474568333333","25.0616366666667","6500200","三重區"
"241005","887-TS","2018/09/10 21:38:38","新北市三重區仁華街6號","121.48341","25.0812833333333","6500200","三重區"
"247012","KEA-2869","2018/09/10 21:38:41","新北市五股區凌雲路三段24巷19-1號","121.435386666667","25.1071933333333","6501400","蘆洲區"
"235010","733-UM","2018/09/10 21:14:43","新北市中和區員山路36巷13號","121.484113333333","24.9909316666667","6500300","中和區"
"251004","009-UM","2018/09/10 21:38:38","新北市淡水區民生路47-4號","121.461993333333","25.13801","6501000","淡水區"
"251005","010-UM","2018/09/10 21:38:47","新北市淡水區學府路88號","121.449061666667","25.17107","6501000","淡水區"
"251016","179-VK","2018/09/10 21:38:44","新北市淡水區中山北路三段165-1號","121.44516","25.1968316666667","6501000","淡水區"
"251014","180-VK","2018/09/10 21:38:43","新北市淡水區淡金路四段545號","121.45149","25.229865","6501000","淡水區"
"251010","413-VK","2018/09/10 21:38:48","新北市淡水區沙崙路216巷58號","121.426218333333","25.1841533333333","6501000","淡水區"
"251012","441-VK","2018/09/10 21:38:46","新北市淡水區淡金路四段221號","121.451705","25.22242","6501000","淡水區"
"251007","442-VK","2018/09/10 21:38:47","新北市淡水區水源街二段194號","121.456826666667","25.1760533333333","6501000","淡水區"
"251008","443-VK","2018/09/10 21:38:36","新北市淡水區水源街二段88號","121.451675","25.17428","6501000","淡水區"
"251001","559-UM","2018/09/10 21:38:33","新北市淡水區新市二路三段152號","121.435358333333","25.1941183333333","6501000","淡水區"
"251006","561-UM","2018/09/10 21:38:39","新北市淡水區中正路69號","121.44081","25.1692383333333","6501000","淡水區"
"251009","575-R6","2018/09/10 21:38:42","新北市淡水區民生路52巷22弄8號","121.462501666667","25.1372716666667","6501000","淡水區"
"251011","650-BX","2018/09/10 21:38:51","新北市淡水區新民街103號","121.436111666667","25.1809383333333","6501000","淡水區"
"251002","672-BX","2018/09/10 21:38:49","新北市淡水區學府路163號","121.445961666667","25.174185","6501000","淡水區"
"251003","766-UM","2018/09/10 21:38:41","新北市淡水區新春街47號","121.437731666667","25.181865","6501000","淡水區"
"220070","AAC-253","2018/09/10 21:38:39","新北市板橋區華東街1-8號","121.447928333333","24.99482","6500100","板橋區"
