"lineid","car","time","location","longitude","latitude","cityid","cityname"
"232001","290-BY","2018/03/19 06:49:21","新北市坪林區水柳腳38號","121.709773333333","24.9352033333333","6502000","坪林區"
"232012","291-BY","2018/03/19 06:49:07","新北市坪林區水柳腳39號","121.709676666667","24.93517","6502000","坪林區"
"232010","375-UM","2018/03/19 06:49:14","新北市坪林區北宜路八段558號","121.718375","24.909325","6502000","坪林區"
"232017","705-BZ","2018/03/19 06:49:28","新北市坪林區北宜路八段387號","121.708166666667","24.932415","6502000","坪林區"
"232005","758-BX","2018/03/19 06:49:13","新北市坪林區九芎林14-1號","121.706963333333","24.9312783333333","6502000","坪林區"
"244001","248-BX","2018/03/19 06:49:10","新北市林口區粉寮路二段46-1號","121.403516666667","25.0870583333333","6501700","林口區"
"235001","611-BX","2018/03/19 06:49:12","新北市中和區圓通路305巷18號","121.494898333333","24.9890233333333","6500300","中和區"
"223006","022-BY","2018/03/19 06:49:20","新北市石碇區新興坑29-3號","121.646105","25.016065","6501900","石碇區"
"223001","205-TH","2018/03/19 06:49:19","新北市石碇區湳窟31-5號","121.663821666667","24.993515","6501900","石碇區"
"223008","406-TH","2018/03/19 06:49:20","新北市石碇區雙溪84-1號","121.661238333333","25.0091033333333","6501900","石碇區"
"223001","592-UM","2018/03/19 06:49:10","新北市石碇區湳窟30號","121.663326666667","24.9924833333333","6501900","石碇區"
"223004","660-BX","2018/03/19 06:49:15","新北市石碇區碇坪路一段180號","121.666836666667","24.985645","6501900","石碇區"
"223007","661-BX","2018/03/19 06:49:06","新北市石碇區靜安路一段89號","121.652678333333","25.00787","6501900","石碇區"
"227005","282-VK","2018/03/19 06:49:12","新北市雙溪區新基里自強路5號","121.86629","25.03902","6502500","雙溪區"
"252006","073-UM","2018/03/19 06:49:14","新北市三芝區埔坪里埔頭坑41號","121.504518333333","25.2646","6502100","三芝區"
"236007","165-UM","2018/03/19 06:49:20","新北市土城區永平街51號","121.427983333333","24.9592","6501300","土城區"
"220064","282-UM","2018/03/19 06:49:28","新北市板橋區國光路49巷17號","121.458936666667","25.01882","6500100","板橋區"
