"lineid","car","time","location","longitude","latitude","cityid","cityname"
"248005","653-BX","2018/03/19 07:09:14","新北市五股區明德路12巷3號","121.433328333333","25.071805","6501500","五股區"
"232001","290-BY","2018/03/19 07:09:21","新北市坪林區桶盤嶼8-2號","121.706626666667","24.9566716666667","6502000","坪林區"
"232012","291-BY","2018/03/19 07:09:27","新北市坪林區北宜路七段201號","121.687713333333","24.9339616666667","6502000","坪林區"
"232010","375-UM","2018/03/19 07:09:14","新北市坪林區水聳淒坑24號","121.71873","24.92488","6502000","坪林區"
"232017","705-BZ","2018/03/19 07:09:28","新北市坪林區九芎坑3-3號","121.727845","24.9636866666667","6502000","坪林區"
"232005","758-BX","2018/03/19 07:09:23","新北市坪林區魚堀52-1號","121.705411666667","24.9310966666667","6502000","坪林區"
"244001","248-BX","2018/03/19 07:09:10","新北市林口區頭湖88-12號","121.367685","25.08229","6501700","林口區"
"235001","611-BX","2018/03/19 07:09:12","新北市中和區圓通路367巷6號","121.491531666667","24.9892116666667","6500300","中和區"
"226005","5620-A6","2018/03/19 07:09:28","新北市平溪區菁桐里菁桐街18號","121.72668","25.02393","6502400","平溪區"
"226001","7418-A5","2018/03/19 07:09:10","新北市平溪區石底里公園街18-3號","121.73447","25.0249716666667","6502400","平溪區"
"226003","AGD-0702","2018/03/19 07:09:17","新北市平溪區靜安路二段500號","121.743808333333","25.0267733333333","6502400","平溪區"
"223006","022-BY","2018/03/19 07:09:20","新北市石碇區新興坑5號","121.655478333333","25.0164833333333","6501900","石碇區"
"223001","205-TH","2018/03/19 07:09:18","新北市石碇區摸乳巷5號","121.65958","24.9853033333333","6501900","石碇區"
"223008","406-TH","2018/03/19 07:09:20","新北市石碇區番子坑33號","121.677981666667","25.007635","6501900","石碇區"
"223001","592-UM","2018/03/19 07:09:10","新北市石碇區摸乳巷5號","121.659643333333","24.9841333333333","6501900","石碇區"
"223004","660-BX","2018/03/19 07:09:15","新北市石碇區石崁1號","121.651753333333","25.0020466666667","6501900","石碇區"
"223007","661-BX","2018/03/19 07:09:26","新北市石碇區番子坑24-3號","121.67876","25.001845","6501900","石碇區"
"223005","677-TV","2018/03/19 07:09:13","新北市石碇區石崁1號","121.651915","25.0011883333333","6501900","石碇區"
"227005","282-VK","2018/03/19 07:09:12","新北市雙溪區新基里自強路5號","121.86633","25.0389883333333","6502500","雙溪區"
"252006","073-UM","2018/03/19 07:09:14","新北市三芝區古庄里山豬堀2-1號","121.499768333333","25.2504116666667","6502100","三芝區"
"252004","249-BX","2018/03/19 07:09:15","新北市三芝區錫板里小坑子11-1號","121.502998333333","25.2369233333333","6502100","三芝區"
"237001","159-UY","2018/03/19 07:09:24","新北市三峽區中山路459巷163-1號","121.349291666667","24.9334166666667","6500900","三峽區"
"236007","165-UM","2018/03/19 07:09:20","新北市土城區中華路一段157號","121.443791666667","24.98621","6501300","土城區"
"236001","339-SR","2018/03/19 07:09:17","新北市土城區永和街2巷14號","121.434131666667","24.964715","6501300","土城區"
"242022","362-BY","2018/03/19 07:09:25","新北市新莊區三和路12-21號","121.442093333333","25.0385733333333","6500500","新莊區"
"220064","282-UM","2018/03/19 07:09:28","新北市板橋區國光路51號","121.458091666667","25.0179933333333","6500100","板橋區"
