"lineid","car","time","location","longitude","latitude","cityid","cityname"
"248005","653-BX","2018/03/19 07:39:14","新北市五股區明德路12巷6號","121.433345","25.071855","6501500","五股區"
"232001","290-BY","2018/03/19 07:39:21","新北市坪林區上坑子口1號","121.698386666667","24.9563816666667","6502000","坪林區"
"232012","291-BY","2018/03/19 07:39:27","新北市坪林區金瓜寮16-1號","121.682523333333","24.9169433333333","6502000","坪林區"
"232010","375-UM","2018/03/19 07:39:14","新北市坪林區苦苓腳3號","121.714656666667","24.9394033333333","6502000","坪林區"
"232017","705-BZ","2018/03/19 07:39:08","新北市坪林區大舌湖9號","121.731871666667","24.9751083333333","6502000","坪林區"
"232005","758-BX","2018/03/19 07:39:13","新北市坪林區魚堀33-1號","121.698106666667","24.9258016666667","6502000","坪林區"
"244001","248-BX","2018/03/19 07:38:50","新北市林口區頂福里8鄰70-2號","121.331193333333","25.10018","6501700","林口區"
"244020","838-TS","2018/03/19 07:39:20","新北市林口區粉寮69號","121.404846666667","25.0907933333333","6501700","林口區"
"222005","289-BY","2018/03/19 07:39:13","新北市深坑區文化街39巷13號","121.618785","25.0010916666667","6501800","深坑區"
"231007","189-VK","2018/03/19 07:39:30","新北市新店區安華路28-1號","121.519691666667","24.96145","6500600","新店區"
"235001","611-BX","2018/03/19 07:39:12","新北市中和區圓通路367巷6號","121.49149","24.9892616666667","6500300","中和區"
"226005","5620-A6","2018/03/19 07:39:08","新北市平溪區石底里公園街11號","121.737875","25.0250816666667","6502400","平溪區"
"226001","7418-A5","2018/03/19 07:39:10","新北市平溪區南山里南山坪6號","121.764508333333","25.031865","6502400","平溪區"
"226003","AGD-0702","2018/03/19 07:35:17","新北市平溪區嶺腳里嶺腳寮83-2號","121.750445","25.03505","6502400","平溪區"
"223006","022-BY","2018/03/19 07:39:20","新北市石碇區番子坑20號","121.674048333333","25.0012233333333","6501900","石碇區"
"223001","205-TH","2018/03/19 07:39:24","新北市石碇區內楒仔腳4-1號","121.642098333333","24.9713816666667","6501900","石碇區"
"223008","406-TH","2018/03/19 07:31:57","新北市石碇區靜安路一段337號","121.698893333333","25.0146316666667","6501900","石碇區"
"223001","592-UM","2018/03/19 07:38:50","新北市石碇區中楒子腳1號","121.647321666667","24.9718016666667","6501900","石碇區"
"223004","660-BX","2018/03/19 07:39:15","新北市石碇區八分寮55-1號","121.644955","25.0170683333333","6501900","石碇區"
"223007","661-BX","2018/03/19 07:39:26","新北市石碇區靜安路一段337號","121.698895","25.01513","6501900","石碇區"
"223005","677-TV","2018/03/19 07:39:13","新北市石碇區八分寮47-1號","121.642476666667","25.013875","6501900","石碇區"
"227005","282-VK","2018/03/19 07:39:12","新北市雙溪區雙溪里太平路54號","121.864793333333","25.03551","6502500","雙溪區"
"252006","073-UM","2018/03/19 07:39:13","新北市三芝區埔頭里埔頭29號","121.494025","25.263135","6502100","三芝區"
"252004","249-BX","2018/03/19 07:39:15","新北市三芝區店子里菜公坑99-3號","121.512063333333","25.2060383333333","6502100","三芝區"
"237001","159-UY","2018/03/19 07:39:24","新北市三峽區三樹路166號","121.378431666667","24.940605","6500900","三峽區"
"236007","165-UM","2018/03/19 07:39:20","新北市土城區金城路三段203號","121.470321666667","24.9892","6501300","土城區"
"236001","339-SR","2018/03/19 07:39:17","新北市土城區南天母路111巷20號","121.448476666667","24.9556616666667","6501300","土城區"
"242052","751-BX","2018/03/19 07:39:24","新北市泰山區磚雅厝3號","121.442025","25.04171","6500500","新莊區"
"242028","705-TV","2018/03/19 07:39:10","新北市新莊區三和路12-21號","121.442383333333","25.0379066666667","6500500","新莊區"
"242026","615-BX","2018/03/19 07:39:15","新北市新莊區新泰路255巷83號","121.44219","25.0387866666667","6500500","新莊區"
"242040","566-BX","2018/03/19 07:39:00","新北市新莊區三和路18-25號","121.441628333333","25.0392066666667","6500500","新莊區"
"242045","497-BY","2018/03/19 07:39:19","新北市新莊區三和路12-16號","121.44222","25.0374433333333","6500500","新莊區"
"242049","441-UM","2018/03/19 07:39:22","新北市新莊區新樹路67巷5號","121.442038333333","25.030665","6500500","新莊區"
"242035","415-TV","2018/03/19 07:39:10","新北市新莊區新泰路357巷3弄57號","121.442108333333","25.039385","6500500","新莊區"
"242006","413-TV","2018/03/19 07:39:11","新北市新莊區新泰路357巷3弄57號","121.442085","25.0395683333333","6500500","新莊區"
"242043","400-BY","2018/03/19 07:39:13","新北市泰山區磚雅厝3號","121.44224","25.041635","6500500","新莊區"
"242022","362-BY","2018/03/19 07:39:24","新北市新莊區新泰路255巷83號","121.442288333333","25.0388383333333","6500500","新莊區"
"242059","353-BY","2018/03/19 07:39:23","新北市新莊區三和路12-21號","121.442195","25.0387066666667","6500500","新莊區"
"242038","133-UY","2018/03/19 07:39:16","新北市新莊區三和路12-10號","121.44206","25.0368083333333","6500500","新莊區"
"242047","172-VK","2018/03/19 07:39:11","新北市新莊區中正路671號","121.426491666667","25.0300866666667","6500500","新莊區"
"242016","175-VK","2018/03/19 07:39:25","新北市新莊區三和路12-21號","121.441951666667","25.0387316666667","6500500","新莊區"
"242003","176-VK","2018/03/19 07:39:12","新北市新莊區三和路12-21號","121.441921666667","25.0386916666667","6500500","新莊區"
"242001","349-TH","2018/03/19 07:36:58","新北市新莊區三和路12-15號","121.442001666667","25.0373433333333","6500500","新莊區"
"242012","351-TH","2018/03/19 07:39:28","新北市新莊區新泰路357巷3弄57號","121.442056666667","25.0396016666667","6500500","新莊區"
"220064","282-UM","2018/03/19 07:39:08","新北市板橋區中正路170號","121.456435","25.0172066666667","6500100","板橋區"
"242018","280-VK","2018/03/19 07:39:15","新北市新莊區三和路12-21號","121.442018333333","25.03825","6500500","新莊區"
