"lineid","car","time","location","longitude","latitude","cityid","cityname"
"248005","653-BX","2018/03/31 09:19:06","新北市五股區水碓一路23號","121.430435","25.0714533333333","6501500","五股區"
"222004","289-BY","2018/03/31 09:19:26","新北市深坑區大崙腳2-2號","121.613938333333","24.994545","6501800","深坑區"
"231007","189-VK","2018/03/31 09:19:24","新北市新店區新潭路三段215巷25號","121.508151666667","24.9040683333333","6500600","新店區"
"231008","192-VK","2018/03/31 09:19:09","新北市新店區平廣路一段30-1號","121.534775","24.9029316666667","6500600","新店區"
"235001","611-BX","2018/03/31 09:19:22","新北市中和區莒光路27號","121.471998333333","25.0054433333333","6500300","中和區"
"226003","AGD-0702","2018/03/31 09:19:07","新北市平溪區嶺腳里嶺腳寮114號","121.745438333333","25.033435","6502400","平溪區"
"223001","205-TH","2018/03/31 09:19:09","新北市石碇區北宜路四段26號","121.623161666667","24.957925","6501900","石碇區"
"223001","592-UM","2018/03/31 09:19:18","新北市石碇區北宜路四段30號","121.623833333333","24.9563866666667","6501900","石碇區"
"223004","660-BX","2018/03/31 09:19:16","新北市石碇區碇坪路二段35號","121.6848","24.976685","6501900","石碇區"
"223005","677-TV","2018/03/31 09:19:13","新北市石碇區大崙13-1號","121.689135","24.979335","6501900","石碇區"
"227006","030-BX","2018/03/31 09:19:07","新北市雙溪區長源里內柑腳11號","121.8025","25.0150366666667","6502500","雙溪區"
"252004","249-BX","2018/03/31 09:19:10","新北市三芝區店子里店子60號","121.502638333333","25.2054916666667","6502100","三芝區"
"252007","AAC-283","2018/03/31 09:19:19","新北市三芝區古庄里山豬堀5號","121.495746666667","25.2554733333333","6502100","三芝區"
"237001","159-UY","2018/03/31 09:19:27","新北市三峽區國學街16號","121.373338333333","24.9417216666667","6500900","三峽區"
"236011","165-UM","2018/03/31 09:19:21","新北市土城區中央路四段334號","121.413478333333","24.9554316666667","6501300","土城區"
"236002","339-SR","2018/03/31 09:19:10","新北市土城區明德路二段291號","121.444785","24.984205","6501300","土城區"
"236006","498-BY","2018/03/31 09:19:26","新北市土城區承天路18號","121.439495","24.9633983333333","6501300","土城區"
