"lineid","car","time","location","longitude","latitude","cityid","cityname"
"234044","148-BY","2018/03/31 13:49:32","新北市永和區永利路165號","121.525148333333","25.0034883333333","6500400","永和區"
"234068","149-BY","2018/03/31 13:49:27","新北市永和區竹林路81號","121.519551666667","25.0126","6500400","永和區"
"234005","208-UY","2018/03/31 13:49:25","新北市中和區中和路464號","121.512316666667","25.00396","6500400","永和區"
"234078","298-R6","2018/03/31 13:49:28","新北市永和區永亨路117號","121.523721666667","25.0045433333333","6500400","永和區"
"234036","336-UY","2018/03/31 13:49:30","新北市永和區成功路二段76號","121.526631666667","24.9990516666667","6500400","永和區"
"234062","337-UY","2018/03/31 13:49:21","新北市永和區中正路368巷29號","121.518615","25.0008366666667","6500400","永和區"
"234084","338-UY","2018/03/31 13:49:21","新北市永和區永利路38號","121.518635","25.00552","6500400","永和區"
"234015","745-BX","2018/03/31 13:49:17","新北市永和區文化路29號","121.514841666667","25.0150383333333","6500400","永和區"
"234028","746-BX","2018/03/31 13:49:15","新北市永和區民生路67巷11號","121.523221666667","24.9972216666667","6500400","永和區"
"234052","KEA-2590","2018/03/31 13:49:34","新北市永和區竹林路39巷28弄13號","121.51969","25.0144266666667","6500400","永和區"
"234012","KEA-2591","2018/03/31 13:49:17","新北市永和區永平路300號","121.507338333333","25.01233","6500400","永和區"
"234060","AAD-866","2018/03/31 13:49:23","新北市永和區安樂路44號","121.514698333333","24.9968716666667","6500400","永和區"
"234040","862-TW","2018/03/31 13:49:22","新北市永和區中和路421巷3弄21號","121.508511666667","25.000315","6500400","永和區"
"234048","863-TW","2018/03/31 13:49:18","新北市永和區保安路77號","121.508685","25.01487","6500400","永和區"
"234010","9373-KE","2018/03/31 13:49:17","新北市永和區仁愛路278號","121.503923333333","25.00829","6500400","永和區"
"248017","225-UY","2018/03/31 13:49:32","新北市五股區民義路二段22巷22號","121.423563333333","25.0977516666667","6501500","五股區"
"234022","9380-KE","2018/03/31 13:49:29","新北市永和區中正路662巷25號","121.51768","25.0088133333333","6500400","永和區"
"234076","969-R7","2018/03/31 13:49:20","新北市永和區民族街27巷17號","121.51989","24.9995383333333","6500400","永和區"
"234072","AAC-211","2018/03/31 13:49:26","新北市永和區豫溪街215巷1號","121.524118333333","25.009585","6500400","永和區"
"234066","AAC-212","2018/03/31 13:49:26","新北市永和區保平路236巷34號","121.50774","25.006965","6500400","永和區"
"234001","AAC-295","2018/03/31 13:49:32","新北市永和區永和路一段42號","121.513011666667","25.0055733333333","6500400","永和區"
"244005","248-BX","2018/03/31 13:49:17","新北市林口區竹林路267號","121.38959","25.080815","6501700","林口區"
"231002","002-UM","2018/03/31 13:49:30","新北市新店區溪園路393號","121.524248333333","24.979055","6500600","新店區"
"231027","0291-UT","2018/03/31 13:49:24","新北市新店區北宜路一段39巷20號","121.538868333333","24.9583316666667","6500600","新店區"
"231025","0293-UT","2018/03/31 13:49:27","新北市新店區中央五街28號","121.52909","24.9746433333333","6500600","新店區"
"231028","046-UY","2018/03/31 13:49:16","新北市新店區安和路三段1-1號","121.516953333333","24.9798933333333","6500600","新店區"
"231030","047-UY","2018/03/31 13:49:32","新北市新店區安康路一段302號","121.518518333333","24.96411","6500600","新店區"
"231029","106-UY","2018/03/31 13:49:29","新北市新店區安康路二段81號","121.51363","24.9629683333333","6500600","新店區"
"231018","107-UY","2018/03/31 13:49:27","新北市新店區中正路399巷26號","121.533868333333","24.97656","6500600","新店區"
"231012","108-UY","2018/03/31 13:49:30","新北市新店區中興路二段67巷19號","121.545703333333","24.971215","6500600","新店區"
"231020","187-VK","2018/03/31 13:49:23","新北市新店區新烏路二段9號","121.544823333333","24.9290766666667","6500600","新店區"
"231017","KEA-2219","2018/03/31 13:49:15","新北市新店區竹林路71-7號","121.553645","24.9514183333333","6500600","新店區"
"231026","256-BX","2018/03/31 13:49:25","新北市新店區三民路159巷19弄48號","121.532195","24.9731716666667","6500600","新店區"
"231034","268-BY","2018/03/31 13:49:27","新北市新店區達觀路14巷3號","121.50316","24.9417883333333","6500600","新店區"
"231010","278-BY","2018/03/31 13:49:29","新北市新店區三民路157-1號","121.533813333333","24.973755","6500600","新店區"
"231023","AAD-862","2018/03/31 13:49:27","新北市新店區國校路43號","121.537873333333","24.955315","6500600","新店區"
"231024","4716-K9","2018/03/31 13:49:25","新北市新店區北新路一段271巷26號","121.54008","24.9672766666667","6500600","新店區"
"231038","4715-K9","2018/03/31 13:49:31","新北市新店區安康路一段94-3號","121.527645","24.9622283333333","6500600","新店區"
"231036","512-UM","2018/03/31 13:49:28","新北市新店區安祥路110巷49號","121.47328","24.9570483333333","6500600","新店區"
"231035","513-UM","2018/03/31 13:49:27","新北市新店區安忠路57巷7弄2號","121.513248333333","24.958435","6500600","新店區"
"231006","617-UM","2018/03/31 13:49:24","新北市新店區北宜路一段260號","121.54573","24.952795","6500600","新店區"
"231001","619-UM","2018/03/31 13:49:30","新北市新店區三民路42號","121.536166666667","24.9715583333333","6500600","新店區"
"231003","641-BX","2018/03/31 13:49:15","新北市新店區中興路一段103巷2號","121.54109","24.9623783333333","6500600","新店區"
"231013","719-UM","2018/03/31 13:49:27","新北市新店區二十張路25巷18弄16號","121.539238333333","24.9815233333333","6500600","新店區"
"231033","719-UY","2018/03/31 13:49:17","新北市新店區莒光路87巷15號","121.525615","24.953355","6500600","新店區"
"231005","897-TW","2018/03/31 13:49:19","新北市新店區寶中路115號","121.549115","24.9799816666667","6500600","新店區"
"231004","899-TW","2018/03/31 13:49:22","新北市新店區寶橋路132號","121.547406666667","24.9760533333333","6500600","新店區"
"231037","AKT-0513","2018/03/31 13:49:20","新北市新店區安康路三段355巷27號","121.484883333333","24.950005","6500600","新店區"
"235030","003-UY","2018/03/31 13:49:12","新北市中和區水源路18巷3號","121.504061666667","25.003205","6500300","中和區"
"235028","005-UY","2018/03/31 13:49:15","新北市中和區泰和街27號","121.499338333333","25.0000166666667","6500300","中和區"
"235027","006-UY","2018/03/31 13:49:30","新北市中和區錦和路95號","121.49007","24.9956466666667","6500300","中和區"
"235020","096-UM","2018/03/31 13:49:25","新北市中和區中正路1196號","121.48047","25.010475","6500300","中和區"
"235029","098-UM","2018/03/31 13:49:21","新北市中和區中山路二段2巷45弄26-6號","121.501373333333","25.0069966666667","6500300","中和區"
"235004","150-BY","2018/03/31 13:49:23","新北市中和區宜安路119巷2號","121.509863333333","24.9976616666667","6500300","中和區"
"235022","151-BY","2018/03/31 13:49:33","新北市中和區連城路559號","121.479928333333","24.9947566666667","6500300","中和區"
"235019","183-VK","2018/03/31 13:49:30","新北市中和區民德路25巷3號","121.469273333333","25.0028583333333","6500300","中和區"
"235002","185-VK","2018/03/31 13:49:20","新北市中和區立人街30號","121.51855","24.994095","6500300","中和區"
"235013","186-VK","2018/03/31 13:49:24","新北市中和區景新街210巷2號","121.507028333333","24.99436","6500300","中和區"
"235031","255-BX","2018/03/31 13:48:56","新北市中和區新生街186巷1弄28號","121.483348333333","24.9985066666667","6500300","中和區"
"235008","293-VK","2018/03/31 13:49:16","新北市中和區中興街139號","121.499966666667","24.99133","6500300","中和區"
"235036","301-VK","2018/03/31 13:49:18","新北市中和區中山路二段28號","121.504615","25.0052166666667","6500300","中和區"
"235007","352-BY","2018/03/31 13:49:21","新北市中和區成功路47號","121.526148333333","24.9930283333333","6500300","中和區"
"235032","377-QA","2018/03/31 13:49:14","新北市中和區中正路271-4號","121.49577","24.993365","6500300","中和區"
"235025","378-QA","2018/03/31 13:49:09","新北市中和區民治街134巷6號","121.475065","25.0021966666667","6500300","中和區"
"235035","269-TV","2018/03/31 13:49:13","新北市中和區立德街26巷17弄11號","121.489683333333","25.0079466666667","6500300","中和區"
"235014","4979-A6","2018/03/31 13:49:15","新北市中和區忠孝街62巷7弄1號","121.512925","24.9835683333333","6500300","中和區"
"235006","551-UM","2018/03/31 13:49:17","新北市中和區成功路9號","121.526291666667","24.9940233333333","6500300","中和區"
"235034","558-UM","2018/03/31 13:49:32","新北市中和區南山路17號","121.502008333333","24.9992033333333","6500300","中和區"
"235009","565-BX","2018/03/31 13:49:25","新北市中和區捷運路102號","121.50554","24.9915183333333","6500300","中和區"
"235018","640-BX","2018/03/31 13:49:17","新北市中和區民治街120號","121.475098333333","25.0034266666667","6500300","中和區"
"235024","647-TV","2018/03/31 13:49:17","新北市中和區中山路三段216號","121.471363333333","25.006665","6500300","中和區"
"235011","732-UM","2018/03/31 13:49:29","新北市中和區興南路二段34巷57弄1號","121.504885","24.985905","6500300","中和區"
"235010","733-UM","2018/03/31 13:49:29","新北市中和區仁愛街36巷40號","121.511326666667","24.9864533333333","6500300","中和區"
"235026","800-TS","2018/03/31 13:49:18","新北市中和區中山路二段340巷15號","121.493558333333","25.0030466666667","6500300","中和區"
"235021","801-TS","2018/03/31 13:49:21","新北市中和區民安街23號","121.480373333333","25.0005066666667","6500300","中和區"
"235005","802-TS","2018/03/31 13:49:20","新北市永和區安樂路250-2號","121.514601666667","25.00381","6500300","中和區"
"235016","805-TS","2018/03/31 13:49:23","新北市中和區興南路二段399巷100號","121.501133333333","24.9770433333333","6500300","中和區"
"235012","896-TW","2018/03/31 13:49:29","新北市中和區南山路353號","121.505886666667","24.9907633333333","6500300","中和區"
"235017","900-TW","2018/03/31 13:49:17","新北市中和區華福街31號","121.466098333333","24.996755","6500300","中和區"
"235015","157-BY","2018/03/31 13:49:23","新北市中和區忠孝街24號","121.510515","24.982935","6500300","中和區"
"235001","AAC-213","2018/03/31 13:49:25","新北市中和區秀朗路三段128巷7弄2號","121.524571666667","24.9929183333333","6500300","中和區"
"235023","AAC-215","2018/03/31 13:49:30","新北市中和區圓通路391-2號","121.489983333333","24.98922","6500300","中和區"
"220013","072-UY","2018/03/31 13:49:21","新北市板橋區漢生東路282號","121.471256666667","25.00899","6500100","板橋區"
"220034","073-UY","2018/03/31 13:49:24","新北市板橋區大智街40-2號","121.454888333333","25.015205","6500100","板橋區"
"220017","AAD-861","2018/03/31 13:49:18","新北市板橋區館前西路49號","121.457991666667","25.0066783333333","6500100","板橋區"
"247009","341-TH","2018/03/31 13:49:30","新北市蘆洲區集賢路224巷10號","121.482083333333","25.086785","6501400","蘆洲區"
"247003","337-TH","2018/03/31 13:49:16","新北市蘆洲區中原路30號","121.460018333333","25.0828866666667","6501400","蘆洲區"
"247005","336-TH","2018/03/31 13:49:13","新北市蘆洲區中山二路283號","121.469338333333","25.0789483333333","6501400","蘆洲區"
"247007","056-VK","2018/03/31 13:49:22","新北市蘆洲區集賢路269巷10號","121.481555","25.08352","6501400","蘆洲區"
"235003","251-BX","2018/03/31 13:49:25","新北市中和區大勇街29巷14號","121.51587","24.994665","6500300","中和區"
"228005","097-TW","2018/03/31 13:49:31","新北市雙溪區三港里雙澳路100號","121.889365","25.0559916666667","6502600","貢寮區"
"228004","212-TW","2018/03/31 13:41:27","新北市貢寮區龍崗里嵩陽街41號","121.905096666667","25.0136283333333","6502600","貢寮區"
"253003","6232-TK","2018/03/31 13:49:16","新北市石門區尖子鹿8-1號","121.575231666667","25.279975","6502200","石門區"
"253001","6251-TK","2018/03/31 13:49:31","新北市三芝區新庄里新庄子96號","121.51548","25.2757616666667","6502200","石門區"
"253002","637-UY","2018/03/31 13:49:17","新北市石門區尖山湖3-1號","121.564578333333","25.24122","6502200","石門區"
"253004","8270-PC","2018/03/31 13:49:18","新北市石門區阿里荖40號","121.60483","25.27902","6502200","石門區"
"207002","749-BX","2018/03/31 13:49:20","新北市萬里區崁腳里崁腳路166號","121.645093333333","25.1558066666667","6502800","萬里區"
"252005","073-UM","2018/03/31 13:49:34","新北市三芝區圓山里內柑宅25-2號","121.538383333333","25.2270066666667","6502100","三芝區"
"207001","662-BX","2018/03/31 13:49:18","新北市萬里區磺潭里磺溪12-1號","121.630815","25.2024483333333","6502800","萬里區"
"237001","159-UY","2018/03/31 13:49:17","新北市三峽區三樹路128-1號","121.378043333333","24.9398566666667","6500900","三峽區"
"236068","105-UM","2018/03/31 13:49:22","新北市土城區亞洲路32巷23號","121.434985","24.9751766666667","6501300","土城區"
"236040","107-UM","2018/03/31 13:49:28","新北市土城區亞洲路58巷5弄6號","121.433703333333","24.9744133333333","6501300","土城區"
"236077","166-UM","2018/03/31 13:49:16","新北市土城區中央路四段7號","121.425528333333","24.9627783333333","6501300","土城區"
"236029","253-BX","2018/03/31 13:49:26","新北市土城區中央路二段280號","121.440698333333","24.9740183333333","6501300","土城區"
"236024","269-VK","2018/03/31 13:49:27","新北市土城區亞洲路32巷22號","121.435151666667","24.9752283333333","6501300","土城區"
"236013","270-VK","2018/03/31 13:49:29","新北市土城區亞洲路32巷23號","121.434976666667","24.97512","6501300","土城區"
"236032","271-VK","2018/03/31 13:49:25","新北市土城區亞洲路58巷5弄12號","121.433561666667","24.9741883333333","6501300","土城區"
"236017","401-BY","2018/03/31 13:49:17","新北市土城區亞洲路32巷23號","121.43489","24.9752233333333","6501300","土城區"
"236006","498-BY","2018/03/31 13:49:32","新北市土城區學府路二段156-1號","121.44582","24.9785983333333","6501300","土城區"
"236057","912-UM","2018/03/31 13:49:16","新北市土城區中華路二段2號","121.439353333333","24.97962","6501300","土城區"
"236060","915-UM","2018/03/31 13:49:26","新北市土城區亞洲路32巷23號","121.43497","24.9750416666667","6501300","土城區"
"236054","AAC-216","2018/03/31 13:49:29","新北市土城區城林路6巷80號","121.438218333333","24.979615","6501300","土城區"
"220027","145-BY","2018/03/31 13:49:27","新北市板橋區中正路48號","121.456428333333","25.0140983333333","6500100","板橋區"
"220028","200-UY","2018/03/31 13:49:21","新北市板橋區大觀路二段265巷60弄20號","121.441801666667","24.9979066666667","6500100","板橋區"
"220105","KEA-2550","2018/03/31 13:49:28","新北市板橋區民生路二段161巷1號","121.470236666667","25.020175","6500100","板橋區"
"220030","610-BX","2018/03/31 13:49:30","新北市板橋區篤行路三段34號","121.42802","24.986365","6500100","板橋區"
"220020","256-TC","2018/03/31 13:49:17","新北市板橋區金門街19巷8號","121.433971666667","24.9948516666667","6500100","板橋區"
"220040","267-BY","2018/03/31 13:49:28","新北市板橋區民生路二段161巷1號","121.470086666667","25.0200166666667","6500100","板橋區"
"220004","276-BY","2018/03/31 13:49:30","新北市土城區四川路4號","121.455768333333","24.9961","6500100","板橋區"
"220019","283-VK","2018/03/31 13:49:26","新北市板橋區忠孝路196巷43號","121.465525","25.0016766666667","6500100","板橋區"
"220043","285-UM","2018/03/31 13:49:15","新北市板橋區民生路二段161巷1號","121.470096666667","25.0198133333333","6500100","板橋區"
"220001","285-VK","2018/03/31 13:49:16","新北市板橋區永豐街55巷42號","121.47214","25.0184916666667","6500100","板橋區"
"220031","286-VK","2018/03/31 13:49:30","新北市板橋區僑中二街106巷1號","121.445885","25.0075433333333","6500100","板橋區"
"220029","287-VK","2018/03/31 13:49:28","新北市板橋區光華街13巷2-3號","121.454123333333","25.011565","6500100","板橋區"
"220039","288-VK","2018/03/31 13:49:19","新北市板橋區民生路二段120號","121.47039","25.019625","6500100","板橋區"
"220009","293-UM","2018/03/31 13:49:15","新北市板橋區太和街6巷1號","121.473616666667","25.0201566666667","6500100","板橋區"
"220032","296-UM","2018/03/31 13:49:27","新北市板橋區大觀路二段156巷41號","121.441275","24.9998416666667","6500100","板橋區"
"220023","303-R5","2018/03/31 13:49:27","新北市板橋區南雅西路一段174巷1弄8號","121.45293","25.0073833333333","6500100","板橋區"
"220010","305-R5","2018/03/31 13:49:16","新北市板橋區中山路二段25號","121.472456666667","25.0152983333333","6500100","板橋區"
"220041","307-R5","2018/03/31 13:49:28","新北市板橋區民生路二段120號","121.470775","25.02002","6500100","板橋區"
"220047","317-R6","2018/03/31 13:49:30","新北市板橋區民生路二段161巷1號","121.470251666667","25.019885","6500100","板橋區"
"220012","486-VK","2018/03/31 13:49:27","新北市板橋區民生路二段36-1號","121.472115","25.0167866666667","6500100","板橋區"
"220037","491-VK","2018/03/31 13:49:31","新北市板橋區民生路二段161巷1號","121.469913333333","25.0200733333333","6500100","板橋區"
"220104","560-BX","2018/03/31 13:49:14","新北市板橋區中正路325巷3弄7號","121.453758333333","25.0188866666667","6500100","板橋區"
"220011","609-BX","2018/03/31 13:49:23","新北市板橋區中山路二段37號","121.472986666667","25.0157766666667","6500100","板橋區"
"220003","630-UY","2018/03/31 13:49:17","新北市板橋區南雅南路二段4巷20號","121.453548333333","25.0036616666667","6500100","板橋區"
"220005","686-BX","2018/03/31 13:49:17","新北市板橋區大觀路二段266號","121.449388333333","24.9966383333333","6500100","板橋區"
"220025","687-BX","2018/03/31 13:49:25","新北市板橋區篤行路二段107號","121.431495","24.9912616666667","6500100","板橋區"
"220042","689-BX","2018/03/31 13:49:28","新北市板橋區民生路二段188號","121.470258333333","25.0205566666667","6500100","板橋區"
"220002","741-BX","2018/03/31 13:49:15","新北市板橋區館前西路43號","121.458118333333","25.0068633333333","6500100","板橋區"
"220051","KEA-2699","2018/03/31 13:49:22","新北市板橋區民生路二段161巷9號","121.470235","25.01961","6500100","板橋區"
"220014","829-TW","2018/03/31 13:49:24","新北市板橋區民生路二段5號","121.47285","25.0158016666667","6500100","板橋區"
"220022","895-R6","2018/03/31 13:49:33","新北市板橋區南雅南路一段74號","121.45529","25.0051333333333","6500100","板橋區"
"220021","985-R7","2018/03/31 13:49:24","新北市板橋區館前西路121號","121.456728333333","25.0075083333333","6500100","板橋區"
"220018","AAC-253","2018/03/31 13:49:29","新北市板橋區四川路一段66號","121.459646666667","25.005485","6500100","板橋區"
