"lineid","car","time","location","longitude","latitude","cityid","cityname"
"234044","148-BY","2018/03/31 14:09:32","新北市永和區得和路333號","121.523633333333","24.9995733333333","6500400","永和區"
"234068","149-BY","2018/03/31 14:09:27","新北市永和區福和路272號","121.518053333333","25.0075533333333","6500400","永和區"
"234005","208-UY","2018/03/31 14:09:25","新北市中和區南工路20號","121.505475","25.0005866666667","6500400","永和區"
"234078","298-R6","2018/03/31 14:09:18","新北市永和區永亨路98號","121.523075","25.004795","6500400","永和區"
"234036","336-UY","2018/03/31 14:09:28","新北市永和區成功路一段47巷21弄2號","121.527983333333","25.0039916666667","6500400","永和區"
"234062","337-UY","2018/03/31 14:09:21","新北市永和區永利路156號","121.522518333333","25.0027533333333","6500400","永和區"
"234084","338-UY","2018/03/31 14:09:27","新北市永和區中正路626號","121.517036666667","25.0079433333333","6500400","永和區"
"234015","745-BX","2018/03/31 14:09:30","新北市永和區仁愛路9號","121.514815","25.0134483333333","6500400","永和區"
"234028","746-BX","2018/03/31 14:09:15","新北市永和區四維街103巷16號","121.523678333333","24.9971466666667","6500400","永和區"
"234052","KEA-2590","2018/03/31 14:09:34","新北市永和區環河東路一段122號","121.520631666667","25.0155266666667","6500400","永和區"
"234012","KEA-2591","2018/03/31 14:09:17","新北市永和區永貞路375號","121.508265","25.0083683333333","6500400","永和區"
"234060","AAD-866","2018/03/31 14:09:23","新北市中和區安平路222號","121.514045","25.0001316666667","6500400","永和區"
"234040","862-TW","2018/03/31 14:09:34","新北市永和區雙和街30號","121.508906666667","25.0027416666667","6500400","永和區"
"234048","863-TW","2018/03/31 14:09:19","新北市永和區環河西路二段89號","121.506573333333","25.0149883333333","6500400","永和區"
"234025","9371-KE","2018/03/31 14:09:28","新北市永和區安樂路272巷9弄7號","121.515096666667","25.0046466666667","6500400","永和區"
"234010","9373-KE","2018/03/31 14:09:17","新北市永和區仁愛路352巷122弄11號","121.500558333333","25.0089416666667","6500400","永和區"
"248017","225-UY","2018/03/31 14:09:32","新北市五股區民義路一段255-29號","121.427666666667","25.09115","6501500","五股區"
"234022","9380-KE","2018/03/31 14:09:29","新北市永和區光復街2巷5號","121.516833333333","25.01658","6500400","永和區"
"234076","969-R7","2018/03/31 14:09:30","新北市永和區民族街67巷4號","121.518571666667","24.9972133333333","6500400","永和區"
"234072","AAC-211","2018/03/31 14:09:32","新北市永和區豫溪街160巷2號","121.523251666667","25.0095933333333","6500400","永和區"
"234066","AAC-212","2018/03/31 14:09:26","新北市永和區保平路214巷3弄10號","121.508868333333","25.0060166666667","6500400","永和區"
"234001","AAC-295","2018/03/31 14:09:32","新北市永和區中正路704號","121.5162","25.0099366666667","6500400","永和區"
"244005","248-BX","2018/03/31 14:09:17","新北市林口區竹林路266號","121.389666666667","25.080825","6501700","林口區"
"231002","002-UM","2018/03/31 14:09:30","新北市新店區中正路542-10號","121.533671666667","24.9849633333333","6500600","新店區"
"231027","0291-UT","2018/03/31 14:09:24","新北市新店區光明街138巷13弄7號","121.540228333333","24.96149","6500600","新店區"
"231025","0293-UT","2018/03/31 14:09:27","新北市新店區中正路352號","121.535921666667","24.9754583333333","6500600","新店區"
"231028","046-UY","2018/03/31 14:09:16","新北市新店區安和路2段237-1號","121.516895","24.9766866666667","6500600","新店區"
"231030","047-UY","2018/03/31 14:09:12","新北市新店區安民街65巷21-2號","121.515191666667","24.9674766666667","6500600","新店區"
"231029","106-UY","2018/03/31 14:09:28","新北市新店區安康路二段159巷2號","121.510355","24.9593533333333","6500600","新店區"
"231018","107-UY","2018/03/31 14:09:27","新北市新店區中央五街86號","121.52626","24.976195","6500600","新店區"
"231012","108-UY","2018/03/31 14:09:35","新北市新店區五峰路143號","121.545126666667","24.9656966666667","6500600","新店區"
"231020","187-VK","2018/03/31 14:09:23","新北市新店區新烏路二段198巷2弄2號","121.54777","24.9170316666667","6500600","新店區"
"231017","KEA-2219","2018/03/31 14:09:15","新北市新店區中生路176號","121.576228333333","24.9490033333333","6500600","新店區"
"231034","268-BY","2018/03/31 14:09:27","新北市新店區黎明路3號","121.503498333333","24.95244","6500600","新店區"
"231023","AAD-862","2018/03/31 14:09:27","新北市新店區文中路45號","121.539481666667","24.9566933333333","6500600","新店區"
"231038","4715-K9","2018/03/31 14:09:31","新北市新店區溪洲路121號","121.531228333333","24.963015","6500600","新店區"
"231036","512-UM","2018/03/31 14:09:28","新北市新店區安祥路109巷85弄37號","121.47883","24.9597333333333","6500600","新店區"
"231035","513-UM","2018/03/31 14:09:15","新北市新店區安和路一段52巷2號","121.517618333333","24.966165","6500600","新店區"
"231006","617-UM","2018/03/31 14:09:24","新北市新店區北宜路二段361-3號","121.558561666667","24.9542183333333","6500600","新店區"
"231001","619-UM","2018/03/31 14:09:30","新北市新店區中華路68號","121.539146666667","24.9691266666667","6500600","新店區"
"231003","641-BX","2018/03/31 14:09:15","新北市新店區中興路一段216號","121.543951666667","24.965715","6500600","新店區"
"231013","719-UM","2018/03/31 14:09:18","新北市新店區北新路三段65巷2號","121.541393333333","24.9811166666667","6500600","新店區"
"231033","719-UY","2018/03/31 14:09:17","新北市新店區碧潭路2號","121.534876666667","24.9565533333333","6500600","新店區"
"231005","897-TW","2018/03/31 14:09:28","新北市新店區寶慶街71號","121.541943333333","24.9865916666667","6500600","新店區"
"231004","899-TW","2018/03/31 14:09:25","新北市新店區北新路二段188號","121.543051666667","24.976355","6500600","新店區"
"231037","AKT-0513","2018/03/31 14:09:20","新北市新店區安康路二段341巷38號","121.496643333333","24.95435","6500600","新店區"
"235030","003-UY","2018/03/31 14:09:32","新北市中和區廣福路50號","121.504038333333","25.0019983333333","6500300","中和區"
"235028","005-UY","2018/03/31 14:09:15","新北市中和區中和路40巷4-3號","121.499666666667","25.0013183333333","6500300","中和區"
"235027","006-UY","2018/03/31 14:09:29","新北市中和區連城路249巷21弄2號","121.494063333333","24.99594","6500300","中和區"
"235020","096-UM","2018/03/31 14:09:25","新北市中和區中山路二段618號","121.48153","25.0054483333333","6500300","中和區"
"235029","098-UM","2018/03/31 14:09:21","新北市中和區中山路二段2巷3弄2號","121.504846666667","25.0062016666667","6500300","中和區"
"235004","150-BY","2018/03/31 14:09:23","新北市中和區保健路44巷3號","121.509425","24.99706","6500300","中和區"
"235022","151-BY","2018/03/31 14:09:19","新北市中和區員山路143巷1號","121.480796666667","24.9961216666667","6500300","中和區"
"235019","183-VK","2018/03/31 14:09:30","新北市中和區德光路93號","121.468975","25.003505","6500300","中和區"
"235002","185-VK","2018/03/31 14:09:20","新北市中和區大仁街10巷34號","121.518936666667","24.9925033333333","6500300","中和區"
"235013","186-VK","2018/03/31 14:09:24","新北市中和區景新街239號","121.50824","24.994495","6500300","中和區"
"235031","255-BX","2018/03/31 14:09:16","新北市中和區新生街172號","121.483628333333","25.0000333333333","6500300","中和區"
"235008","293-VK","2018/03/31 14:09:16","新北市中和區中興街212號","121.499666666667","24.990035","6500300","中和區"
"235036","301-VK","2018/03/31 14:09:18","新北市中和區莊敬路33巷20號","121.500293333333","25.0054816666667","6500300","中和區"
"235007","352-BY","2018/03/31 14:09:21","新北市中和區景平路120號","121.519271666667","24.9916333333333","6500300","中和區"
"235032","377-QA","2018/03/31 14:09:35","新北市中和區圓通路158巷3-1號","121.497573333333","24.9961666666667","6500300","中和區"
"235025","378-QA","2018/03/31 14:09:22","新北市中和區員山路237號","121.481261666667","24.9983516666667","6500300","中和區"
"235035","269-TV","2018/03/31 14:09:33","新北市中和區建二路151號","121.487403333333","25.0036683333333","6500300","中和區"
"235014","4979-A6","2018/03/31 14:09:15","新北市中和區復興路268號","121.50285","24.9904266666667","6500300","中和區"
"235006","551-UM","2018/03/31 14:09:32","新北市中和區自立路117巷3號","121.522358333333","24.99454","6500300","中和區"
"235034","558-UM","2018/03/31 14:09:32","新北市中和區中和路80號","121.501093333333","25.0006516666667","6500300","中和區"
"235009","565-BX","2018/03/31 14:09:25","新北市中和區景新街467巷35弄4號","121.514618333333","24.9891","6500300","中和區"
"235018","640-BX","2018/03/31 14:09:17","新北市中和區國光街107巷2弄32號","121.469286666667","24.998995","6500300","中和區"
"235024","647-TV","2018/03/31 14:09:31","新北市中和區民有街49號","121.475971666667","25.00462","6500300","中和區"
"235011","732-UM","2018/03/31 14:09:29","新北市中和區興南路一段92號","121.509913333333","24.9891","6500300","中和區"
"235010","733-UM","2018/03/31 14:09:29","新北市中和區忠孝街1巷5號","121.508675","24.983415","6500300","中和區"
"235026","800-TS","2018/03/31 14:09:18","新北市中和區橋和路107號","121.491038333333","25.0056683333333","6500300","中和區"
"235021","801-TS","2018/03/31 14:09:21","新北市中和區民利街50號","121.47934","24.99882","6500300","中和區"
"235005","802-TS","2018/03/31 14:09:20","新北市中和區中安街178巷2號","121.511063333333","24.9996283333333","6500300","中和區"
"235016","805-TS","2018/03/31 14:09:23","新北市中和區興南路二段142巷17弄16號","121.502936666667","24.9833616666667","6500300","中和區"
"235012","896-TW","2018/03/31 14:09:21","新北市中和區工專路147號","121.508396666667","24.9787666666667","6500300","中和區"
"235017","900-TW","2018/03/31 14:09:17","新北市中和區華福街75號","121.467293333333","24.9965266666667","6500300","中和區"
"235015","157-BY","2018/03/31 14:09:23","新北市中和區景新街390號","121.51249","24.9898283333333","6500300","中和區"
"235001","AAC-213","2018/03/31 14:09:25","新北市中和區秀朗路三段50巷2弄1號","121.526028333333","24.995525","6500300","中和區"
"235023","AAC-215","2018/03/31 14:09:27","新北市中和區圓通路294巷17-5號","121.488625","24.9904133333333","6500300","中和區"
"220013","072-UY","2018/03/31 14:09:21","新北市板橋區民族路151巷75號","121.469653333333","25.00873","6500100","板橋區"
"220034","073-UY","2018/03/31 14:09:24","新北市板橋區中正路236巷73號","121.45896","25.0196066666667","6500100","板橋區"
"220017","AAD-861","2018/03/31 14:09:21","新北市板橋區華興街46號","121.458426666667","25.0047783333333","6500100","板橋區"
"247023","893-R6","2018/03/31 14:09:20","新北市蘆洲區光榮路118號","121.464701666667","25.0888283333333","6501400","蘆洲區"
"247013","546-UM","2018/03/31 14:09:16","新北市蘆洲區忠孝路86號","121.471485","25.0857066666667","6501400","蘆洲區"
"247021","500-BY","2018/03/31 14:09:17","新北市蘆洲區三民路175號","121.470988333333","25.0872916666667","6501400","蘆洲區"
"247009","341-TH","2018/03/31 14:09:30","新北市蘆洲區信義路158-10號","121.479791666667","25.0840633333333","6501400","蘆洲區"
"247011","339-TH","2018/03/31 14:09:30","新北市蘆洲區信義路244號","121.478541666667","25.0861183333333","6501400","蘆洲區"
"247003","337-TH","2018/03/31 14:09:16","新北市蘆洲區長安街102巷65號","121.46274","25.0821183333333","6501400","蘆洲區"
"247005","336-TH","2018/03/31 14:09:13","新北市蘆洲區永安南路二段16巷17弄4號","121.467648333333","25.0778866666667","6501400","蘆洲區"
"247017","057-VK","2018/03/31 14:09:21","新北市蘆洲區民族路420號","121.47418","25.0917033333333","6501400","蘆洲區"
"247007","056-VK","2018/03/31 14:09:22","新北市蘆洲區中山一路240號","121.472375","25.0799766666667","6501400","蘆洲區"
"247001","053-VK","2018/03/31 14:09:29","新北市蘆洲區永平街56號","121.45761","25.0914566666667","6501400","蘆洲區"
"247015","007-UY","2018/03/31 14:09:23","新北市蘆洲區光華路46巷38號","121.467781666667","25.0843","6501400","蘆洲區"
"247019","001-UY","2018/03/31 14:09:21","新北市蘆洲區民族路426巷52號","121.472871666667","25.0936016666667","6501400","蘆洲區"
"235003","251-BX","2018/03/31 14:09:25","新北市中和區景平路3號","121.523636666667","24.9902783333333","6500300","中和區"
"228005","097-TW","2018/03/31 14:09:31","新北市貢寮區美豐里土地公嶺23號","121.889116666667","25.0597333333333","6502600","貢寮區"
"228004","212-TW","2018/03/31 14:09:27","新北市貢寮區雙玉里德心街9-1號","121.918516666667","25.0159533333333","6502600","貢寮區"
"253003","6232-TK","2018/03/31 14:09:16","新北市石門區尖子鹿47-2號","121.580855","25.2684483333333","6502200","石門區"
"253001","6251-TK","2018/03/31 14:09:31","新北市石門區八甲43號","121.53151","25.2679616666667","6502200","石門區"
"253002","637-UY","2018/03/31 14:09:17","新北市石門區七股30號","121.551991666667","25.2641233333333","6502200","石門區"
"253004","8270-PC","2018/03/31 14:09:18","新北市石門區坪林40號","121.590128333333","25.26286","6502200","石門區"
"207002","749-BX","2018/03/31 14:09:20","新北市萬里區溪底里瑞泉路13-1號","121.604725","25.1452416666667","6502800","萬里區"
"252005","073-UM","2018/03/31 14:09:14","新北市三芝區圓山里二坪頂79號","121.540475","25.2451666666667","6502100","三芝區"
"207001","662-BX","2018/03/31 14:09:18","新北市萬里區磺潭里清水18號","121.637808333333","25.197815","6502800","萬里區"
"236068","105-UM","2018/03/31 14:09:22","新北市土城區明德路一段385-1號","121.452386666667","24.979605","6501300","土城區"
"236040","107-UM","2018/03/31 14:09:28","新北市土城區中央路一段289號","121.444373333333","24.9842783333333","6501300","土城區"
"236074","166-UM","2018/03/31 14:09:16","新北市土城區永寧路32巷24號","121.428583333333","24.960795","6501300","土城區"
"236029","253-BX","2018/03/31 14:09:26","新北市土城區中央路二段392-1號","121.439666666667","24.9708133333333","6501300","土城區"
"236024","269-VK","2018/03/31 14:09:19","新北市土城區中央路三段62號","121.436848333333","24.96734","6501300","土城區"
"236013","270-VK","2018/03/31 14:09:29","新北市土城區青雲路39巷7號","121.460308333333","24.9875566666667","6501300","土城區"
"236032","271-VK","2018/03/31 14:09:25","新北市土城區青雲路449號","121.458793333333","24.974975","6501300","土城區"
"236017","401-BY","2018/03/31 14:09:17","新北市土城區中正路82-1號","121.445195","24.9756983333333","6501300","土城區"
"236006","498-BY","2018/03/31 14:09:30","新北市土城區中華路一段36號","121.446463333333","24.9893366666667","6501300","土城區"
"236057","912-UM","2018/03/31 14:09:16","新北市土城區中央路四段99-1號","121.416711666667","24.95795","6501300","土城區"
"236045","913-UM","2018/03/31 14:09:30","新北市土城區明德路一段365-1號","121.453543333333","24.9790466666667","6501300","土城區"
"236060","915-UM","2018/03/31 14:09:26","新北市土城區學士路123號","121.446466666667","24.9758666666667","6501300","土城區"
"236054","AAC-216","2018/03/31 14:09:29","新北市土城區中華路二段102號","121.438026666667","24.9743783333333","6501300","土城區"
"220027","145-BY","2018/03/31 14:09:34","新北市板橋區民權路260巷66-2號","121.460403333333","25.0149766666667","6500100","板橋區"
"220028","200-UY","2018/03/31 14:09:21","新北市板橋區大觀路二段5號","121.447138333333","25.0038983333333","6500100","板橋區"
"220105","KEA-2550","2018/03/31 14:09:28","新北市板橋區文化路二段263巷20號","121.471151666667","25.0298366666667","6500100","板橋區"
"220030","610-BX","2018/03/31 14:09:23","新北市板橋區滿平街84巷153號","121.42702","24.9863933333333","6500100","板橋區"
"220050","245-BX","2018/03/31 14:09:30","新北市板橋區萬板路5號","121.470355","25.0208033333333","6500100","板橋區"
"220020","256-TC","2018/03/31 14:09:17","新北市板橋區金門街369巷58號","121.42828","24.98166","6500100","板橋區"
"220052","257-TC","2018/03/31 14:09:13","新北市板橋區文化路一段188巷9弄27號","121.46876","25.0193833333333","6500100","板橋區"
"220040","267-BY","2018/03/31 14:09:28","新北市板橋區萬板路558-1號","121.480646666667","25.0268483333333","6500100","板橋區"
"220004","276-BY","2018/03/31 14:09:30","新北市板橋區信義路150巷10號","121.45836","24.9918033333333","6500100","板橋區"
"220019","283-VK","2018/03/31 14:09:14","新北市板橋區重慶路265號","121.463485","24.9998616666667","6500100","板橋區"
"220043","285-UM","2018/03/31 14:09:15","新北市板橋區光武街159號","121.465433333333","25.0297683333333","6500100","板橋區"
"220001","285-VK","2018/03/31 14:09:19","新北市板橋區懷仁街24巷23號","121.475628333333","25.0192283333333","6500100","板橋區"
"220031","286-VK","2018/03/31 14:09:31","新北市板橋區大觀路二段174巷165弄2-1號","121.441436666667","25.0034833333333","6500100","板橋區"
"220029","287-VK","2018/03/31 14:09:30","新北市板橋區南雅西路二段193號","121.451805","25.0131783333333","6500100","板橋區"
"220039","288-VK","2018/03/31 14:09:30","新北市板橋區裕民街54號","121.461486666667","25.02867","6500100","板橋區"
"220009","293-UM","2018/03/31 14:09:16","新北市板橋區三民路二段21巷30號","121.480391666667","25.0181533333333","6500100","板橋區"
"220032","296-UM","2018/03/31 14:09:22","新北市板橋區溪崑一街30巷29號","121.428981666667","24.99156","6500100","板橋區"
"220023","303-R5","2018/03/31 14:09:27","新北市板橋區北門街61號","121.456068333333","25.0119683333333","6500100","板橋區"
"220010","305-R5","2018/03/31 14:09:16","新北市中和區永和路361號","121.48211","25.0121566666667","6500100","板橋區"
"220041","307-R5","2018/03/31 14:09:28","新北市板橋區文化路二段225巷62號","121.469201666667","25.0284383333333","6500100","板橋區"
"220047","317-R6","2018/03/31 14:09:30","新北市板橋區自由路51巷8號","121.46509","25.0235166666667","6500100","板橋區"
"220012","486-VK","2018/03/31 14:09:27","新北市板橋區板新路66號","121.473146666667","25.014085","6500100","板橋區"
"220037","491-VK","2018/03/31 14:09:31","新北市板橋區文化路二段182巷3弄27號","121.471928333333","25.0281183333333","6500100","板橋區"
"220104","560-BX","2018/03/31 14:09:33","新北市板橋區新生街89巷38號","121.456568333333","25.0225116666667","6500100","板橋區"
"220011","609-BX","2018/03/31 14:09:23","新北市板橋區三民路二段37號","121.479471666667","25.0172416666667","6500100","板橋區"
"220003","630-UY","2018/03/31 14:09:17","新北市板橋區新民街7巷25號","121.463576666667","25.010495","6500100","板橋區"
"220005","686-BX","2018/03/31 14:09:26","新北市板橋區重慶路265號","121.463345","24.9999483333333","6500100","板橋區"
"220025","687-BX","2018/03/31 14:09:25","新北市板橋區龍興街17號","121.442736666667","24.999755","6500100","板橋區"
"220042","689-BX","2018/03/31 14:09:28","新北市板橋區民生路三段255號","121.464488333333","25.02927","6500100","板橋區"
"220002","741-BX","2018/03/31 14:09:15","新北市板橋區實踐路32巷6號","121.463018333333","25.0071916666667","6500100","板橋區"
"220051","KEA-2699","2018/03/31 14:09:22","新北市板橋區田單街49巷1弄4號","121.482803333333","25.0284766666667","6500100","板橋區"
"220014","829-TW","2018/03/31 14:09:25","新北市板橋區中山路二段90巷43弄18-2號","121.476921666667","25.0151666666667","6500100","板橋區"
"220016","830-TW","2018/03/31 14:09:25","新北市板橋區翠華街6巷54號","121.481393333333","25.0249666666667","6500100","板橋區"
"220045","831-TW","2018/03/31 14:09:20","新北市板橋區大同街4號","121.47698","25.0267733333333","6500100","板橋區"
"220038","833-TW","2018/03/31 14:09:23","新北市板橋區文化路二段474號","121.475066666667","25.0328383333333","6500100","板橋區"
"220022","895-R6","2018/03/31 14:09:13","新北市板橋區後菜園街47號","121.456086666667","25.0099466666667","6500100","板橋區"
"220021","985-R7","2018/03/31 14:09:15","新北市板橋區中正路163-1號","121.45656","25.0162866666667","6500100","板橋區"
"220046","AAC-210","2018/03/31 14:09:26","新北市板橋區新海路135巷29號","121.46016","25.02306","6500100","板橋區"
"220018","AAC-253","2018/03/31 14:09:21","新北市板橋區忠孝路41-1號","121.461183333333","25.0020416666667","6500100","板橋區"
