"lineid","car","time","location","longitude","latitude","cityid","cityname"
"234028","746-BX","2018/03/31 14:59:15","新北市八里區中山路二段588巷12號","121.395796666667","25.145695","6500400","永和區"
"234025","9371-KE","2018/03/31 14:59:28","新北市永和區水源街33巷3號","121.510816666667","25.0042583333333","6500400","永和區"
"248017","225-UY","2018/03/31 14:59:19","新北市五股區登林路114-8號","121.42364","25.0708366666667","6501500","五股區"
"244005","248-BX","2018/03/31 14:59:17","新北市林口區竹林路269號","121.389516666667","25.0810316666667","6501700","林口區"
"231002","002-UM","2018/03/31 14:59:30","新北市新店區民權路149號","121.534578333333","24.98275","6500600","新店區"
"231025","0293-UT","2018/03/31 14:59:27","新北市新店區大同街34號","121.538891666667","24.9805966666667","6500600","新店區"
"231028","046-UY","2018/03/31 14:59:16","新北市新店區安豐路46號","121.500018333333","24.9549633333333","6500600","新店區"
"231030","047-UY","2018/03/31 14:59:32","新北市新店區安民街341-1號","121.516855","24.9748683333333","6500600","新店區"
"231029","106-UY","2018/03/31 14:59:28","新北市新店區錦秀路18號","121.479328333333","24.94461","6500600","新店區"
"231018","107-UY","2018/03/31 14:59:27","新北市新店區中央六街11號","121.530083333333","24.97465","6500600","新店區"
"231012","108-UY","2018/03/31 14:59:15","新北市新店區中興路二段252號","121.547508333333","24.9759466666667","6500600","新店區"
"231020","187-VK","2018/03/31 14:59:23","新北市新店區永福路54號","121.558155","24.9286366666667","6500600","新店區"
"231017","KEA-2219","2018/03/31 14:58:55","新北市新店區銀河路20號","121.573753333333","24.9572166666667","6500600","新店區"
"231026","256-BX","2018/03/31 14:59:22","新北市新店區中正路162號","121.541335","24.9719033333333","6500600","新店區"
"231034","268-BY","2018/03/31 14:59:27","新北市新店區玫瑰路4-1號","121.493625","24.9514433333333","6500600","新店區"
"231023","AAD-862","2018/03/31 14:59:27","新北市新店區檳榔路69號","121.544166666667","24.9620433333333","6500600","新店區"
"231024","4716-K9","2018/03/31 14:58:45","新北市新店區中華路48巷5號","121.539968333333","24.968645","6500600","新店區"
"231036","512-UM","2018/03/31 14:59:28","新北市新店區安祥路102巷46弄9號","121.485088333333","24.9641233333333","6500600","新店區"
"231035","513-UM","2018/03/31 14:59:14","新北市新店區安和路三段61號","121.518011666667","24.9833166666667","6500600","新店區"
"231006","617-UM","2018/03/31 14:59:24","新北市新店區新坡一街72號","121.54897","24.964555","6500600","新店區"
"231001","619-UM","2018/03/31 14:59:30","新北市新店區中正路276號","121.538803333333","24.9736416666667","6500600","新店區"
"231003","641-BX","2018/03/31 14:59:15","新北市新店區中興路二段237號","121.547276666667","24.9753883333333","6500600","新店區"
"231039","718-UY","2018/03/31 14:59:30","新北市新店區民權路16號","121.542065","24.9829566666667","6500600","新店區"
"231033","719-UY","2018/03/31 14:59:17","新北市新店區安泰路60巷134弄84號","121.484105","24.9437033333333","6500600","新店區"
"231005","897-TW","2018/03/31 14:59:19","新北市新店區復興路44-5號","121.538351666667","24.9868166666667","6500600","新店區"
"231004","899-TW","2018/03/31 14:59:22","新北市新店區民族路47號","121.540395","24.97859","6500600","新店區"
"231037","AKT-0513","2018/03/31 14:59:20","新北市新店區安民街365巷1弄10號","121.516506666667","24.97503","6500600","新店區"
"235030","003-UY","2018/03/31 14:59:32","新北市中和區光華街10號","121.504283333333","25.0043516666667","6500300","中和區"
"235020","096-UM","2018/03/31 14:59:25","新北市中和區中山路三段170巷6弄2號","121.472711666667","25.0071816666667","6500300","中和區"
"235029","098-UM","2018/03/31 14:59:21","新北市中和區永和路128巷47號","121.497723333333","25.0068983333333","6500300","中和區"
"235004","150-BY","2018/03/31 14:59:23","新北市中和區景安路6號","121.507651666667","24.9991333333333","6500300","中和區"
"235031","255-BX","2018/03/31 14:47:56","新北市中和區連城路340巷8弄13號","121.483058333333","24.99636","6500300","中和區"
"235008","293-VK","2018/03/31 14:59:36","新北市中和區中正路63號","121.501396666667","24.9934116666667","6500300","中和區"
"235007","352-BY","2018/03/31 14:59:21","新北市中和區華新街230號","121.506093333333","24.98173","6500300","中和區"
"235035","269-TV","2018/03/31 14:59:33","新北市中和區中正路778號","121.485133333333","25.0004783333333","6500300","中和區"
"235014","4979-A6","2018/03/31 14:59:15","新北市中和區景平路280號","121.513556666667","24.9927116666667","6500300","中和區"
"235034","558-UM","2018/03/31 14:59:32","新北市中和區圓通路138號","121.498335","24.99574","6500300","中和區"
"235018","640-BX","2018/03/31 14:59:17","新北市中和區莒光路11號","121.471941666667","25.00574","6500300","中和區"
"235010","733-UM","2018/03/31 14:59:29","新北市中和區興南路一段105巷20弄16號","121.51032","24.9854933333333","6500300","中和區"
"235026","800-TS","2018/03/31 14:59:18","新北市中和區橋和路88-12號","121.489945","25.0052516666667","6500300","中和區"
"235012","896-TW","2018/03/31 14:59:21","新北市中和區忠孝街1巷2-1號","121.509123333333","24.9830883333333","6500300","中和區"
"235015","157-BY","2018/03/31 14:59:23","新北市中和區景安路198號","121.504195","24.9914683333333","6500300","中和區"
"235001","AAC-213","2018/03/31 14:59:25","新北市中和區自立路99巷3號","121.522238333333","24.9948683333333","6500300","中和區"
"235023","AAC-215","2018/03/31 14:59:27","新北市中和區圓通路335巷1弄1號","121.492001666667","24.9904016666667","6500300","中和區"
"220013","072-UY","2018/03/31 14:59:21","新北市板橋區中山路一段154巷21號","121.465298333333","25.0105366666667","6500100","板橋區"
"220017","AAD-861","2018/03/31 14:59:18","新北市板橋區大明街25巷2弄2號","121.458216666667","25.002425","6500100","板橋區"
"247023","893-R6","2018/03/31 14:55:47","新北市五股區中興路三段163號","121.449271666667","25.0808266666667","6501400","蘆洲區"
"235003","251-BX","2018/03/31 14:59:25","新北市永和區中正路1號","121.513796666667","24.9954283333333","6500300","中和區"
"228004","212-TW","2018/03/31 14:59:27","新北市貢寮區雙玉里田寮洋街24號","121.928948333333","25.01776","6502600","貢寮區"
"253003","6232-TK","2018/03/31 14:59:16","新北市石門區小坑9號","121.594275","25.2887566666667","6502200","石門區"
"253001","6251-TK","2018/03/31 14:59:31","新北市石門區崁子腳28-5號","121.538866666667","25.2895083333333","6502200","石門區"
"253002","637-UY","2018/03/31 14:59:17","新北市石門區楓林40-2號","121.540568333333","25.285355","6502200","石門區"
"253004","8270-PC","2018/03/31 14:59:33","新北市石門區茂林社區53號","121.592428333333","25.2703316666667","6502200","石門區"
"207002","749-BX","2018/03/31 14:59:19","新北市萬里區崁腳里崁腳路73號","121.647563333333","25.15963","6502800","萬里區"
"252005","073-UM","2018/03/31 14:59:13","新北市三芝區埔坪里埔頭坑91-3號","121.507916666667","25.25329","6502100","三芝區"
"207001","662-BX","2018/03/31 14:59:18","新北市萬里區雙興里豐稟路4-1號","121.648265","25.18574","6502800","萬里區"
"252005","702-TV","2018/03/31 14:59:17","新北市三芝區錫板里海尾11-7號","121.47828","25.2604683333333","6502100","三芝區"
"236068","105-UM","2018/03/31 14:59:29","新北市土城區裕生路88號","121.447143333333","24.9851166666667","6501300","土城區"
"236040","107-UM","2018/03/31 14:59:29","新北市土城區學士路21號","121.453366666667","24.9825833333333","6501300","土城區"
"236074","166-UM","2018/03/31 14:59:37","新北市土城區中央路四段55-12號","121.419151666667","24.9567266666667","6501300","土城區"
"236029","253-BX","2018/03/31 14:59:30","新北市土城區中央路二段14巷12-19號","121.442451666667","24.9808033333333","6501300","土城區"
"236024","269-VK","2018/03/31 14:59:33","新北市土城區中正路61號","121.444371666667","24.9756133333333","6501300","土城區"
"236013","270-VK","2018/03/31 14:59:31","新北市土城區立德路29巷7號","121.462265","24.98841","6501300","土城區"
"236032","271-VK","2018/03/31 14:59:25","新北市土城區清水路145號","121.458351666667","24.9817716666667","6501300","土城區"
"236017","401-BY","2018/03/31 14:59:17","新北市土城區延吉街170號","121.468376666667","24.9853683333333","6501300","土城區"
"236057","912-UM","2018/03/31 14:59:16","新北市土城區清水路3號","121.452958333333","24.9803716666667","6501300","土城區"
"236045","913-UM","2018/03/31 14:59:30","新北市土城區明德路一段398-1號","121.453661666667","24.9791116666667","6501300","土城區"
"236060","915-UM","2018/03/31 14:59:26","新北市土城區延和路41巷6弄2號","121.465995","24.9899683333333","6501300","土城區"
"236054","AAC-216","2018/03/31 14:59:29","新北市土城區學成路46號","121.452358333333","24.9875683333333","6501300","土城區"
"220028","200-UY","2018/03/31 14:59:30","新北市板橋區大觀路二段185號","121.444958333333","24.9998","6500100","板橋區"
"220105","KEA-2550","2018/03/31 14:59:28","新北市板橋區懷德街9號","121.476706666667","25.0331116666667","6500100","板橋區"
"220050","245-BX","2018/03/31 14:59:31","新北市板橋區萬板路118號","121.474898333333","25.023475","6500100","板橋區"
"220020","256-TC","2018/03/31 14:59:17","新北市板橋區金門街106號","121.433038333333","24.9921933333333","6500100","板橋區"
"220052","257-TC","2018/03/31 14:59:33","新北市板橋區自由路13號","121.465416666667","25.0226466666667","6500100","板橋區"
"220040","267-BY","2018/03/31 14:59:36","新北市板橋區文聖街89巷32號","121.478475","25.0303083333333","6500100","板橋區"
"220019","283-VK","2018/03/31 14:59:26","新北市中和區和平路200巷1-7號","121.46451","24.995145","6500100","板橋區"
"220043","285-UM","2018/03/31 14:59:16","新北市板橋區雨農路13號","121.462181666667","25.0247233333333","6500100","板橋區"
"220001","285-VK","2018/03/31 14:59:16","新北市板橋區永豐街123號","121.474511666667","25.019665","6500100","板橋區"
"220031","286-VK","2018/03/31 14:59:30","新北市板橋區僑中二街88巷38號","121.444395","25.00955","6500100","板橋區"
"220029","287-VK","2018/03/31 14:59:28","新北市板橋區僑中一街124巷18弄7號","121.446445","25.0137483333333","6500100","板橋區"
"220039","288-VK","2018/03/31 14:59:19","新北市板橋區幸福路32巷4弄7號","121.461081666667","25.0214833333333","6500100","板橋區"
"220009","293-UM","2018/03/31 14:59:35","新北市板橋區中山路二段21號","121.472298333333","25.0152133333333","6500100","板橋區"
"220023","303-R5","2018/03/31 14:59:27","新北市板橋區金華街10巷119號","121.459533333333","25.0205933333333","6500100","板橋區"
"220010","305-R5","2018/03/31 14:59:16","新北市板橋區光復街33巷15號","121.482001666667","25.01899","6500100","板橋區"
"220041","307-R5","2018/03/31 14:59:28","新北市板橋區裕民街130號","121.458873333333","25.0274533333333","6500100","板橋區"
"220047","317-R6","2018/03/31 14:59:30","新北市板橋區新海路72巷38號","121.46232","25.022665","6500100","板橋區"
"220012","486-VK","2018/03/31 14:59:26","新北市板橋區區運路82號","121.466535","25.010385","6500100","板橋區"
"220037","491-VK","2018/03/31 14:59:31","新北市板橋區懷德街127巷1號","121.478928333333","25.0309","6500100","板橋區"
"220011","609-BX","2018/03/31 14:59:22","新北市板橋區中山路二段387號","121.480296666667","25.0193316666667","6500100","板橋區"
"220003","630-UY","2018/03/31 14:59:17","新北市板橋區國慶路149巷4弄18-3號","121.461943333333","24.9969783333333","6500100","板橋區"
"220005","686-BX","2018/03/31 14:59:16","新北市板橋區四川路二段243號","121.450595","24.9935966666667","6500100","板橋區"
"220025","687-BX","2018/03/31 14:59:35","新北市板橋區僑中一街124巷63號","121.446711666667","25.0166983333333","6500100","板橋區"
"220042","689-BX","2018/03/31 14:59:28","新北市板橋區長江路三段31號","121.472845","25.0337933333333","6500100","板橋區"
"220051","KEA-2699","2018/03/31 14:59:21","新北市板橋區文聖街59號","121.476746666667","25.03116","6500100","板橋區"
"220014","829-TW","2018/03/31 14:59:27","新北市板橋區漢生東路276號","121.469353333333","25.0119716666667","6500100","板橋區"
"220016","830-TW","2018/03/31 14:59:30","新北市板橋區中山路二段318巷4號","121.480103333333","25.019195","6500100","板橋區"
"220045","831-TW","2018/03/31 14:59:33","新北市板橋區莊敬路141巷7號","121.472268333333","25.0247816666667","6500100","板橋區"
"220038","833-TW","2018/03/31 14:59:23","新北市板橋區龍泉街55巷26號","121.457675","25.0251933333333","6500100","板橋區"
"220021","985-R7","2018/03/31 14:59:15","新北市板橋區南雅西路二段2-2號","121.453126666667","25.009015","6500100","板橋區"
"220046","AAC-210","2018/03/31 14:59:26","新北市板橋區光正街16巷24號","121.463393333333","25.0175966666667","6500100","板橋區"
"220018","AAC-253","2018/03/31 14:59:21","新北市板橋區成都街16號","121.460575","25.0047916666667","6500100","板橋區"
