"lineid","car","time","location","longitude","latitude","cityid","cityname"
"249005","172-UM","2018/03/31 16:39:31","新北市八里區挖子尾街6號","121.415671666667","25.1642166666667","6502300","八里區"
"231027","0293-UT","2018/03/31 16:27:02","新北市新店區安華路28-1號","121.519506666667","24.96061","6500600","新店區"
"231046","278-BY","2018/03/31 16:39:27","新北市新店區灣潭路76號","121.538361666667","24.9416966666667","6500600","新店區"
"241011","013-R5","2018/03/31 16:39:22","新北市三重區仁愛街51號","121.496515","25.0718566666667","6500200","三重區"
"241028","022-UY","2018/03/31 16:39:22","新北市三重區重新路三段82號","121.49323","25.0608616666667","6500200","三重區"
"241008","059-VK","2018/03/31 16:39:34","新北市三重區永安北路一段27巷24號","121.477283333333","25.0755766666667","6500200","三重區"
"241009","060-VK","2018/03/31 16:39:25","新北市三重區三和路四段203巷86號","121.484103333333","25.0800566666667","6500200","三重區"
"241031","061-VK","2018/03/31 16:39:29","新北市三重區重新路四段57號","121.487476666667","25.0575933333333","6500200","三重區"
"241015","062-VK","2018/03/31 16:39:16","新北市三重區文化北路35號","121.499098333333","25.064875","6500200","三重區"
"241017","063-VK","2018/03/31 16:39:29","新北市三重區中正北路25巷9號","121.492615","25.062195","6500200","三重區"
"241024","065-VK","2018/03/31 16:39:28","新北市三重區中正北路315巷6弄70號","121.476733333333","25.072425","6500200","三重區"
"241002","090-VK","2018/03/31 16:39:19","新北市三重區仁義街243號","121.496338333333","25.0826766666667","6500200","三重區"
"241003","091-VK","2018/03/31 16:39:24","新北市三重區五華街71巷20號","121.492895","25.0830966666667","6500200","三重區"
"241005","262-UM","2018/03/31 16:39:26","新北市三重區仁華街118巷25號","121.485961666667","25.0836883333333","6500200","三重區"
"241016","265-UM","2018/03/31 16:39:23","新北市三重區大智街24號","121.494751666667","25.06476","6500200","三重區"
"241022","267-UM","2018/03/31 16:39:35","新北市三重區新北大道一段146號","121.4844","25.061635","6500200","三重區"
"241018","268-UM","2018/03/31 16:39:18","新北市三重區正義北路314巷27號","121.49404","25.0699483333333","6500200","三重區"
"241032","269-UM","2018/03/31 16:39:26","新北市三重區中山路40巷1-1號","121.485883333333","25.0612833333333","6500200","三重區"
"241013","270-UM","2018/03/31 16:39:32","新北市三重區三和路三段101巷132號","121.498293333333","25.0736083333333","6500200","三重區"
"241025","271-UM","2018/03/31 16:39:27","新北市三重區中正北路428巷14號","121.474586666667","25.0702733333333","6500200","三重區"
"241007","398-BY","2018/03/31 16:39:20","新北市三重區三和路四段167巷76號","121.484946666667","25.0793816666667","6500200","三重區"
"241004","475-VK","2018/03/31 16:39:28","新北市三重區五福街24號","121.49258","25.0813616666667","6500200","三重區"
"241020","478-VK","2018/03/31 16:39:31","新北市三重區車路頭街51巷8號","121.484791666667","25.072425","6500200","三重區"
"241030","480-VK","2018/03/31 16:39:23","新北市三重區環河南路286號","121.48887","25.0490133333333","6500200","三重區"
"241014","543-UM","2018/03/31 16:39:21","新北市三重區龍濱路40號","121.50279","25.0683866666667","6500200","三重區"
"241023","545-UM","2018/03/31 16:39:22","新北市三重區忠孝路三段50巷82號","121.48297","25.0644766666667","6500200","三重區"
"241001","547-UM","2018/03/31 16:39:32","新北市三重區仁愛街202號","121.493821666667","25.0774733333333","6500200","三重區"
"241033","557-UM","2018/03/31 16:16:16","新北市三重區五谷王南街11巷23弄4號","121.472758333333","25.044385","6500200","三重區"
"241019","KEA-2593","2018/03/31 16:39:21","新北市三重區力行路一段9號","121.488428333333","25.06675","6500200","三重區"
"241006","AAD-863","2018/03/31 16:39:24","新北市三重區車路頭街138-6號","121.483861666667","25.075545","6500200","三重區"
"241026","887-TS","2018/03/31 16:39:37","新北市三重區和平街32號","121.501645","25.0626233333333","6500200","三重區"
"241012","941-UM","2018/03/31 16:39:22","新北市三重區仁興街5號","121.499938333333","25.0738633333333","6500200","三重區"
"241029","942-UM","2018/03/31 16:39:35","新北市三重區集美街156號","121.48965","25.0530216666667","6500200","三重區"
"235064","005-UY","2018/03/31 16:11:28","新北市中和區員山路36巷16-3號","121.485061666667","24.9913816666667","6500300","中和區"
"235046","733-UM","2018/03/31 16:33:09","新北市中和區員山路36巷13號","121.484195","24.99084","6500300","中和區"
"247023","893-R6","2018/03/31 16:39:31","新北市五股區成泰路三段362號","121.451653333333","25.0987933333333","6501400","蘆洲區"
"247006","336-TH","2018/03/31 16:39:34","新北市五股區中興路三段163號","121.446911666667","25.080325","6501400","蘆洲區"
"247008","056-VK","2018/03/31 16:39:32","新北市五股區四維路183號","121.467935","25.07537","6501400","蘆洲區"
"247020","001-UY","2018/03/31 16:39:19","新北市五股區成泰路三段318-1號","121.450295","25.0962266666667","6501400","蘆洲區"
"224008","285-BY","2018/03/31 16:39:25","新北市瑞芳區傑魚坑路31號","121.793796666667","25.1105266666667","6501200","瑞芳區"
"224007","275-VK","2018/03/31 16:39:31","新北市瑞芳區月眉路7號","121.76031","25.1055383333333","6501200","瑞芳區"
"224005","271-BY","2018/03/31 16:39:19","新北市瑞芳區洞頂路160號","121.860988333333","25.1185833333333","6501200","瑞芳區"
"227010","642-TC","2018/03/31 16:39:31","新北市雙溪區牡丹里中正路97號","121.861943333333","25.0471433333333","6502500","雙溪區"
"227002","400-TW","2018/03/31 16:39:30","新北市雙溪區外柑里外柑腳58號","121.80792","25.0178583333333","6502500","雙溪區"
"251013","179-VK","2018/03/31 16:39:21","新北市淡水區楓樹湖1-5號","121.49453","25.1904133333333","6501000","淡水區"
"251008","181-VK","2018/03/31 16:39:18","台北市北投區中央北路四段30巷160號","121.474155","25.140455","6501000","淡水區"
"251015","182-VK","2018/03/31 16:39:24","新北市淡水區忠愛街4號","121.459603333333","25.17132","6501000","淡水區"
"251011","650-BX","2018/03/31 16:39:36","新北市淡水區清水街246號","121.440531666667","25.1722333333333","6501000","淡水區"
"252002","178-VK","2018/03/31 16:39:17","新北市三芝區芝柏五街1號","121.511018333333","25.256855","6502100","三芝區"
"242021","348-TH","2018/03/31 16:39:33","新北市新莊區新泰路357巷3弄57號","121.441948333333","25.03964","6500500","新莊區"
