"lineid","car","time","location","longitude","latitude","cityid","cityname"
"249005","172-UM","2018/03/31 16:49:31","新北市八里區大堀湖1-9號","121.422883333333","25.1559083333333","6502300","八里區"
"249004","303-UY","2018/03/31 16:49:26","新北市八里區文昌路101號","121.408388333333","25.1588616666667","6502300","八里區"
"249002","305-UY","2018/03/31 16:49:34","新北市八里區牛寮埔33號","121.429938333333","25.1456633333333","6502300","八里區"
"249003","593-UM","2018/03/31 16:49:26","新北市八里區博物館路195號","121.405745","25.15669","6502300","八里區"
"231027","0293-UT","2018/03/31 16:27:02","新北市新店區安華路28-1號","121.519506666667","24.96061","6500600","新店區"
"231046","278-BY","2018/03/31 16:49:27","新北市新店區灣潭路15-7號","121.54184","24.9404566666667","6500600","新店區"
"241011","013-R5","2018/03/31 16:49:33","新北市三重區龍濱路192號","121.500833333333","25.0730916666667","6500200","三重區"
"241028","022-UY","2018/03/31 16:49:22","新北市三重區光興街89號","121.497461666667","25.0599616666667","6500200","三重區"
"241008","059-VK","2018/03/31 16:49:34","新北市三重區永安北路一段17巷28號","121.47775","25.075155","6500200","三重區"
"241009","060-VK","2018/03/31 16:49:25","新北市三重區三和路四段203巷280號","121.487816666667","25.0811083333333","6500200","三重區"
"241031","061-VK","2018/03/31 16:49:29","新北市三重區過圳街42-1號","121.488148333333","25.0598683333333","6500200","三重區"
"241015","062-VK","2018/03/31 16:49:16","新北市三重區文化北路45號","121.498991666667","25.0654966666667","6500200","三重區"
"241017","063-VK","2018/03/31 16:49:29","新北市三重區國隆路8巷47號","121.492445","25.0634266666667","6500200","三重區"
"241024","065-VK","2018/03/31 16:49:28","新北市三重區中正北路331巷22號","121.473771666667","25.07245","6500200","三重區"
"241002","090-VK","2018/03/31 16:49:33","新北市三重區仁義街221號","121.496611666667","25.0820433333333","6500200","三重區"
"241003","091-VK","2018/03/31 16:49:24","新北市三重區五華街71巷44號","121.493243333333","25.083555","6500200","三重區"
"241005","262-UM","2018/03/31 16:49:26","新北市三重區仁華街80巷13號","121.484645","25.0834866666667","6500200","三重區"
"241016","265-UM","2018/03/31 16:49:23","新北市三重區大同北路167巷41號","121.493711666667","25.06521","6500200","三重區"
"241022","267-UM","2018/03/31 16:49:36","新北市三重區貴陽街47巷19弄20號","121.484916666667","25.0621116666667","6500200","三重區"
"241018","268-UM","2018/03/31 16:49:18","新北市三重區正義北路302巷38號","121.494196666667","25.0693783333333","6500200","三重區"
"241032","269-UM","2018/03/31 16:49:26","新北市三重區三光街30巷1號","121.484751666667","25.0605","6500200","三重區"
"241013","270-UM","2018/03/31 16:49:32","新北市三重區仁和街40號","121.496786666667","25.0736883333333","6500200","三重區"
"241025","271-UM","2018/03/31 16:49:27","新北市三重區中正北路530巷19號","121.471935","25.0704933333333","6500200","三重區"
"241007","398-BY","2018/03/31 16:49:20","新北市三重區三和路四段181巷46號","121.48355","25.0792816666667","6500200","三重區"
"241004","475-VK","2018/03/31 16:49:27","新北市三重區仁愛街406巷3號","121.490623333333","25.0812716666667","6500200","三重區"
"241020","478-VK","2018/03/31 16:49:30","新北市三重區忠孝路二段35號","121.485866666667","25.0710966666667","6500200","三重區"
"241030","480-VK","2018/03/31 16:49:23","新北市三重區中正南路263號","121.492873333333","25.052865","6500200","三重區"
"241014","543-UM","2018/03/31 16:49:21","新北市三重區長榮路75號","121.502588333333","25.0691266666667","6500200","三重區"
"241023","545-UM","2018/03/31 16:49:22","新北市三重區新北大道一段190號","121.482528333333","25.062035","6500200","三重區"
"241001","547-UM","2018/03/31 16:49:32","新北市三重區仁政街74號","121.492696666667","25.077445","6500200","三重區"
"241033","557-UM","2018/03/31 16:49:26","新北市三重區新北大道二段65號","121.469135","25.0613266666667","6500200","三重區"
"241019","KEA-2593","2018/03/31 16:49:21","新北市三重區力行路一段179巷17弄2號","121.485385","25.0699566666667","6500200","三重區"
"241006","AAD-863","2018/03/31 16:49:22","新北市三重區力行路二段182-3號","121.483393333333","25.0774283333333","6500200","三重區"
"241026","887-TS","2018/03/31 16:49:37","新北市三重區文化南路10巷6號","121.500491666667","25.0620966666667","6500200","三重區"
"241012","941-UM","2018/03/31 16:49:22","新北市三重區龍門路274巷19號","121.501526666667","25.074665","6500200","三重區"
"241029","942-UM","2018/03/31 16:49:34","新北市三重區集美街207巷4號","121.491968333333","25.05438","6500200","三重區"
"235046","733-UM","2018/03/31 16:33:09","新北市中和區員山路36巷13號","121.484195","24.99084","6500300","中和區"
"247006","336-TH","2018/03/31 16:49:34","新北市蘆洲區永安南路二段132-1號","121.462703333333","25.0785616666667","6501400","蘆洲區"
"247008","056-VK","2018/03/31 16:49:32","新北市蘆洲區中山一路180號","121.474086666667","25.0811383333333","6501400","蘆洲區"
"247020","001-UY","2018/03/31 16:49:19","新北市蘆洲區民族路422巷9弄2號","121.47412","25.092135","6501400","蘆洲區"
"228003","097-TW","2018/03/31 16:49:35","新北市貢寮區貢寮里朝陽街1-2號","121.912336666667","25.02126","6502600","貢寮區"
"228002","585-TW","2018/03/31 16:49:35","新北市貢寮區貢寮里朝陽街142號","121.90451","25.023665","6502600","貢寮區"
"224008","285-BY","2018/03/31 16:49:25","新北市瑞芳區明燈路二段66號","121.809375","25.1072266666667","6501200","瑞芳區"
"224007","275-VK","2018/03/31 16:49:31","新北市瑞芳區中央路48巷吉祥園4號","121.760005","25.1037733333333","6501200","瑞芳區"
"224009","273-VK","2018/03/31 16:49:30","新北市瑞芳區中正路2號","121.809346666667","25.107065","6501200","瑞芳區"
"224005","271-BY","2018/03/31 16:49:19","新北市瑞芳區明里路54號","121.869178333333","25.123","6501200","瑞芳區"
"227010","642-TC","2018/03/31 16:49:31","新北市雙溪區牡丹里五分2號","121.866681666667","25.0471783333333","6502500","雙溪區"
"227002","400-TW","2018/03/31 16:49:30","新北市雙溪區外柑里外柑腳71號","121.807135","25.017625","6502500","雙溪區"
"251009","008-UM","2018/03/31 16:49:20","新北市淡水區中正路二段31號","121.419513333333","25.1815183333333","6501000","淡水區"
"251013","179-VK","2018/03/31 16:49:21","新北市淡水區泉洲厝32號","121.489275","25.192565","6501000","淡水區"
"251014","180-VK","2018/03/31 16:49:31","新北市淡水區淡金路三段8-1號","121.447045","25.1980083333333","6501000","淡水區"
"251008","181-VK","2018/03/31 16:49:18","新北市淡水區樹梅坑42號","121.474598333333","25.1442216666667","6501000","淡水區"
"251015","182-VK","2018/03/31 16:49:24","新北市淡水區忠愛街6號","121.460833333333","25.1715133333333","6501000","淡水區"
"251010","413-VK","2018/03/31 16:49:25","新北市淡水區中正路二段31號","121.419453333333","25.1814766666667","6501000","淡水區"
"251012","441-VK","2018/03/31 16:49:30","新北市淡水區中正路二段31號","121.419681666667","25.1815016666667","6501000","淡水區"
"251016","442-VK","2018/03/31 16:49:28","新北市淡水區水頭42號","121.47816","25.1850883333333","6501000","淡水區"
"251005","443-VK","2018/03/31 16:49:24","新北市淡水區中正路二段31號","121.419266666667","25.1818416666667","6501000","淡水區"
"251007","577-R6","2018/03/31 16:49:21","新北市淡水區中正路342號","121.435033333333","25.17378","6501000","淡水區"
"251011","650-BX","2018/03/31 16:49:26","新北市淡水區坪頂路40號","121.457515","25.1623566666667","6501000","淡水區"
"252002","178-VK","2018/03/31 16:49:17","新北市三芝區茂長里陳厝坑11號","121.514858333333","25.25539","6502100","三芝區"
"252001","292-VK","2018/03/31 16:49:24","新北市三芝區淡金路二段76-1號","121.503893333333","25.26085","6502100","三芝區"
"242053","751-BX","2018/03/31 16:49:31","新北市新莊區新泰路357巷3弄57號","121.44213","25.0391516666667","6500500","新莊區"
"242051","441-UM","2018/03/31 16:49:19","新北市新莊區三和路12-21號","121.44203","25.03836","6500500","新莊區"
"242021","348-TH","2018/03/31 16:49:33","新北市新莊區新泰路357巷3弄57號","121.442078333333","25.039615","6500500","新莊區"
