"lineid","car","time","location","longitude","latitude","cityid","cityname"
"234026","9371-KE","2018/03/31 17:39:24","新北市永和區中正路653號","121.51504","25.0102166666667","6500400","永和區"
"249005","172-UM","2018/03/31 17:39:31","新北市八里區荖阡坑路41-6號","121.402318333333","25.1327183333333","6502300","八里區"
"249001","173-UM","2018/03/31 17:39:34","新北市八里區龍米路二段159-3號","121.439521666667","25.15383","6502300","八里區"
"249004","303-UY","2018/03/31 17:39:26","新北市八里區賢二街29號","121.41892","25.1582683333333","6502300","八里區"
"249002","305-UY","2018/03/31 17:39:34","新北市八里區石壁腳19號","121.441736666667","25.1353216666667","6502300","八里區"
"249003","593-UM","2018/03/31 17:39:26","新北市八里區中山路二段175號","121.404935","25.15041","6502300","八里區"
"232011","375-UM","2018/03/31 17:39:28","新北市坪林區北宜路八段248號","121.709333333333","24.9350633333333","6502000","坪林區"
"244013","069-UM","2018/03/31 17:39:22","新北市林口區中正路555號","121.381141666667","25.076935","6501700","林口區"
"244007","080-UY","2018/03/31 17:39:26","新北市林口區文化一路二段305號","121.385766666667","25.0858516666667","6501700","林口區"
"244025","742-UY","2018/03/31 17:39:22","新北市林口區忠孝路256巷17號","121.365166666667","25.073775","6501700","林口區"
"244009","410-SL","2018/03/31 17:39:35","新北市林口區中北三街262號","121.382045","25.0821566666667","6501700","林口區"
"244023","483-VK","2018/03/31 17:39:34","新北市林口區東明二街98號","121.389566666667","25.0703733333333","6501700","林口區"
"244019","657-BX","2018/03/31 17:39:27","新北市林口區忠孝路512巷25號","121.371073333333","25.0683833333333","6501700","林口區"
"244021","838-TS","2018/03/31 17:39:35","新北市林口區東林街14號","121.396178333333","25.0789283333333","6501700","林口區"
"231046","278-BY","2018/03/31 17:39:27","新北市新店區下石厝路18號","121.533323333333","24.92787","6500600","新店區"
"241024","065-VK","2018/03/31 17:39:28","新北市三重區大勇街82巷15弄30號","121.481276666667","25.071995","6500200","三重區"
"241005","262-UM","2018/03/31 17:39:27","新北市三重區碧華街141號","121.486393333333","25.0820233333333","6500200","三重區"
"241016","265-UM","2018/03/31 17:39:32","新北市三重區重新路二段27號","121.497788333333","25.0624266666667","6500200","三重區"
"241007","398-BY","2018/03/31 17:39:40","新北市三重區車路頭街139巷2號","121.483881666667","25.076435","6500200","三重區"
"241014","543-UM","2018/03/31 17:39:21","新北市三重區河邊北街110巷66號","121.502236666667","25.070235","6500200","三重區"
"241023","545-UM","2018/03/31 17:39:22","新北市三重區中華路132號","121.483541666667","25.06405","6500200","三重區"
"241033","557-UM","2018/03/31 17:34:26","新北市三重區興德路131巷30號","121.469831666667","25.0539233333333","6500200","三重區"
"241012","941-UM","2018/03/31 17:39:22","新北市三重區河邊北街317號","121.50232","25.07486","6500200","三重區"
"235064","005-UY","2018/03/31 17:39:28","新北市中和區員山路36巷16-3號","121.485043333333","24.9912616666667","6500300","中和區"
"235061","378-QA","2018/03/31 17:18:22","新北市中和區員山路36巷13號","121.484465","24.99094","6500300","中和區"
"247024","893-R6","2018/03/31 17:39:31","新北市蘆洲區長樂路125-1號","121.462098333333","25.0880916666667","6501400","蘆洲區"
"247014","546-UM","2018/03/31 17:39:36","新北市蘆洲區中山二路135號","121.472028333333","25.0816683333333","6501400","蘆洲區"
"247022","500-BY","2018/03/31 17:39:21","新北市蘆洲區三民路285號","121.467008333333","25.0900133333333","6501400","蘆洲區"
"247010","341-TH","2018/03/31 17:39:35","新北市蘆洲區中山一路74巷55號","121.479965","25.0813966666667","6501400","蘆洲區"
"247012","339-TH","2018/03/31 17:39:26","新北市蘆洲區民權路29號","121.476006666667","25.0864366666667","6501400","蘆洲區"
"247004","337-TH","2018/03/31 17:39:36","新北市蘆洲區長安街249巷12號","121.45856","25.08311","6501400","蘆洲區"
"247006","336-TH","2018/03/31 17:39:34","新北市蘆洲區長安街40號","121.463561666667","25.0795283333333","6501400","蘆洲區"
"247018","057-VK","2018/03/31 17:39:30","新北市蘆洲區民權路77號","121.473383333333","25.0885816666667","6501400","蘆洲區"
"247008","056-VK","2018/03/31 17:39:32","新北市蘆洲區和平路16號","121.472513333333","25.07933","6501400","蘆洲區"
"247002","053-VK","2018/03/31 17:39:27","新北市蘆洲區永平街62號","121.457463333333","25.091555","6501400","蘆洲區"
"247016","007-UY","2018/03/31 17:39:18","新北市蘆洲區光華路46巷25號","121.468133333333","25.0838683333333","6501400","蘆洲區"
"247020","001-UY","2018/03/31 17:39:19","新北市蘆洲區民族路464號","121.47189","25.091755","6501400","蘆洲區"
"228003","097-TW","2018/03/31 17:39:35","新北市貢寮區真理里延平街33號","121.924476666667","25.055075","6502600","貢寮區"
"228001","212-TW","2018/03/31 17:39:32","新北市貢寮區仁理村仁愛路95-1號","121.927698333333","25.05547","6502600","貢寮區"
"228002","585-TW","2018/03/31 17:39:35","新北市貢寮區福隆里龜壽谷街13號","121.956431666667","25.0059966666667","6502600","貢寮區"
"224008","285-BY","2018/03/31 17:39:25","新北市瑞芳區瑞柑新村60號","121.827583333333","25.1069216666667","6501200","瑞芳區"
"224007","275-VK","2018/03/31 17:24:37","新北市瑞芳區大寮路356-1號","121.785061666667","25.1033483333333","6501200","瑞芳區"
"224009","273-VK","2018/03/31 17:39:30","新北市瑞芳區金光路376號","121.850503333333","25.1111366666667","6501200","瑞芳區"
"224005","271-BY","2018/03/31 17:39:19","新北市瑞芳區海濱路8-6號","121.831716666667","25.1262066666667","6501200","瑞芳區"
"227002","400-TW","2018/03/31 17:37:59","新北市雙溪區三貂里定福路1-2號","121.850763333333","25.06342","6502500","雙溪區"
"208002","KEA-2872","2018/03/31 17:39:23","新北市金山區磺清路121號","121.63977","25.2282316666667","6502700","金山區"
"251009","008-UM","2018/03/31 17:39:20","新北市淡水區中正路38-1號","121.443705","25.1692566666667","6501000","淡水區"
"251004","009-UM","2018/03/31 17:39:38","新北市淡水區中正東路二段88巷37-22號","121.459346666667","25.1438216666667","6501000","淡水區"
"251001","011-UM","2018/03/31 17:39:23","新北市淡水區民權路92巷35-1號","121.462206666667","25.12668","6501000","淡水區"
"251013","179-VK","2018/03/31 17:39:21","新北市淡水區演戲埔腳1-3號","121.47563","25.1930066666667","6501000","淡水區"
"251014","180-VK","2018/03/31 17:39:32","新北市淡水區水碓22號","121.478271666667","25.224455","6501000","淡水區"
"251008","181-VK","2018/03/31 17:39:18","新北市淡水區八勢路一段48號","121.464808333333","25.1546","6501000","淡水區"
"251015","182-VK","2018/03/31 17:39:24","新北市淡水區糞箕湖9-1號","121.485325","25.1707066666667","6501000","淡水區"
"251010","413-VK","2018/03/31 17:39:33","新北市淡水區淡海路292號","121.419055","25.1888766666667","6501000","淡水區"
"251012","441-VK","2018/03/31 17:39:30","新北市淡水區北新路200巷8號","121.451741666667","25.1797","6501000","淡水區"
"251016","442-VK","2018/03/31 17:39:28","新北市淡水區埤島75-1號","121.453905","25.1946583333333","6501000","淡水區"
"251005","443-VK","2018/03/31 17:39:23","新北市淡水區鄧公路33巷1號","121.451355","25.1711633333333","6501000","淡水區"
"251006","561-UM","2018/03/31 17:39:32","新北市淡水區大信街26號","121.442108333333","25.1768816666667","6501000","淡水區"
"251007","577-R6","2018/03/31 17:39:21","新北市淡水區民生路52巷39號","121.463296666667","25.1378216666667","6501000","淡水區"
"251011","650-BX","2018/03/31 17:39:25","新北市淡水區小坪頂13-3號","121.486616666667","25.1561966666667","6501000","淡水區"
"251002","672-BX","2018/03/31 17:39:07","新北市淡水區文化路16號","121.439848333333","25.1725083333333","6501000","淡水區"
"251003","673-BX","2018/03/31 17:39:24","新北市淡水區中山北路一段59號","121.441806666667","25.1756483333333","6501000","淡水區"
"207003","550-UM","2018/03/31 17:39:31","新北市萬里區龜吼里漁澳路85-2號","121.689338333333","25.1969633333333","6502800","萬里區"
"207004","225-TW","2018/03/31 17:39:28","新北市萬里區中幅里中福路8-1號","121.685901666667","25.1649133333333","6502800","萬里區"
"252002","178-VK","2018/03/31 17:39:37","新北市三芝區中正路二段28號","121.504378333333","25.2550516666667","6502100","三芝區"
"252001","292-VK","2018/03/31 17:39:24","新北市三芝區淡金路一段83號","121.502126666667","25.2588866666667","6502100","三芝區"
"237012","275-BY","2018/03/31 17:39:18","新北市三峽區中山路459巷163-3號","121.348863333333","24.9331866666667","6500900","三峽區"
"237008","302-VK","2018/03/31 17:39:30","新北市三峽區中山路365-2號","121.358531666667","24.93699","6500900","三峽區"
"237006","5529-G3","2018/03/31 17:39:06","新北市三峽區介壽路二段25號","121.389993333333","24.9348766666667","6500900","三峽區"
"237010","706-TV","2018/03/31 17:39:27","新北市三峽區中山路125號","121.36542","24.9359766666667","6500900","三峽區"
"236070","105-UM","2018/03/31 17:39:38","新北市土城區城林路6巷80號","121.438463333333","24.9795933333333","6501300","土城區"
"236079","166-UM","2018/03/31 17:39:24","新北市土城區自強街33號","121.432738333333","24.9731733333333","6501300","土城區"
"236063","915-UM","2018/03/31 17:39:30","新北市土城區亞洲路58巷5弄2號","121.433883333333","24.9747433333333","6501300","土城區"
"242034","AAC-296","2018/03/31 17:39:24","新北市新莊區新莊路504號","121.446085","25.0333066666667","6500500","新莊區"
"242058","986-R7","2018/03/31 17:39:37","新北市新莊區中正路717號","121.424135","25.0295016666667","6500500","新莊區"
"242053","751-BX","2018/03/31 17:39:31","新北市新莊區新樹路697號","121.432198333333","25.0023816666667","6500500","新莊區"
"242029","705-TV","2018/03/31 17:39:28","新北市新莊區復興路二段5號","121.453483333333","25.0439433333333","6500500","新莊區"
"242027","615-BX","2018/03/31 17:39:25","新北市新莊區福壽街116號","121.457995","25.0508133333333","6500500","新莊區"
"242025","613-BX","2018/03/31 17:39:19","新北市新莊區思源路90號","121.460203333333","25.0455466666667","6500500","新莊區"
"242042","566-BX","2018/03/31 17:39:28","新北市新莊區中正路514巷17號","121.433025","25.03299","6500500","新莊區"
"242046","497-BY","2018/03/31 17:39:23","新北市新莊區建國一路30號","121.433836666667","25.0315433333333","6500500","新莊區"
"242036","442-UM","2018/03/31 17:39:32","新北市新莊區建福路59巷47號","121.428613333333","25.0278933333333","6500500","新莊區"
"242051","441-UM","2018/03/31 17:39:19","新北市新莊區西盛街216號","121.428071666667","25.0172883333333","6500500","新莊區"
"242007","413-TV","2018/03/31 17:39:24","新北市新莊區福樂街122號","121.456973333333","25.047825","6500500","新莊區"
"242044","400-BY","2018/03/31 17:39:31","新北市新莊區中正路871巷9弄11號","121.418756666667","25.0270933333333","6500500","新莊區"
"242023","362-BY","2018/03/31 17:39:23","新北市新莊區民樂街23號","121.457533333333","25.0408016666667","6500500","新莊區"
"242061","353-BY","2018/03/31 17:39:17","新北市新莊區瓊林南路103巷8弄43號","121.43509","25.0111783333333","6500500","新莊區"
"242039","133-UY","2018/03/31 17:39:20","新北市新莊區民全街16號","121.429056666667","25.0219383333333","6500500","新莊區"
"242031","135-UY","2018/03/31 17:39:23","新北市新莊區新泰路361巷23號","121.442466666667","25.0429616666667","6500500","新莊區"
"242048","172-VK","2018/03/31 17:39:32","新北市新莊區萬安街155號","121.420368333333","25.0214266666667","6500500","新莊區"
"242011","173-VK","2018/03/31 17:38:31","新北市新莊區中港路593號","121.451323333333","25.0524666666667","6500500","新莊區"
"242017","175-VK","2018/03/31 17:39:27","新北市新莊區復興路一段149巷21弄23號","121.448936666667","25.04387","6500500","新莊區"
"242004","176-VK","2018/03/31 17:39:20","新北市新莊區自立街85號","121.455058333333","25.0454383333333","6500500","新莊區"
"242015","346-TH","2018/03/31 17:39:27","新北市新莊區新泰路249號","121.446126666667","25.0397266666667","6500500","新莊區"
"242021","348-TH","2018/03/31 17:39:33","新北市新莊區中華路一段120號","121.452643333333","25.0406583333333","6500500","新莊區"
"242002","349-TH","2018/03/31 17:39:32","新北市新莊區新莊路286號","121.451446666667","25.0338833333333","6500500","新莊區"
"242019","350-TH","2018/03/31 17:39:24","新北市新莊區中港路166號","121.454976666667","25.041565","6500500","新莊區"
"242013","351-TH","2018/03/31 17:39:30","新北市新莊區中誠街120號","121.449335","25.047645","6500500","新莊區"
"238015","755-BX","2018/03/31 17:39:28","新北市樹林區啟智街44巷2號","121.420506666667","24.9928766666667","6500700","樹林區"
"238019","599-UM","2018/03/31 17:39:22","新北市樹林區太平路127巷6弄1號","121.41978","24.9805683333333","6500700","樹林區"
"238018","571-TV","2018/03/31 17:39:31","新北市樹林區鎮前街42-1號","121.425958333333","24.9928316666667","6500700","樹林區"
"238024","5061-A6","2018/03/31 17:39:24","新北市樹林區忠孝街67巷40號","121.425178333333","24.98188","6500700","樹林區"
"238021","KEA-2217","2018/03/31 17:39:35","新北市樹林區柑園街一段226號","121.392855","24.9562733333333","6500700","樹林區"
"238022","KEA-2213","2018/03/31 17:39:25","新北市樹林區中華路187巷17號","121.42084","24.980975","6500700","樹林區"
"238025","303-VK","2018/03/31 17:39:25","新北市樹林區保安街二段134號","121.413456666667","25.0040033333333","6500700","樹林區"
"238014","282-BY","2018/03/31 17:39:33","新北市樹林區保安街一段356號","121.417986666667","24.9984733333333","6500700","樹林區"
"238020","268-VK","2018/03/31 17:39:27","新北市樹林區俊英街116巷1弄34號","121.42772","25.0057816666667","6500700","樹林區"
"238026","172-UY","2018/03/31 17:39:28","新北市樹林區新興街21號","121.400375","24.972715","6500700","樹林區"
"238016","169-UY","2018/03/31 17:39:22","新北市樹林區育英街119-1號","121.420091666667","24.9892966666667","6500700","樹林區"
"239007","AAC-297","2018/03/31 17:39:36","新北市鶯歌區鶯桃路182巷96弄13號","121.340565","24.9579","6500800","鶯歌區"
"239006","891-R6","2018/03/31 17:39:28","新北市鶯歌區永和街34巷10弄4號","121.333356666667","24.96721","6500800","鶯歌區"
"239008","527-UM","2018/03/31 17:39:32","新北市鶯歌區大湖路732巷45號","121.333521666667","24.9781916666667","6500800","鶯歌區"
"239005","526-UM","2018/03/31 17:39:22","新北市鶯歌區鶯桃路二段27號","121.325756666667","24.9722666666667","6500800","鶯歌區"
"239001","417-VK","2018/03/31 17:39:35","新北市鶯歌區中正三路279-1號","121.332366666667","24.9378983333333","6500800","鶯歌區"
"239003","360-BY","2018/03/31 17:39:38","新北市鶯歌區鶯桃路206巷14號","121.337571666667","24.9594533333333","6500800","鶯歌區"
"239002","359-BY","2018/03/31 17:39:28","新北市鶯歌區育才街80號","121.347798333333","24.954705","6500800","鶯歌區"
"239004","193-VK","2018/03/31 17:39:23","新北市鶯歌區三鶯路57號","121.357275","24.94243","6500800","鶯歌區"
"221015","131-UY","2018/03/31 17:39:18","新北市汐止區汐萬路一段256巷1號","121.651898333333","25.07483","6501100","汐止區"
"221010","269-BY","2018/03/31 17:39:36","新北市汐止區汐萬路一段418巷37號","121.650735","25.0789066666667","6501100","汐止區"
"221023","279-VK","2018/03/31 17:39:29","新北市汐止區汐萬路一段256巷1號","121.651731666667","25.0748933333333","6501100","汐止區"
"221032","280-BY","2018/03/31 17:39:19","新北市汐止區康寧街861巷1號","121.645308333333","25.0759483333333","6501100","汐止區"
"221031","353-TW","2018/03/31 17:39:29","新北市汐止區康寧街901號","121.651756666667","25.07495","6501100","汐止區"
"221008","129-UY","2018/03/31 17:39:17","新北市汐止區康寧街901號","121.651743333333","25.0749616666667","6501100","汐止區"
"221033","647-BX","2018/03/31 17:39:20","新北市汐止區橫科路407巷25弄17-4號","121.626523333333","25.0490216666667","6501100","汐止區"
"221018","753-BX","2018/03/31 17:39:30","新北市汐止區汐萬路一段256巷1號","121.651923333333","25.0747616666667","6501100","汐止區"
"242009","281-VK","2018/03/31 17:39:22","新北市新莊區昌明街12號","121.457406666667","25.0524733333333","6500500","新莊區"
"242056","280-VK","2018/03/31 17:39:26","新北市新莊區泰豐街21號","121.448356666667","25.0317283333333","6500500","新莊區"
