"lineid","car","time","location","longitude","latitude","cityid","cityname"
"234046","148-BY","2018/03/31 18:29:32","新北市永和區福和路1號","121.526556666667","25.0098166666667","6500400","永和區"
"234007","207-UY","2018/03/31 18:29:40","新北市永和區仁愛路309號","121.5034","25.007895","6500400","永和區"
"234081","298-R6","2018/03/31 18:29:25","新北市永和區福和路8巷1號","121.52503","25.00903","6500400","永和區"
"234086","338-UY","2018/03/31 18:29:19","新北市永和區豫溪街217巷1號","121.524813333333","25.0093366666667","6500400","永和區"
"234013","KEA-2591","2018/03/31 18:29:21","新北市永和區信義路57號","121.51293","25.0125383333333","6500400","永和區"
"234042","862-TW","2018/03/31 18:29:28","新北市永和區福和路1號","121.526333333333","25.0096383333333","6500400","永和區"
"234026","9371-KE","2018/03/31 18:29:24","新北市永和區豫溪街52巷12號","121.515701666667","25.0093466666667","6500400","永和區"
"234011","9373-KE","2018/03/31 18:29:36","新北市永和區保福路二段158巷1號","121.509113333333","25.0150466666667","6500400","永和區"
"249005","172-UM","2018/03/31 18:29:31","新北市八里區中華路三段130號","121.392326666667","25.1354233333333","6502300","八里區"
"249001","173-UM","2018/03/31 18:29:34","新北市八里區龍米路一段140號","121.452991666667","25.125625","6502300","八里區"
"249004","303-UY","2018/03/31 18:29:30","新北市八里區觀海大道63號","121.427646666667","25.1617966666667","6502300","八里區"
"249002","305-UY","2018/03/31 18:29:34","新北市八里區龍形三街15巷2號","121.449618333333","25.1315683333333","6502300","八里區"
"248016","026-BX","2018/03/31 18:29:31","新北市五股區凌雲路一段109巷26號","121.44966","25.1009416666667","6501500","五股區"
"248006","077-UY","2018/03/31 18:29:19","新北市五股區中興路一段79號","121.46719","25.072815","6501500","五股區"
"248008","095-VK","2018/03/31 18:29:23","新北市五股區四維路185巷46號","121.463356666667","25.07736","6501500","五股區"
"248020","225-UY","2018/03/31 18:29:37","新北市五股區孝義路55巷1號","121.453121666667","25.1120766666667","6501500","五股區"
"248012","247-BX","2018/03/31 18:29:20","新北市五股區御史路3號","121.44208","25.0904366666667","6501500","五股區"
"248014","261-SL","2018/03/31 18:29:33","新北市五股區自強路90巷22號","121.432205","25.0721066666667","6501500","五股區"
"248010","272-BY","2018/03/31 18:29:26","新北市五股區水碓路16巷17號","121.434013333333","25.073095","6501500","五股區"
"248004","677-BX","2018/03/31 18:29:40","新北市五股區工商路150號","121.433226666667","25.08737","6501500","五股區"
"248002","678-BX","2018/03/31 18:29:36","新北市五股區西雲路163號","121.44617","25.0944066666667","6501500","五股區"
"232011","375-UM","2018/03/31 18:26:51","新北市坪林區坪雙路一段31號","121.711683333333","24.9424216666667","6502000","坪林區"
"244013","069-UM","2018/03/31 18:29:22","新北市林口區佳林路101巷36號","121.386988333333","25.07999","6501700","林口區"
"244007","080-UY","2018/03/31 18:29:26","新北市林口區後湖11-63號","121.387043333333","25.0975916666667","6501700","林口區"
"244025","742-UY","2018/03/31 18:29:22","新北市林口區南勢四街324號","121.35737","25.0759966666667","6501700","林口區"
"244009","410-SL","2018/03/31 18:29:35","新北市林口區文林一街115巷18號","121.378831666667","25.087655","6501700","林口區"
"244023","483-VK","2018/03/31 18:29:34","新北市林口區四維路245巷8號","121.38175","25.0749916666667","6501700","林口區"
"244017","485-VK","2018/03/31 18:29:26","新北市林口區公園路19號","121.36675","25.0675683333333","6501700","林口區"
"244019","657-BX","2018/03/31 18:29:27","新北市林口區忠孝路604巷8號","121.376513333333","25.0677566666667","6501700","林口區"
"244021","838-TS","2018/03/31 18:29:35","新北市林口區自強四街18號","121.399371666667","25.0765966666667","6501700","林口區"
"243012","AAD-798","2018/03/31 18:29:34","新北市泰山區泰林路二段385巷1號","121.427506666667","25.06422","6501600","泰山區"
"243013","646-TV","2018/03/31 18:29:35","新北市泰山區明志路三段206巷3號","121.423281666667","25.0379116666667","6501600","泰山區"
"222003","436-BY","2018/03/31 18:29:36","新北市深坑區文山路一段28-1號","121.630876666667","25.0053816666667","6501800","深坑區"
"222002","659-BX","2018/03/31 18:29:33","新北市深坑區雲鄉路217號","121.623366666667","24.9974966666667","6501800","深坑區"
"231058","0291-UT","2018/03/31 18:29:32","新北市新店區國校路32-3號","121.537718333333","24.954175","6500600","新店區"
"231059","046-UY","2018/03/31 18:29:34","新北市新店區安華路28-1號","121.51957","24.9608083333333","6500600","新店區"
"231061","047-UY","2018/03/31 18:29:20","新北市新店區安華路28-1號","121.519018333333","24.961025","6500600","新店區"
"231060","106-UY","2018/03/31 18:29:23","新北市新店區安華路28-1號","121.519613333333","24.9608333333333","6500600","新店區"
"231051","107-UY","2018/03/31 18:29:29","新北市新店區安華路28-1號","121.519568333333","24.9612716666667","6500600","新店區"
"231048","108-UY","2018/03/31 18:29:34","新北市新店區安華路28-1號","121.519343333333","24.9609133333333","6500600","新店區"
"231052","187-VK","2018/03/31 18:29:19","新北市新店區新烏路一段30號","121.546323333333","24.9509883333333","6500600","新店區"
"231050","KEA-2219","2018/03/31 18:29:22","新北市新店區安華路28-1號","121.519841666667","24.9613033333333","6500600","新店區"
"231057","256-BX","2018/03/31 18:29:32","新北市新店區北新路一段43號","121.538096666667","24.959365","6500600","新店區"
"231063","268-BY","2018/03/31 18:29:21","新北市新店區安華路28-1號","121.519323333333","24.9606116666667","6500600","新店區"
"231046","278-BY","2018/03/31 18:29:27","新北市新店區直潭十街20-1號","121.533053333333","24.9390266666667","6500600","新店區"
"231054","AAD-862","2018/03/31 18:29:30","新北市新店區安華路28-1號","121.519781666667","24.9612766666667","6500600","新店區"
"231056","3713-VJ","2018/03/31 18:29:27","新北市新店區中央路3號","121.533838333333","24.9787216666667","6500600","新店區"
"231055","4716-K9","2018/03/31 18:29:21","新北市新店區中正路154巷6號","121.54182","24.9720483333333","6500600","新店區"
"231067","4772-VM","2018/03/31 18:29:26","新北市新店區安華路28-1號","121.519198333333","24.9606416666667","6500600","新店區"
"231065","512-UM","2018/03/31 18:29:24","新北市新店區安華路28-1號","121.519463333333","24.9612666666667","6500600","新店區"
"231064","513-UM","2018/03/31 18:29:25","新北市新店區安華路28-1號","121.51961","24.961085","6500600","新店區"
"231045","617-UM","2018/03/31 18:29:25","新北市新店區安華路28-1號","121.519456666667","24.9608966666667","6500600","新店區"
"231040","619-UM","2018/03/31 18:29:19","新北市新店區安華路28-1號","121.519573333333","24.960785","6500600","新店區"
"231042","641-BX","2018/03/31 18:29:33","新北市新店區安康路一段201-1號","121.526233333333","24.96292","6500600","新店區"
"231049","719-UM","2018/03/31 18:29:26","新北市新店區安華路28-1號","121.519506666667","24.961295","6500600","新店區"
"231044","897-TW","2018/03/31 18:29:35","新北市新店區安華路28-1號","121.519658333333","24.96083","6500600","新店區"
"231043","899-TW","2018/03/31 18:29:21","新北市新店區安華路28-1號","121.519016666667","24.9609533333333","6500600","新店區"
"231066","AKT-0513","2018/03/31 18:29:26","新北市新店區安華路1-1號","121.51944","24.9604583333333","6500600","新店區"
"235066","003-UY","2018/03/31 18:29:32","新北市中和區中山路二段120號","121.502693333333","25.0036233333333","6500300","中和區"
"235064","005-UY","2018/03/31 18:29:28","新北市中和區連城路139巷56號","121.496763333333","24.997275","6500300","中和區"
"235063","006-UY","2018/03/31 18:29:31","新北市中和區連城路347巷16弄18號","121.487593333333","24.9950683333333","6500300","中和區"
"235056","096-UM","2018/03/31 18:29:25","新北市中和區員山路611巷1號","121.477848333333","25.0112466666667","6500300","中和區"
"235065","098-UM","2018/03/31 18:29:24","新北市中和區莊敬路49巷20弄22號","121.502701666667","25.0055783333333","6500300","中和區"
"235040","150-BY","2018/03/31 18:29:28","新北市中和區安平路38號","121.509873333333","24.9949533333333","6500300","中和區"
"235058","151-BY","2018/03/31 18:29:27","新北市中和區圓通路369巷30弄58號","121.48868","24.98469","6500300","中和區"
"235055","183-VK","2018/03/31 18:29:34","新北市中和區莒光路116號","121.472483333333","25.0019483333333","6500300","中和區"
"235038","185-VK","2018/03/31 18:29:34","新北市中和區立人街14巷45號","121.519085","24.995485","6500300","中和區"
"235049","186-VK","2018/03/31 18:29:26","新北市中和區景安路175-2號","121.505166666667","24.9941716666667","6500300","中和區"
"235067","255-BX","2018/03/31 18:29:29","新北市中和區新生街230號","121.48384","24.9982133333333","6500300","中和區"
"235067","293-VK","2018/03/31 18:29:37","新北市中和區復興路301巷2弄1號","121.50149","24.9899083333333","6500300","中和區"
"235072","301-VK","2018/03/31 18:29:36","新北市中和區連城路107號","121.496298333333","24.99944","6500300","中和區"
"235043","352-BY","2018/03/31 18:29:34","新北市中和區景平路299號","121.506756666667","24.9931816666667","6500300","中和區"
"235068","377-QA","2018/03/31 18:29:31","新北市中和區圓通路287號","121.495213333333","24.9928733333333","6500300","中和區"
"235061","378-QA","2018/03/31 18:29:19","新北市中和區民享街111號","121.47476","24.9994083333333","6500300","中和區"
"235050","4979-A6","2018/03/31 18:29:19","新北市中和區景新街410巷18弄17號","121.511865","24.9897183333333","6500300","中和區"
"235069","4980-A6","2018/03/31 18:29:19","新北市中和區連城路127巷33號","121.497363333333","24.9973033333333","6500300","中和區"
"235042","551-UM","2018/03/31 18:29:33","新北市中和區自立路56巷17號","121.522685","24.991635","6500300","中和區"
"235070","558-UM","2018/03/31 18:29:33","新北市中和區景平路574號","121.501573333333","24.99543","6500300","中和區"
"235045","565-BX","2018/03/31 18:29:22","新北市中和區南山路236巷22弄21號","121.50503","24.9892933333333","6500300","中和區"
"235054","640-BX","2018/03/31 18:29:25","新北市中和區民享街87號","121.474403333333","25.0016466666667","6500300","中和區"
"235060","647-TV","2018/03/31 18:29:36","新北市中和區員山路373號","121.481231666667","25.0022666666667","6500300","中和區"
"235047","732-UM","2018/03/31 18:29:26","新北市中和區南山路523-1號","121.507948333333","24.98714","6500300","中和區"
"235046","733-UM","2018/03/31 18:29:32","新北市中和區中正路275號","121.495493333333","24.9938033333333","6500300","中和區"
"235062","800-TS","2018/03/31 18:29:24","新北市中和區景平路728號","121.49676","25.0038033333333","6500300","中和區"
"235057","801-TS","2018/03/31 18:29:28","新北市中和區民享街97巷21號","121.475448333333","24.9994883333333","6500300","中和區"
"235041","802-TS","2018/03/31 18:29:28","新北市中和區景安路55號","121.507266666667","24.998185","6500300","中和區"
"235052","805-TS","2018/03/31 18:29:23","新北市中和區興南路二段104號","121.504856666667","24.9839816666667","6500300","中和區"
"235048","896-TW","2018/03/31 18:29:26","新北市中和區中正路83號","121.500636666667","24.993455","6500300","中和區"
"235053","900-TW","2018/03/31 18:29:26","新北市土城區延壽路55巷1號","121.469796666667","24.9922083333333","6500300","中和區"
"235051","157-BY","2018/03/31 18:29:34","新北市中和區興南路二段142巷25弄34號","121.502601666667","24.9843316666667","6500300","中和區"
"235037","AAC-213","2018/03/31 18:29:30","新北市中和區景德街93號","121.515931666667","24.99139","6500300","中和區"
"220065","072-UY","2018/03/31 18:29:29","新北市板橋區四川路二段130巷25弄10號","121.448865","24.994655","6500100","板橋區"
"220086","073-UY","2018/03/31 18:29:25","新北市板橋區南雅南路二段146號","121.451635","24.9961616666667","6500100","板橋區"
"220069","AAD-861","2018/03/31 18:29:21","新北市板橋區華東街1-10號","121.448456666667","24.99506","6500100","板橋區"
"226004","312-R5","2018/03/31 18:29:29","新北市平溪區靜安路二段332號","121.736983333333","25.0242833333333","6502400","平溪區"
"235039","251-BX","2018/03/31 18:29:26","新北市中和區宜安路60號","121.511621666667","24.9969833333333","6500300","中和區"
"228003","097-TW","2018/03/31 18:29:35","新北市貢寮區和美里和美街40-2號","121.913085","25.0905916666667","6502600","貢寮區"
"228001","212-TW","2018/03/31 18:29:32","新北市貢寮區仁理村仁和路76號","121.922721666667","25.0500633333333","6502600","貢寮區"
"228002","585-TW","2018/03/31 18:29:35","新北市貢寮區福連里香蘭街16-2號","121.983218333333","25.0216866666667","6502600","貢寮區"
"224010","AGQ-8101","2018/03/31 18:29:33","新北市瑞芳區九份中山巷10號","121.843936666667","25.1074633333333","6501200","瑞芳區"
"224002","639-TC","2018/03/31 18:29:26","新北市瑞芳區正貿新村1號","121.812636666667","25.1062316666667","6501200","瑞芳區"
"224008","285-BY","2018/03/31 18:29:25","新北市瑞芳區逢甲路169-1號","121.805383333333","25.1104316666667","6501200","瑞芳區"
"224009","273-VK","2018/03/31 18:29:30","新北市瑞芳區祈堂路239號","121.856305","25.1090883333333","6501200","瑞芳區"
"224005","271-BY","2018/03/31 18:29:19","新北市瑞芳區瑞濱路161號","121.817918333333","25.118385","6501200","瑞芳區"
"227010","642-TC","2018/03/31 18:29:31","新北市雙溪區牡丹里牡丹131號","121.8509","25.05921","6502500","雙溪區"
"227002","400-TW","2018/03/31 18:29:34","新北市雙溪區魚行里新店76號","121.871683333333","25.0267416666667","6502500","雙溪區"
"253005","032-BX","2018/03/31 18:29:32","新北市石門區老崩山2-1號","121.553776666667","25.2916916666667","6502200","石門區"
"253006","295-VK","2018/03/31 18:29:25","新北市石門區公地20號","121.545775","25.290215","6502200","石門區"
"222001","KEA-2212","2018/03/31 18:29:34","新北市深坑區北深路一段185號","121.631446666667","25.0101733333333","6501800","深坑區"
"208002","KEA-2872","2018/03/31 18:29:23","新北市金山區民生路31號","121.643255","25.2217283333333","6502700","金山區"
"208003","665-BX","2018/03/31 18:29:29","新北市金山區中山路192號","121.637896666667","25.221445","6502700","金山區"
"208001","761-BX","2018/03/31 18:29:29","新北市金山區文化二路6號","121.636823333333","25.2246183333333","6502700","金山區"
"251004","009-UM","2018/03/31 18:18:38","新北市淡水區民族路31巷16號","121.462723333333","25.1361166666667","6501000","淡水區"
"251001","011-UM","2018/03/31 18:29:34","新北市淡水區自強路122-9號","121.464666666667","25.1332366666667","6501000","淡水區"
"251013","179-VK","2018/03/31 18:29:20","新北市淡水區椿子林19-1號","121.480831666667","25.203905","6501000","淡水區"
"251014","180-VK","2018/03/31 18:29:31","新北市淡水區番社前25-1號","121.49464","25.2145516666667","6501000","淡水區"
"251008","181-VK","2018/03/31 18:29:20","新北市淡水區北投子86-5號","121.469125","25.1821566666667","6501000","淡水區"
"251015","182-VK","2018/03/31 18:29:24","新北市淡水區興福寮88巷216號","121.48596","25.1665816666667","6501000","淡水區"
"251010","413-VK","2018/03/31 18:29:25","新北市淡水區沙崙路181巷1號","121.424148333333","25.1842033333333","6501000","淡水區"
"251012","441-VK","2018/03/31 18:29:29","新北市淡水區北新路一段55號","121.456166666667","25.181715","6501000","淡水區"
"251016","442-VK","2018/03/31 18:29:36","新北市淡水區下圭柔山115-11號","121.446368333333","25.212305","6501000","淡水區"
"251006","561-UM","2018/03/31 18:29:22","新北市淡水區中山北路一段45巷18號","121.440896666667","25.17595","6501000","淡水區"
"251011","650-BX","2018/03/31 18:29:24","新北市淡水區中正東路27號","121.448243333333","25.1662466666667","6501000","淡水區"
"251002","672-BX","2018/03/31 18:29:07","新北市淡水區中正東路一段21巷8弄6號","121.4519","25.1637","6501000","淡水區"
"251003","673-BX","2018/03/31 18:29:26","新北市淡水區北新路169巷14號","121.449741666667","25.1801566666667","6501000","淡水區"
"207003","550-UM","2018/03/31 18:29:35","新北市萬里區野柳里港東路152號","121.689298333333","25.2051116666667","6502800","萬里區"
"207004","225-TW","2018/03/31 18:29:28","新北市萬里區萬里里瑪鋉路252號","121.688856666667","25.1807483333333","6502800","萬里區"
"252002","178-VK","2018/03/31 18:29:37","新北市三芝區中山路二段35號","121.502913333333","25.2552033333333","6502100","三芝區"
"252003","249-BX","2018/03/31 18:29:20","新北市三芝區後厝里北勢子41-2號","121.471968333333","25.2526433333333","6502100","三芝區"
"252001","292-VK","2018/03/31 18:29:24","新北市三芝區中興街二段2號","121.498363333333","25.2566133333333","6502100","三芝區"
"237004","KEA-2597","2018/03/31 18:29:23","新北市三峽區五寮89-7號","121.359403333333","24.85658","6500900","三峽區"
"237007","153-BY","2018/03/31 18:29:28","新北市三峽區中正路三段170巷1號","121.35259","24.9038033333333","6500900","三峽區"
"237009","210-TH","2018/03/31 18:29:27","新北市三峽區大同路277號","121.366153333333","24.92548","6500900","三峽區"
"237012","275-BY","2018/03/31 18:29:37","新北市三峽區三樹路128-1號","121.378423333333","24.9396116666667","6500900","三峽區"
"237008","302-VK","2018/03/31 18:29:30","新北市三峽區白雞115-16號","121.40147","24.906605","6500900","三峽區"
"237014","433-BY","2018/03/31 18:29:25","新北市三峽區文化路115號","121.370385","24.9361","6500900","三峽區"
"237006","5529-G3","2018/03/31 18:29:26","新北市三峽區溪東路315巷47號","121.411586666667","24.93149","6500900","三峽區"
"237010","706-TV","2018/03/31 18:29:27","新北市三峽區復興路349號","121.364026666667","24.9387016666667","6500900","三峽區"
"237005","AKY-6261","2018/03/31 18:29:25","新北市三峽區清水街335號","121.37124","24.9338516666667","6500900","三峽區"
"236070","105-UM","2018/03/31 18:29:38","新北市土城區永豐路255巷12號","121.475395","24.9730883333333","6501300","土城區"
"236042","107-UM","2018/03/31 18:29:33","新北市土城區裕民路67巷4弄6號","121.449935","24.98774","6501300","土城區"
"236079","166-UM","2018/03/31 18:29:23","新北市土城區中央路四段28-1號","121.423918333333","24.9623333333333","6501300","土城區"
"236030","253-BX","2018/03/31 18:29:27","新北市土城區福仁街30巷10號","121.439495","24.975975","6501300","土城區"
"236026","269-VK","2018/03/31 18:29:36","新北市土城區南天母路18-3號","121.44817","24.9530616666667","6501300","土城區"
"236014","270-VK","2018/03/31 18:29:19","新北市土城區青雲路39巷7號","121.46028","24.98742","6501300","土城區"
"236038","271-VK","2018/03/31 18:29:36","新北市土城區青雲路369號","121.458856666667","24.9761433333333","6501300","土城區"
"236021","401-BY","2018/03/31 18:29:24","新北市土城區永豐路202巷7-1號","121.466178333333","24.983275","6501300","土城區"
"236059","912-UM","2018/03/31 18:29:36","新北市土城區中央路四段264號","121.414815","24.9566866666667","6501300","土城區"
"236049","913-UM","2018/03/31 18:29:27","新北市土城區青雲路469號","121.458681666667","24.9741516666667","6501300","土城區"
"236063","915-UM","2018/03/31 18:29:30","新北市土城區延壽路77巷6弄4號","121.468523333333","24.99273","6501300","土城區"
"236055","AAC-216","2018/03/31 18:29:23","新北市土城區中華路二段103號","121.439195","24.9772683333333","6501300","土城區"
"242058","986-R7","2018/03/31 18:29:27","桃園市龜山區萬壽路一段8號","121.409731666667","25.0205683333333","6500500","新莊區"
"242053","751-BX","2018/03/31 18:29:37","新北市新莊區樹新路120巷51號","121.430061666667","24.9958683333333","6500500","新莊區"
"242042","566-BX","2018/03/31 18:29:28","新北市新莊區雙鳳路108巷22號","121.414198333333","25.0288766666667","6500500","新莊區"
"242046","497-BY","2018/03/31 18:29:23","新北市新莊區福營路378號","121.420586666667","25.0263816666667","6500500","新莊區"
"242044","400-BY","2018/03/31 18:29:31","新北市新莊區中正路887-19號","121.415946666667","25.0240566666667","6500500","新莊區"
"242061","353-BY","2018/03/31 18:29:37","新北市新莊區富國路176巷1號","121.424243333333","25.024375","6500500","新莊區"
"238015","755-BX","2018/03/31 18:29:28","新北市樹林區啟智街173巷2號","121.415738333333","24.9875833333333","6500700","樹林區"
"238023","601-UM","2018/03/31 18:29:21","新北市樹林區忠信街9號","121.40866","25.0149833333333","6500700","樹林區"
"238018","571-TV","2018/03/31 18:29:31","新北市樹林區保安街一段20巷36號","121.428375","24.9946033333333","6500700","樹林區"
"238024","5061-A6","2018/03/31 18:29:24","新北市樹林區中山路二段152號","121.41289","24.9827583333333","6500700","樹林區"
"238025","303-VK","2018/03/31 18:29:25","新北市樹林區東興街3號","121.409158333333","24.9803433333333","6500700","樹林區"
"238014","282-BY","2018/03/31 18:29:33","新北市樹林區大安路111巷25號","121.423126666667","24.9975183333333","6500700","樹林區"
"238020","268-VK","2018/03/31 18:29:27","新北市樹林區三龍街28號","121.412145","25.01817","6500700","樹林區"
"238026","172-UY","2018/03/31 18:29:28","新北市樹林區八德街1206號","121.390895","24.9687916666667","6500700","樹林區"
"238016","169-UY","2018/03/31 18:29:22","新北市樹林區文化街27號","121.419018333333","24.98767","6500700","樹林區"
"239007","AAC-297","2018/03/31 18:29:36","新北市鶯歌區重慶街86號","121.348513333333","24.95209","6500800","鶯歌區"
"239006","891-R6","2018/03/31 18:29:27","新北市鶯歌區鶯桃路296巷46-3號","121.335833333333","24.9613016666667","6500800","鶯歌區"
"239008","527-UM","2018/03/31 18:29:32","新北市鶯歌區國際一路179號","121.336263333333","24.9765","6500800","鶯歌區"
"239005","526-UM","2018/03/31 18:29:22","新北市鶯歌區鶯桃路668巷3號","121.32893","24.9698233333333","6500800","鶯歌區"
"239001","417-VK","2018/03/31 18:29:35","新北市鶯歌區國中街148號","121.338798333333","24.9396183333333","6500800","鶯歌區"
"239003","360-BY","2018/03/31 18:29:18","新北市鶯歌區鶯桃路390號","121.333766666667","24.9635816666667","6500800","鶯歌區"
"239002","359-BY","2018/03/31 18:29:28","新北市鶯歌區中正一路159號","121.352673333333","24.9564316666667","6500800","鶯歌區"
"239004","193-VK","2018/03/31 18:29:23","新北市鶯歌區尖山路352號","121.341361666667","24.943725","6500800","鶯歌區"
"221036","130-UY","2018/03/31 18:29:38","新北市汐止區大同路二段581號","121.663465","25.07021","6501100","汐止區"
"221015","131-UY","2018/03/31 18:29:38","新北市汐止區鄉友街22號","121.668603333333","25.0811116666667","6501100","汐止區"
"221010","269-BY","2018/03/31 18:29:19","新北市汐止區汐萬路三段252巷6號","121.644253333333","25.1047116666667","6501100","汐止區"
"221012","278-VK","2018/03/31 18:29:25","新北市汐止區保長路51巷1號","121.67335","25.0788116666667","6501100","汐止區"
"221023","279-VK","2018/03/31 18:29:29","新北市汐止區康寧街534巷26號","121.634895","25.06899","6501100","汐止區"
"221032","280-BY","2018/03/31 18:29:39","新北市汐止區民權街二段102號","121.618681666667","25.0468583333333","6501100","汐止區"
"221027","281-BY","2018/03/31 18:29:36","新北市汐止區和平街48號","121.662415","25.0709983333333","6501100","汐止區"
"221029","298-VK","2018/03/31 18:29:37","新北市汐止區樟樹一路199號","121.642535","25.0689533333333","6501100","汐止區"
"221031","353-TW","2018/03/31 18:29:29","新北市汐止區大同路一段160-7號","121.635546666667","25.05538","6501100","汐止區"
"221008","129-UY","2018/03/31 18:29:37","新北市汐止區翠峰街21巷3弄14號","121.643891666667","25.0757283333333","6501100","汐止區"
"221035","622-UM","2018/03/31 18:29:34","新北市汐止區大同路二段298號","121.655273333333","25.0665183333333","6501100","汐止區"
"221025","623-UM","2018/03/31 18:29:37","新北市汐止區仁愛路118號","121.662886666667","25.0636733333333","6501100","汐止區"
"221038","646-BX","2018/03/31 18:29:37","新北市汐止區汐萬路一段127號","121.653895","25.0712116666667","6501100","汐止區"
"221033","647-BX","2018/03/31 18:29:40","新北市汐止區宜興街1號","121.620823333333","25.04117","6501100","汐止區"
"221002","707-TV","2018/03/31 18:29:28","新北市汐止區福德一路143號","121.63676","25.066875","6501100","汐止區"
"221018","753-BX","2018/03/31 18:29:30","新北市汐止區茄苳路226號","121.670976666667","25.0686616666667","6501100","汐止區"
"220080","200-UY","2018/03/31 18:29:28","新北市板橋區華東街1-9號","121.448125","24.9948216666667","6500100","板橋區"
"220082","610-BX","2018/03/31 18:29:37","新北市板橋區華東街1-10號","121.448276666667","24.9949316666667","6500100","板橋區"
"220071","283-VK","2018/03/31 18:29:28","新北市板橋區華東街1-9號","121.448141666667","24.994855","6500100","板橋區"
"220064","486-VK","2018/03/31 18:29:23","新北市板橋區華東街1-8號","121.447808333333","24.994775","6500100","板橋區"
"242056","280-VK","2018/03/31 18:29:26","新北市新莊區瓊林路51-3號","121.445136666667","25.0276166666667","6500500","新莊區"
"220067","829-TW","2018/03/31 18:29:21","新北市板橋區民生路二段120號","121.470376666667","25.0198216666667","6500100","板橋區"
