"lineid","car","time","location","longitude","latitude","cityid","cityname"
"234046","148-BY","2018/03/31 18:49:32","新北市永和區秀朗路二段124-3號","121.524815","25.00156","6500400","永和區"
"234007","207-UY","2018/03/31 18:49:40","新北市永和區文化路123號","121.512245","25.0153233333333","6500400","永和區"
"234081","298-R6","2018/03/31 18:49:25","新北市永和區永利路112號","121.521353333333","25.00328","6500400","永和區"
"234038","336-UY","2018/03/31 18:49:30","新北市永和區福和路8巷1號","121.525043333333","25.0090483333333","6500400","永和區"
"234064","337-UY","2018/03/31 18:47:41","新北市永和區福和路1號","121.525931666667","25.00953","6500400","永和區"
"234086","338-UY","2018/03/31 18:49:39","新北市永和區中正路164號","121.515001666667","24.9967316666667","6500400","永和區"
"234017","745-BX","2018/03/31 18:49:25","新北市永和區忠孝街26巷27弄2號","121.515206666667","25.01704","6500400","永和區"
"234030","746-BX","2018/03/31 18:49:40","新北市永和區得和路329號","121.523555","24.9996416666667","6500400","永和區"
"234054","KEA-2590","2018/03/31 18:49:32","新北市永和區豫溪街191巷1弄1號","121.523128333333","25.0104","6500400","永和區"
"234013","KEA-2591","2018/03/31 18:49:21","新北市永和區保福路二段133巷20號","121.509248333333","25.013635","6500400","永和區"
"234061","AAD-866","2018/03/31 18:49:28","新北市永和區福和路305號","121.516336666667","25.0071583333333","6500400","永和區"
"234042","862-TW","2018/03/31 18:49:28","新北市永和區永貞路304號","121.51192","25.0047716666667","6500400","永和區"
"234050","863-TW","2018/03/31 18:49:34","新北市永和區環河西路一段99號","121.511308333333","25.0177466666667","6500400","永和區"
"234026","9371-KE","2018/03/31 18:49:24","新北市永和區保生路55-1號","121.504526666667","25.01089","6500400","永和區"
"234011","9373-KE","2018/03/31 18:49:36","新北市永和區仁愛路31巷2弄15號","121.513595","25.012875","6500400","永和區"
"249005","172-UM","2018/03/31 18:49:31","新北市八里區長道坑16-2號","121.394855","25.117165","6502300","八里區"
"249001","173-UM","2018/03/31 18:49:34","新北市八里區龍米路二段121-3號","121.447203333333","25.14347","6502300","八里區"
"248016","026-BX","2018/03/31 18:49:31","新北市五股區凌雲路一段149巷13-1號","121.44858","25.1008733333333","6501500","五股區"
"248006","077-UY","2018/03/31 18:49:39","新北市五股區中興路二段37巷11弄25號","121.461423333333","25.073385","6501500","五股區"
"248008","095-VK","2018/03/31 18:49:23","新北市五股區中興路一段151巷38號","121.465191666667","25.07258","6501500","五股區"
"248020","225-UY","2018/03/31 18:44:57","新北市五股區凌雲路三段田埔巷19號","121.433596666667","25.122025","6501500","五股區"
"248012","247-BX","2018/03/31 18:49:20","新北市五股區成泰路二段147巷5-17號","121.437055","25.0883933333333","6501500","五股區"
"248014","261-SL","2018/03/31 18:49:33","新北市五股區中興路四段67-2號","121.436951666667","25.083385","6501500","五股區"
"248010","272-BY","2018/03/31 18:49:33","新北市五股區水碓七路99號","121.430421666667","25.0729616666667","6501500","五股區"
"248004","677-BX","2018/03/31 18:49:20","新北市五股區民義路二段46-6號","121.413566666667","25.1017083333333","6501500","五股區"
"248002","678-BX","2018/03/31 18:49:36","新北市五股區成泰路三段437號","121.449843333333","25.097815","6501500","五股區"
"234023","9380-KE","2018/03/31 18:49:35","新北市永和區竹林路119巷28號","121.521486666667","25.0117583333333","6500400","永和區"
"234077","969-R7","2018/03/31 18:49:23","新北市永和區中正路2巷29弄2-2號","121.513801666667","24.9937783333333","6500400","永和區"
"234067","AAC-212","2018/03/31 18:49:29","新北市永和區永和路一段22號","121.513011666667","25.004795","6500400","永和區"
"234003","AAC-295","2018/03/31 18:49:26","新北市永和區中正路605號","121.516438333333","25.0097233333333","6500400","永和區"
"232011","375-UM","2018/03/31 18:26:51","新北市坪林區坪雙路一段31號","121.711683333333","24.9424216666667","6502000","坪林區"
"244013","069-UM","2018/03/31 18:49:22","新北市林口區中正路514巷4弄2號","121.38191","25.07768","6501700","林口區"
"244007","080-UY","2018/03/31 18:49:25","新北市林口區太平嶺2鄰9號","121.379563333333","25.11428","6501700","林口區"
"244025","742-UY","2018/03/31 18:49:22","新北市林口區南勢里57-3號","121.360235","25.07797","6501700","林口區"
"244009","410-SL","2018/03/31 18:49:35","新北市林口區竹林路344號","121.391516666667","25.0837666666667","6501700","林口區"
"244023","483-VK","2018/03/31 18:49:34","新北市林口區民權路155號","121.373991666667","25.083755","6501700","林口區"
"244017","485-VK","2018/03/31 18:49:26","新北市林口區文化二路一段68巷2號","121.366153333333","25.06876","6501700","林口區"
"244019","657-BX","2018/03/31 18:49:27","新北市林口區麗園二街47巷4號","121.381243333333","25.0690766666667","6501700","林口區"
"243012","AAD-798","2018/03/31 18:49:34","新北市泰山區福興三街13號","121.434451666667","25.057795","6501600","泰山區"
"243014","421-VK","2018/03/31 18:49:19","新北市泰山區犁頭窠3-1號","121.422163333333","25.0605316666667","6501600","泰山區"
"243016","539-UM","2018/03/31 18:49:24","新北市泰山區明志路二段137號","121.427653333333","25.0507083333333","6501600","泰山區"
"243013","646-TV","2018/03/31 18:49:35","新北市泰山區明志路三段206巷3號","121.423285","25.0379016666667","6501600","泰山區"
"222003","436-BY","2018/03/31 18:49:16","新北市深坑區北深路一段300號","121.62353","25.005455","6501800","深坑區"
"222002","659-BX","2018/03/31 18:49:33","新北市深坑區文山路一段64號","121.623801666667","25.0006766666667","6501800","深坑區"
"231041","002-UM","2018/03/31 18:49:32","新北市新店區安華路28-1號","121.519766666667","24.9608316666667","6500600","新店區"
"231058","0291-UT","2018/03/31 18:49:32","新北市新店區中正路1巷2號","121.545646666667","24.968965","6500600","新店區"
"231059","046-UY","2018/03/31 18:49:34","新北市新店區安華路28-1號","121.519605","24.960725","6500600","新店區"
"231061","047-UY","2018/03/31 18:49:20","新北市新店區安華路28-1號","121.51944","24.9608066666667","6500600","新店區"
"231060","106-UY","2018/03/31 18:49:23","新北市新店區安華路28-1號","121.519686666667","24.9607533333333","6500600","新店區"
"231051","107-UY","2018/03/31 18:49:29","新北市新店區中央路59號","121.532763333333","24.977295","6500600","新店區"
"231048","108-UY","2018/03/31 18:49:33","新北市新店區寶橋路6巷4號","121.54339","24.9734516666667","6500600","新店區"
"231052","187-VK","2018/03/31 18:49:19","新北市新店區永興路102-4號","121.545768333333","24.9303233333333","6500600","新店區"
"231050","KEA-2219","2018/03/31 18:49:22","新北市新店區光明街99號","121.538953333333","24.9611866666667","6500600","新店區"
"231063","268-BY","2018/03/31 18:49:20","新北市新店區安華路1-1號","121.519566666667","24.9604833333333","6500600","新店區"
"231046","278-BY","2018/03/31 18:49:27","新北市新店區直潭路71號","121.532398333333","24.942195","6500600","新店區"
"231054","AAD-862","2018/03/31 18:49:30","新北市新店區北宜路一段123號","121.540465","24.953665","6500600","新店區"
"231056","3713-VJ","2018/03/31 18:49:27","新北市新店區大豐路68巷24號","121.538675","24.9801783333333","6500600","新店區"
"231055","4716-K9","2018/03/31 18:49:21","新北市新店區新生街12號","121.540096666667","24.9661816666667","6500600","新店區"
"231067","4772-VM","2018/03/31 18:49:26","新北市新店區安康路一段222號","121.52374","24.9635466666667","6500600","新店區"
"231065","512-UM","2018/03/31 18:49:24","新北市新店區安康路二段393號","121.494258333333","24.9539233333333","6500600","新店區"
"231064","513-UM","2018/03/31 18:49:25","新北市新店區安華路28-1號","121.519706666667","24.9610783333333","6500600","新店區"
"231045","617-UM","2018/03/31 18:49:25","新北市新店區安康路一段77號","121.530046666667","24.961165","6500600","新店區"
"231040","619-UM","2018/03/31 18:49:38","新北市新店區環河路116號","121.53698","24.9673283333333","6500600","新店區"
"231042","641-BX","2018/03/31 18:49:33","新北市新店區中正路82號","121.543693333333","24.9702466666667","6500600","新店區"
"231049","719-UM","2018/03/31 18:49:26","新北市新店區中正路454-5號","121.53447","24.9790416666667","6500600","新店區"
"231062","719-UY","2018/03/31 18:49:24","新北市新店區安豐路57號","121.499113333333","24.9543183333333","6500600","新店區"
"231044","897-TW","2018/03/31 18:49:35","新北市新店區中正路9號","121.545543333333","24.9693383333333","6500600","新店區"
"231043","899-TW","2018/03/31 18:49:21","新北市新店區安康路一段111號","121.528593333333","24.9617383333333","6500600","新店區"
"231066","AKT-0513","2018/03/31 18:49:26","新北市新店區安豐路22巷11號","121.502868333333","24.955075","6500600","新店區"
"235066","003-UY","2018/03/31 18:49:32","新北市中和區水源路16號","121.504036666667","25.0034583333333","6500300","中和區"
"235064","005-UY","2018/03/31 18:49:28","新北市中和區景平路597號","121.497085","25.00056","6500300","中和區"
"235063","006-UY","2018/03/31 18:49:31","新北市中和區錦和路196巷6號","121.489726666667","24.9949933333333","6500300","中和區"
"235056","096-UM","2018/03/31 18:49:25","新北市中和區員山路611巷5弄9號","121.478463333333","25.011","6500300","中和區"
"235065","098-UM","2018/03/31 18:49:24","新北市中和區中山路二段2巷43號","121.50257","25.00693","6500300","中和區"
"235040","150-BY","2018/03/31 18:49:28","新北市中和區保健路123號","121.512401666667","24.996045","6500300","中和區"
"235058","151-BY","2018/03/31 18:49:27","新北市土城區金城路三段287巷34號","121.47505","24.99222","6500300","中和區"
"235055","183-VK","2018/03/31 18:49:34","新北市中和區民生街34號","121.469873333333","25.00535","6500300","中和區"
"235038","185-VK","2018/03/31 18:49:34","新北市中和區立人街18號","121.519128333333","24.9942066666667","6500300","中和區"
"235049","186-VK","2018/03/31 18:49:40","新北市中和區景安路134號","121.504906666667","24.9943516666667","6500300","中和區"
"235067","255-BX","2018/03/31 18:47:49","新北市中和區新生街10號","121.483098333333","25.0045416666667","6500300","中和區"
"235067","293-VK","2018/03/31 18:49:37","新北市中和區中興街169號","121.499935","24.990575","6500300","中和區"
"235072","301-VK","2018/03/31 18:49:36","新北市中和區中山路二段120號","121.502805","25.0037116666667","6500300","中和區"
"235043","352-BY","2018/03/31 18:49:34","新北市中和區成功路139號","121.525931666667","24.9906233333333","6500300","中和區"
"235068","377-QA","2018/03/31 18:49:31","新北市中和區中正路211巷38號","121.497806666667","24.9926383333333","6500300","中和區"
"235061","378-QA","2018/03/31 18:49:19","新北市中和區民享街40-2號","121.473865","25.0027933333333","6500300","中和區"
"235050","4979-A6","2018/03/31 18:49:19","新北市中和區忠孝街62巷32號","121.512901666667","24.9835016666667","6500300","中和區"
"235069","4980-A6","2018/03/31 18:49:19","新北市中和區中和路127號","121.501783333333","25.00005","6500300","中和區"
"235042","551-UM","2018/03/31 18:49:33","新北市中和區秀朗路三段153巷4號","121.525425","24.9915916666667","6500300","中和區"
"235070","558-UM","2018/03/31 18:49:33","新北市中和區南山路6號","121.501988333333","24.9986483333333","6500300","中和區"
"235045","565-BX","2018/03/31 18:49:22","新北市中和區景安路192號","121.504353333333","24.9916633333333","6500300","中和區"
"235054","640-BX","2018/03/31 18:49:25","新北市中和區民享街62號","121.474108333333","25.0022166666667","6500300","中和區"
"235060","647-TV","2018/03/31 18:49:36","新北市中和區中山路三段136號","121.473975","25.0062633333333","6500300","中和區"
"235047","732-UM","2018/03/31 18:49:26","新北市中和區興南路二段34巷55弄1號","121.504828333333","24.9862133333333","6500300","中和區"
"235046","733-UM","2018/03/31 18:49:32","新北市中和區仁愛街36巷38號","121.51122","24.98655","6500300","中和區"
"235062","800-TS","2018/03/31 18:49:24","新北市中和區中山路二段311-3號","121.49504","25.0020233333333","6500300","中和區"
"235057","801-TS","2018/03/31 18:49:28","新北市中和區民安街22巷25號","121.47939","25.0014716666667","6500300","中和區"
"235041","802-TS","2018/03/31 18:49:28","新北市中和區宜安路118巷18號","121.510808333333","24.99856","6500300","中和區"
"235052","805-TS","2018/03/31 18:49:22","新北市中和區興南路二段399巷98弄40號","121.499011666667","24.9768433333333","6500300","中和區"
"235048","896-TW","2018/03/31 18:49:26","新北市中和區華新街13號","121.507515","24.985135","6500300","中和區"
"235053","900-TW","2018/03/31 18:49:26","新北市中和區民德路290巷21號","121.466411666667","24.9960066666667","6500300","中和區"
"235051","157-BY","2018/03/31 18:49:34","新北市中和區忠孝街22號","121.510405","24.982855","6500300","中和區"
"235037","AAC-213","2018/03/31 18:49:30","新北市中和區秀朗路三段128巷7弄2號","121.52454","24.992955","6500300","中和區"
"235059","AAC-215","2018/03/31 18:49:26","新北市中和區圓通路395號","121.489631666667","24.988985","6500300","中和區"
"220065","072-UY","2018/03/31 18:49:29","新北市板橋區民族路247巷5弄42號","121.470148333333","25.0084883333333","6500100","板橋區"
"220086","073-UY","2018/03/31 18:49:25","新北市板橋區大智街73號","121.453583333333","25.015525","6500100","板橋區"
"220069","AAD-861","2018/03/31 18:49:20","新北市板橋區館前西路44號","121.458501666667","25.0070383333333","6500100","板橋區"
"226004","312-R5","2018/03/31 18:49:29","新北市平溪區靜安路二段392號","121.73853","25.0245133333333","6502400","平溪區"
"235039","251-BX","2018/03/31 18:49:26","新北市中和區宜安路18巷6號","121.513573333333","24.9961133333333","6500300","中和區"
"228003","097-TW","2018/03/31 18:49:35","新北市瑞芳區鼻頭路127號","121.916995","25.121435","6502600","貢寮區"
"228001","212-TW","2018/03/31 18:49:32","新北市貢寮區仁理村保健街71號","121.923708333333","25.0516366666667","6502600","貢寮區"
"228002","585-TW","2018/03/31 18:49:35","新北市貢寮區福隆里東興街6-11號","121.950761666667","25.0210333333333","6502600","貢寮區"
"224010","AGQ-8101","2018/03/31 18:49:33","新北市瑞芳區汽車路9號","121.845628333333","25.1098533333333","6501200","瑞芳區"
"224002","639-TC","2018/03/31 18:49:25","新北市瑞芳區傑魚坑路311-1號","121.794206666667","25.1074533333333","6501200","瑞芳區"
"224008","285-BY","2018/03/31 18:49:25","新北市瑞芳區裕民新城3號","121.80177","25.111915","6501200","瑞芳區"
"224009","273-VK","2018/03/31 18:49:30","新北市瑞芳區祈堂路2號","121.859755","25.1117","6501200","瑞芳區"
"224005","271-BY","2018/03/31 18:49:19","新北市瑞芳區海濱路87-2號","121.830603333333","25.12251","6501200","瑞芳區"
"227010","642-TC","2018/03/31 18:49:31","新北市雙溪區牡丹里聖南25號","121.857016666667","25.0527933333333","6502500","雙溪區"
"227002","400-TW","2018/03/31 18:49:34","新北市雙溪區平林里梅竹蹊28號","121.861636666667","25.03599","6502500","雙溪區"
"253005","032-BX","2018/03/31 18:49:32","新北市石門區石門街2巷20號","121.565575","25.290555","6502200","石門區"
"253006","295-VK","2018/03/31 18:49:25","新北市石門區下員坑16號","121.510643333333","25.283735","6502200","石門區"
"222001","KEA-2212","2018/03/31 18:49:34","新北市深坑區松柏街30巷1號","121.638666666667","25.0112983333333","6501800","深坑區"
"208002","KEA-2872","2018/03/31 18:49:23","新北市金山區信義路66號","121.635703333333","25.21893","6502700","金山區"
"208003","665-BX","2018/03/31 18:49:29","新北市金山區中山路393號","121.63341","25.2251983333333","6502700","金山區"
"208001","761-BX","2018/03/31 18:49:29","新北市金山區文化三路66巷1號","121.634265","25.2256433333333","6502700","金山區"
"251009","008-UM","2018/03/31 18:49:20","新北市淡水區重建街167號","121.440671666667","25.173965","6501000","淡水區"
"251001","011-UM","2018/03/31 18:49:34","新北市淡水區自強路88號","121.462678333333","25.1284416666667","6501000","淡水區"
"251013","179-VK","2018/03/31 18:49:20","新北市淡水區小坑子頭10號","121.481858333333","25.2130316666667","6501000","淡水區"
"251014","180-VK","2018/03/31 18:49:31","新北市淡水區崙頂3號","121.491","25.2238966666667","6501000","淡水區"
"251015","182-VK","2018/03/31 18:49:29","新北市淡水區興福寮88巷1-12號","121.48731","25.1672916666667","6501000","淡水區"
"251010","413-VK","2018/03/31 18:49:25","新北市淡水區沙崙路11號","121.421148333333","25.1812366666667","6501000","淡水區"
"251012","441-VK","2018/03/31 18:49:29","新北市淡水區新興街7號","121.443791666667","25.180405","6501000","淡水區"
"251016","442-VK","2018/03/31 18:49:28","新北市淡水區下圭柔山71-3號","121.447075","25.2062283333333","6501000","淡水區"
"251011","650-BX","2018/03/31 18:49:24","新北市淡水區中正東路71號","121.447381666667","25.1677533333333","6501000","淡水區"
"251002","672-BX","2018/03/31 18:49:27","新北市淡水區學府路63號","121.448263333333","25.169585","6501000","淡水區"
"251003","673-BX","2018/03/31 18:49:24","新北市淡水區中山北路一段212巷38號","121.446126666667","25.1789933333333","6501000","淡水區"
"207003","550-UM","2018/03/31 18:49:39","新北市萬里區大鵬里頂社1-2號","121.657341666667","25.2096983333333","6502800","萬里區"
"207004","225-TW","2018/03/31 18:49:28","新北市萬里區萬里里獅頭路23號","121.693265","25.178195","6502800","萬里區"
"252002","178-VK","2018/03/31 18:49:37","新北市三芝區中正路一段112號","121.504833333333","25.2563733333333","6502100","三芝區"
"252003","249-BX","2018/03/31 18:49:40","新北市三芝區後厝里大片頭81-1號","121.459123333333","25.24442","6502100","三芝區"
"252001","292-VK","2018/03/31 18:49:24","新北市三芝區中正路三段9號","121.502916666667","25.2539983333333","6502100","三芝區"
"237004","KEA-2597","2018/03/31 18:49:23","新北市三峽區插角200-1號","121.415618333333","24.8666283333333","6500900","三峽區"
"237007","153-BY","2018/03/31 18:49:28","新北市三峽區中正路二段421號","121.36306","24.9068316666667","6500900","三峽區"
"237012","275-BY","2018/03/31 18:49:37","新北市三峽區三樹路340號","121.383971666667","24.94333","6500900","三峽區"
"237008","302-VK","2018/03/31 18:49:30","新北市三峽區中正路一段474-4號","121.37047","24.92111","6500900","三峽區"
"237014","433-BY","2018/03/31 18:49:25","新北市三峽區隆恩街170號","121.363248333333","24.9430583333333","6500900","三峽區"
"237006","5529-G3","2018/03/31 18:49:26","新北市三峽區溪東路233巷47弄2號","121.410593333333","24.934595","6500900","三峽區"
"237010","706-TV","2018/03/31 18:49:27","新北市三峽區國光街350巷13號","121.371578333333","24.9400766666667","6500900","三峽區"
"237005","AKY-6261","2018/03/31 18:49:25","新北市三峽區中山路321-2號","121.360813333333","24.9380516666667","6500900","三峽區"
"236070","105-UM","2018/03/31 18:49:38","新北市土城區延和路19號","121.46428","24.9884233333333","6501300","土城區"
"236042","107-UM","2018/03/31 18:49:28","新北市土城區裕民路114巷29號","121.450313333333","24.9855683333333","6501300","土城區"
"236079","166-UM","2018/03/31 18:49:34","新北市土城區中央路四段165巷55號","121.416593333333","24.955925","6501300","土城區"
"236030","253-BX","2018/03/31 18:49:27","新北市土城區忠義路26巷10號","121.43987","24.9698816666667","6501300","土城區"
"236026","269-VK","2018/03/31 18:49:36","新北市土城區興城路48號","121.441358333333","24.9726116666667","6501300","土城區"
"236014","270-VK","2018/03/31 18:49:39","新北市土城區金城路二段354巷20號","121.460806666667","24.9841033333333","6501300","土城區"
"236038","271-VK","2018/03/31 18:49:36","新北市土城區明德路一段195巷3弄2號","121.464298333333","24.9785566666667","6501300","土城區"
"236021","401-BY","2018/03/31 18:49:37","新北市土城區德峰街39號","121.467496666667","24.9855416666667","6501300","土城區"
"236059","912-UM","2018/03/31 18:49:36","新北市土城區忠義路48巷1號","121.439948333333","24.9690816666667","6501300","土城區"
"236049","913-UM","2018/03/31 18:49:36","新北市土城區青雲路10-2號","121.460121666667","24.988915","6501300","土城區"
"236063","915-UM","2018/03/31 18:49:30","新北市土城區金城路三段207巷6弄13號","121.470758333333","24.990325","6501300","土城區"
"236055","AAC-216","2018/03/31 18:49:23","新北市土城區裕民路179號","121.453411666667","24.984695","6501300","土城區"
"242058","986-R7","2018/03/31 18:49:17","新北市新莊區中正路857-4號","121.41933","25.0278916666667","6500500","新莊區"
"238023","601-UM","2018/03/31 18:49:21","新北市樹林區三福街114號","121.406501666667","25.0162983333333","6500700","樹林區"
"238019","599-UM","2018/03/31 18:49:22","新北市樹林區中山路三段107-1號","121.399848333333","24.97466","6500700","樹林區"
"238024","5061-A6","2018/03/31 18:49:24","新北市樹林區八德街612號","121.39719","24.9700383333333","6500700","樹林區"
"238022","KEA-2213","2018/03/31 18:49:31","新北市樹林區東大街1-5號","121.413365","24.9764733333333","6500700","樹林區"
"238025","303-VK","2018/03/31 18:49:25","新北市樹林區中山路三段22號","121.395558333333","24.9729533333333","6500700","樹林區"
"238014","282-BY","2018/03/31 18:49:33","新北市樹林區大安路111巷11號","121.423045","24.997665","6500700","樹林區"
"238020","268-VK","2018/03/31 18:49:27","新北市樹林區俊英街79號","121.426101666667","25.007545","6500700","樹林區"
"238026","172-UY","2018/03/31 18:49:28","新北市樹林區中和街11號","121.391891666667","24.9729033333333","6500700","樹林區"
"238016","169-UY","2018/03/31 18:49:22","新北市樹林區文化街23號","121.419218333333","24.9875883333333","6500700","樹林區"
"239007","AAC-297","2018/03/31 18:49:36","新北市鶯歌區中正一路建德巷38號","121.36449","24.9578083333333","6500800","鶯歌區"
"239006","891-R6","2018/03/31 18:49:27","新北市鶯歌區鶯桃路268巷16弄13號","121.336395","24.9601733333333","6500800","鶯歌區"
"239008","527-UM","2018/03/31 18:49:32","新北市鶯歌區晨曦街8號","121.337236666667","24.9764883333333","6500800","鶯歌區"
"239005","526-UM","2018/03/31 18:49:22","新北市鶯歌區鳳吉一街68號","121.326641666667","24.97414","6500800","鶯歌區"
"239001","417-VK","2018/03/31 18:49:35","新北市鶯歌區鶯桃路122號","121.338478333333","24.9544183333333","6500800","鶯歌區"
"239003","360-BY","2018/03/31 18:49:38","新北市鶯歌區鶯桃路605號","121.329216666667","24.96911","6500800","鶯歌區"
"239002","359-BY","2018/03/31 18:49:28","新北市鶯歌區中山路286-1號","121.344043333333","24.9569683333333","6500800","鶯歌區"
"239004","193-VK","2018/03/31 18:49:23","新北市鶯歌區中正三路194巷3號","121.332558333333","24.9384733333333","6500800","鶯歌區"
"221036","130-UY","2018/03/31 18:49:37","新北市汐止區南昌街35號","121.662965","25.0691083333333","6501100","汐止區"
"221015","131-UY","2018/03/31 18:49:38","新北市汐止區鄉長路一段43號","121.665378333333","25.0750883333333","6501100","汐止區"
"221010","269-BY","2018/03/31 18:49:19","新北市汐止區汐萬路一段256巷3號","121.652455","25.0745783333333","6501100","汐止區"
"221012","278-VK","2018/03/31 18:49:25","新北市汐止區汐萬路一段256巷3號","121.653405","25.0747883333333","6501100","汐止區"
"221023","279-VK","2018/03/31 18:49:29","新北市汐止區汐萬路一段256巷3號","121.653433333333","25.0746016666667","6501100","汐止區"
"221032","280-BY","2018/03/31 18:49:19","新北市汐止區民權街二段79號","121.619201666667","25.047985","6501100","汐止區"
"221027","281-BY","2018/03/31 18:49:33","新北市汐止區康寧街901號","121.651438333333","25.0749883333333","6501100","汐止區"
"221029","298-VK","2018/03/31 18:49:37","新北市汐止區工建路64號","121.640596666667","25.06308","6501100","汐止區"
"221021","299-VK","2018/03/31 18:49:24","新北市汐止區汐萬路一段256巷1號","121.651963333333","25.074735","6501100","汐止區"
"221031","353-TW","2018/03/31 18:49:29","新北市汐止區福德一路300巷26號","121.630585","25.0642683333333","6501100","汐止區"
"221008","129-UY","2018/03/31 18:39:37","新北市汐止區康寧街901號","121.65153","25.074995","6501100","汐止區"
"221025","623-UM","2018/03/31 18:49:24","新北市汐止區仁愛路75號","121.661101666667","25.0629233333333","6501100","汐止區"
"221038","646-BX","2018/03/31 18:49:37","新北市汐止區汐萬路一段312號","121.650678333333","25.0752333333333","6501100","汐止區"
"221002","707-TV","2018/03/31 18:49:28","新北市汐止區大同路一段161號","121.632495","25.056365","6501100","汐止區"
"221018","753-BX","2018/03/31 18:49:30","新北市汐止區茄苳路2巷1號","121.664573333333","25.0707666666667","6501100","汐止區"
"220079","145-BY","2018/03/31 18:49:40","新北市板橋區民權路202巷7弄24號","121.459175","25.0150316666667","6500100","板橋區"
"220080","200-UY","2018/03/31 18:49:28","新北市板橋區大觀路二段265巷60弄51號","121.441366666667","24.9977833333333","6500100","板橋區"
"220106","KEA-2550","2018/03/31 18:49:40","新北市板橋區民生路二段161巷1號","121.470226666667","25.0199216666667","6500100","板橋區"
"220082","610-BX","2018/03/31 18:49:37","新北市板橋區篤行路三段玉平巷76弄8號","121.427733333333","24.9857783333333","6500100","板橋區"
"220101","245-BX","2018/03/31 18:49:31","新北市板橋區民生路二段120號","121.47042","25.0197066666667","6500100","板橋區"
"220103","257-TC","2018/03/31 18:49:24","新北市板橋區民生路二段120號","121.470436666667","25.019665","6500100","板橋區"
"220056","276-BY","2018/03/31 18:49:21","新北市板橋區信義路65號","121.457106666667","24.995565","6500100","板橋區"
"220072","277-BY","2018/03/31 18:49:33","新北市板橋區大觀路三段36巷4號","121.433853333333","24.9959383333333","6500100","板橋區"
"220071","283-VK","2018/03/31 18:49:28","新北市板橋區忠孝路176巷17號","121.465018333333","25.0017633333333","6500100","板橋區"
"220094","285-UM","2018/03/31 18:49:29","新北市板橋區民生路二段120號","121.470365","25.0196716666667","6500100","板橋區"
"220053","285-VK","2018/03/31 18:49:31","新北市板橋區永豐街55巷48號","121.472086666667","25.0184716666667","6500100","板橋區"
"220083","286-VK","2018/03/31 18:49:38","新北市板橋區僑中二街104巷2號","121.446","25.0079833333333","6500100","板橋區"
"220081","287-VK","2018/03/31 18:49:24","新北市板橋區南雅西路二段86號","121.452586666667","25.0111216666667","6500100","板橋區"
"220090","288-VK","2018/03/31 18:49:33","新北市板橋區民生路二段120號","121.470501666667","25.01954","6500100","板橋區"
"220061","293-UM","2018/03/31 18:49:31","新北市板橋區太和街4巷9號","121.474171666667","25.019935","6500100","板橋區"
"220084","296-UM","2018/03/31 18:49:40","新北市板橋區大觀路二段150巷23號","121.441661666667","24.99951","6500100","板橋區"
"220075","303-R5","2018/03/31 18:49:33","新北市板橋區南雅東路100巷12號","121.454221666667","25.00727","6500100","板橋區"
"220062","305-R5","2018/03/31 18:49:37","新北市板橋區觀光街2-1號","121.472381666667","25.0153666666667","6500100","板橋區"
"220092","307-R5","2018/03/31 18:49:36","新北市板橋區民生路二段120號","121.470653333333","25.01979","6500100","板橋區"
"220064","486-VK","2018/03/31 18:49:23","新北市板橋區民生路二段17號","121.472378333333","25.01643","6500100","板橋區"
"220088","491-VK","2018/03/31 18:49:36","新北市板橋區民生路二段161巷1號","121.469903333333","25.020045","6500100","板橋區"
"220035","560-BX","2018/03/31 18:49:35","新北市板橋區中正路325巷30-2號","121.453015","25.0187233333333","6500100","板橋區"
"220063","609-BX","2018/03/31 18:49:24","新北市板橋區中山路二段37號","121.473085","25.0156133333333","6500100","板橋區"
"220055","630-UY","2018/03/31 18:49:33","新北市板橋區縣民大道一段275號","121.460686666667","25.0098883333333","6500100","板橋區"
"220057","686-BX","2018/03/31 18:49:28","新北市板橋區館前西路53號","121.457728333333","25.0065116666667","6500100","板橋區"
"220077","687-BX","2018/03/31 18:49:29","新北市板橋區龍興街99巷1號","121.444255","25.002815","6500100","板橋區"
"220093","689-BX","2018/03/31 18:49:28","新北市板橋區民生路二段188號","121.470273333333","25.020275","6500100","板橋區"
"220054","741-BX","2018/03/31 18:49:33","新北市板橋區館前西路52號","121.458436666667","25.0068983333333","6500100","板橋區"
"220102","KEA-2699","2018/03/31 18:49:34","新北市板橋區民生路二段89-6號","121.470648333333","25.019365","6500100","板橋區"
"220067","829-TW","2018/03/31 18:49:21","新北市板橋區三民路二段正隆巷62號","121.476656666667","25.01436","6500100","板橋區"
"220068","830-TW","2018/03/31 18:49:28","新北市板橋區介壽街119號","121.470605","25.01874","6500100","板橋區"
"220096","831-TW","2018/03/31 18:49:36","新北市板橋區民生路二段120號","121.470393333333","25.01959","6500100","板橋區"
"220089","833-TW","2018/03/31 18:49:23","新北市板橋區民生路二段188號","121.469933333333","25.0203566666667","6500100","板橋區"
"220074","895-R6","2018/03/31 18:49:33","新北市板橋區南門街53號","121.457123333333","25.0084066666667","6500100","板橋區"
"220073","985-R7","2018/03/31 18:49:28","新北市板橋區南雅東路120號","121.453456666667","25.0086766666667","6500100","板橋區"
"220070","AAC-253","2018/03/31 18:49:34","新北市板橋區館前西路46巷2號","121.458935","25.00707","6500100","板橋區"
