"lineid","car","time","location","longitude","latitude","cityid","cityname"
"234046","148-BY","2018/03/31 19:09:32","新北市永和區永元路18巷38弄2號","121.523856666667","25.0001733333333","6500400","永和區"
"234070","149-BY","2018/03/31 19:09:32","新北市永和區豫溪街95巷6號","121.5182","25.0107033333333","6500400","永和區"
"234007","207-UY","2018/03/31 19:09:20","新北市永和區中山路一段197號","121.509111666667","25.0087166666667","6500400","永和區"
"234081","298-R6","2018/03/31 19:09:31","新北市永和區永亨路59號","121.520908333333","25.00617","6500400","永和區"
"234038","336-UY","2018/03/31 19:09:30","新北市永和區民樂街71巷1號","121.527376666667","24.99755","6500400","永和區"
"234064","337-UY","2018/03/31 19:09:35","新北市永和區秀朗路二段15號","121.520935","25.0027316666667","6500400","永和區"
"234086","338-UY","2018/03/31 19:09:19","新北市永和區永貞路105號","121.517913333333","25.0043466666667","6500400","永和區"
"234017","745-BX","2018/03/31 19:09:25","新北市永和區文化路90巷3弄2號","121.513888333333","25.0156733333333","6500400","永和區"
"234030","746-BX","2018/03/31 19:09:40","新北市永和區民生路23號","121.522855","24.9987933333333","6500400","永和區"
"234054","KEA-2590","2018/03/31 19:09:32","新北市永和區竹林路72巷2號","121.51918","25.01294","6500400","永和區"
"234013","KEA-2591","2018/03/31 19:09:22","新北市永和區保福路二段42號","121.511","25.0120166666667","6500400","永和區"
"234061","AAD-866","2018/03/31 19:09:37","新北市永和區安樂路304巷2號","121.5145","25.004925","6500400","永和區"
"234042","862-TW","2018/03/31 19:09:28","新北市永和區永和路一段49巷3弄99號","121.511795","25.0060433333333","6500400","永和區"
"234050","863-TW","2018/03/31 19:09:34","新北市永和區仁愛路104巷7弄23號","121.511013333333","25.0141183333333","6500400","永和區"
"234026","9371-KE","2018/03/31 19:09:24","新北市永和區安樂路272巷7弄3號","121.514918333333","25.00446","6500400","永和區"
"234011","9373-KE","2018/03/31 19:09:35","新北市永和區信義路43巷25號","121.512025","25.0119583333333","6500400","永和區"
"249005","172-UM","2018/03/31 19:09:31","新北市八里區中華路三段65號","121.394846666667","25.1410433333333","6502300","八里區"
"249001","173-UM","2018/03/31 19:09:34","新北市八里區龍米路二段228-2號","121.43259","25.1584033333333","6502300","八里區"
"248006","077-UY","2018/03/31 19:09:19","新北市五股區四維路112號","121.467706666667","25.073975","6501500","五股區"
"248020","225-UY","2018/03/31 19:05:49","新北市五股區凌雲路三段57號","121.425263333333","25.12499","6501500","五股區"
"248012","247-BX","2018/03/31 19:09:20","新北市五股區中興路四段48巷16號","121.43863","25.083425","6501500","五股區"
"248010","272-BY","2018/03/31 19:09:26","新北市五股區水碓一路23號","121.430585","25.07127","6501500","五股區"
"248004","677-BX","2018/03/31 19:09:20","新北市五股區六合街3號","121.431793333333","25.0884783333333","6501500","五股區"
"248002","678-BX","2018/03/31 19:09:36","新北市五股區凌雲路一段158巷14-1號","121.447848333333","25.1034416666667","6501500","五股區"
"234023","9380-KE","2018/03/31 19:09:36","新北市永和區中興街10巷11號","121.515581666667","25.0111883333333","6500400","永和區"
"234077","969-R7","2018/03/31 19:09:32","新北市永和區民權路46號","121.520163333333","24.9986083333333","6500400","永和區"
"234074","AAC-211","2018/03/31 19:09:25","新北市永和區竹林路222號","121.520753333333","25.0081016666667","6500400","永和區"
"234067","AAC-212","2018/03/31 19:09:28","新北市永和區永和路一段51號","121.51282","25.0065583333333","6500400","永和區"
"234003","AAC-295","2018/03/31 19:09:26","新北市永和區保福路一段75號","121.512033333333","25.010395","6500400","永和區"
"244013","069-UM","2018/03/31 19:09:22","新北市林口區麗園一街6巷2-3號","121.376425","25.069835","6501700","林口區"
"244023","483-VK","2018/03/31 19:09:34","新北市林口區文化三路一段617巷90號","121.370041666667","25.077815","6501700","林口區"
"244017","485-VK","2018/03/31 19:09:26","新北市林口區文化二路一段120巷2-1號","121.368031666667","25.07053","6501700","林口區"
"244019","657-BX","2018/03/31 19:09:27","新北市林口區麗園二街1巷1-2號","121.376995","25.0697283333333","6501700","林口區"
"244011","701-TV","2018/03/31 19:09:26","新北市林口區竹林路69號","121.387498333333","25.07829","6501700","林口區"
"243012","AAD-798","2018/03/31 19:09:34","新北市泰山區辭修路36巷8弄5號","121.427861666667","25.0585933333333","6501600","泰山區"
"243011","297-R6","2018/03/31 19:09:29","新北市泰山區明志路二段368號","121.425613333333","25.0448616666667","6501600","泰山區"
"243014","421-VK","2018/03/31 19:09:19","新北市泰山區泰林路二段438號","121.426618333333","25.06424","6501600","泰山區"
"243016","539-UM","2018/03/31 19:09:24","新北市泰山區明志路二段341號","121.425503333333","25.0446233333333","6501600","泰山區"
"243010","KEA-2215","2018/03/31 19:09:29","新北市泰山區明志路一段483巷1弄1號","121.431108333333","25.05543","6501600","泰山區"
"243009","KEA-2216","2018/03/31 19:09:27","新北市泰山區明志路一段117巷26號","121.434198333333","25.06362","6501600","泰山區"
"243013","646-TV","2018/03/31 19:09:36","新北市泰山區明志路三段231巷4弄1號","121.424228333333","25.0375766666667","6501600","泰山區"
"222003","436-BY","2018/03/31 19:09:36","新北市深坑區深南路162號","121.626078333333","25.0149783333333","6501800","深坑區"
"222002","659-BX","2018/03/31 19:09:33","新北市深坑區烏月路1號","121.633376666667","25.0081383333333","6501800","深坑區"
"231041","002-UM","2018/03/31 19:09:32","新北市新店區溪園路389-7號","121.523718333333","24.9789433333333","6500600","新店區"
"231058","0291-UT","2018/03/31 19:09:33","新北市新店區光明街168巷12號","121.540266666667","24.9616733333333","6500600","新店區"
"231059","046-UY","2018/03/31 19:09:34","新北市新店區安和路二段120號","121.519058333333","24.9707633333333","6500600","新店區"
"231061","047-UY","2018/03/31 19:09:20","新北市新店區安康路一段20號","121.531043333333","24.9610683333333","6500600","新店區"
"231060","106-UY","2018/03/31 19:09:30","新北市新店區安康路二段296-3號","121.506118333333","24.958065","6500600","新店區"
"231051","107-UY","2018/03/31 19:09:28","新北市新店區中正路382巷14號","121.535241666667","24.9775316666667","6500600","新店區"
"231048","108-UY","2018/03/31 19:09:33","新北市新店區德正街27巷29弄19號","121.544935","24.9718316666667","6500600","新店區"
"231052","187-VK","2018/03/31 19:09:39","新北市新店區屈尺路87巷2號","121.545563333333","24.9227566666667","6500600","新店區"
"231050","KEA-2219","2018/03/31 19:09:22","新北市新店區竹林路2巷15號","121.550426666667","24.9514166666667","6500600","新店區"
"231063","268-BY","2018/03/31 19:09:40","新北市新店區車子路121號","121.50529","24.9507783333333","6500600","新店區"
"231046","278-BY","2018/03/31 19:09:27","新北市新店區華潭街1巷49號","121.526933333333","24.9469866666667","6500600","新店區"
"231054","AAD-862","2018/03/31 19:09:30","新北市新店區新店路137號","121.537061666667","24.95458","6500600","新店區"
"231056","3713-VJ","2018/03/31 19:09:27","新北市新店區二十張路46巷37弄21-5號","121.535421666667","24.9813016666667","6500600","新店區"
"231055","4716-K9","2018/03/31 19:09:21","新北市新店區安民街133巷26號","121.515455","24.9696366666667","6500600","新店區"
"231067","4772-VM","2018/03/31 19:09:25","新北市新店區安康路二段5號","121.51521","24.9636583333333","6500600","新店區"
"231065","512-UM","2018/03/31 19:09:24","新北市新店區安祥路140號","121.474443333333","24.955875","6500600","新店區"
"231064","513-UM","2018/03/31 19:09:25","新北市新店區安忠路90號","121.51153","24.95808","6500600","新店區"
"231045","617-UM","2018/03/31 19:09:25","新北市新店區北宜路一段121-2號","121.540451666667","24.9537566666667","6500600","新店區"
"231040","619-UM","2018/03/31 19:09:19","新北市新店區三民路98-2號","121.533983333333","24.9735033333333","6500600","新店區"
"231042","641-BX","2018/03/31 19:09:33","新北市新店區光明街96巷3號","121.539311666667","24.959915","6500600","新店區"
"231049","719-UM","2018/03/31 19:09:29","新北市新店區二十張路25巷18弄9號","121.539278333333","24.9815616666667","6500600","新店區"
"231062","719-UY","2018/03/31 19:09:24","新北市新店區莒光路36號","121.523193333333","24.9589683333333","6500600","新店區"
"231044","897-TW","2018/03/31 19:09:35","新北市新店區中興路三段184號","121.544088333333","24.98142","6500600","新店區"
"231043","899-TW","2018/03/31 19:09:21","新北市新店區中興路二段252號","121.547441666667","24.975885","6500600","新店區"
"231066","AKT-0513","2018/03/31 19:09:26","新北市新店區安康路三段466-2號","121.484061666667","24.9508516666667","6500600","新店區"
"241035","KEA-2210","2018/03/31 19:09:38","新北市三重區大智街23號","121.494218333333","25.065885","6500200","三重區"
"241020","478-VK","2018/03/31 19:09:35","新北市三重區後竹圍街119號","121.48768","25.0724216666667","6500200","三重區"
"241026","887-TS","2018/03/31 19:09:34","新北市三重區泉州街63-2號","121.494658333333","25.05442","6500200","三重區"
"241029","942-UM","2018/03/31 19:09:31","新北市三重區重安街83號","121.492533333333","25.0557916666667","6500200","三重區"
"235066","003-UY","2018/03/31 19:09:31","新北市中和區廣福路10號","121.505665","25.0028916666667","6500300","中和區"
"235064","005-UY","2018/03/31 19:09:28","新北市中和區泰和街26號","121.49948","25.0004516666667","6500300","中和區"
"235063","006-UY","2018/03/31 19:09:31","新北市中和區連城路268-7號","121.486508333333","24.996355","6500300","中和區"
"235056","096-UM","2018/03/31 19:09:25","新北市中和區員山路530號","121.47891","25.0097883333333","6500300","中和區"
"235065","098-UM","2018/03/31 19:09:24","新北市中和區中山路二段136巷66號","121.500673333333","25.004285","6500300","中和區"
"235040","150-BY","2018/03/31 19:09:28","新北市中和區宜安路73號","121.511076666667","24.9973216666667","6500300","中和區"
"235058","151-BY","2018/03/31 19:09:27","新北市中和區員山路128號","121.481095","24.9961283333333","6500300","中和區"
"235055","183-VK","2018/03/31 19:09:34","新北市中和區德光路31號","121.47063","25.0042316666667","6500300","中和區"
"235038","185-VK","2018/03/31 19:09:14","新北市中和區大仁街10巷27弄4號","121.519215","24.9927616666667","6500300","中和區"
"235049","186-VK","2018/03/31 19:09:40","新北市中和區明禮街15號","121.504881666667","24.995895","6500300","中和區"
"235067","255-BX","2018/03/31 19:07:29","新北市中和區新生街176巷20號","121.482708333333","24.9999483333333","6500300","中和區"
"235067","293-VK","2018/03/31 19:09:37","新北市中和區中興街237巷2號","121.500575","24.989375","6500300","中和區"
"235072","301-VK","2018/03/31 19:09:36","新北市中和區景平路668號","121.497333333333","25.000975","6500300","中和區"
"235043","352-BY","2018/03/31 19:09:33","新北市中和區景平路116號","121.519443333333","24.9917383333333","6500300","中和區"
"235068","377-QA","2018/03/31 19:09:31","新北市中和區圓通路162巷39號","121.49643","24.995545","6500300","中和區"
"235061","378-QA","2018/03/31 19:09:39","新北市中和區民有街63號","121.476566666667","25.0033683333333","6500300","中和區"
"235071","269-TV","2018/03/31 19:09:26","新北市中和區連城路332號","121.483198333333","24.9958733333333","6500300","中和區"
"235050","4979-A6","2018/03/31 19:09:19","新北市中和區復興路249巷11弄3號","121.503518333333","24.9896666666667","6500300","中和區"
"235069","4980-A6","2018/03/31 19:09:39","新北市中和區中和路217巷16號","121.5047","25.0003566666667","6500300","中和區"
"235042","551-UM","2018/03/31 19:09:33","新北市中和區自立路117巷1號","121.52232","24.9945016666667","6500300","中和區"
"235070","558-UM","2018/03/31 19:09:33","新北市中和區景新街2號","121.50247","24.9997466666667","6500300","中和區"
"235045","565-BX","2018/03/31 19:09:34","新北市中和區景新街467巷35弄3號","121.514535","24.9890666666667","6500300","中和區"
"235054","640-BX","2018/03/31 19:09:25","新北市中和區民德路105號","121.468856666667","25.0007916666667","6500300","中和區"
"235060","647-TV","2018/03/31 19:09:36","新北市中和區民治街146號","121.475401666667","25.0018133333333","6500300","中和區"
"235047","732-UM","2018/03/31 19:09:26","新北市中和區興南路一段107號","121.509315","24.9881716666667","6500300","中和區"
"235046","733-UM","2018/03/31 19:09:32","新北市中和區忠孝街1巷72號","121.508261666667","24.984725","6500300","中和區"
"235057","801-TS","2018/03/31 19:09:28","新北市中和區民利街100巷4弄1號","121.477133333333","24.9983066666667","6500300","中和區"
"235041","802-TS","2018/03/31 19:09:28","新北市永和區中和路307號","121.506713333333","24.99967","6500300","中和區"
"235052","805-TS","2018/03/31 19:09:22","新北市中和區興南路二段142巷17弄33號","121.502973333333","24.982825","6500300","中和區"
"235048","896-TW","2018/03/31 19:09:26","新北市中和區忠孝街1號","121.508933333333","24.9829833333333","6500300","中和區"
"235053","900-TW","2018/03/31 19:09:26","新北市中和區華福街83號","121.467511666667","24.9964983333333","6500300","中和區"
"235051","157-BY","2018/03/31 19:09:34","新北市中和區仁愛街36巷16號","121.510705","24.9874833333333","6500300","中和區"
"235037","AAC-213","2018/03/31 19:09:30","新北市中和區秀朗路三段60巷23號","121.52562","24.9950166666667","6500300","中和區"
"235059","AAC-215","2018/03/31 19:09:26","新北市中和區圓通路294巷17-5號","121.488551666667","24.990365","6500300","中和區"
"220065","072-UY","2018/03/31 19:09:29","新北市板橋區民族路219巷68號","121.46877","25.008555","6500100","板橋區"
"220086","073-UY","2018/03/31 19:09:25","新北市板橋區中正路250巷120號","121.460043333333","25.0200283333333","6500100","板橋區"
"220069","AAD-861","2018/03/31 19:09:20","新北市板橋區四川路一段102號","121.459581666667","25.00469","6500100","板橋區"
"226004","312-R5","2018/03/31 19:09:29","新北市平溪區十分里十分街96-2號","121.77667","25.0425666666667","6502400","平溪區"
"235039","251-BX","2018/03/31 19:09:26","新北市永和區民有街25巷2號","121.517151666667","24.9961266666667","6500300","中和區"
"228003","097-TW","2018/03/31 19:09:35","新北市貢寮區和美里和美街37號","121.912223333333","25.0876583333333","6502600","貢寮區"
"228001","212-TW","2018/03/31 19:09:32","新北市貢寮區真理里新港街10號","121.92551","25.0543666666667","6502600","貢寮區"
"228002","585-TW","2018/03/31 19:09:35","新北市貢寮區福隆里福隆街26號","121.944991666667","25.0171883333333","6502600","貢寮區"
"224008","285-BY","2018/03/31 19:09:25","新北市瑞芳區明燈路三段283號","121.79852","25.1121683333333","6501200","瑞芳區"
"224009","273-VK","2018/03/31 19:09:30","新北市瑞芳區洞頂路148號","121.85951","25.1182583333333","6501200","瑞芳區"
"224005","271-BY","2018/03/31 19:09:39","新北市瑞芳區三爪子坑路39號","121.813208333333","25.1074983333333","6501200","瑞芳區"
"227010","642-TC","2018/03/31 19:09:31","新北市雙溪區牡丹里中正路48號","121.865113333333","25.039135","6502500","雙溪區"
"227002","400-TW","2018/03/31 19:09:34","新北市雙溪區平林里外平林10-4號","121.85915","25.03805","6502500","雙溪區"
"253005","032-BX","2018/03/31 19:09:32","新北市石門區阿里荖35-2號","121.606478333333","25.2806916666667","6502200","石門區"
"253006","295-VK","2018/03/31 19:08:25","新北市石門區海灣新城1號","121.52411","25.2852716666667","6502200","石門區"
"222001","KEA-2212","2018/03/31 19:09:34","新北市深坑區北深路一段300號","121.624173333333","25.0058466666667","6501800","深坑區"
"208002","KEA-2872","2018/03/31 19:09:23","新北市金山區仁愛路67巷4號","121.634548333333","25.2208833333333","6502700","金山區"
"208003","665-BX","2018/03/31 19:09:29","新北市金山區中正路57號","121.634288333333","25.2218716666667","6502700","金山區"
"208001","761-BX","2018/03/31 19:09:29","新北市金山區金包里街舊市場19號","121.638968333333","25.2214266666667","6502700","金山區"
"251009","008-UM","2018/03/31 19:09:20","新北市淡水區中正路8巷27號","121.44154","25.1703033333333","6501000","淡水區"
"251001","011-UM","2018/03/31 19:09:33","新北市淡水區自強路201巷43號","121.462061666667","25.1268516666667","6501000","淡水區"
"251013","179-VK","2018/03/31 19:09:20","新北市淡水區安子內12號","121.480951666667","25.219425","6501000","淡水區"
"251014","180-VK","2018/03/31 19:09:31","新北市淡水區北勢子10-2號","121.483596666667","25.2289583333333","6501000","淡水區"
"251015","182-VK","2018/03/31 19:09:29","新北市淡水區埔子頂1號","121.484635","25.1735083333333","6501000","淡水區"
"251010","413-VK","2018/03/31 19:09:24","新北市淡水區中正路一段156巷3號","121.421208333333","25.180275","6501000","淡水區"
"251016","442-VK","2018/03/31 19:09:28","新北市淡水區淡金路三段196號","121.448933333333","25.2035616666667","6501000","淡水區"
"251005","443-VK","2018/03/31 19:09:23","新北市淡水區中山路108巷3號","121.442111666667","25.171095","6501000","淡水區"
"251006","561-UM","2018/03/31 19:09:22","新北市淡水區崁頂69號","121.43911","25.2019266666667","6501000","淡水區"
"251007","577-R6","2018/03/31 19:09:35","新北市淡水區民生路135巷16號","121.466223333333","25.1389783333333","6501000","淡水區"
"251002","672-BX","2018/03/31 19:09:29","新北市淡水區中山路87巷1號","121.442511666667","25.1704633333333","6501000","淡水區"
"251003","673-BX","2018/03/31 19:09:24","新北市淡水區中山北路一段104號","121.442583333333","25.176625","6501000","淡水區"
"207003","550-UM","2018/03/31 19:09:33","新北市萬里區大鵬里萬里加投14號","121.650343333333","25.2091266666667","6502800","萬里區"
"207004","225-TW","2018/03/31 19:09:28","新北市萬里區萬里里瑪鋉下街52號","121.6916","25.1795133333333","6502800","萬里區"
"252002","178-VK","2018/03/31 19:09:37","新北市三芝區智成街115號","121.505831666667","25.255275","6502100","三芝區"
"252003","249-BX","2018/03/31 19:09:20","新北市三芝區錫板里南勢崗6號","121.479565","25.2619483333333","6502100","三芝區"
"252001","292-VK","2018/03/31 19:09:24","新北市三芝區長勤街82號","121.500243333333","25.255115","6502100","三芝區"
"237004","KEA-2597","2018/03/31 19:09:23","新北市三峽區有木200號","121.442183333333","24.8506433333333","6500900","三峽區"
"237007","153-BY","2018/03/31 19:09:28","新北市三峽區中正路二段39號","121.366793333333","24.91885","6500900","三峽區"
"237009","210-TH","2018/03/31 19:09:27","新北市三峽區文化路88號","121.371786666667","24.936195","6500900","三峽區"
"237012","275-BY","2018/03/31 19:09:37","新北市三峽區三樹路222巷254弄68-22號","121.394138333333","24.9445283333333","6500900","三峽區"
"237008","302-VK","2018/03/31 19:09:29","新北市三峽區光明路106巷66號","121.374966666667","24.92664","6500900","三峽區"
"237014","433-BY","2018/03/31 19:09:25","新北市三峽區中山路257巷1號","121.362471666667","24.9372783333333","6500900","三峽區"
"237006","5529-G3","2018/03/31 19:09:26","新北市三峽區介壽路一段286-7號","121.38018","24.93021","6500900","三峽區"
"237010","706-TV","2018/03/31 19:09:27","新北市三峽區復興路86號","121.373013333333","24.9373883333333","6500900","三峽區"
"237005","AKY-6261","2018/03/31 19:09:25","新北市三峽區中山路459巷163-3號","121.348641666667","24.93292","6500900","三峽區"
"236070","105-UM","2018/03/31 19:09:38","新北市土城區裕生路84巷16號","121.446601666667","24.9856266666667","6501300","土城區"
"236079","166-UM","2018/03/31 19:09:23","新北市土城區龍泉路10-1號","121.409573333333","24.9492116666667","6501300","土城區"
"236030","253-BX","2018/03/31 19:09:27","新北市土城區中央路一段294號","121.443278333333","24.9823683333333","6501300","土城區"
"236026","269-VK","2018/03/31 19:09:36","新北市土城區中正路56巷2號","121.4438","24.9753683333333","6501300","土城區"
"236014","270-VK","2018/03/31 19:09:38","新北市土城區學府路一段75巷18弄2號","121.45734","24.98753","6501300","土城區"
"236038","271-VK","2018/03/31 19:09:36","新北市土城區清水路98巷3弄1號","121.45753","24.981315","6501300","土城區"
"236021","401-BY","2018/03/31 19:09:24","新北市土城區延吉街185號","121.469245","24.9854766666667","6501300","土城區"
"236059","912-UM","2018/03/31 19:09:36","新北市土城區金城路二段241號","121.455783333333","24.982575","6501300","土城區"
"236049","913-UM","2018/03/31 19:09:27","新北市土城區明德路一段398-1號","121.453663333333","24.9790716666667","6501300","土城區"
"236055","AAC-216","2018/03/31 19:09:39","新北市土城區學府路一段225號","121.451258333333","24.9841883333333","6501300","土城區"
"238015","755-BX","2018/03/31 19:09:32","新北市樹林區備內街156號","121.407135","24.98956","6500700","樹林區"
"238023","601-UM","2018/03/31 19:09:21","新北市樹林區大慶街53號","121.396275","25.0139183333333","6500700","樹林區"
"238019","599-UM","2018/03/31 19:09:22","新北市樹林區東榮街144號","121.414931666667","24.9820583333333","6500700","樹林區"
"238024","5061-A6","2018/03/31 19:09:24","新北市樹林區味王街20號","121.403195","24.97552","6500700","樹林區"
"238021","KEA-2217","2018/03/31 19:09:22","新北市樹林區柑園街二段332號","121.372543333333","24.9514083333333","6500700","樹林區"
"238022","KEA-2213","2018/03/31 19:09:25","新北市樹林區中山路二段151巷8弄29號","121.40606","24.9776433333333","6500700","樹林區"
"238025","303-VK","2018/03/31 19:09:25","新北市樹林區中山路三段124號","121.3922","24.9721533333333","6500700","樹林區"
"238014","282-BY","2018/03/31 19:09:33","新北市樹林區中正路22-1號","121.42774","24.9993916666667","6500700","樹林區"
"238020","268-VK","2018/03/31 19:09:27","新北市樹林區俊英街133巷18號","121.423663333333","25.0111433333333","6500700","樹林區"
"238026","172-UY","2018/03/31 19:09:28","新北市樹林區佳園路二段138號","121.389323333333","24.95613","6500700","樹林區"
"238016","169-UY","2018/03/31 19:09:22","新北市樹林區中山路一段235號","121.420761666667","24.9869","6500700","樹林區"
"239007","AAC-297","2018/03/31 19:09:36","新北市鶯歌區中正一路303巷5號","121.355873333333","24.9583983333333","6500800","鶯歌區"
"239006","891-R6","2018/03/31 19:09:36","新北市鶯歌區建國路512巷24號","121.340028333333","24.9510933333333","6500800","鶯歌區"
"239008","527-UM","2018/03/31 19:09:32","新北市鶯歌區國際二路6巷15號","121.338863333333","24.9738683333333","6500800","鶯歌區"
"239005","526-UM","2018/03/31 19:09:22","新北市鶯歌區中湖街72號","121.347896666667","24.97275","6500800","鶯歌區"
"239001","417-VK","2018/03/31 19:09:35","新北市鶯歌區永智街100號","121.336895","24.9534183333333","6500800","鶯歌區"
"239003","360-BY","2018/03/31 19:09:38","新北市鶯歌區德昌街7-1號","121.333593333333","24.960405","6500800","鶯歌區"
"239002","359-BY","2018/03/31 19:09:28","新北市鶯歌區中山路277號","121.344985","24.9569966666667","6500800","鶯歌區"
"239004","193-VK","2018/03/31 19:09:23","新北市鶯歌區二甲路81-2號","121.33267","24.9321783333333","6500800","鶯歌區"
"221036","130-UY","2018/03/31 19:09:18","新北市汐止區汐萬路一段256巷3號","121.65334","25.0746566666667","6501100","汐止區"
"221015","131-UY","2018/03/31 19:09:38","新北市汐止區康寧街901號","121.651685","25.0749033333333","6501100","汐止區"
"221010","269-BY","2018/03/31 19:09:19","新北市汐止區康寧街901號","121.651456666667","25.0749916666667","6501100","汐止區"
"221012","278-VK","2018/03/31 19:09:25","新北市汐止區康寧街901號","121.65079","25.0752316666667","6501100","汐止區"
"221023","279-VK","2018/03/31 19:09:29","新北市汐止區康寧街901號","121.650986666667","25.0751933333333","6501100","汐止區"
"221032","280-BY","2018/03/31 19:09:39","新北市汐止區橫科路241-1號","121.622198333333","25.0490283333333","6501100","汐止區"
"221027","281-BY","2018/03/31 19:09:33","新北市汐止區康寧街901號","121.651456666667","25.0749466666667","6501100","汐止區"
"221029","298-VK","2018/03/31 19:09:36","新北市汐止區汐萬路一段256巷3號","121.652465","25.07458","6501100","汐止區"
"221031","353-TW","2018/03/31 19:09:29","新北市汐止區福德一路2巷25號","121.639601666667","25.0708383333333","6501100","汐止區"
"221008","129-UY","2018/03/31 19:09:38","新北市汐止區康寧街426號","121.630721666667","25.0680883333333","6501100","汐止區"
"221025","623-UM","2018/03/31 19:09:24","新北市汐止區康寧街901號","121.6515","25.0749083333333","6501100","汐止區"
"221038","646-BX","2018/03/31 19:09:37","新北市汐止區汐萬路一段312號","121.650673333333","25.07526","6501100","汐止區"
"221002","707-TV","2018/03/31 19:09:28","台北市南港區南港路一段16號","121.619466666667","25.0546633333333","6501100","汐止區"
"220079","145-BY","2018/03/31 19:09:40","新北市板橋區民權路302巷10號","121.45769","25.01645","6500100","板橋區"
"220080","200-UY","2018/03/31 19:09:28","新北市板橋區大觀路二段7巷29號","121.447938333333","25.0034033333333","6500100","板橋區"
"220106","KEA-2550","2018/03/31 19:09:20","新北市板橋區文化路二段317號","121.472086666667","25.0298383333333","6500100","板橋區"
"220082","610-BX","2018/03/31 19:09:29","新北市板橋區溪崑二街59號","121.428141666667","24.9905966666667","6500100","板橋區"
"220101","245-BX","2018/03/31 19:09:40","新北市板橋區萬板路53巷2號","121.471491666667","25.0216483333333","6500100","板橋區"
"220103","257-TC","2018/03/31 19:09:30","新北市板橋區文化路一段188巷9弄106號","121.468258333333","25.019275","6500100","板橋區"
"220091","267-BY","2018/03/31 19:09:20","新北市板橋區萬板路710號","121.48208","25.0270516666667","6500100","板橋區"
"220056","276-BY","2018/03/31 19:09:28","新北市板橋區信義路110巷1弄13號","121.458295","24.9920016666667","6500100","板橋區"
"220072","277-BY","2018/03/31 19:09:33","新北市板橋區溪城路91-1號","121.427028333333","24.9831933333333","6500100","板橋區"
"220071","283-VK","2018/03/31 19:09:28","新北市板橋區重慶路327巷19弄3-2號","121.464758333333","24.9987833333333","6500100","板橋區"
"220094","285-UM","2018/03/31 19:09:29","新北市板橋區光武街108-5號","121.465708333333","25.0291733333333","6500100","板橋區"
"220053","285-VK","2018/03/31 19:09:23","新北市板橋區懷仁街35巷2弄2號","121.476725","25.0195683333333","6500100","板橋區"
"220083","286-VK","2018/03/31 19:09:17","新北市板橋區龍興街97巷16號","121.443493333333","25.0029283333333","6500100","板橋區"
"220081","287-VK","2018/03/31 19:09:27","新北市板橋區南雅西路二段156巷7號","121.452223333333","25.01335","6500100","板橋區"
"220090","288-VK","2018/03/31 19:09:33","新北市板橋區裕民街45巷4號","121.461511666667","25.02838","6500100","板橋區"
"220061","293-UM","2018/03/31 19:09:31","新北市板橋區三民路二段28號","121.47925","25.0181366666667","6500100","板橋區"
"220084","296-UM","2018/03/31 19:09:32","新北市板橋區溪崑二街22巷15號","121.428106666667","24.99168","6500100","板橋區"
"220075","303-R5","2018/03/31 19:09:33","新北市板橋區南雅南路一段73號","121.455703333333","25.0056933333333","6500100","板橋區"
"220062","305-R5","2018/03/31 19:09:37","新北市板橋區三民路二段245巷87號","121.481551666667","25.0125766666667","6500100","板橋區"
"220092","307-R5","2018/03/31 19:09:36","新北市板橋區文化路一段306號","121.467433333333","25.02195","6500100","板橋區"
"220098","317-R6","2018/03/31 19:09:37","新北市板橋區自由路51巷16號","121.464856666667","25.0234016666667","6500100","板橋區"
"220064","486-VK","2018/03/31 19:09:23","新北市板橋區長安街224巷1號","121.475208333333","25.0119883333333","6500100","板橋區"
"220088","491-VK","2018/03/31 19:09:36","新北市板橋區文化路二段182巷1弄2號","121.470751666667","25.0273933333333","6500100","板橋區"
"220035","560-BX","2018/03/31 19:09:35","新北市板橋區中正路415號","121.454331666667","25.02263","6500100","板橋區"
"220055","568-UM","2018/03/31 19:09:18","新北市板橋區中正路379巷22號","121.45357","25.0218666666667","6500100","板橋區"
"220063","609-BX","2018/03/31 19:09:34","新北市板橋區三民路二段228號","121.478721666667","25.011415","6500100","板橋區"
"220055","630-UY","2018/03/31 19:09:33","新北市板橋區新民街7巷1號","121.463653333333","25.0098033333333","6500100","板橋區"
"220057","686-BX","2018/03/31 19:09:28","新北市板橋區重慶路290-1號","121.4635","24.998995","6500100","板橋區"
"220077","687-BX","2018/03/31 19:09:29","新北市板橋區大觀路一段65號","121.447201666667","25.0049283333333","6500100","板橋區"
"220093","689-BX","2018/03/31 19:09:39","新北市板橋區民生路三段187號","121.46546","25.0275133333333","6500100","板橋區"
"220054","741-BX","2018/03/31 19:09:33","新北市板橋區重慶路69巷10號","121.462435","25.0069666666667","6500100","板橋區"
"220102","KEA-2699","2018/03/31 19:09:34","新北市板橋區田單街51號","121.482661666667","25.0278883333333","6500100","板橋區"
"220067","829-TW","2018/03/31 19:09:21","新北市板橋區中山路二段90巷43弄18-2號","121.476886666667","25.0151683333333","6500100","板橋區"
"220068","830-TW","2018/03/31 19:09:28","新北市板橋區三民路一段29號","121.479451666667","25.0231016666667","6500100","板橋區"
"220096","831-TW","2018/03/31 19:09:36","新北市板橋區雙十路二段37-1號","121.476821666667","25.0257966666667","6500100","板橋區"
"220089","833-TW","2018/03/31 19:09:34","新北市板橋區文化路二段367號","121.473133333333","25.030975","6500100","板橋區"
"220074","895-R6","2018/03/31 19:09:30","新北市板橋區中正路69巷1弄4號","121.455775","25.0137733333333","6500100","板橋區"
"220073","985-R7","2018/03/31 19:09:28","新北市板橋區中正路280號","121.455018333333","25.0200316666667","6500100","板橋區"
"220097","AAC-210","2018/03/31 19:09:37","新北市板橋區英士路194號","121.45841","25.0227283333333","6500100","板橋區"
"220070","AAC-253","2018/03/31 19:09:34","新北市板橋區忠孝路58號","121.46107","25.0019933333333","6500100","板橋區"
