"lineid","car","time","location","longitude","latitude","cityid","cityname"
"234046","148-BY","2018/03/31 19:29:41","新北市永和區秀朗路二段190號","121.526538333333","25.0006983333333","6500400","永和區"
"234070","149-BY","2018/03/31 19:29:36","新北市永和區警光街2號","121.520156666667","25.0096283333333","6500400","永和區"
"234007","207-UY","2018/03/31 19:29:40","新北市永和區永和路一段107號","121.513891666667","25.0079366666667","6500400","永和區"
"234081","298-R6","2018/03/31 19:29:25","新北市永和區福和路1號","121.52533","25.0086816666667","6500400","永和區"
"234038","336-UY","2018/03/31 19:29:30","新北市永和區民樂街36號","121.527511666667","25.0007866666667","6500400","永和區"
"234064","337-UY","2018/03/31 19:29:41","新北市永和區得和路243巷27號","121.520678333333","25.00112","6500400","永和區"
"234086","338-UY","2018/03/31 19:29:19","新北市永和區林森路39巷1號","121.525615","25.0048216666667","6500400","永和區"
"234017","745-BX","2018/03/31 19:29:25","新北市永和區環河西路一段61號","121.51343","25.0180366666667","6500400","永和區"
"234030","746-BX","2018/03/31 19:29:40","新北市永和區民生路49號","121.52277","24.9978266666667","6500400","永和區"
"234054","KEA-2590","2018/03/31 19:29:32","新北市永和區復興街19巷2號","121.516135","25.0131366666667","6500400","永和區"
"234013","KEA-2591","2018/03/31 19:29:21","新北市永和區中山路一段138-1號","121.51024","25.0097616666667","6500400","永和區"
"234061","AAD-866","2018/03/31 19:29:31","新北市永和區中正路532號","121.517235","25.00518","6500400","永和區"
"234042","862-TW","2018/03/31 19:29:28","新北市永和區中和路603號","121.512405","25.004335","6500400","永和區"
"234050","863-TW","2018/03/31 19:29:34","新北市永和區信義路83號","121.512378333333","25.0134933333333","6500400","永和區"
"234026","9371-KE","2018/03/31 19:29:24","新北市永和區安樂路44號","121.514626666667","24.9970033333333","6500400","永和區"
"234011","9373-KE","2018/03/31 19:29:36","新北市永和區保福路二段95號","121.510511666667","25.0130216666667","6500400","永和區"
"249002","305-UY","2018/03/31 19:29:34","新北市八里區頂寮二街138號","121.449333333333","25.129455","6502300","八里區"
"249003","593-UM","2018/03/31 19:29:33","新北市八里區中山路二段508號","121.398036666667","25.1470466666667","6502300","八里區"
"248008","095-VK","2018/03/31 19:29:24","新北市五股區中興路一段95巷5號","121.46665","25.0725933333333","6501500","五股區"
"248012","247-BX","2018/03/31 19:29:40","新北市五股區成泰路二段97號","121.437916666667","25.084285","6501500","五股區"
"248014","261-SL","2018/03/31 19:29:33","新北市五股區民義路一段183巷5-1號","121.430511666667","25.087095","6501500","五股區"
"248010","272-BY","2018/03/31 19:29:26","新北市五股區水碓一路23號","121.430565","25.0712333333333","6501500","五股區"
"248004","677-BX","2018/03/31 19:29:20","新北市五股區五福路85-1號","121.432398333333","25.0903566666667","6501500","五股區"
"248002","678-BX","2018/03/31 19:29:36","新北市五股區凌雲路一段158巷14-1號","121.447873333333","25.1034216666667","6501500","五股區"
"234023","9380-KE","2018/03/31 19:29:31","新北市永和區竹林路91巷45號","121.521343333333","25.0128516666667","6500400","永和區"
"234077","969-R7","2018/03/31 19:29:23","新北市永和區民權路58巷3號","121.519681666667","24.99828","6500400","永和區"
"234074","AAC-211","2018/03/31 19:29:36","新北市永和區環河東路二段10號","121.522231666667","25.0132533333333","6500400","永和區"
"234067","AAC-212","2018/03/31 19:29:29","新北市永和區保平路174巷3號","121.51031","25.0072266666667","6500400","永和區"
"234003","AAC-295","2018/03/31 19:29:26","新北市永和區永和路一段125號","121.513968333333","25.00828","6500400","永和區"
"244013","069-UM","2018/03/31 19:29:22","新北市林口區麗園一街2巷2號","121.376311666667","25.0716333333333","6501700","林口區"
"244023","483-VK","2018/03/31 19:29:34","新北市林口區文化三路二段238號","121.376131666667","25.082655","6501700","林口區"
"243012","AAD-798","2018/03/31 19:29:34","新北市泰山區仁武街98號","121.432623333333","25.0542516666667","6501600","泰山區"
"243011","297-R6","2018/03/31 19:29:29","新北市泰山區貴子路74號","121.42704","25.0413","6501600","泰山區"
"243014","421-VK","2018/03/31 19:29:19","新北市泰山區中港西路498巷2號","121.432248333333","25.0525916666667","6501600","泰山區"
"243016","539-UM","2018/03/31 19:29:24","新北市泰山區明志路三段166號","121.42437","25.039325","6501600","泰山區"
"243010","KEA-2215","2018/03/31 19:29:29","新北市泰山區民權街41號","121.429173333333","25.0509016666667","6501600","泰山區"
"243009","KEA-2216","2018/03/31 19:29:27","新北市泰山區半山雅3號","121.43137","25.06739","6501600","泰山區"
"243013","646-TV","2018/03/31 19:29:36","新北市泰山區貴子路38號","121.425923333333","25.0416383333333","6501600","泰山區"
"222003","436-BY","2018/03/31 19:29:36","新北市深坑區深南路51-1號","121.621336666667","25.0096983333333","6501800","深坑區"
"222002","659-BX","2018/03/31 19:29:33","新北市深坑區北深路一段177號","121.632538333333","25.010855","6501800","深坑區"
"231041","002-UM","2018/03/31 19:29:32","新北市新店區中正路558號","121.533601666667","24.987165","6500600","新店區"
"231058","0291-UT","2018/03/31 19:29:32","新北市新店區寶橋路77號","121.545763333333","24.975265","6500600","新店區"
"231059","046-UY","2018/03/31 19:29:34","新北市新店區安和路三段53號","121.518013333333","24.9828016666667","6500600","新店區"
"231061","047-UY","2018/03/31 19:29:40","新北市新店區安民街80號","121.516596666667","24.9670466666667","6500600","新店區"
"231060","106-UY","2018/03/31 19:29:30","新北市新店區安康路二段74號","121.514363333333","24.9635016666667","6500600","新店區"
"231051","107-UY","2018/03/31 19:29:28","新北市新店區中央五街17號","121.529541666667","24.9744066666667","6500600","新店區"
"231048","108-UY","2018/03/31 19:29:33","新北市新店區中興路一段252號","121.544415","24.9665316666667","6500600","新店區"
"231052","187-VK","2018/03/31 19:29:39","新北市新店區新烏路二段300號","121.548473333333","24.9133583333333","6500600","新店區"
"231050","KEA-2219","2018/03/31 19:29:22","新北市新店區北宜路二段82-40號","121.553548333333","24.9531933333333","6500600","新店區"
"231057","256-BX","2018/03/31 19:29:32","新北市新店區花園一路三段57號","121.5497","24.9330133333333","6500600","新店區"
"231063","268-BY","2018/03/31 19:29:20","新北市新店區達觀路16號","121.503181666667","24.9406466666667","6500600","新店區"
"231046","278-BY","2018/03/31 19:29:27","新北市新店區中正路184號","121.540935","24.9721316666667","6500600","新店區"
"231054","AAD-862","2018/03/31 19:29:30","新北市新店區文中路45號","121.539591666667","24.9566733333333","6500600","新店區"
"231055","4716-K9","2018/03/31 19:29:41","新北市新店區中華路83巷67號","121.538366666667","24.967445","6500600","新店區"
"231065","512-UM","2018/03/31 19:29:24","新北市新店區安祥路109巷1弄23號","121.476365","24.95994","6500600","新店區"
"231064","513-UM","2018/03/31 19:29:25","新北市新店區安康路二段85巷10號","121.513518333333","24.9625083333333","6500600","新店區"
"231045","617-UM","2018/03/31 19:29:25","新北市新店區北宜路二段213號","121.553231666667","24.9533166666667","6500600","新店區"
"231040","619-UM","2018/03/31 19:29:38","新北市新店區北新路一段263號","121.541031666667","24.96631","6500600","新店區"
"231042","641-BX","2018/03/31 19:29:33","新北市新店區中興路一段216號","121.543913333333","24.965705","6500600","新店區"
"231049","719-UM","2018/03/31 19:29:26","新北市新店區北新路三段65巷34弄12號","121.540081666667","24.9814116666667","6500600","新店區"
"231062","719-UY","2018/03/31 19:29:24","新北市新店區秀山路11巷8號","121.531906666667","24.9594133333333","6500600","新店區"
"231044","897-TW","2018/03/31 19:29:35","新北市新店區中興路三段188號","121.54398","24.9816016666667","6500600","新店區"
"231043","899-TW","2018/03/31 19:29:21","新北市新店區永華街1號","121.543023333333","24.9768633333333","6500600","新店區"
"231066","AKT-0513","2018/03/31 19:29:26","新北市新店區安康路三段73號","121.492241666667","24.95207","6500600","新店區"
"241028","022-UY","2018/03/31 19:29:24","新北市三重區中寮街70號","121.493015","25.0582266666667","6500200","三重區"
"241008","059-VK","2018/03/31 19:29:40","新北市三重區永福街135巷34號","121.477495","25.0770816666667","6500200","三重區"
"241009","060-VK","2018/03/31 19:29:24","新北市三重區溪尾街242巷46號","121.486651666667","25.081605","6500200","三重區"
"241031","061-VK","2018/03/31 19:29:28","新北市三重區集美街100號","121.48856","25.0541016666667","6500200","三重區"
"241017","063-VK","2018/03/31 19:29:29","新北市三重區大智街76巷29號","121.493331666667","25.0657866666667","6500200","三重區"
"241022","267-UM","2018/03/31 19:29:28","新北市三重區三民街141-1號","121.484648333333","25.064","6500200","三重區"
"241032","269-UM","2018/03/31 19:29:41","新北市三重區三陽路64號","121.483966666667","25.0587366666667","6500200","三重區"
"241013","270-UM","2018/03/31 19:29:33","新北市三重區仁賢街12-1號","121.495651666667","25.0749033333333","6500200","三重區"
"241025","271-UM","2018/03/31 19:29:24","新北市三重區頂崁街210巷23弄1號","121.47581","25.0681133333333","6500200","三重區"
"241007","398-BY","2018/03/31 19:29:20","新北市三重區溪尾街124-1號","121.489551666667","25.0794866666667","6500200","三重區"
"241035","KEA-2210","2018/03/31 19:29:38","新北市三重區信義西街1號","121.498111666667","25.0648183333333","6500200","三重區"
"241020","478-VK","2018/03/31 19:29:35","新北市三重區三和路四段32巷3號","121.49055","25.0742333333333","6500200","三重區"
"241030","480-VK","2018/03/31 19:29:31","新北市三重區成功路41巷4號","121.490171666667","25.05143","6500200","三重區"
"241014","543-UM","2018/03/31 19:29:27","新北市三重區長興街35號","121.500515","25.0686083333333","6500200","三重區"
"241006","AAD-863","2018/03/31 19:29:27","新北市三重區車路頭街78號","121.484315","25.07402","6500200","三重區"
"241026","887-TS","2018/03/31 19:29:34","新北市三重區文化南路47巷19號","121.499461666667","25.0611316666667","6500200","三重區"
"241029","942-UM","2018/03/31 19:29:31","新北市三重區中正南路216號","121.493861666667","25.0550616666667","6500200","三重區"
"235066","003-UY","2018/03/31 19:29:31","新北市中和區中和路102號","121.502711666667","24.99973","6500300","中和區"
"235064","005-UY","2018/03/31 19:29:28","新北市中和區南山路75號","121.502025","24.9980483333333","6500300","中和區"
"235063","006-UY","2018/03/31 19:29:31","新北市中和區連城路164號","121.494103333333","24.997655","6500300","中和區"
"235056","096-UM","2018/03/31 19:29:25","新北市中和區民富街7號","121.476603333333","25.007205","6500300","中和區"
"235065","098-UM","2018/03/31 19:29:24","新北市中和區中山路二段2巷13弄20號","121.502796666667","25.0065283333333","6500300","中和區"
"235040","150-BY","2018/03/31 19:29:28","新北市中和區保健路46巷39弄1號","121.508593333333","24.9955166666667","6500300","中和區"
"235058","151-BY","2018/03/31 19:29:27","新北市中和區中正路637巷60弄61號","121.485441666667","24.9927016666667","6500300","中和區"
"235055","183-VK","2018/03/31 19:29:34","新北市中和區莒光路120巷15弄2號","121.471643333333","25.00112","6500300","中和區"
"235038","185-VK","2018/03/31 19:29:34","新北市中和區自立路29巷6號","121.522531666667","24.99574","6500300","中和區"
"235049","186-VK","2018/03/31 19:29:40","新北市中和區景新街285巷10號","121.510226666667","24.9935566666667","6500300","中和區"
"235067","255-BX","2018/03/31 19:29:09","新北市中和區連城路475號","121.483325","24.9957066666667","6500300","中和區"
"235067","293-VK","2018/03/31 19:29:37","新北市中和區捷運路123-1號","121.507378333333","24.9905166666667","6500300","中和區"
"235072","301-VK","2018/03/31 19:29:36","新北市中和區連城路263巷4弄12號","121.491791666667","24.9952866666667","6500300","中和區"
"235043","352-BY","2018/03/31 19:29:33","新北市中和區景新街149號","121.506446666667","24.9965733333333","6500300","中和區"
"235068","377-QA","2018/03/31 19:29:31","新北市中和區圓通路158巷8弄16號","121.498073333333","24.9963616666667","6500300","中和區"
"235061","378-QA","2018/03/31 19:29:39","新北市中和區民利街47巷2弄2號","121.478605","24.9980883333333","6500300","中和區"
"235071","269-TV","2018/03/31 19:29:26","新北市中和區中正路637巷18弄4號","121.484373333333","24.9950516666667","6500300","中和區"
"235050","4979-A6","2018/03/31 19:29:39","新北市中和區中正路458號","121.490615","24.9940783333333","6500300","中和區"
"235042","551-UM","2018/03/31 19:29:33","新北市中和區安平路161號","121.512491666667","24.9984316666667","6500300","中和區"
"235070","558-UM","2018/03/31 19:29:33","新北市中和區中山路二段224號","121.49933","25.0026533333333","6500300","中和區"
"235045","565-BX","2018/03/31 19:29:22","新北市中和區景新街399巷8號","121.512938333333","24.9898533333333","6500300","中和區"
"235054","640-BX","2018/03/31 19:29:25","新北市中和區國光街112巷22弄2-2號","121.469883333333","25.0022483333333","6500300","中和區"
"235060","647-TV","2018/03/31 19:23:52","新北市中和區民享街34號","121.47397","25.0030733333333","6500300","中和區"
"235047","732-UM","2018/03/31 19:29:26","新北市中和區景平路241巷64弄2號","121.507753333333","24.9925","6500300","中和區"
"235046","733-UM","2018/03/31 19:29:32","新北市中和區忠孝街37巷44號","121.510678333333","24.984685","6500300","中和區"
"235057","801-TS","2018/03/31 19:29:28","新北市中和區員山路423巷13號","121.48043","25.0029066666667","6500300","中和區"
"235041","802-TS","2018/03/31 19:29:28","新北市中和區中安街80號","121.512091666667","25.0016883333333","6500300","中和區"
"235052","805-TS","2018/03/31 19:29:22","新北市中和區華新街143巷67弄8號","121.507111666667","24.9789483333333","6500300","中和區"
"235048","896-TW","2018/03/31 19:29:26","新北市中和區四維街24巷1號","121.51277","24.9874616666667","6500300","中和區"
"235053","900-TW","2018/03/31 19:29:26","新北市中和區華順街10號","121.467351666667","24.9986766666667","6500300","中和區"
"235051","157-BY","2018/03/31 19:29:34","新北市中和區景新街168-2號","121.505948333333","24.9967233333333","6500300","中和區"
"235037","AAC-213","2018/03/31 19:29:30","新北市中和區秀朗路三段10巷14弄1號","121.52512","24.9965016666667","6500300","中和區"
"235059","AAC-215","2018/03/31 19:29:26","新北市中和區圓通路252巷4號","121.493123333333","24.991675","6500300","中和區"
"220065","072-UY","2018/03/31 19:29:29","新北市板橋區國泰街111巷17號","121.466128333333","25.00595","6500100","板橋區"
"220086","073-UY","2018/03/31 19:29:25","新北市板橋區中正路240號","121.455675","25.0189766666667","6500100","板橋區"
"220069","AAD-861","2018/03/31 19:29:40","新北市板橋區稚暉街60號","121.45696","25.004075","6500100","板橋區"
"226004","312-R5","2018/03/31 19:29:29","新北市平溪區十分里十分街90號","121.776533333333","25.042455","6502400","平溪區"
"235039","251-BX","2018/03/31 19:29:26","新北市中和區秀峰街80號","121.520125","24.990825","6500300","中和區"
"228003","097-TW","2018/03/31 19:29:35","新北市貢寮區和美里和美街22-1號","121.91276","25.0826416666667","6502600","貢寮區"
"228001","212-TW","2018/03/31 19:29:32","新北市貢寮區真理里延平街68號","121.925395","25.0574016666667","6502600","貢寮區"
"228002","585-TW","2018/03/31 19:29:35","新北市貢寮區龍門里龍門街70號","121.931051666667","25.0265616666667","6502600","貢寮區"
"224010","AGQ-8101","2018/03/31 19:29:32","新北市瑞芳區基山街179號","121.843271666667","25.1078616666667","6501200","瑞芳區"
"227010","642-TC","2018/03/31 19:29:31","新北市雙溪區新基里新基北街43號","121.868168333333","25.0396783333333","6502500","雙溪區"
"227002","400-TW","2018/03/31 19:29:34","新北市雙溪區雙溪里光復街20號","121.865158333333","25.0354316666667","6502500","雙溪區"
"253005","032-BX","2018/03/31 19:29:32","新北市石門區小坑9號","121.594318333333","25.288605","6502200","石門區"
"253006","295-VK","2018/03/31 19:29:25","新北市石門區楓林28-2號","121.542021666667","25.28901","6502200","石門區"
"222001","KEA-2212","2018/03/31 19:29:34","新北市深坑區北深路二段121號","121.616723333333","25.003095","6501800","深坑區"
"208002","KEA-2872","2018/03/31 19:29:23","新北市金山區仁愛路78巷2號","121.63467","25.2214833333333","6502700","金山區"
"208003","665-BX","2018/03/31 19:29:29","新北市金山區中山路263巷14號","121.636378333333","25.221575","6502700","金山區"
"208001","761-BX","2018/03/31 19:29:29","新北市金山區中正路87號","121.633333333333","25.22173","6502700","金山區"
"251009","008-UM","2018/03/31 19:29:20","新北市淡水區大忠街5巷8號","121.443358333333","25.17652","6501000","淡水區"
"251001","011-UM","2018/03/31 19:29:34","新北市淡水區民權路139-1號","121.460063333333","25.1364816666667","6501000","淡水區"
"251013","179-VK","2018/03/31 19:29:28","新北市淡水區大牛稠5號","121.469765","25.2197333333333","6501000","淡水區"
"251014","180-VK","2018/03/31 19:29:31","新北市淡水區小中寮19-7號","121.484775","25.2296533333333","6501000","淡水區"
"251015","182-VK","2018/03/31 19:29:29","新北市淡水區北新路三段30號","121.48367","25.1864566666667","6501000","淡水區"
"251010","413-VK","2018/03/31 19:29:24","新北市淡水區中正路二段142-10號","121.422786666667","25.1876633333333","6501000","淡水區"
"251012","441-VK","2018/03/31 19:29:29","新北市淡水區中山北路三段164號","121.4457","25.196545","6501000","淡水區"
"251016","442-VK","2018/03/31 19:29:28","新北市淡水區淡金路三段350巷18號","121.450815","25.2083616666667","6501000","淡水區"
"251005","443-VK","2018/03/31 19:29:23","新北市淡水區水源街一段71巷11號","121.444458333333","25.1729033333333","6501000","淡水區"
"251006","561-UM","2018/03/31 19:29:22","新北市淡水區大義街40號","121.442126666667","25.178345","6501000","淡水區"
"251007","577-R6","2018/03/31 19:29:35","新北市淡水區坪頂路52巷10號","121.457805","25.1624816666667","6501000","淡水區"
"251011","650-BX","2018/03/31 19:29:31","新北市淡水區中正東路二段161巷11弄22號","121.4607","25.1456216666667","6501000","淡水區"
"251003","673-BX","2018/03/31 19:29:24","新北市淡水區中山北路二段375號","121.4442","25.1872966666667","6501000","淡水區"
"207003","550-UM","2018/03/31 19:29:31","新北市萬里區大鵬里萬里加投197-2號","121.643986666667","25.21505","6502800","萬里區"
"207004","225-TW","2018/03/31 19:29:28","新北市萬里區萬里里瑪鋉路121號","121.688973333333","25.17795","6502800","萬里區"
"252002","178-VK","2018/03/31 19:29:37","新北市三芝區淡金路二段17號","121.502691666667","25.2594733333333","6502100","三芝區"
"252001","292-VK","2018/03/31 19:29:24","新北市三芝區長勤街54-1號","121.500111666667","25.25561","6502100","三芝區"
"237004","KEA-2597","2018/03/31 19:29:23","新北市三峽區有木206號","121.439086666667","24.8515083333333","6500900","三峽區"
"237007","153-BY","2018/03/31 19:29:28","新北市三峽區二鬮路136巷18弄2號","121.358875","24.908235","6500900","三峽區"
"237009","210-TH","2018/03/31 19:29:27","新北市三峽區民權街153-1號","121.368326666667","24.93121","6500900","三峽區"
"237012","275-BY","2018/03/31 19:29:37","新北市三峽區三樹路98巷121號","121.3829","24.9382433333333","6500900","三峽區"
"237008","302-VK","2018/03/31 19:29:30","新北市三峽區永安街143-2號","121.373521666667","24.9281083333333","6500900","三峽區"
"237014","433-BY","2018/03/31 19:29:25","新北市三峽區嘉添1號","121.368448333333","24.9118783333333","6500900","三峽區"
"237006","5529-G3","2018/03/31 19:29:26","新北市三峽區中正路一段336巷15弄2號","121.36996","24.9249266666667","6500900","三峽區"
"237005","AKY-6261","2018/03/31 19:29:25","新北市三峽區復興路367巷1弄14號","121.364006666667","24.9376216666667","6500900","三峽區"
"236070","105-UM","2018/03/31 19:29:38","新北市土城區學府路一段143巷20弄2號","121.45379","24.9853083333333","6501300","土城區"
"236079","166-UM","2018/03/31 19:29:23","新北市土城區中央路四段307-3號","121.410893333333","24.951675","6501300","土城區"
"236030","253-BX","2018/03/31 19:29:27","新北市土城區中央路二段14巷12-27號","121.442476666667","24.9807516666667","6501300","土城區"
"236026","269-VK","2018/03/31 19:29:36","新北市土城區中央路二段61巷26號","121.443275","24.9786866666667","6501300","土城區"
"236021","401-BY","2018/03/31 19:29:24","新北市土城區峰廷街3號","121.469085","24.9873383333333","6501300","土城區"
"236059","912-UM","2018/03/31 19:29:36","新北市土城區中央路二段75號","121.442331666667","24.978545","6501300","土城區"
"236049","913-UM","2018/03/31 19:29:27","新北市土城區清水路203號","121.460031666667","24.9816916666667","6501300","土城區"
"242025","613-BX","2018/03/31 19:29:33","新北市新莊區三和路12-11號","121.442016666667","25.036885","6500500","新莊區"
"242023","362-BY","2018/03/31 19:29:37","新北市新莊區新泰路255巷83號","121.442321666667","25.03867","6500500","新莊區"
"242031","135-UY","2018/03/31 19:29:33","新北市新莊區新泰路225巷20號","121.445301666667","25.039175","6500500","新莊區"
"242048","172-VK","2018/03/31 19:29:32","新北市新莊區後港一路3號","121.424151666667","25.0262316666667","6500500","新莊區"
"242013","351-TH","2018/03/31 19:29:30","新北市新莊區中平路132巷10弄31號","121.44621","25.04646","6500500","新莊區"
"238015","755-BX","2018/03/31 19:29:32","新北市樹林區復興路196號","121.41997","24.9910366666667","6500700","樹林區"
"238023","601-UM","2018/03/31 19:29:40","新北市樹林區中正路865號","121.408806666667","25.0181516666667","6500700","樹林區"
"238019","599-UM","2018/03/31 19:29:23","新北市樹林區東榮街90號","121.415925","24.9826833333333","6500700","樹林區"
"238024","5061-A6","2018/03/31 19:29:32","新北市樹林區中山路三段155巷8弄1號","121.395876666667","24.9725183333333","6500700","樹林區"
"238021","KEA-2217","2018/03/31 19:29:22","新北市樹林區柑園街二段175巷33號","121.38271","24.95109","6500700","樹林區"
"238022","KEA-2213","2018/03/31 19:29:25","新北市樹林區太元街51號","121.418738333333","24.9791333333333","6500700","樹林區"
"238025","303-VK","2018/03/31 19:29:25","新北市樹林區中山路一段185-1號","121.421376666667","24.9878633333333","6500700","樹林區"
"238014","282-BY","2018/03/31 19:29:33","新北市樹林區保安二街64巷25號","121.424376666667","24.9967366666667","6500700","樹林區"
"238020","268-VK","2018/03/31 19:29:27","新北市樹林區俊英街83巷1號","121.425861666667","25.0078783333333","6500700","樹林區"
"238026","172-UY","2018/03/31 19:29:28","新北市樹林區佳園路二段10號","121.392918333333","24.9638783333333","6500700","樹林區"
"238016","169-UY","2018/03/31 19:29:26","新北市樹林區大安路592號","121.411411666667","24.9832383333333","6500700","樹林區"
"239007","AAC-297","2018/03/31 19:29:36","新北市鶯歌區鶯桃路182巷96弄13號","121.340503333333","24.9581416666667","6500800","鶯歌區"
"239006","891-R6","2018/03/31 19:29:27","新北市鶯歌區中正二路8號","121.351596666667","24.9521183333333","6500800","鶯歌區"
"239001","417-VK","2018/03/31 19:29:35","新北市鶯歌區尖山埔路120號","121.34399","24.9499383333333","6500800","鶯歌區"
"239003","360-BY","2018/03/31 19:29:38","新北市鶯歌區國華路81號","121.343023333333","24.9540666666667","6500800","鶯歌區"
"239002","359-BY","2018/03/31 19:29:28","新北市鶯歌區大湖路380號","121.345738333333","24.973005","6500800","鶯歌區"
"239004","193-VK","2018/03/31 19:29:23","新北市鶯歌區二甲路中心巷13弄1號","121.337733333333","24.9354866666667","6500800","鶯歌區"
"221036","130-UY","2018/03/31 19:29:37","新北市汐止區康寧街901號","121.650828333333","25.0752566666667","6501100","汐止區"
"221015","131-UY","2018/03/31 19:29:38","新北市汐止區康寧街901號","121.65169","25.07497","6501100","汐止區"
"221010","269-BY","2018/03/31 19:29:39","新北市汐止區連峰街1巷1號","121.646463333333","25.07615","6501100","汐止區"
"221012","278-VK","2018/03/31 19:29:05","新北市汐止區保長路35巷23號","121.673721666667","25.08045","6501100","汐止區"
"221023","279-VK","2018/03/31 19:29:29","新北市汐止區康寧街597號","121.635483333333","25.0703116666667","6501100","汐止區"
"221027","281-BY","2018/03/31 19:29:33","新北市汐止區忠孝東路9號","121.658293333333","25.06595","6501100","汐止區"
"221029","298-VK","2018/03/31 19:29:36","新北市汐止區康寧街901號","121.651456666667","25.0749433333333","6501100","汐止區"
"221031","353-TW","2018/03/31 19:29:29","新北市汐止區汐萬路一段256巷1號","121.651865","25.0748966666667","6501100","汐止區"
"221008","129-UY","2018/03/31 19:29:38","新北市汐止區康寧街227號","121.623123333333","25.0667366666667","6501100","汐止區"
"221025","623-UM","2018/03/31 19:29:40","新北市汐止區秀峰路57號","121.65972","25.0650716666667","6501100","汐止區"
"221038","646-BX","2018/03/31 19:29:37","新北市汐止區汐萬路一段16號","121.656106666667","25.0674583333333","6501100","汐止區"
"221002","707-TV","2018/03/31 19:29:28","新北市汐止區大同路一段339-2號","121.638155","25.0599633333333","6501100","汐止區"
"220079","145-BY","2018/03/31 19:29:40","新北市板橋區建國街23號","121.458036666667","25.0170516666667","6500100","板橋區"
"220080","200-UY","2018/03/31 19:29:28","新北市板橋區大觀路二段37巷300號","121.450125","25.0021","6500100","板橋區"
"220106","KEA-2550","2018/03/31 19:29:40","新北市板橋區文化路二段417巷11號","121.473563333333","25.0338233333333","6500100","板橋區"
"220082","610-BX","2018/03/31 19:29:37","新北市板橋區金門街40號","121.433198333333","24.9937066666667","6500100","板橋區"
"220101","245-BX","2018/03/31 19:29:32","新北市板橋區縣民大道三段270巷1號","121.478256666667","25.023475","6500100","板橋區"
"220103","257-TC","2018/03/31 19:29:35","新北市板橋區文化路一段212巷4號","121.466581666667","25.0200866666667","6500100","板橋區"
"220091","267-BY","2018/03/31 19:29:40","新北市板橋區文聖街135巷25號","121.479021666667","25.0289616666667","6500100","板橋區"
"220056","276-BY","2018/03/31 19:29:41","新北市板橋區信義路1巷26弄38號","121.4588","24.996615","6500100","板橋區"
"220072","277-BY","2018/03/31 19:29:33","新北市板橋區金門街222號","121.431065","24.98794","6500100","板橋區"
"220071","283-VK","2018/03/31 19:29:28","新北市板橋區忠孝路2號","121.459501666667","25.00157","6500100","板橋區"
"220094","285-UM","2018/03/31 19:29:09","新北市板橋區吳鳳路50號","121.467886666667","25.030465","6500100","板橋區"
"220053","285-VK","2018/03/31 19:29:24","新北市板橋區永豐街205號","121.476553333333","25.021045","6500100","板橋區"
"220083","286-VK","2018/03/31 19:29:38","新北市板橋區大觀路二段174巷163弄2號","121.441706666667","25.0031633333333","6500100","板橋區"
"220081","287-VK","2018/03/31 19:29:31","新北市板橋區大觀路一段75巷32號","121.44856","25.004155","6500100","板橋區"
"220090","288-VK","2018/03/31 19:29:33","新北市板橋區長江路一段106巷20弄12號","121.460068333333","25.0283816666667","6500100","板橋區"
"220061","293-UM","2018/03/31 19:29:33","新北市板橋區中山路二段191號","121.476178333333","25.017205","6500100","板橋區"
"220084","296-UM","2018/03/31 19:29:31","新北市板橋區滿平街84巷120弄26號","121.426201666667","24.9856333333333","6500100","板橋區"
"220075","303-R5","2018/03/31 19:29:33","新北市板橋區大勇街4巷17號","121.454593333333","25.0178633333333","6500100","板橋區"
"220062","305-R5","2018/03/31 19:29:36","新北市板橋區三民路二段153巷4號","121.479656666667","25.0149116666667","6500100","板橋區"
"220092","307-R5","2018/03/31 19:29:41","新北市板橋區文化路二段125巷23號","121.469763333333","25.0275083333333","6500100","板橋區"
"220098","317-R6","2018/03/31 19:29:37","新北市板橋區四維路266巷5弄18號","121.463621666667","25.029145","6500100","板橋區"
"220064","486-VK","2018/03/31 19:29:42","新北市板橋區重慶路8號","121.460573333333","25.0081016666667","6500100","板橋區"
"220088","491-VK","2018/03/31 19:29:37","新北市板橋區文化路二段410巷2號","121.473901666667","25.0315383333333","6500100","板橋區"
"220035","560-BX","2018/03/31 19:27:09","新北市板橋區華東街1-9號","121.44814","24.9947616666667","6500100","板橋區"
"220055","568-UM","2018/03/31 19:29:38","新北市板橋區中正路330-1號","121.454406666667","25.02184","6500100","板橋區"
"220063","609-BX","2018/03/31 19:29:24","新北市板橋區三民路一段31巷87弄5號","121.481426666667","25.023325","6500100","板橋區"
"220055","630-UY","2018/03/31 19:29:33","新北市板橋區重慶路278巷1號","121.462823333333","24.9996566666667","6500100","板橋區"
"220057","686-BX","2018/03/31 19:29:28","新北市中和區和平路250號","121.46474","24.9969983333333","6500100","板橋區"
"220077","687-BX","2018/03/31 19:29:33","新北市板橋區僑中二街120巷2號","121.445553333333","25.0059833333333","6500100","板橋區"
"220093","689-BX","2018/03/31 19:29:28","新北市板橋區新海路115號","121.461045","25.0227833333333","6500100","板橋區"
"220054","741-BX","2018/03/31 19:29:33","新北市板橋區忠孝路26號","121.460158333333","25.001855","6500100","板橋區"
"220102","KEA-2699","2018/03/31 19:29:34","新北市板橋區雙十路二段120號","121.474366666667","25.0290333333333","6500100","板橋區"
"220067","829-TW","2018/03/31 19:29:21","新北市板橋區漢生東路313巷2弄50號","121.472638333333","25.007985","6500100","板橋區"
"220068","830-TW","2018/03/31 19:29:28","新北市板橋區翠華街6巷109號","121.481836666667","25.025185","6500100","板橋區"
"220096","831-TW","2018/03/31 19:29:36","新北市板橋區雙十路二段6-11號","121.476665","25.0264416666667","6500100","板橋區"
"220089","833-TW","2018/03/31 19:29:23","新北市板橋區文化路一段127號","121.461961666667","25.0150716666667","6500100","板橋區"
"220074","895-R6","2018/03/31 19:29:30","新北市板橋區中正路1巷14號","121.45527","25.0115683333333","6500100","板橋區"
"220073","985-R7","2018/03/31 19:29:28","新北市板橋區中正路393號","121.454316666667","25.0219733333333","6500100","板橋區"
"220097","AAC-210","2018/03/31 19:29:37","新北市板橋區漢生西路156巷2號","121.463208333333","25.02318","6500100","板橋區"
"220070","AAC-253","2018/03/31 19:29:34","新北市板橋區四川路一段12號","121.45941","25.0066","6500100","板橋區"
