"lineid","car","time","location","longitude","latitude","cityid","cityname"
"234046","148-BY","2018/03/31 19:39:32","新北市永和區永元路95巷1號","121.522393333333","25.0018133333333","6500400","永和區"
"234070","149-BY","2018/03/31 19:39:32","新北市永和區永和路二段217號","121.515576666667","25.0140516666667","6500400","永和區"
"234007","207-UY","2018/03/31 19:39:40","新北市中和區中和路438號","121.5119","25.00352","6500400","永和區"
"234081","298-R6","2018/03/31 19:39:25","新北市永和區林森路20巷7號","121.525896666667","25.0057","6500400","永和區"
"234038","336-UY","2018/03/31 19:39:30","新北市永和區民樂街29號","121.527811666667","25.0015083333333","6500400","永和區"
"234064","337-UY","2018/03/31 19:39:21","新北市永和區秀朗路一段192巷6弄14號","121.519135","25.0022666666667","6500400","永和區"
"234086","338-UY","2018/03/31 19:39:39","新北市永和區永亨路122號","121.52436","25.0041583333333","6500400","永和區"
"234017","745-BX","2018/03/31 19:39:25","新北市永和區永和路二段425巷53號","121.513835","25.0172133333333","6500400","永和區"
"234030","746-BX","2018/03/31 19:39:40","新北市永和區民生路37巷20號","121.523746666667","24.9979833333333","6500400","永和區"
"234054","KEA-2590","2018/03/31 19:39:42","新北市永和區竹林路39巷9號","121.518425","25.0146","6500400","永和區"
"234013","KEA-2591","2018/03/31 19:39:21","新北市永和區永平路246號","121.508638333333","25.0109816666667","6500400","永和區"
"234061","AAD-866","2018/03/31 19:39:28","新北市永和區中正路456號","121.517435","25.0029433333333","6500400","永和區"
"234042","862-TW","2018/03/31 19:39:28","新北市永和區永貞路261號","121.51202","25.0046883333333","6500400","永和區"
"234050","863-TW","2018/03/31 19:39:37","新北市永和區保安路61號","121.509305","25.015635","6500400","永和區"
"234026","9371-KE","2018/03/31 19:39:24","新北市永和區中和路497號","121.510451666667","25.0025116666667","6500400","永和區"
"249004","303-UY","2018/03/31 19:39:27","新北市八里區中山路一段268巷2號","121.414361666667","25.160295","6502300","八里區"
"249002","305-UY","2018/03/31 19:39:34","新北市八里區頂寮二街33-1號","121.4503","25.125165","6502300","八里區"
"249003","593-UM","2018/03/31 19:39:33","新北市八里區中華路二段532號","121.399098333333","25.1457383333333","6502300","八里區"
"248016","026-BX","2018/03/31 19:39:31","新北市五股區成泰路三段544-1號","121.453491666667","25.1019816666667","6501500","五股區"
"248008","095-VK","2018/03/31 19:39:27","新北市五股區四維路118巷12號","121.46905","25.0741883333333","6501500","五股區"
"248012","247-BX","2018/03/31 19:39:40","新北市五股區成泰路二段53巷1號","121.437836666667","25.0833333333333","6501500","五股區"
"248014","261-SL","2018/03/31 19:39:33","新北市五股區五福路50號","121.433655","25.0894616666667","6501500","五股區"
"248010","272-BY","2018/03/31 19:39:26","新北市五股區自強路115號","121.432335","25.0705016666667","6501500","五股區"
"248004","677-BX","2018/03/31 19:39:20","新北市五股區工商路140號","121.435065","25.08657","6501500","五股區"
"248002","678-BX","2018/03/31 19:39:36","新北市五股區成泰路三段577巷78號","121.45006","25.1035666666667","6501500","五股區"
"234077","969-R7","2018/03/31 19:39:23","新北市永和區民族街67巷18號","121.519526666667","24.9971016666667","6500400","永和區"
"234074","AAC-211","2018/03/31 19:39:24","新北市永和區竹林路213巷44號","121.523301666667","25.0090916666667","6500400","永和區"
"234067","AAC-212","2018/03/31 19:39:32","新北市永和區永貞路418號","121.508756666667","25.0079916666667","6500400","永和區"
"234003","AAC-295","2018/03/31 19:39:27","新北市永和區自由街58號","121.51378","25.00579","6500400","永和區"
"244023","483-VK","2018/03/31 19:39:34","新北市林口區文化北路二段388號","121.37535","25.0888833333333","6501700","林口區"
"243012","AAD-798","2018/03/31 19:39:38","新北市泰山區全興路243號","121.43568","25.05337","6501600","泰山區"
"243011","297-R6","2018/03/31 19:39:29","新北市泰山區貴子路67巷2號","121.430906666667","25.0405033333333","6501600","泰山區"
"243014","421-VK","2018/03/31 19:39:39","新北市泰山區泰林路二段33-8號","121.435186666667","25.056485","6501600","泰山區"
"243016","539-UM","2018/03/31 19:39:40","新北市泰山區新北大道七段26號","121.420091666667","25.032195","6501600","泰山區"
"243010","KEA-2215","2018/03/31 19:39:29","新北市泰山區中港西路490號","121.432445","25.0522366666667","6501600","泰山區"
"243009","KEA-2216","2018/03/31 19:39:27","新北市泰山區美寧街60號","121.430953333333","25.0645983333333","6501600","泰山區"
"243013","646-TV","2018/03/31 19:39:31","新北市泰山區應化街13號","121.423865","25.0436733333333","6501600","泰山區"
"222003","436-BY","2018/03/31 19:32:37","新北市深坑區深南路51-1號","121.621173333333","25.0099383333333","6501800","深坑區"
"222002","659-BX","2018/03/31 19:39:33","新北市深坑區北深路一段177號","121.632516666667","25.01084","6501800","深坑區"
"231041","002-UM","2018/03/31 19:39:32","新北市新店區中正路487號","121.533875","24.9821116666667","6500600","新店區"
"231058","0291-UT","2018/03/31 19:39:32","新北市新店區北新路一段311-1號","121.541515","24.96801","6500600","新店區"
"231059","046-UY","2018/03/31 19:39:34","新北市新店區安和路三段47-1號","121.51801","24.9821683333333","6500600","新店區"
"231061","047-UY","2018/03/31 19:39:32","新北市新店區安民街189-7號","121.517063333333","24.9713966666667","6500600","新店區"
"231060","106-UY","2018/03/31 19:39:30","新北市新店區安康路二段161號","121.510261666667","24.9593133333333","6500600","新店區"
"231051","107-UY","2018/03/31 19:39:28","新北市新店區中央四街40號","121.528131666667","24.97457","6500600","新店區"
"231048","108-UY","2018/03/31 19:39:37","新北市新店區五峰路61巷4號","121.547951666667","24.9698066666667","6500600","新店區"
"231052","187-VK","2018/03/31 19:39:39","新北市新店區新烏路二段489號","121.552245","24.9086633333333","6500600","新店區"
"231050","KEA-2219","2018/03/31 19:39:22","新北市新店區郵政路1號","121.557661666667","24.952535","6500600","新店區"
"231057","256-BX","2018/03/31 19:39:32","新北市新店區橘園一路11號","121.547975","24.9340233333333","6500600","新店區"
"231063","268-BY","2018/03/31 19:39:40","新北市新店區達觀路41號","121.502155","24.938585","6500600","新店區"
"231046","278-BY","2018/03/31 19:39:27","新北市新店區中正路329巷9弄2號","121.534961666667","24.9737983333333","6500600","新店區"
"231054","AAD-862","2018/03/31 19:39:30","新北市新店區文中路45號","121.539616666667","24.956735","6500600","新店區"
"231055","4716-K9","2018/03/31 19:39:21","新北市新店區中華路83巷67號","121.538363333333","24.9674366666667","6500600","新店區"
"231067","4772-VM","2018/03/31 19:39:26","新北市新店區精忠路10-1號","121.532645","24.9590666666667","6500600","新店區"
"231065","512-UM","2018/03/31 19:39:24","新北市新店區安祥路109巷90弄103號","121.476","24.95748","6500600","新店區"
"231064","513-UM","2018/03/31 19:39:25","新北市新店區安和路一段52巷2號","121.51761","24.9660983333333","6500600","新店區"
"231045","617-UM","2018/03/31 19:39:25","新北市新店區北宜路二段210號","121.559378333333","24.9543133333333","6500600","新店區"
"231040","619-UM","2018/03/31 19:39:18","新北市新店區北新路一段96巷23號","121.543006666667","24.9688416666667","6500600","新店區"
"231042","641-BX","2018/03/31 19:39:33","新北市新店區中興路一段216號","121.543886666667","24.9658216666667","6500600","新店區"
"231049","719-UM","2018/03/31 19:39:35","新北市新店區建國路128巷3-1號","121.539021666667","24.979385","6500600","新店區"
"231062","719-UY","2018/03/31 19:39:24","新北市新店區永業路31巷1號","121.532975","24.9555366666667","6500600","新店區"
"231044","897-TW","2018/03/31 19:39:36","新北市新店區北新路三段41號","121.541918333333","24.9803533333333","6500600","新店區"
"231043","899-TW","2018/03/31 19:39:41","新北市新店區中正路143號","121.541611666667","24.9715583333333","6500600","新店區"
"241011","013-R5","2018/03/31 19:39:26","新北市三重區秀江街204號","121.497426666667","25.0715316666667","6500200","三重區"
"241028","022-UY","2018/03/31 19:39:24","新北市三重區中正南路196號","121.493865","25.0560333333333","6500200","三重區"
"241008","059-VK","2018/03/31 19:39:20","新北市三重區永福街137號","121.478711666667","25.0767033333333","6500200","三重區"
"241009","060-VK","2018/03/31 19:39:24","新北市三重區仁愛街696號","121.481473333333","25.0801833333333","6500200","三重區"
"241031","061-VK","2018/03/31 19:39:29","新北市三重區重新路四段256號","121.48602","25.0533016666667","6500200","三重區"
"241015","062-VK","2018/03/31 19:39:20","新北市三重區福德北路34號","121.502016666667","25.0651583333333","6500200","三重區"
"241017","063-VK","2018/03/31 19:39:28","新北市三重區重陽路三段5巷30號","121.491298333333","25.0654233333333","6500200","三重區"
"241022","267-UM","2018/03/31 19:39:28","新北市三重區中正北路162號","121.484505","25.0660416666667","6500200","三重區"
"241032","269-UM","2018/03/31 19:39:22","新北市三重區重陽路一段60巷47號","121.484846666667","25.0582283333333","6500200","三重區"
"241013","270-UM","2018/03/31 19:39:33","新北市三重區仁賢街7號","121.495896666667","25.0745816666667","6500200","三重區"
"241025","271-UM","2018/03/31 19:39:24","新北市三重區頂崁街194號","121.477475","25.066575","6500200","三重區"
"241007","398-BY","2018/03/31 19:39:20","新北市三重區三和路四段125巷62號","121.486853333333","25.0784166666667","6500200","三重區"
"241035","KEA-2210","2018/03/31 19:39:38","新北市三重區正義北路61-3號","121.49759","25.0644983333333","6500200","三重區"
"241020","478-VK","2018/03/31 19:39:35","新北市三重區自強路三段80號","121.487181666667","25.07429","6500200","三重區"
"241030","480-VK","2018/03/31 19:39:23","新北市三重區新興路27號","121.492235","25.0532883333333","6500200","三重區"
"241014","543-UM","2018/03/31 19:39:41","新北市三重區長壽街196號","121.504225","25.0691233333333","6500200","三重區"
"241023","545-UM","2018/03/31 19:39:22","新北市三重區忠孝路三段99巷22號","121.479448333333","25.0642666666667","6500200","三重區"
"241001","547-UM","2018/03/31 19:39:24","新北市三重區仁愛街288號","121.49225","25.07905","6500200","三重區"
"241019","KEA-2593","2018/03/31 19:39:24","新北市三重區六張街194巷1弄20號","121.488031666667","25.0681033333333","6500200","三重區"
"241006","AAD-863","2018/03/31 19:39:21","新北市三重區聯華街78號","121.485861666667","25.0753316666667","6500200","三重區"
"241026","887-TS","2018/03/31 19:39:34","新北市三重區文化南路65巷20號","121.49937","25.0607033333333","6500200","三重區"
"241012","941-UM","2018/03/31 19:39:22","新北市三重區河邊北街256巷37號","121.500498333333","25.0758433333333","6500200","三重區"
"241029","942-UM","2018/03/31 19:39:31","新北市三重區重安街102號","121.492991666667","25.0559383333333","6500200","三重區"
"235066","003-UY","2018/03/31 19:39:31","新北市中和區景新街137號","121.506043333333","24.9970033333333","6500300","中和區"
"235064","005-UY","2018/03/31 19:39:31","新北市中和區南山路127巷4號","121.502378333333","24.9971083333333","6500300","中和區"
"235063","006-UY","2018/03/31 19:39:31","新北市中和區連城路171巷41弄1號","121.496246666667","24.9965283333333","6500300","中和區"
"235056","096-UM","2018/03/31 19:39:25","新北市中和區民富街94號","121.476878333333","25.0085316666667","6500300","中和區"
"235065","098-UM","2018/03/31 19:39:24","新北市中和區福祥路30號","121.499368333333","25.0036416666667","6500300","中和區"
"235040","150-BY","2018/03/31 19:39:28","新北市中和區宜安路80號","121.511086666667","24.9974616666667","6500300","中和區"
"235058","151-BY","2018/03/31 19:39:27","新北市中和區員山路124巷2號","121.481526666667","24.995865","6500300","中和區"
"235055","183-VK","2018/03/31 19:39:34","新北市中和區莒光路3巷11號","121.472263333333","25.0061216666667","6500300","中和區"
"235038","185-VK","2018/03/31 19:39:34","新北市中和區大智街55巷30弄4號","121.52104","24.9930066666667","6500300","中和區"
"235049","186-VK","2018/03/31 19:39:40","新北市中和區景安路167巷31號","121.506825","24.995205","6500300","中和區"
"235067","255-BX","2018/03/31 19:38:29","新北市中和區新生街220巷2號","121.483118333333","24.9986583333333","6500300","中和區"
"235067","293-VK","2018/03/31 19:39:37","新北市中和區南山路300號","121.507875","24.9871533333333","6500300","中和區"
"235043","352-BY","2018/03/31 19:39:33","新北市中和區興南路一段137號","121.508911666667","24.9875666666667","6500300","中和區"
"235068","377-QA","2018/03/31 19:39:31","新北市中和區景平路511號","121.499476666667","24.9988366666667","6500300","中和區"
"235061","378-QA","2018/03/31 19:39:39","新北市中和區民安街2巷23號","121.480238333333","25.0015066666667","6500300","中和區"
"235071","269-TV","2018/03/31 19:39:26","新北市中和區中正路839巷29號","121.483605","25.002345","6500300","中和區"
"235050","4979-A6","2018/03/31 19:39:19","新北市中和區錦和路350-1號","121.490318333333","24.99355","6500300","中和區"
"235042","551-UM","2018/03/31 19:39:33","新北市中和區宜安路141號","121.509366666667","24.998625","6500300","中和區"
"235070","558-UM","2018/03/31 19:39:33","新北市中和區泰和街50號","121.498891666667","24.9993433333333","6500300","中和區"
"235045","565-BX","2018/03/31 19:39:40","新北市中和區景新街557號","121.515408333333","24.9864583333333","6500300","中和區"
"235054","640-BX","2018/03/31 19:39:25","新北市中和區國光街107巷2弄32號","121.469236666667","24.9990683333333","6500300","中和區"
"235060","647-TV","2018/03/31 19:23:52","新北市中和區民享街34號","121.47397","25.0030733333333","6500300","中和區"
"235047","732-UM","2018/03/31 19:39:26","新北市中和區景平路369號","121.504285","24.9931966666667","6500300","中和區"
"235046","733-UM","2018/03/31 19:39:32","新北市中和區四維街21號","121.51293","24.9870233333333","6500300","中和區"
"235057","801-TS","2018/03/31 19:39:28","新北市中和區員山路364號","121.480871666667","25.00382","6500300","中和區"
"235041","802-TS","2018/03/31 19:39:28","新北市永和區中和路603號","121.512465","25.004255","6500300","中和區"
"235052","805-TS","2018/03/31 19:39:22","新北市中和區華新街206巷14號","121.50632","24.982515","6500300","中和區"
"235048","896-TW","2018/03/31 19:39:26","新北市中和區忠孝街5巷7號","121.509263333333","24.9830483333333","6500300","中和區"
"235053","900-TW","2018/03/31 19:39:26","新北市中和區德光路151號","121.467821666667","25.0021816666667","6500300","中和區"
"235051","157-BY","2018/03/31 19:39:34","新北市中和區南山路229巷6號","121.503853333333","24.9931166666667","6500300","中和區"
"235037","AAC-213","2018/03/31 19:39:30","新北市中和區秀朗路三段93號","121.526536666667","24.9953933333333","6500300","中和區"
"235059","AAC-215","2018/03/31 19:39:26","新北市中和區圓通路282號","121.491551666667","24.9905833333333","6500300","中和區"
"220065","072-UY","2018/03/31 19:39:29","新北市板橋區國泰街53號","121.468068333333","25.006575","6500100","板橋區"
"220086","073-UY","2018/03/31 19:39:25","新北市板橋區國光路1號","121.456611666667","25.01729","6500100","板橋區"
"220069","AAD-861","2018/03/31 19:39:30","新北市板橋區貴興路106巷5號","121.455258333333","25.00265","6500100","板橋區"
"247004","337-TH","2018/03/31 19:39:24","新北市蘆洲區長安街98巷10號","121.462566666667","25.08148","6501400","蘆洲區"
"247008","056-VK","2018/03/31 19:39:34","新北市蘆洲區中山一路195號","121.474466666667","25.0810983333333","6501400","蘆洲區"
"226004","312-R5","2018/03/31 19:39:38","新北市平溪區十分里十分街306號","121.775908333333","25.0439233333333","6502400","平溪區"
"235039","251-BX","2018/03/31 19:39:26","新北市中和區秀峰街103巷6弄1號","121.520243333333","24.989645","6500300","中和區"
"228003","097-TW","2018/03/31 19:39:35","新北市貢寮區真理里美艷山街15-3號","121.923758333333","25.06795","6502600","貢寮區"
"228001","212-TW","2018/03/31 19:39:32","新北市貢寮區真理里延平街49號","121.924655","25.05563","6502600","貢寮區"
"224002","639-TC","2018/03/31 19:39:26","新北市瑞芳區民享新村13號","121.816583333333","25.1057733333333","6501200","瑞芳區"
"227010","642-TC","2018/03/31 19:39:40","新北市雙溪區新基里新基北街18號","121.867183333333","25.03865","6502500","雙溪區"
"227002","400-TW","2018/03/31 19:39:37","新北市雙溪區雙溪里太平路54號","121.864755","25.0355316666667","6502500","雙溪區"
"253006","295-VK","2018/03/31 19:39:25","新北市石門區小坑9號","121.594726666667","25.2867416666667","6502200","石門區"
"222001","KEA-2212","2018/03/31 19:39:34","新北市深坑區深坑街150號","121.612988333333","25.0014966666667","6501800","深坑區"
"208002","KEA-2872","2018/03/31 19:39:23","新北市金山區中正路4號","121.63559","25.222425","6502700","金山區"
"208003","665-BX","2018/03/31 19:39:29","新北市金山區仁愛路1巷1號","121.638581666667","25.2200783333333","6502700","金山區"
"208001","761-BX","2018/03/31 19:39:42","新北市金山區六股里頂六股6號","121.611911666667","25.2221533333333","6502700","金山區"
"251009","008-UM","2018/03/31 19:39:40","新北市淡水區中山北路一段198巷3號","121.445055","25.17931","6501000","淡水區"
"251004","009-UM","2018/03/31 19:39:39","新北市淡水區民權路41號","121.459603333333","25.1403166666667","6501000","淡水區"
"251001","011-UM","2018/03/31 19:39:38","新北市淡水區民權路39號","121.45981","25.14075","6501000","淡水區"
"251013","179-VK","2018/03/31 19:39:20","新北市淡水區頂田寮路186號","121.461606666667","25.21612","6501000","淡水區"
"251014","180-VK","2018/03/31 19:39:31","新北市淡水區桂竹圍4-2號","121.47456","25.2319033333333","6501000","淡水區"
"251008","181-VK","2018/03/31 19:39:38","新北市淡水區中正路382號","121.429358333333","25.1755516666667","6501000","淡水區"
"251015","182-VK","2018/03/31 19:39:29","新北市淡水區山子頂22號","121.491515","25.1872533333333","6501000","淡水區"
"251010","413-VK","2018/03/31 19:39:24","新北市淡水區新市五路二段75號","121.431856666667","25.1994233333333","6501000","淡水區"
"251012","441-VK","2018/03/31 19:39:29","新北市淡水區中山北路三段162號","121.44567","25.1963766666667","6501000","淡水區"
"251016","442-VK","2018/03/31 19:39:28","新北市淡水區淡金路三段350巷18號","121.450808333333","25.208355","6501000","淡水區"
"251005","443-VK","2018/03/31 19:39:25","新北市淡水區原德路108巷1號","121.443615","25.1736283333333","6501000","淡水區"
"251006","561-UM","2018/03/31 19:39:22","新北市淡水區中山北路一段247巷118號","121.441466666667","25.1795383333333","6501000","淡水區"
"251007","577-R6","2018/03/31 19:39:35","新北市淡水區中正東路一段113號","121.454105","25.1598433333333","6501000","淡水區"
"251011","650-BX","2018/03/31 19:39:30","新北市淡水區八勢一街7-18號","121.460603333333","25.1573066666667","6501000","淡水區"
"207003","550-UM","2018/03/31 19:39:31","新北市萬里區大鵬里下社1-1號","121.648385","25.215835","6502800","萬里區"
"207004","225-TW","2018/03/31 19:39:28","新北市萬里區萬里里瑪鋉路21號","121.687245","25.1753816666667","6502800","萬里區"
"252002","178-VK","2018/03/31 19:39:37","新北市三芝區三民街33-1號","121.504636666667","25.2585283333333","6502100","三芝區"
"252001","292-VK","2018/03/31 19:39:24","新北市三芝區公正街66號","121.499775","25.2574416666667","6502100","三芝區"
"237004","KEA-2597","2018/03/31 19:39:23","新北市三峽區插角219-1號","121.415743333333","24.866385","6500900","三峽區"
"237007","153-BY","2018/03/31 19:39:28","新北市三峽區二鬮路136巷147號","121.357183333333","24.9106583333333","6500900","三峽區"
"237009","210-TH","2018/03/31 19:39:31","新北市三峽區中園街29號","121.368268333333","24.926585","6500900","三峽區"
"237012","275-BY","2018/03/31 19:39:37","新北市三峽區民生街3號","121.374598333333","24.9353766666667","6500900","三峽區"
"237008","302-VK","2018/03/31 19:39:29","新北市三峽區大同路147巷9號","121.371181666667","24.926365","6500900","三峽區"
"237014","433-BY","2018/03/31 19:39:25","新北市三峽區添福141號","121.375305","24.9009616666667","6500900","三峽區"
"237006","5529-G3","2018/03/31 19:39:26","新北市三峽區中正路一段336巷15弄2號","121.369963333333","24.92493","6500900","三峽區"
"237005","AKY-6261","2018/03/31 19:39:25","新北市三峽區中山路156號","121.364683333333","24.9364483333333","6500900","三峽區"
"236070","105-UM","2018/03/31 19:39:38","新北市土城區清水路1號","121.45268","24.9802166666667","6501300","土城區"
"236042","107-UM","2018/03/31 19:39:28","新北市土城區學士路12巷2號","121.45362","24.9830483333333","6501300","土城區"
"236079","166-UM","2018/03/31 19:39:31","新北市土城區中州路9號","121.41431","24.9575616666667","6501300","土城區"
"236030","253-BX","2018/03/31 19:39:34","新北市土城區中央路一段318巷21號","121.442418333333","24.9818483333333","6501300","土城區"
"236026","269-VK","2018/03/31 19:39:36","新北市土城區中央路二段61巷26號","121.44329","24.9787033333333","6501300","土城區"
"236038","271-VK","2018/03/31 19:39:36","新北市土城區青雲路281巷13弄2號","121.459976666667","24.9801216666667","6501300","土城區"
"236021","401-BY","2018/03/31 19:39:24","新北市土城區峰廷街2號","121.468635","24.987815","6501300","土城區"
"236049","913-UM","2018/03/31 19:39:33","新北市土城區明德路一段57號","121.465385","24.984615","6501300","土城區"
"236063","915-UM","2018/03/31 19:39:30","新北市土城區延平街17號","121.468255","24.9911133333333","6501300","土城區"
"236055","AAC-216","2018/03/31 19:39:42","新北市土城區學府路一段92號","121.456333333333","24.9880616666667","6501300","土城區"
"242025","613-BX","2018/03/31 19:39:33","新北市新莊區中央路232號","121.454493333333","25.0587783333333","6500500","新莊區"
"242046","497-BY","2018/03/31 19:39:23","新北市新莊區環河路636-7號","121.43744","25.0119216666667","6500500","新莊區"
"242036","442-UM","2018/03/31 19:39:32","新北市新莊區民安路207巷5號","121.426756666667","25.0229983333333","6500500","新莊區"
"242023","362-BY","2018/03/31 19:39:37","新北市新莊區復興路二段137號","121.457371666667","25.04445","6500500","新莊區"
"242031","135-UY","2018/03/31 19:39:33","新北市新莊區公園一路139號","121.446346666667","25.038265","6500500","新莊區"
"242048","172-VK","2018/03/31 19:39:32","新北市新莊區民安路37巷2號","121.42382","25.0267483333333","6500500","新莊區"
"242011","173-VK","2018/03/31 19:39:31","新北市新莊區三和路12-21號","121.44191","25.0385583333333","6500500","新莊區"
"242004","176-VK","2018/03/31 19:39:33","新北市新莊區化成路29巷59號","121.46257","25.0439333333333","6500500","新莊區"
"242013","351-TH","2018/03/31 19:39:30","新北市新莊區中誠街119號","121.449455","25.0475883333333","6500500","新莊區"
"238015","755-BX","2018/03/31 19:39:32","新北市樹林區日新街97號","121.421561666667","24.9900866666667","6500700","樹林區"
"238023","601-UM","2018/03/31 19:39:20","新北市樹林區三福街87號","121.406965","25.0163133333333","6500700","樹林區"
"238019","599-UM","2018/03/31 19:39:27","新北市樹林區八德街13號","121.418013333333","24.9843333333333","6500700","樹林區"
"238024","5061-A6","2018/03/31 19:39:27","新北市樹林區育德街40號","121.390111666667","24.96909","6500700","樹林區"
"238021","KEA-2217","2018/03/31 19:39:22","新北市樹林區佳園路三段197號","121.385178333333","24.9476166666667","6500700","樹林區"
"238022","KEA-2213","2018/03/31 19:39:25","新北市樹林區名園街51巷6弄16號","121.420906666667","24.9780266666667","6500700","樹林區"
"238025","303-VK","2018/03/31 19:39:25","新北市樹林區中山路一段115-4號","121.422746666667","24.9902333333333","6500700","樹林區"
"238014","282-BY","2018/03/31 19:39:33","新北市樹林區千歲街30巷16號","121.426188333333","24.996205","6500700","樹林區"
"238020","268-VK","2018/03/31 19:39:27","新北市樹林區俊英街5號","121.429753333333","25.0000716666667","6500700","樹林區"
"239007","AAC-297","2018/03/31 19:39:36","新北市鶯歌區大湖路109巷9號","121.341421666667","24.9634916666667","6500800","鶯歌區"
"239006","891-R6","2018/03/31 19:39:27","新北市鶯歌區文化路117巷7-1號","121.357201666667","24.9552466666667","6500800","鶯歌區"
"239003","360-BY","2018/03/31 19:39:38","新北市鶯歌區中正一路113-1號","121.370255","24.95824","6500800","鶯歌區"
"239002","359-BY","2018/03/31 19:39:28","新北市鶯歌區大湖路18號","121.34293","24.96048","6500800","鶯歌區"
"221036","130-UY","2018/03/31 19:39:18","新北市汐止區康寧街901號","121.650806666667","25.0752116666667","6501100","汐止區"
"221015","131-UY","2018/03/31 19:39:38","新北市汐止區康寧街901號","121.65177","25.0749733333333","6501100","汐止區"
"221010","269-BY","2018/03/31 19:39:39","新北市汐止區汐萬路一段345號","121.650213333333","25.0769066666667","6501100","汐止區"
"221012","278-VK","2018/03/31 19:39:25","新北市汐止區茄安路235號","121.678865","25.0706416666667","6501100","汐止區"
"221023","279-VK","2018/03/31 19:39:29","新北市汐止區中興路201號","121.629216666667","25.0684483333333","6501100","汐止區"
"221027","281-BY","2018/03/31 19:39:33","新北市汐止區忠孝東路9號","121.658288333333","25.0659283333333","6501100","汐止區"
"221029","298-VK","2018/03/31 19:39:36","新北市汐止區康寧街901號","121.651456666667","25.0749666666667","6501100","汐止區"
"221021","299-VK","2018/03/31 19:39:24","新北市汐止區水源路一段268號","121.65415","25.058785","6501100","汐止區"
"221031","353-TW","2018/03/31 19:39:29","新北市汐止區汐萬路一段256巷1號","121.651828333333","25.0748083333333","6501100","汐止區"
"221008","129-UY","2018/03/31 19:39:38","新北市汐止區康寧街141巷55-1號","121.620626666667","25.0679133333333","6501100","汐止區"
"221025","623-UM","2018/03/31 19:39:24","新北市汐止區福安街20巷12號","121.662256666667","25.0647633333333","6501100","汐止區"
"221038","646-BX","2018/03/31 19:39:37","新北市汐止區忠孝東路243號","121.662831666667","25.0674183333333","6501100","汐止區"
"221033","647-BX","2018/03/31 19:39:40","新北市汐止區南勢街1巷1號","121.627058333333","25.037415","6501100","汐止區"
"220079","145-BY","2018/03/31 19:39:40","新北市板橋區建國街100號","121.459913333333","25.0173633333333","6500100","板橋區"
"220080","200-UY","2018/03/31 19:39:28","新北市板橋區大觀路二段37巷280號","121.449751666667","25.000975","6500100","板橋區"
"220106","KEA-2550","2018/03/31 19:39:40","新北市板橋區雙十路三段26號","121.471098333333","25.030805","6500100","板橋區"
"220082","610-BX","2018/03/31 19:39:37","新北市板橋區篤行路一段39號","121.43204","24.9941066666667","6500100","板橋區"
"220101","245-BX","2018/03/31 19:39:31","新北市板橋區莊敬路220巷23號","121.472733333333","25.0206216666667","6500100","板橋區"
"220103","257-TC","2018/03/31 19:39:24","新北市板橋區文化路一段286巷13號","121.468105","25.02152","6500100","板橋區"
"220091","267-BY","2018/03/31 19:39:40","新北市板橋區懷德街139巷14-3號","121.479603333333","25.0305833333333","6500100","板橋區"
"220056","276-BY","2018/03/31 19:39:21","新北市板橋區四川路二段47巷3弄2號","121.45425","24.9946566666667","6500100","板橋區"
"220072","277-BY","2018/03/31 19:39:33","新北市板橋區金門街255號","121.431913333333","24.9889283333333","6500100","板橋區"
"220071","283-VK","2018/03/31 19:39:28","新北市板橋區信義路78號","121.457643333333","24.99337","6500100","板橋區"
"220094","285-UM","2018/03/31 19:39:33","新北市板橋區銘傳街53號","121.469778333333","25.0318","6500100","板橋區"
"220053","285-VK","2018/03/31 19:39:23","新北市板橋區民享街91號","121.476985","25.0159766666667","6500100","板橋區"
"220083","286-VK","2018/03/31 19:39:38","新北市板橋區龍興街65巷34號","121.442956666667","25.0018433333333","6500100","板橋區"
"220081","287-VK","2018/03/31 19:39:24","新北市板橋區大觀路一段29巷131弄27號","121.450575","25.0046566666667","6500100","板橋區"
"220090","288-VK","2018/03/31 19:39:33","新北市板橋區長江路一段48巷1弄2號","121.459041666667","25.0287533333333","6500100","板橋區"
"220061","293-UM","2018/03/31 19:39:31","新北市板橋區中山路一段265巷16號","121.468663333333","25.014675","6500100","板橋區"
"220084","296-UM","2018/03/31 19:39:31","新北市板橋區滿平二街1-3號","121.425458333333","24.9863833333333","6500100","板橋區"
"220075","303-R5","2018/03/31 19:39:33","新北市板橋區大勇街21號","121.454221666667","25.0170933333333","6500100","板橋區"
"220062","305-R5","2018/03/31 19:39:36","新北市板橋區三民路二段81巷43號","121.480551666667","25.0170366666667","6500100","板橋區"
"220092","307-R5","2018/03/31 19:39:36","新北市板橋區文化路一段360號","121.46878","25.0235833333333","6500100","板橋區"
"220098","317-R6","2018/03/31 19:39:37","新北市板橋區四維路269巷29號","121.46198","25.0277016666667","6500100","板橋區"
"220064","486-VK","2018/03/31 19:39:28","新北市板橋區民權路45號","121.462111666667","25.0113916666667","6500100","板橋區"
"242056","280-VK","2018/03/31 19:39:26","新北市新莊區環河路462號","121.440193333333","25.0201566666667","6500500","新莊區"
"220088","491-VK","2018/03/31 19:39:36","新北市板橋區仁化街164號","121.478081666667","25.03363","6500100","板橋區"
"220035","560-BX","2018/03/31 19:27:09","新北市板橋區華東街1-9號","121.44814","24.9947616666667","6500100","板橋區"
"220055","568-UM","2018/03/31 19:39:38","新北市板橋區金華街85巷42號","121.45913","25.0213116666667","6500100","板橋區"
"220063","609-BX","2018/03/31 19:39:30","新北市板橋區中山路二段539巷16號","121.483033333333","25.022335","6500100","板橋區"
"220055","630-UY","2018/03/31 19:39:33","新北市板橋區國慶路149巷3弄1號","121.461195","24.99686","6500100","板橋區"
"220057","686-BX","2018/03/31 19:39:28","新北市板橋區國慶路158巷1-4號","121.462081666667","24.99591","6500100","板橋區"
"220077","687-BX","2018/03/31 19:39:29","新北市板橋區僑中一街108號","121.44644","25.0116366666667","6500100","板橋區"
"220093","689-BX","2018/03/31 19:39:28","新北市板橋區新海路458號","121.45759","25.0280633333333","6500100","板橋區"
"220054","741-BX","2018/03/31 19:39:13","新北市板橋區忠孝路204號","121.465955","25.0026683333333","6500100","板橋區"
"220102","KEA-2699","2018/03/31 19:39:34","新北市板橋區文化路二段410巷25號","121.4746","25.03065","6500100","板橋區"
"220067","829-TW","2018/03/31 19:39:41","新北市板橋區漢生東路279巷8號","121.471843333333","25.0091066666667","6500100","板橋區"
"220068","830-TW","2018/03/31 19:39:33","新北市板橋區中山路二段507號","121.482715","25.02115","6500100","板橋區"
"220096","831-TW","2018/03/31 19:39:36","新北市板橋區民生路二段250號","121.468355","25.02336","6500100","板橋區"
"220089","833-TW","2018/03/31 19:39:22","新北市板橋區新海路150號","121.460586666667","25.0239266666667","6500100","板橋區"
"220074","895-R6","2018/03/31 19:39:33","新北市板橋區文化路一段9號","121.457968333333","25.00989","6500100","板橋區"
"220073","985-R7","2018/03/31 19:39:28","新北市板橋區國光路49巷17號","121.459015","25.01883","6500100","板橋區"
"220097","AAC-210","2018/03/31 19:39:37","新北市板橋區幸福路32巷7號","121.461418333333","25.0207583333333","6500100","板橋區"
"220070","AAC-253","2018/03/31 19:39:34","新北市板橋區民族路275號","121.470903333333","25.00675","6500100","板橋區"
