"lineid","car","time","location","longitude","latitude","cityid","cityname"
"234046","148-BY","2018/03/31 19:59:41","新北市永和區成功路一段4號","121.526955","25.0055566666667","6500400","永和區"
"234070","149-BY","2018/03/31 19:59:32","新北市永和區國光路14號","121.519106666667","25.008385","6500400","永和區"
"234007","207-UY","2018/03/31 19:59:20","新北市永和區保生路22巷21號","121.507201666667","25.0081166666667","6500400","永和區"
"234081","298-R6","2018/03/31 19:59:25","新北市永和區永亨路98號","121.523001666667","25.0047116666667","6500400","永和區"
"234038","336-UY","2018/03/31 19:59:30","新北市永和區成功路二段126號","121.526523333333","24.9976116666667","6500400","永和區"
"234064","337-UY","2018/03/31 19:59:41","新北市永和區秀朗路一段192巷6弄1號","121.519211666667","25.002335","6500400","永和區"
"234086","338-UY","2018/03/31 19:59:19","新北市永和區福和路5-2號","121.524703333333","25.0086233333333","6500400","永和區"
"234017","745-BX","2018/03/31 19:59:25","新北市永和區文化路69號","121.513911666667","25.0150883333333","6500400","永和區"
"234030","746-BX","2018/03/31 19:59:40","新北市永和區民生路22巷23號","121.521363333333","24.99706","6500400","永和區"
"234054","KEA-2590","2018/03/31 19:56:19","新北市永和區竹林路39巷33弄1號","121.519998333333","25.0151783333333","6500400","永和區"
"234013","KEA-2591","2018/03/31 19:59:21","新北市永和區保生路55號","121.504641666667","25.01059","6500400","永和區"
"234061","AAD-866","2018/03/31 19:59:28","新北市永和區中正路283巷27號","121.516376666667","24.999915","6500400","永和區"
"234042","862-TW","2018/03/31 19:59:29","新北市永和區中和路421巷5弄19號","121.508535","25.00073","6500400","永和區"
"234050","863-TW","2018/03/31 19:59:34","新北市永和區保安路151號","121.506966666667","25.0129733333333","6500400","永和區"
"234026","9371-KE","2018/03/31 19:59:24","新北市永和區水源街21巷14弄3號","121.511405","25.0037483333333","6500400","永和區"
"234011","9373-KE","2018/03/31 19:59:35","新北市永和區仁愛路352巷114號","121.500448333333","25.0083216666667","6500400","永和區"
"249005","172-UM","2018/03/31 19:59:31","新北市八里區楓林路3-4號","121.382203333333","25.1295266666667","6502300","八里區"
"249001","173-UM","2018/03/31 19:59:37","新北市八里區中華路二段310號","121.403831666667","25.1483683333333","6502300","八里區"
"249004","303-UY","2018/03/31 19:59:28","新北市八里區中山路一段225號","121.41108","25.1577383333333","6502300","八里區"
"249002","305-UY","2018/03/31 19:59:34","新北市八里區頂寮二街1號","121.450948333333","25.12386","6502300","八里區"
"249003","593-UM","2018/03/31 19:59:33","新北市八里區訊塘路1號","121.398285","25.1444983333333","6502300","八里區"
"248016","026-BX","2018/03/31 19:59:34","新北市五股區成泰路三段577巷80弄50號","121.449621666667","25.1048033333333","6501500","五股區"
"248008","095-VK","2018/03/31 19:59:03","新北市五股區四維路38號","121.46743","25.071455","6501500","五股區"
"248012","247-BX","2018/03/31 19:59:40","新北市五股區民義路一段112-10號","121.435325","25.0852666666667","6501500","五股區"
"248014","261-SL","2018/03/31 19:59:33","新北市五股區五福路22巷3號","121.434498333333","25.08899","6501500","五股區"
"248010","272-BY","2018/03/31 19:59:38","新北市五股區登林路100-1號","121.428048333333","25.070145","6501500","五股區"
"248004","677-BX","2018/03/31 19:59:20","新北市五股區成泰路一段103號","121.435795","25.0709","6501500","五股區"
"248002","678-BX","2018/03/31 19:59:36","新北市五股區成泰路三段487號","121.450758333333","25.0992816666667","6501500","五股區"
"234077","969-R7","2018/03/31 19:59:23","新北市永和區民有街24巷3號","121.516585","24.9961616666667","6500400","永和區"
"234074","AAC-211","2018/03/31 19:59:24","新北市永和區豫溪街185號","121.522483333333","25.0103933333333","6500400","永和區"
"234067","AAC-212","2018/03/31 19:59:28","新北市永和區中山路一段281巷2弄1號","121.507315","25.0066733333333","6500400","永和區"
"234003","AAC-295","2018/03/31 19:59:25","新北市永和區永和路二段8號","121.514471666667","25.010175","6500400","永和區"
"243012","AAD-798","2018/03/31 19:59:37","新北市泰山區全興路87號","121.43324","25.057525","6501600","泰山區"
"243011","297-R6","2018/03/31 19:59:29","新北市泰山區明志路三段182巷33號","121.423158333333","25.0392883333333","6501600","泰山區"
"243015","380-SR","2018/03/31 19:59:26","新北市泰山區明志路二段214巷9號","121.426776666667","25.04868","6501600","泰山區"
"243014","421-VK","2018/03/31 19:59:39","新北市泰山區泰林路二段155號","121.433791666667","25.06036","6501600","泰山區"
"243016","539-UM","2018/03/31 19:59:24","新北市泰山區明志路三段519號","121.421398333333","25.0318033333333","6501600","泰山區"
"243010","KEA-2215","2018/03/31 19:59:29","新北市泰山區明志路二段51號","121.42951","25.0527166666667","6501600","泰山區"
"243009","KEA-2216","2018/03/31 19:59:27","新北市泰山區泰林路二段164巷34號","121.43441","25.061215","6501600","泰山區"
"243013","646-TV","2018/03/31 19:40:19","新北市泰山區應化街13號","121.423855","25.0436833333333","6501600","泰山區"
"222003","436-BY","2018/03/31 19:59:34","新北市深坑區埔新街14號","121.620743333333","25.003925","6501800","深坑區"
"222002","659-BX","2018/03/31 19:59:33","新北市深坑區北深路二段81巷8弄1號","121.618341666667","25.0030183333333","6501800","深坑區"
"231041","002-UM","2018/03/31 19:59:32","新北市新店區中正路356號","121.535736666667","24.97565","6500600","新店區"
"231058","0291-UT","2018/03/31 19:59:32","新北市新店區薏仁坑路自強巷1號","121.496765","24.9581183333333","6500600","新店區"
"231059","046-UY","2018/03/31 19:59:34","新北市新店區安康路二段147-1號","121.51135","24.95981","6500600","新店區"
"231061","047-UY","2018/03/31 19:59:20","新北市新店區安民街133巷26號","121.515418333333","24.9697533333333","6500600","新店區"
"231060","106-UY","2018/03/31 19:59:30","新北市新店區安康路二段391號","121.494488333333","24.954185","6500600","新店區"
"231051","107-UY","2018/03/31 19:59:28","新北市新店區中央五街23號","121.529263333333","24.974655","6500600","新店區"
"231048","108-UY","2018/03/31 19:59:33","新北市新店區寶宏路3號","121.549145","24.97691","6500600","新店區"
"231052","187-VK","2018/03/31 19:59:19","新北市新店區新烏路三段寶島巷2弄3號","121.551991666667","24.898635","6500600","新店區"
"231050","KEA-2219","2018/03/31 19:59:22","新北市新店區北宜路二段85號","121.549966666667","24.95193","6500600","新店區"
"231057","256-BX","2018/03/31 19:59:32","新北市新店區花園二路一段11號","121.555526666667","24.9324566666667","6500600","新店區"
"231063","268-BY","2018/03/31 19:59:20","新北市新店區黎明路11號","121.501991666667","24.9497566666667","6500600","新店區"
"231046","278-BY","2018/03/31 19:59:27","新北市新店區光華街38巷16號","121.51608","24.970445","6500600","新店區"
"231054","AAD-862","2018/03/31 19:59:30","新北市新店區光明街170號","121.539531666667","24.9619766666667","6500600","新店區"
"231056","3713-VJ","2018/03/31 19:59:27","新北市新店區北新路三段148號","121.541451666667","24.9823766666667","6500600","新店區"
"231055","4716-K9","2018/03/31 19:59:41","新北市新店區中華路42巷39號","121.541343333333","24.9694016666667","6500600","新店區"
"231067","4772-VM","2018/03/31 19:59:25","新北市新店區秀山路11巷12弄15號","121.531413333333","24.9595666666667","6500600","新店區"
"231065","512-UM","2018/03/31 19:59:24","新北市新店區安祥路106巷88號","121.474528333333","24.959755","6500600","新店區"
"231064","513-UM","2018/03/31 19:59:25","新北市新店區碧安街15巷28號","121.516768333333","24.9692733333333","6500600","新店區"
"231045","617-UM","2018/03/31 19:59:25","新北市新店區北宜路二段271號","121.554765","24.953735","6500600","新店區"
"231040","619-UM","2018/03/31 19:59:38","新北市新店區北新路一段96巷29號","121.542996666667","24.9690283333333","6500600","新店區"
"231042","641-BX","2018/03/31 19:59:33","新北市新店區中興路二段89號","121.5471","24.9713833333333","6500600","新店區"
"231068","718-UY","2018/03/31 19:59:35","新北市新店區安華路28-1號","121.519548333333","24.9612083333333","6500600","新店區"
"231049","719-UM","2018/03/31 19:59:34","新北市新店區明德路27號","121.541888333333","24.977175","6500600","新店區"
"231062","719-UY","2018/03/31 19:59:24","新北市新店區安康路一段164-1號","121.525916666667","24.963055","6500600","新店區"
"231044","897-TW","2018/03/31 19:59:35","新北市新店區復興路50號","121.53805","24.9867333333333","6500600","新店區"
"231043","899-TW","2018/03/31 19:59:21","新北市新店區中正路265巷3號","121.538166666667","24.9736883333333","6500600","新店區"
"231066","AKT-0513","2018/03/31 19:59:26","新北市新店區安德街60巷26號","121.511131666667","24.9640833333333","6500600","新店區"
"241011","013-R5","2018/03/31 19:59:26","新北市三重區三和路二段167號","121.497846666667","25.0696566666667","6500200","三重區"
"241028","022-UY","2018/03/31 19:59:24","新北市三重區中正南路6號","121.493376666667","25.0605933333333","6500200","三重區"
"241008","059-VK","2018/03/31 19:59:20","新北市三重區永福街179巷9號","121.47851","25.075","6500200","三重區"
"241009","060-VK","2018/03/31 19:59:24","新北市三重區三和路四段390巷68號","121.479266666667","25.0783416666667","6500200","三重區"
"241031","061-VK","2018/03/31 19:59:28","新北市三重區重新路四段144巷23號","121.487066666667","25.0552233333333","6500200","三重區"
"241015","062-VK","2018/03/31 19:59:20","新北市三重區三和路二段29號","121.500998333333","25.06702","6500200","三重區"
"241017","063-VK","2018/03/31 19:59:28","新北市三重區重陽路三段115號","121.491035","25.0686183333333","6500200","三重區"
"241024","065-VK","2018/03/31 19:59:41","新北市三重區大勇街34號","121.481621666667","25.0717833333333","6500200","三重區"
"241002","090-VK","2018/03/31 19:59:38","新北市三重區福隆路56號","121.492765","25.0786883333333","6500200","三重區"
"241003","091-VK","2018/03/31 19:59:33","新北市三重區五華街122巷33號","121.490565","25.082555","6500200","三重區"
"241005","262-UM","2018/03/31 19:59:26","新北市三重區溪尾街325巷5弄1號","121.488445","25.0841283333333","6500200","三重區"
"241016","265-UM","2018/03/31 19:59:36","新北市三重區正義北路46號","121.497125","25.063655","6500200","三重區"
"241022","267-UM","2018/03/31 19:59:28","新北市三重區過圳街31巷2號","121.488978333333","25.0605283333333","6500200","三重區"
"241018","268-UM","2018/03/31 19:59:31","新北市三重區正義北路244巷78號","121.49392","25.0676466666667","6500200","三重區"
"241032","269-UM","2018/03/31 19:59:22","新北市三重區朝陽街23號","121.483605","25.0565","6500200","三重區"
"241013","270-UM","2018/03/31 19:59:33","新北市三重區三和路三段125巷33號","121.493963333333","25.07371","6500200","三重區"
"241025","271-UM","2018/03/31 19:59:24","新北市三重區頂崁街210巷9號","121.47653","25.06777","6500200","三重區"
"241007","398-BY","2018/03/31 19:59:20","新北市三重區慈愛街84號","121.488316666667","25.0798633333333","6500200","三重區"
"241035","KEA-2210","2018/03/31 19:59:38","新北市三重區大榮街9號","121.498218333333","25.0631366666667","6500200","三重區"
"241004","475-VK","2018/03/31 19:59:23","新北市三重區仁愛街377巷132號","121.493546666667","25.08194","6500200","三重區"
"241020","478-VK","2018/03/31 19:59:35","新北市三重區大智街165巷13號","121.490363333333","25.0725316666667","6500200","三重區"
"241030","480-VK","2018/03/31 19:59:22","新北市三重區重新路四段244巷9號","121.486316666667","25.0533766666667","6500200","三重區"
"241014","543-UM","2018/03/31 19:59:21","新北市三重區長春街11號","121.49959","25.0690266666667","6500200","三重區"
"241023","545-UM","2018/03/31 19:59:42","新北市三重區大有街1-1號","121.477648333333","25.0654133333333","6500200","三重區"
"241001","547-UM","2018/03/31 19:59:24","新北市三重區仁愛街283巷18號","121.493705","25.0795733333333","6500200","三重區"
"241033","557-UM","2018/03/31 19:56:24","新北市三重區中興北街17號","121.469736666667","25.0463666666667","6500200","三重區"
"241019","KEA-2593","2018/03/31 19:59:24","新北市三重區重陽路四段13號","121.491083333333","25.0692166666667","6500200","三重區"
"241006","AAD-863","2018/03/31 19:59:21","新北市三重區下竹圍街93巷17號","121.482051666667","25.0748733333333","6500200","三重區"
"241026","887-TS","2018/03/31 19:59:34","新北市三重區重新路一段102號","121.5011","25.0632583333333","6500200","三重區"
"241012","941-UM","2018/03/31 19:59:22","新北市三重區仁厚街35號","121.500025","25.0763583333333","6500200","三重區"
"241029","942-UM","2018/03/31 19:59:31","新北市三重區重安街1號","121.489908333333","25.05823","6500200","三重區"
"235066","003-UY","2018/03/31 19:59:31","新北市中和區光華街33號","121.50497","25.004","6500300","中和區"
"235056","096-UM","2018/03/31 19:59:36","新北市中和區中山路三段170巷4弄2號","121.472835","25.0068183333333","6500300","中和區"
"235065","098-UM","2018/03/31 19:59:24","新北市中和區福祥路56號","121.499368333333","25.004645","6500300","中和區"
"235040","150-BY","2018/03/31 19:59:28","新北市中和區保健路19巷5號","121.50829","24.998355","6500300","中和區"
"235058","151-BY","2018/03/31 19:59:27","新北市中和區員山路150巷2弄61號","121.481716666667","24.9973816666667","6500300","中和區"
"235055","183-VK","2018/03/31 19:59:34","新北市中和區德光路38-1號","121.470303333333","25.0047833333333","6500300","中和區"
"235049","186-VK","2018/03/31 19:59:40","新北市中和區景平路514號","121.503498333333","24.9938283333333","6500300","中和區"
"235067","255-BX","2018/03/31 19:59:29","新北市中和區員山路148巷23弄60號","121.482311666667","24.9980683333333","6500300","中和區"
"235067","293-VK","2018/03/31 19:59:37","新北市中和區南山路287號","121.504351666667","24.992035","6500300","中和區"
"235043","352-BY","2018/03/31 19:59:33","新北市中和區興南路二段159巷7號","121.505343333333","24.9830566666667","6500300","中和區"
"235068","377-QA","2018/03/31 19:59:31","新北市中和區福美路301巷17號","121.497588333333","25.004165","6500300","中和區"
"235050","4979-A6","2018/03/31 19:59:39","新北市中和區景平路155巷2弄2號","121.513231666667","24.9921816666667","6500300","中和區"
"235069","4980-A6","2018/03/31 19:59:39","新北市中和區景平路634-2號","121.501013333333","24.998645","6500300","中和區"
"235070","558-UM","2018/03/31 19:59:33","新北市中和區連勝街11號","121.498846666667","24.99833","6500300","中和區"
"235054","640-BX","2018/03/31 19:59:25","新北市中和區莒光路14號","121.472098333333","25.0043116666667","6500300","中和區"
"235060","647-TV","2018/03/31 19:40:43","新北市中和區民享街38-1號","121.473923333333","25.0029783333333","6500300","中和區"
"235047","732-UM","2018/03/31 19:59:26","新北市中和區和平街146號","121.506183333333","24.991795","6500300","中和區"
"235046","733-UM","2018/03/31 19:59:32","新北市中和區興南路一段105巷20弄1號","121.510223333333","24.9857516666667","6500300","中和區"
"235057","801-TS","2018/03/31 19:59:28","新北市中和區民樂路81號","121.484948333333","25.0012833333333","6500300","中和區"
"235041","802-TS","2018/03/31 19:59:08","新北市中和區中安街166號","121.510861666667","25.000045","6500300","中和區"
"235052","805-TS","2018/03/31 19:59:22","新北市中和區華新街30巷14號","121.50696","24.9842483333333","6500300","中和區"
"235048","896-TW","2018/03/31 19:59:26","新北市中和區景新街416號","121.51287","24.9890633333333","6500300","中和區"
"235060","911-UM","2018/03/31 19:59:36","新北市中和區中山路三段98號","121.477276666667","25.00573","6500300","中和區"
"235051","157-BY","2018/03/31 19:59:34","新北市中和區中興街233巷10號","121.501475","24.9895","6500300","中和區"
"235037","AAC-213","2018/03/31 19:59:30","新北市中和區自立路99巷10號","121.522511666667","24.9947616666667","6500300","中和區"
"235059","AAC-215","2018/03/31 19:59:28","新北市中和區圓通路355號","121.491433333333","24.990065","6500300","中和區"
"220065","072-UY","2018/03/31 19:59:29","新北市板橋區長安街11號","121.466308333333","25.0087066666667","6500100","板橋區"
"220069","AAD-861","2018/03/31 19:59:20","新北市板橋區大明街37號","121.458056666667","25.0027216666667","6500100","板橋區"
"247024","893-R6","2018/03/31 19:59:32","新北市蘆洲區光榮路120巷8弄41號","121.464571666667","25.08785","6501400","蘆洲區"
"247014","546-UM","2018/03/31 19:59:36","新北市蘆洲區成功路135號","121.47224","25.0823683333333","6501400","蘆洲區"
"247010","341-TH","2018/03/31 19:59:36","新北市蘆洲區集賢路200號","121.48367","25.0877033333333","6501400","蘆洲區"
"247012","339-TH","2018/03/31 19:59:28","新北市蘆洲區民族路157號","121.479438333333","25.0880583333333","6501400","蘆洲區"
"247004","337-TH","2018/03/31 19:59:30","新北市蘆洲區永安南路二段296號","121.457248333333","25.0818266666667","6501400","蘆洲區"
"247006","336-TH","2018/03/31 19:59:42","新北市蘆洲區九芎街101號","121.465978333333","25.07965","6501400","蘆洲區"
"247018","057-VK","2018/03/31 19:59:23","新北市蘆洲區民族路278-1號","121.478393333333","25.0894633333333","6501400","蘆洲區"
"247008","056-VK","2018/03/31 19:59:34","新北市蘆洲區中山一路95巷20弄1號","121.47728","25.0806483333333","6501400","蘆洲區"
"247002","053-VK","2018/03/31 19:59:30","新北市蘆洲區永樂街31巷7-1號","121.458161666667","25.08724","6501400","蘆洲區"
"247016","007-UY","2018/03/31 19:59:21","新北市蘆洲區中正路85號","121.469988333333","25.0836166666667","6501400","蘆洲區"
"247020","001-UY","2018/03/31 19:59:30","新北市蘆洲區民義街53號","121.472785","25.0898116666667","6501400","蘆洲區"
"226004","312-R5","2018/03/31 19:59:29","新北市平溪區石底里公園街18-3號","121.733785","25.0253","6502400","平溪區"
"235039","251-BX","2018/03/31 19:59:26","新北市中和區大勇街25巷15弄21-3號","121.514991666667","24.9935316666667","6500300","中和區"
"228003","097-TW","2018/03/31 19:59:35","新北市貢寮區仁理村仁和路120號","121.922951666667","25.05108","6502600","貢寮區"
"224010","AGQ-8101","2018/03/31 19:59:33","新北市瑞芳區輕便路145號","121.841735","25.1071166666667","6501200","瑞芳區"
"224002","639-TC","2018/03/31 19:59:25","新北市瑞芳區三爪子坑路64-37號","121.808598333333","25.1054216666667","6501200","瑞芳區"
"227010","642-TC","2018/03/31 19:59:31","新北市雙溪區新基里新基南街25號","121.866243333333","25.0381416666667","6502500","雙溪區"
"227002","400-TW","2018/03/31 19:59:34","新北市雙溪區雙溪里長安街16號","121.864965","25.034655","6502500","雙溪區"
"222001","KEA-2212","2018/03/31 19:59:36","新北市深坑區北深路三段160號","121.602515","25.003335","6501800","深坑區"
"208002","KEA-2872","2018/03/31 19:59:23","新北市金山區環金路87號","121.637008333333","25.21727","6502700","金山區"
"208003","665-BX","2018/03/31 19:59:29","新北市金山區永興里忠義路1號","121.633115","25.2589733333333","6502700","金山區"
"208001","761-BX","2018/03/31 19:59:36","新北市金山區南勢40號","121.629023333333","25.22079","6502700","金山區"
"251009","008-UM","2018/03/31 19:59:20","新北市淡水區英專路28巷20號","121.445946666667","25.1698283333333","6501000","淡水區"
"251004","009-UM","2018/03/31 19:59:39","新北市淡水區民權路145巷18弄5號","121.460743333333","25.1360166666667","6501000","淡水區"
"251001","011-UM","2018/03/31 19:59:33","新北市淡水區北新路一段69-5號","121.452683333333","25.1809883333333","6501000","淡水區"
"251013","179-VK","2018/03/31 19:59:20","新北市淡水區奎柔山路63號","121.451715","25.20618","6501000","淡水區"
"251014","180-VK","2018/03/31 19:59:31","新北市淡水區石頭厝12-6號","121.462236666667","25.236455","6501000","淡水區"
"251008","181-VK","2018/03/31 19:59:39","新北市淡水區淡海路72巷2號","121.423336666667","25.1809583333333","6501000","淡水區"
"251015","182-VK","2018/03/31 19:59:29","新北市淡水區北新路二段38號","121.477233333333","25.18577","6501000","淡水區"
"251010","413-VK","2018/03/31 19:59:24","新北市淡水區崁頂133號","121.431326666667","25.2053766666667","6501000","淡水區"
"251012","441-VK","2018/03/31 19:59:29","新北市淡水區下圭柔山91巷1號","121.4381","25.2110066666667","6501000","淡水區"
"251016","442-VK","2018/03/31 19:59:28","新北市淡水區興仁路162號","121.451315","25.220635","6501000","淡水區"
"251005","443-VK","2018/03/31 19:59:23","新北市淡水區學府路136巷46號","121.452135","25.1725283333333","6501000","淡水區"
"251006","561-UM","2018/03/31 19:59:22","新北市淡水區水碓街47號","121.4441","25.177415","6501000","淡水區"
"251011","650-BX","2018/03/31 19:59:30","新北市淡水區崁頂57-7號","121.442513333333","25.1973366666667","6501000","淡水區"
"251002","672-BX","2018/03/31 19:59:27","新北市淡水區沙崙路129號","121.422496666667","25.1823233333333","6501000","淡水區"
"207003","550-UM","2018/03/31 19:59:31","新北市萬里區磺潭里公館崙5號","121.641901666667","25.21422","6502800","萬里區"
"207004","225-TW","2018/03/31 19:59:28","新北市萬里區北基里忠二街35號","121.685678333333","25.1757133333333","6502800","萬里區"
"252002","178-VK","2018/03/31 19:59:36","新北市三芝區忠孝街116-3號","121.50553","25.2574066666667","6502100","三芝區"
"252001","292-VK","2018/03/31 19:59:24","新北市三芝區公正街9號","121.499765","25.25747","6502100","三芝區"
"237004","KEA-2597","2018/03/31 19:59:23","新北市三峽區添福7-1號","121.371156666667","24.9078166666667","6500900","三峽區"
"237007","153-BY","2018/03/31 19:59:27","新北市三峽區麻園35-3號","121.363823333333","24.9193283333333","6500900","三峽區"
"237012","275-BY","2018/03/31 19:59:37","新北市三峽區中華路3巷8-1號","121.374908333333","24.9310616666667","6500900","三峽區"
"237008","302-VK","2018/03/31 19:59:29","新北市三峽區中正路一段174巷9號","121.371888333333","24.9289133333333","6500900","三峽區"
"237006","5529-G3","2018/03/31 19:59:26","新北市三峽區中正路二段176巷76號","121.364413333333","24.912575","6500900","三峽區"
"237005","AKY-6261","2018/03/31 19:59:25","新北市三峽區民生街1巷16號","121.380158333333","24.935595","6500900","三峽區"
"236070","105-UM","2018/03/31 19:59:38","新北市土城區忠義路83號","121.443333333333","24.96462","6501300","土城區"
"236042","107-UM","2018/03/31 19:59:28","新北市土城區學府路一段107號","121.455821666667","24.9876716666667","6501300","土城區"
"236079","166-UM","2018/03/31 19:59:23","新北市土城區中央路四段183號","121.414941666667","24.9567","6501300","土城區"
"236030","253-BX","2018/03/31 19:59:27","新北市土城區中央路一段252號","121.444258333333","24.9846416666667","6501300","土城區"
"236026","269-VK","2018/03/31 19:59:36","新北市土城區中央路二段98號","121.442191666667","24.97837","6501300","土城區"
"236014","270-VK","2018/03/31 19:59:38","新北市土城區廣福街123號","121.456226666667","24.9928683333333","6501300","土城區"
"236038","271-VK","2018/03/31 19:59:35","新北市土城區國際路41號","121.466168333333","24.9791066666667","6501300","土城區"
"236021","401-BY","2018/03/31 19:59:35","新北市土城區延吉街111巷12弄15-3號","121.471541666667","24.9849516666667","6501300","土城區"
"236059","912-UM","2018/03/31 19:59:36","新北市土城區中央路一段245號","121.445405","24.9860566666667","6501300","土城區"
"236049","913-UM","2018/03/31 19:59:27","新北市土城區金城路三段198號","121.468431666667","24.9881333333333","6501300","土城區"
"236063","915-UM","2018/03/31 19:59:30","新北市土城區延和路86號","121.46637","24.989405","6501300","土城區"
"236055","AAC-216","2018/03/31 19:59:23","新北市土城區立德路15號","121.46113","24.9881933333333","6501300","土城區"
"242034","AAC-296","2018/03/31 19:59:39","新北市新莊區建中街101號","121.44645","25.036415","6500500","新莊區"
"242058","986-R7","2018/03/31 19:59:18","新北市新莊區八德街62號","121.424891666667","25.0222883333333","6500500","新莊區"
"242029","705-TV","2018/03/31 19:59:30","新北市新莊區中榮街101號","121.444933333333","25.0527466666667","6500500","新莊區"
"242025","613-BX","2018/03/31 19:59:33","新北市新莊區五工二路78巷11號","121.460346666667","25.0665716666667","6500500","新莊區"
"242042","566-BX","2018/03/31 19:59:32","新北市新莊區青山路一段8-1號","121.4117","25.027515","6500500","新莊區"
"242046","497-BY","2018/03/31 19:59:22","新北市新莊區裕民街19巷4號","121.419676666667","25.02521","6500500","新莊區"
"242036","442-UM","2018/03/31 19:59:32","新北市新莊區建安街29號","121.429041666667","25.02589","6500500","新莊區"
"242051","441-UM","2018/03/31 19:59:19","新北市新莊區西盛街186號","121.428186666667","25.0185516666667","6500500","新莊區"
"242007","413-TV","2018/03/31 19:59:24","新北市新莊區福壽街204號","121.458078333333","25.053755","6500500","新莊區"
"242023","362-BY","2018/03/31 19:59:37","新北市新莊區化成路424號","121.46601","25.0510866666667","6500500","新莊區"
"242061","353-BY","2018/03/31 19:59:33","新北市新莊區瓊泰路49號","121.443525","25.0285","6500500","新莊區"
"242039","133-UY","2018/03/31 19:59:39","新北市新莊區民安路299巷19號","121.428896666667","25.0230016666667","6500500","新莊區"
"242031","135-UY","2018/03/31 19:59:33","新北市新莊區公園一路77號","121.443208333333","25.0370583333333","6500500","新莊區"
"242048","172-VK","2018/03/31 19:59:37","新北市新莊區後港二路11號","121.423061666667","25.0242966666667","6500500","新莊區"
"242011","173-VK","2018/03/31 19:59:31","新北市新莊區中港路531巷19號","121.450678333333","25.0515016666667","6500500","新莊區"
"242017","175-VK","2018/03/31 19:59:25","新北市新莊區中安街10號","121.453076666667","25.0453466666667","6500500","新莊區"
"242004","176-VK","2018/03/31 19:59:33","新北市新莊區化成路205-1號","121.465863333333","25.0510766666667","6500500","新莊區"
"242015","346-TH","2018/03/31 19:59:31","新北市新莊區泰安街46號","121.446923333333","25.0424316666667","6500500","新莊區"
"242002","349-TH","2018/03/31 19:59:40","新北市新莊區中正路217號","121.45109","25.03583","6500500","新莊區"
"242019","350-TH","2018/03/31 19:59:24","新北市新莊區民生街22號","121.456018333333","25.042135","6500500","新莊區"
"242013","351-TH","2018/03/31 19:59:30","新北市新莊區幸福路626號","121.451046666667","25.04943","6500500","新莊區"
"238015","755-BX","2018/03/31 19:59:32","新北市樹林區中山路三段168號","121.388963333333","24.9701183333333","6500700","樹林區"
"238021","KEA-2217","2018/03/31 19:59:37","新北市樹林區佳園路三段101巷80弄3號","121.39495","24.9496033333333","6500700","樹林區"
"238025","303-VK","2018/03/31 19:59:25","新北市樹林區中山路三段166號","121.389086666667","24.9701583333333","6500700","樹林區"
"221036","130-UY","2018/03/31 19:59:37","新北市汐止區新台五路二段85巷14號","121.664338333333","25.06731","6501100","汐止區"
"221015","131-UY","2018/03/31 19:59:38","新北市汐止區大同路二段691號","121.665126666667","25.0725033333333","6501100","汐止區"
"221010","269-BY","2018/03/31 19:59:39","新北市汐止區八連路一段206號","121.64155","25.08045","6501100","汐止區"
"221012","278-VK","2018/03/31 19:59:25","新北市汐止區大同路三段188號","121.674823333333","25.07382","6501100","汐止區"
"221023","279-VK","2018/03/31 19:59:38","新北市汐止區明峰街208號","121.627561666667","25.069095","6501100","汐止區"
"221032","280-BY","2018/03/31 19:59:19","新北市汐止區橫科路4巷1弄10號","121.617888333333","25.0507916666667","6501100","汐止區"
"221027","281-BY","2018/03/31 19:59:33","新北市汐止區中正路87號","121.661266666667","25.069415","6501100","汐止區"
"221029","298-VK","2018/03/31 19:59:36","新北市汐止區樟樹一路137巷26號","121.640943333333","25.0659666666667","6501100","汐止區"
"221021","299-VK","2018/03/31 19:59:24","新北市汐止區水源路一段171號","121.655273333333","25.061885","6501100","汐止區"
"221031","353-TW","2018/03/31 19:59:29","新北市汐止區福德一路262號","121.633063333333","25.0643483333333","6501100","汐止區"
"221008","129-UY","2018/03/31 19:59:38","新北市汐止區忠一街9巷7號","121.620501666667","25.07319","6501100","汐止區"
"221035","622-UM","2018/03/31 19:59:38","新北市汐止區長江街57巷3號","121.656233333333","25.0717366666667","6501100","汐止區"
"221025","623-UM","2018/03/31 19:59:24","新北市汐止區秀峰路105-1號","121.660036666667","25.0635033333333","6501100","汐止區"
"221038","646-BX","2018/03/31 19:59:37","新北市汐止區忠孝東路495號","121.66631","25.074505","6501100","汐止區"
"221033","647-BX","2018/03/31 19:59:40","新北市汐止區東勢街215巷3弄1號","121.634298333333","25.042995","6501100","汐止區"
"221018","753-BX","2018/03/31 19:59:30","新北市汐止區茄苳路290號","121.67296","25.0672233333333","6501100","汐止區"
"220079","145-BY","2018/03/31 19:59:40","新北市板橋區南雅西路二段175巷2號","121.451625","25.0125116666667","6500100","板橋區"
"220080","200-UY","2018/03/31 19:59:29","新北市板橋區大觀路二段163巷28號","121.446433333333","25.0000416666667","6500100","板橋區"
"220106","KEA-2550","2018/03/31 19:59:20","新北市板橋區民治街71巷15號","121.480241666667","25.0328133333333","6500100","板橋區"
"220082","610-BX","2018/03/31 19:59:37","新北市板橋區大觀路三段121號","121.432665","24.9944483333333","6500100","板橋區"
"220101","245-BX","2018/03/31 19:59:40","新北市板橋區縣民大道三段105-3號","121.476195","25.02267","6500100","板橋區"
"220103","257-TC","2018/03/31 19:59:37","新北市板橋區陽明街29巷1弄2號","121.465028333333","25.0214666666667","6500100","板橋區"
"220091","267-BY","2018/03/31 19:59:40","新北市板橋區文聖街89巷27號","121.478488333333","25.0305783333333","6500100","板橋區"
"220072","277-BY","2018/03/31 19:59:39","新北市板橋區金門街121巷7號","121.433571666667","24.9916016666667","6500100","板橋區"
"220071","283-VK","2018/03/31 19:59:30","新北市板橋區和平路174巷12號","121.464155","24.99501","6500100","板橋區"
"220094","285-UM","2018/03/31 19:59:28","新北市板橋區雨農路27巷2號","121.461241666667","25.0240633333333","6500100","板橋區"
"220053","285-VK","2018/03/31 19:59:39","新北市板橋區永豐街67號","121.473813333333","25.0185966666667","6500100","板橋區"
"220083","286-VK","2018/03/31 19:59:38","新北市板橋區僑中二街50號","121.44658","25.0105466666667","6500100","板橋區"
"220081","287-VK","2018/03/31 19:59:24","新北市板橋區僑中一街124巷18弄8號","121.446408333333","25.0136683333333","6500100","板橋區"
"220090","288-VK","2018/03/31 19:59:33","新北市板橋區新海路135巷19號","121.460348333333","25.0231133333333","6500100","板橋區"
"220061","293-UM","2018/03/31 19:59:36","新北市板橋區觀光街57巷15弄2號","121.470148333333","25.015955","6500100","板橋區"
"220084","296-UM","2018/03/31 19:59:31","新北市板橋區溪崑二街120號","121.426191666667","24.9882033333333","6500100","板橋區"
"220075","303-R5","2018/03/31 19:59:33","新北市板橋區金華街10巷105號","121.45922","25.020595","6500100","板橋區"
"220062","305-R5","2018/03/31 19:59:36","新北市板橋區光復街33巷10號","121.481973333333","25.0189383333333","6500100","板橋區"
"220092","307-R5","2018/03/31 19:55:55","新北市板橋區陽明街164巷34號","121.465048333333","25.024595","6500100","板橋區"
"220098","317-R6","2018/03/31 19:58:57","新北市板橋區新海路138號","121.460815","25.0234133333333","6500100","板橋區"
"220064","486-VK","2018/03/31 19:59:23","新北市板橋區實踐路163號","121.464176666667","25.0038816666667","6500100","板橋區"
"242056","280-VK","2018/03/31 19:59:32","新北市新莊區中正路347巷21號","121.44728","25.0341733333333","6500500","新莊區"
"220088","491-VK","2018/03/31 19:59:36","新北市板橋區懷德街78巷1號","121.478336666667","25.03149","6500100","板橋區"
"220055","568-UM","2018/03/31 19:59:38","新北市板橋區新生街53巷14號","121.457578333333","25.0215033333333","6500100","板橋區"
"220063","609-BX","2018/03/31 19:59:36","新北市板橋區中山路二段113號","121.474786666667","25.0162283333333","6500100","板橋區"
"220055","630-UY","2018/03/31 19:59:33","新北市板橋區仁愛路62巷17弄1號","121.460066666667","24.9981566666667","6500100","板橋區"
"220057","686-BX","2018/03/31 19:59:28","新北市板橋區四川路二段71號","121.45334","24.9950766666667","6500100","板橋區"
"220093","689-BX","2018/03/31 19:59:28","新北市板橋區文化路二段568號","121.476598333333","25.0344766666667","6500100","板橋區"
"220054","741-BX","2018/03/31 19:59:33","新北市板橋區忠孝路忠義巷9弄1-2號","121.465166666667","25.004575","6500100","板橋區"
"220102","KEA-2699","2018/03/31 19:59:40","新北市板橋區仁化街67號","121.475665","25.0318083333333","6500100","板橋區"
"220067","829-TW","2018/03/31 19:59:41","新北市板橋區漢生東路193巷56號","121.47285","25.0117633333333","6500100","板橋區"
"220068","830-TW","2018/03/31 19:59:29","新北市板橋區光復街170號","121.485213333333","25.0196983333333","6500100","板橋區"
"220096","831-TW","2018/03/31 19:59:36","新北市板橋區莒光路79巷12號","121.472098333333","25.0246216666667","6500100","板橋區"
"220089","833-TW","2018/03/31 19:59:40","新北市板橋區龍泉街55巷22號","121.457586666667","25.02525","6500100","板橋區"
"220074","895-R6","2018/03/31 19:59:30","新北市板橋區文化路一段32巷21弄14號","121.46028","25.01144","6500100","板橋區"
"220073","985-R7","2018/03/31 19:59:28","新北市板橋區南雅西路二段130-1號","121.452005","25.0127733333333","6500100","板橋區"
"220097","AAC-210","2018/03/31 19:59:39","新北市板橋區建國街129號","121.46108","25.017655","6500100","板橋區"
"220070","AAC-253","2018/03/31 19:59:14","新北市板橋區四川路一段127號","121.460023333333","25.0048016666667","6500100","板橋區"
