"lineid","car","time","location","longitude","latitude","cityid","cityname"
"234046","148-BY","2018/03/31 20:09:32","新北市永和區得和路378號","121.524761666667","24.999265","6500400","永和區"
"234070","149-BY","2018/03/31 20:09:40","新北市永和區永貞路10巷7號","121.520183333333","25.0072066666667","6500400","永和區"
"234007","207-UY","2018/03/31 20:09:40","新北市永和區保生路60號","121.505378333333","25.0088566666667","6500400","永和區"
"234081","298-R6","2018/03/31 20:09:30","新北市永和區國中路109巷3弄1號","121.523891666667","25.0056033333333","6500400","永和區"
"234038","336-UY","2018/03/31 20:09:30","新北市永和區成功路一段51號","121.527071666667","25.003885","6500400","永和區"
"234064","337-UY","2018/03/31 20:09:40","新北市永和區秀朗路二段45號","121.521671666667","25.00242","6500400","永和區"
"234086","338-UY","2018/03/31 20:09:19","新北市永和區福和路289號","121.517263333333","25.0072316666667","6500400","永和區"
"234017","745-BX","2018/03/31 20:09:18","新北市永和區文化路71號","121.513808333333","25.0150833333333","6500400","永和區"
"234030","746-BX","2018/03/31 20:09:20","新北市永和區民權路49巷26號","121.521476666667","24.9973833333333","6500400","永和區"
"234054","KEA-2590","2018/03/31 20:09:32","新北市永和區博愛街20巷2號","121.517781666667","25.0157566666667","6500400","永和區"
"234013","KEA-2591","2018/03/31 20:09:41","新北市永和區仁愛路263號","121.506401666667","25.0100533333333","6500400","永和區"
"234061","AAD-866","2018/03/31 20:09:28","新北市永和區中正路151巷1-1號","121.516241666667","24.998305","6500400","永和區"
"234042","862-TW","2018/03/31 20:09:35","新北市永和區雙和街50號","121.508933333333","25.0030916666667","6500400","永和區"
"234050","863-TW","2018/03/31 20:09:34","新北市永和區新生路265巷1號","121.505633333333","25.01302","6500400","永和區"
"234011","9373-KE","2018/03/31 20:09:35","新北市永和區仁愛路352巷122弄11號","121.500551666667","25.0089466666667","6500400","永和區"
"249005","172-UM","2018/03/31 20:09:31","新北市八里區下罟子61-6號","121.385553333333","25.1364966666667","6502300","八里區"
"249001","173-UM","2018/03/31 20:09:37","新北市八里區中華路二段326號","121.403325","25.1479583333333","6502300","八里區"
"249004","303-UY","2018/03/31 20:09:27","新北市八里區中山路一段418-7號","121.410728333333","25.15834","6502300","八里區"
"249002","305-UY","2018/03/31 20:09:34","新北市五股區成泰路四段24號","121.454403333333","25.107705","6502300","八里區"
"249003","593-UM","2018/03/31 20:09:33","新北市八里區中山路二段540巷9弄29號","121.396383333333","25.1464266666667","6502300","八里區"
"248016","026-BX","2018/03/31 20:09:31","新北市五股區天乙路60號","121.448151666667","25.1046566666667","6501500","五股區"
"248008","095-VK","2018/03/31 20:09:23","新北市五股區中興路一段1巷13號","121.469718333333","25.071455","6501500","五股區"
"248012","247-BX","2018/03/31 20:09:40","新北市五股區六合街118號","121.430266666667","25.0908016666667","6501500","五股區"
"248014","261-SL","2018/03/31 20:09:33","新北市五股區五福路14巷29號","121.435446666667","25.08897","6501500","五股區"
"248010","272-BY","2018/03/31 20:09:26","新北市五股區成泰路一段7巷44號","121.432498333333","25.067145","6501500","五股區"
"248004","677-BX","2018/03/31 20:09:39","新北市五股區成泰路一段68號","121.435523333333","25.06967","6501500","五股區"
"248002","678-BX","2018/03/31 20:09:36","新北市五股區成泰路三段277號","121.44704","25.0941766666667","6501500","五股區"
"234023","9380-KE","2018/03/31 20:09:31","新北市永和區中正路702巷2號","121.516373333333","25.0100666666667","6500400","永和區"
"234077","969-R7","2018/03/31 20:09:23","新北市永和區民享街23巷5弄8號","121.516076666667","24.995685","6500400","永和區"
"234074","AAC-211","2018/03/31 20:09:26","新北市永和區豫溪街161-1號","121.5215","25.0104666666667","6500400","永和區"
"234067","AAC-212","2018/03/31 20:09:28","新北市永和區保平路147號","121.510038333333","25.0058666666667","6500400","永和區"
"234003","AAC-295","2018/03/31 20:09:25","新北市永和區中正路654巷2號","121.51702","25.00853","6500400","永和區"
"243012","AAD-798","2018/03/31 20:09:34","新北市泰山區楓江路48號","121.435128333333","25.0623383333333","6501600","泰山區"
"243011","297-R6","2018/03/31 20:09:29","新北市泰山區明志路三段182巷19號","121.42351","25.0392633333333","6501600","泰山區"
"243015","380-SR","2018/03/31 20:09:32","新北市泰山區明志路一段487號","121.430638333333","25.0552716666667","6501600","泰山區"
"243014","421-VK","2018/03/31 20:09:19","新北市泰山區明志路一段24號","121.433615","25.065485","6501600","泰山區"
"243016","539-UM","2018/03/31 20:09:24","新北市泰山區貴陽街4-1號","121.421588333333","25.03317","6501600","泰山區"
"243010","KEA-2215","2018/03/31 20:09:29","新北市泰山區明志路二段136巷48號","121.426063333333","25.0520166666667","6501600","泰山區"
"243009","KEA-2216","2018/03/31 20:09:27","新北市泰山區泰林路二段116巷2弄2號","121.434816666667","25.0593633333333","6501600","泰山區"
"243013","646-TV","2018/03/31 20:09:38","新北市泰山區民國街11號","121.4254","25.0436083333333","6501600","泰山區"
"222003","436-BY","2018/03/31 20:09:34","新北市深坑區埔新街63號","121.620253333333","25.0023233333333","6501800","深坑區"
"222002","659-BX","2018/03/31 20:09:33","新北市深坑區北深路三段176號","121.602213333333","25.0038766666667","6501800","深坑區"
"231041","002-UM","2018/03/31 20:09:32","新北市新店區中正路460號","121.534001666667","24.9793683333333","6500600","新店區"
"231058","0291-UT","2018/03/31 20:09:32","新北市新店區中正路428號","121.534218333333","24.9781","6500600","新店區"
"231059","046-UY","2018/03/31 20:09:34","新北市新店區安德街60巷23號","121.510951666667","24.9629733333333","6500600","新店區"
"231061","047-UY","2018/03/31 20:09:40","新北市新店區安興路32號","121.515761666667","24.9703966666667","6500600","新店區"
"231060","106-UY","2018/03/31 20:09:30","新北市新店區安康路三段335號","121.485496666667","24.951445","6500600","新店區"
"231051","107-UY","2018/03/31 20:09:28","新北市新店區中央五街5號","121.53015","24.97429","6500600","新店區"
"231048","108-UY","2018/03/31 20:09:34","新北市新店區永華街53號","121.544466666667","24.9758816666667","6500600","新店區"
"231052","187-VK","2018/03/31 20:09:39","新北市新店區新烏路三段155號","121.550958333333","24.9015983333333","6500600","新店區"
"231050","KEA-2219","2018/03/31 20:09:22","新北市新店區北新路一段90號","121.54199","24.968665","6500600","新店區"
"231057","256-BX","2018/03/31 20:09:32","新北市新店區花園一路一段2號","121.553093333333","24.9324066666667","6500600","新店區"
"231063","268-BY","2018/03/31 20:09:40","新北市新店區黎明路52巷2號","121.501931666667","24.94892","6500600","新店區"
"231054","AAD-862","2018/03/31 20:09:39","新北市新店區檳榔路46號","121.541651666667","24.9636766666667","6500600","新店區"
"231056","3713-VJ","2018/03/31 20:09:27","新北市新店區中正路260號","121.539103333333","24.9734183333333","6500600","新店區"
"231055","4716-K9","2018/03/31 20:09:35","新北市新店區中華路48巷29號","121.541216666667","24.9695733333333","6500600","新店區"
"231067","4772-VM","2018/03/31 20:09:39","新北市新店區溪洲路6巷2-2號","121.533881666667","24.9610066666667","6500600","新店區"
"231065","512-UM","2018/03/31 20:09:24","新北市新店區安祥路106巷60號","121.476223333333","24.96119","6500600","新店區"
"231064","513-UM","2018/03/31 20:09:25","新北市新店區安康路二段118-5號","121.512366666667","24.96328","6500600","新店區"
"231045","617-UM","2018/03/31 20:09:26","新北市新店區北宜路一段109巷3號","121.53964","24.9549216666667","6500600","新店區"
"231040","619-UM","2018/03/31 20:09:38","新北市新店區中正路78號","121.5438","24.970245","6500600","新店區"
"231042","641-BX","2018/03/31 20:09:33","新北市新店區寶橋路78巷19號","121.547435","24.974835","6500600","新店區"
"231068","718-UY","2018/03/31 20:09:35","新北市新店區寶中路45-3號","121.54517","24.979015","6500600","新店區"
"231049","719-UM","2018/03/31 20:09:26","新北市新店區北新路二段59巷11號","121.542401666667","24.9734316666667","6500600","新店區"
"231062","719-UY","2018/03/31 20:09:24","新北市新店區安康路二段393號","121.49431","24.953885","6500600","新店區"
"231044","897-TW","2018/03/31 20:09:35","新北市新店區寶慶街58巷6號","121.542055","24.9869833333333","6500600","新店區"
"231043","899-TW","2018/03/31 20:09:41","新北市新店區民族路184號","121.536956666667","24.9761283333333","6500600","新店區"
"231066","AKT-0513","2018/03/31 20:09:26","新北市新店區安民街339號","121.516901666667","24.9748683333333","6500600","新店區"
"241011","013-R5","2018/03/31 20:09:26","新北市三重區仁愛街57號","121.496433333333","25.0721","6500200","三重區"
"241028","022-UY","2018/03/31 20:09:24","新北市三重區仁化街137號","121.494678333333","25.0574883333333","6500200","三重區"
"241008","059-VK","2018/03/31 20:09:40","新北市三重區永福街197巷21號","121.47863","25.07439","6500200","三重區"
"241009","060-VK","2018/03/31 20:09:24","新北市三重區三和路四段366號","121.482921666667","25.0786466666667","6500200","三重區"
"241031","061-VK","2018/03/31 20:09:28","新北市三重區過圳街9-1號","121.488783333333","25.0602883333333","6500200","三重區"
"241015","062-VK","2018/03/31 20:09:20","新北市三重區福德北路43號","121.50233","25.0649133333333","6500200","三重區"
"241017","063-VK","2018/03/31 20:09:29","新北市三重區自強路一段236號","121.493191666667","25.0669566666667","6500200","三重區"
"241024","065-VK","2018/03/31 20:09:27","新北市三重區後竹圍街295號","121.478898333333","25.0697333333333","6500200","三重區"
"241002","090-VK","2018/03/31 20:09:38","新北市三重區仁義街233號","121.496438333333","25.0823583333333","6500200","三重區"
"241003","091-VK","2018/03/31 20:09:33","新北市三重區仁愛街472號","121.489675","25.0824466666667","6500200","三重區"
"241005","262-UM","2018/03/31 20:09:26","新北市三重區溪尾街327號","121.488571666667","25.0847583333333","6500200","三重區"
"241016","265-UM","2018/03/31 20:09:36","新北市三重區大同北路67號","121.495038333333","25.0636033333333","6500200","三重區"
"241022","267-UM","2018/03/31 20:09:28","新北市三重區新北大道一段56號","121.487366666667","25.06143","6500200","三重區"
"241018","268-UM","2018/03/31 20:09:31","新北市三重區正義北路256巷116號","121.493498333333","25.067825","6500200","三重區"
"241032","269-UM","2018/03/31 20:09:22","新北市三重區捷運路61號","121.483485","25.055595","6500200","三重區"
"241013","270-UM","2018/03/31 20:09:33","新北市三重區三和路三段151巷43號","121.493886666667","25.07428","6500200","三重區"
"241025","271-UM","2018/03/31 20:09:35","新北市三重區中正北路283號","121.474826666667","25.0710466666667","6500200","三重區"
"241007","398-BY","2018/03/31 20:09:40","新北市三重區三和路四段111號","121.486096666667","25.0772616666667","6500200","三重區"
"241035","KEA-2210","2018/03/31 20:09:38","新北市三重區平安街44號","121.497986666667","25.0640916666667","6500200","三重區"
"241004","475-VK","2018/03/31 20:09:23","新北市三重區自強路四段110號","121.491556666667","25.0799633333333","6500200","三重區"
"241020","478-VK","2018/03/31 20:09:35","新北市三重區重陽路四段162號","121.493341666667","25.0722733333333","6500200","三重區"
"241030","480-VK","2018/03/31 20:09:22","新北市三重區成功路145巷35號","121.48779","25.0532383333333","6500200","三重區"
"241014","543-UM","2018/03/31 20:09:41","新北市三重區龍濱路165號","121.502473333333","25.0697966666667","6500200","三重區"
"241023","545-UM","2018/03/31 20:09:42","新北市三重區頂崁街225號","121.477028333333","25.068115","6500200","三重區"
"241001","547-UM","2018/03/31 20:09:34","新北市三重區溪尾街20號","121.491226666667","25.076015","6500200","三重區"
"241033","557-UM","2018/03/31 20:07:44","新北市三重區光復路一段68巷2號","121.471876666667","25.04928","6500200","三重區"
"241019","KEA-2593","2018/03/31 20:09:24","新北市三重區自強路二段33巷9號","121.489958333333","25.0695633333333","6500200","三重區"
"241006","AAD-863","2018/03/31 20:09:21","新北市三重區力行路二段91巷21弄2號","121.483596666667","25.0759916666667","6500200","三重區"
"241026","887-TS","2018/03/31 20:09:34","新北市三重區福德南路65巷2號","121.502368333333","25.0604166666667","6500200","三重區"
"241012","941-UM","2018/03/31 20:09:22","新北市三重區仁愛街125巷89號","121.498028333333","25.075935","6500200","三重區"
"241029","942-UM","2018/03/31 20:09:31","新北市三重區光明路32巷28號","121.492013333333","25.05878","6500200","三重區"
"235066","003-UY","2018/03/31 20:09:31","新北市中和區中山路二段3巷58號","121.507588333333","25.0047016666667","6500300","中和區"
"235065","098-UM","2018/03/31 20:09:35","新北市中和區永和路82號","121.49753","25.0051016666667","6500300","中和區"
"235040","150-BY","2018/03/31 20:09:28","新北市中和區保健路33巷8號","121.509023333333","24.9979683333333","6500300","中和區"
"235068","377-QA","2018/03/31 20:09:31","新北市中和區福祥路68號","121.499326666667","25.00519","6500300","中和區"
"235050","4979-A6","2018/03/31 20:09:39","新北市中和區安樂路62號","121.512246666667","24.993195","6500300","中和區"
"235069","4980-A6","2018/03/31 20:09:19","新北市中和區景新街64巷7弄16號","121.504671666667","24.998405","6500300","中和區"
"235070","558-UM","2018/03/31 20:09:33","新北市中和區圓通路164號","121.497448333333","24.994825","6500300","中和區"
"235060","647-TV","2018/03/31 20:09:32","新北市中和區民享街38-1號","121.473875","25.0029766666667","6500300","中和區"
"235060","911-UM","2018/03/31 20:09:36","新北市中和區員山路266巷23號","121.482041666667","25.00179","6500300","中和區"
"235051","157-BY","2018/03/31 20:09:33","新北市中和區景安路253號","121.503888333333","24.9905433333333","6500300","中和區"
"235059","AAC-215","2018/03/31 20:09:26","新北市中和區圓通路335巷33弄17號","121.493051666667","24.98897","6500300","中和區"
"220069","AAD-861","2018/03/31 20:09:40","新北市板橋區貴興路49號","121.457345","25.0031883333333","6500100","板橋區"
"247024","893-R6","2018/03/31 20:09:32","新北市蘆洲區光榮路120巷12號","121.465446666667","25.088495","6501400","蘆洲區"
"247014","546-UM","2018/03/31 20:09:36","新北市蘆洲區中山二路269號","121.469771666667","25.0795666666667","6501400","蘆洲區"
"247022","500-BY","2018/03/31 20:09:29","新北市蘆洲區三民路122-1號","121.471066666667","25.0874483333333","6501400","蘆洲區"
"247010","341-TH","2018/03/31 20:09:36","新北市蘆洲區中山一路74巷55號","121.479951666667","25.081595","6501400","蘆洲區"
"247012","339-TH","2018/03/31 20:09:28","新北市蘆洲區民族路185號","121.478646666667","25.0887666666667","6501400","蘆洲區"
"247004","337-TH","2018/03/31 20:09:24","新北市蘆洲區長安街267巷27號","121.45728","25.083095","6501400","蘆洲區"
"247006","336-TH","2018/03/31 20:09:22","新北市蘆洲區中山二路300巷1號","121.468383333333","25.0768316666667","6501400","蘆洲區"
"247018","057-VK","2018/03/31 20:09:23","新北市蘆洲區民族路314巷11號","121.477768333333","25.09053","6501400","蘆洲區"
"247002","053-VK","2018/03/31 20:09:30","新北市蘆洲區長榮路269巷32號","121.459343333333","25.086005","6501400","蘆洲區"
"247016","007-UY","2018/03/31 20:09:41","新北市蘆洲區光華路167號","121.465078333333","25.0820283333333","6501400","蘆洲區"
"247020","001-UY","2018/03/31 20:09:30","新北市蘆洲區民義街68巷32號","121.474035","25.08922","6501400","蘆洲區"
"235039","251-BX","2018/03/31 20:09:26","新北市中和區大勇街29巷23弄2號","121.515363333333","24.99457","6500300","中和區"
"224010","AGQ-8101","2018/03/31 20:09:32","新北市瑞芳區汽車路61號","121.844248333333","25.109195","6501200","瑞芳區"
"222001","KEA-2212","2018/03/31 20:09:34","新北市深坑區北深路三段187號","121.601356666667","25.003695","6501800","深坑區"
"208002","KEA-2872","2018/03/31 20:09:23","新北市金山區中正路145號","121.631955","25.2212033333333","6502700","金山區"
"208003","665-BX","2018/03/31 20:09:29","新北市金山區永興里忠義路3號","121.632365","25.25992","6502700","金山區"
"251009","008-UM","2018/03/31 20:09:20","新北市淡水區清水街1-5號","121.445273333333","25.1703566666667","6501000","淡水區"
"251004","009-UM","2018/03/31 20:07:18","新北市八里區頂寮一街31-9號","121.45199","25.1219","6501000","淡水區"
"251013","179-VK","2018/03/31 20:09:41","新北市淡水區奎柔山路752巷1號","121.47252","25.205435","6501000","淡水區"
"251014","180-VK","2018/03/31 20:09:31","新北市淡水區石頭厝3號","121.458701666667","25.23554","6501000","淡水區"
"251008","181-VK","2018/03/31 20:09:38","新北市淡水區淡海路72巷28弄5號","121.424706666667","25.1823666666667","6501000","淡水區"
"251015","182-VK","2018/03/31 20:09:29","新北市淡水區埤島76-3號","121.451716666667","25.1928783333333","6501000","淡水區"
"251010","413-VK","2018/03/31 20:09:24","新北市淡水區新市二路二段2號","121.425025","25.196425","6501000","淡水區"
"251012","441-VK","2018/03/31 20:09:29","新北市淡水區淡金路三段185號","121.448693333333","25.204485","6501000","淡水區"
"251016","442-VK","2018/03/31 20:09:28","新北市淡水區番子田18-4號","121.456573333333","25.2295216666667","6501000","淡水區"
"251006","561-UM","2018/03/31 20:09:35","新北市淡水區北新路141巷38號","121.448831666667","25.179495","6501000","淡水區"
"251002","672-BX","2018/03/31 20:09:27","新北市淡水區中正路292號","121.437591666667","25.17199","6501000","淡水區"
"251003","673-BX","2018/03/31 20:09:23","新北市淡水區中山北路二段189巷15弄31號","121.443391666667","25.1839716666667","6501000","淡水區"
"207003","550-UM","2018/03/31 20:09:31","新北市萬里區大鵬里萬里加投186號","121.642838333333","25.2156516666667","6502800","萬里區"
"207004","225-TW","2018/03/31 20:09:28","新北市萬里區北基里大勇路14號","121.681911666667","25.1766433333333","6502800","萬里區"
"252002","178-VK","2018/03/31 20:09:40","新北市三芝區中正路一段70號","121.504055","25.2578366666667","6502100","三芝區"
"252001","292-VK","2018/03/31 20:09:24","新北市三芝區公正街66號","121.499781666667","25.2574566666667","6502100","三芝區"
"237012","275-BY","2018/03/31 20:09:37","新北市三峽區中華路96-2號","121.371206666667","24.928065","6500900","三峽區"
"237006","5529-G3","2018/03/31 20:09:26","新北市三峽區嘉添227-14號","121.370628333333","24.911295","6500900","三峽區"
"237005","AKY-6261","2018/03/31 20:09:25","新北市三峽區三樹路98巷74弄91號","121.385065","24.9384483333333","6500900","三峽區"
"236070","105-UM","2018/03/31 20:09:38","新北市土城區中央路三段147巷2弄15號","121.431861666667","24.96478","6501300","土城區"
"236042","107-UM","2018/03/31 20:09:32","新北市土城區學成路20號","121.453038333333","24.9870016666667","6501300","土城區"
"236079","166-UM","2018/03/31 20:09:23","新北市土城區福安街55巷25號","121.419456666667","24.9631466666667","6501300","土城區"
"236030","253-BX","2018/03/31 20:09:40","新北市土城區中央路一段141號","121.446771666667","24.9879716666667","6501300","土城區"
"236026","269-VK","2018/03/31 20:09:36","新北市土城區中央路一段269號","121.445003333333","24.9853183333333","6501300","土城區"
"236014","270-VK","2018/03/31 20:09:19","新北市土城區廣興街36號","121.45526","24.991685","6501300","土城區"
"236038","271-VK","2018/03/31 20:09:37","新北市土城區延吉街373巷12號","121.464011666667","24.983375","6501300","土城區"
"236021","401-BY","2018/03/31 20:09:24","新北市土城區和城路二段255巷66-1號","121.475125","24.9875233333333","6501300","土城區"
"236059","912-UM","2018/03/31 20:09:36","新北市土城區中央路二段137號","121.442141666667","24.9770283333333","6501300","土城區"
"236049","913-UM","2018/03/31 20:09:27","新北市土城區金城路三段17號","121.464973333333","24.9864083333333","6501300","土城區"
"236063","915-UM","2018/03/31 20:09:30","新北市土城區立德路135巷5弄9號","121.46456","24.9873616666667","6501300","土城區"
"236055","AAC-216","2018/03/31 20:09:23","新北市土城區中華路一段162號","121.44183","24.9837133333333","6501300","土城區"
"242034","AAC-296","2018/03/31 20:09:39","新北市新莊區中正路318巷16號","121.446468333333","25.03593","6500500","新莊區"
"242058","986-R7","2018/03/31 20:09:38","新北市新莊區八德街137號","121.423786666667","25.0200916666667","6500500","新莊區"
"242029","705-TV","2018/03/31 20:09:30","新北市新莊區中原路301號","121.447441666667","25.054345","6500500","新莊區"
"242027","615-BX","2018/03/31 20:09:31","新北市新莊區幸福路825號","121.445136666667","25.0488733333333","6500500","新莊區"
"242025","613-BX","2018/03/31 20:09:33","新北市新莊區五工路68巷19-1號","121.45894","25.0644116666667","6500500","新莊區"
"242042","566-BX","2018/03/31 20:09:32","新北市新莊區青山路一段200-4號","121.397858333333","25.0317416666667","6500500","新莊區"
"242046","497-BY","2018/03/31 20:09:22","新北市新莊區裕民街85巷22弄1號","121.419516666667","25.0229116666667","6500500","新莊區"
"242036","442-UM","2018/03/31 20:09:32","新北市新莊區建安街9巷6號","121.429066666667","25.0265883333333","6500500","新莊區"
"242051","441-UM","2018/03/31 20:09:39","新北市新莊區民安西路172巷2弄2號","121.425838333333","25.0160133333333","6500500","新莊區"
"242007","413-TV","2018/03/31 20:09:24","新北市新莊區福壽街142巷38號","121.45926","25.0518833333333","6500500","新莊區"
"242044","400-BY","2018/03/31 20:09:31","新北市新莊區中正路895-29號","121.412041666667","25.0217966666667","6500500","新莊區"
"242023","362-BY","2018/03/31 20:09:37","新北市新莊區化成路652號","121.465983333333","25.0557383333333","6500500","新莊區"
"242061","353-BY","2018/03/31 20:09:31","新北市新莊區瓊林路89-32號","121.443298333333","25.0262333333333","6500500","新莊區"
"242039","133-UY","2018/03/31 20:09:19","新北市新莊區民安西路111巷1號","121.426858333333","25.0182383333333","6500500","新莊區"
"242031","135-UY","2018/03/31 20:09:33","新北市新莊區中正路449-1號","121.443026666667","25.0340833333333","6500500","新莊區"
"242048","172-VK","2018/03/31 20:09:42","新北市新莊區四維路182巷4號","121.42209","25.0217416666667","6500500","新莊區"
"242011","173-VK","2018/03/31 20:09:31","新北市新莊區中信街67巷7號","121.448735","25.0506366666667","6500500","新莊區"
"242017","175-VK","2018/03/31 20:09:25","新北市新莊區中港路366號","121.452028333333","25.0470466666667","6500500","新莊區"
"242004","176-VK","2018/03/31 20:09:33","新北市新莊區頭興街11巷7號","121.46189","25.0533566666667","6500500","新莊區"
"242015","346-TH","2018/03/31 20:09:31","新北市新莊區中平路26巷41號","121.44676","25.043305","6500500","新莊區"
"242002","349-TH","2018/03/31 20:09:40","新北市新莊區中正路121-1號","121.46004","25.0385816666667","6500500","新莊區"
"242019","350-TH","2018/03/31 20:09:24","新北市新莊區民樂街66號","121.458065","25.042165","6500500","新莊區"
"242013","351-TH","2018/03/31 20:09:30","新北市新莊區幸福路710巷1弄12號","121.449151666667","25.049555","6500500","新莊區"
"238021","KEA-2217","2018/03/31 20:09:22","新北市樹林區佳園路三段101巷62弄2號","121.393343333333","24.9501616666667","6500700","樹林區"
"221036","130-UY","2018/03/31 20:09:38","新北市汐止區新台五路二段17號","121.66248","25.0660816666667","6501100","汐止區"
"221015","131-UY","2018/03/31 20:09:38","新北市汐止區建成路30號","121.66426","25.0726583333333","6501100","汐止區"
"221010","269-BY","2018/03/31 20:09:39","新北市汐止區八連路二段161號","121.634995","25.094895","6501100","汐止區"
"221012","278-VK","2018/03/31 20:09:25","新北市汐止區汐平路二段54號","121.696213333333","25.0638716666667","6501100","汐止區"
"221023","279-VK","2018/03/31 20:09:29","新北市汐止區明峰街298巷7弄2號","121.62488","25.0690533333333","6501100","汐止區"
"221032","280-BY","2018/03/31 20:09:39","新北市汐止區弘道街10號","121.616956666667","25.04856","6501100","汐止區"
"221027","281-BY","2018/03/31 20:09:40","新北市汐止區民生街4巷2號","121.66024","25.06889","6501100","汐止區"
"221029","298-VK","2018/03/31 20:09:36","新北市汐止區樟樹一路119巷10弄1號","121.641256666667","25.0645066666667","6501100","汐止區"
"221021","299-VK","2018/03/31 20:09:24","新北市汐止區莊敬街115號","121.655428333333","25.06102","6501100","汐止區"
"221031","353-TW","2018/03/31 20:09:29","新北市汐止區福德二路106號","121.632251666667","25.0659116666667","6501100","汐止區"
"221008","129-UY","2018/03/31 20:09:38","台北市內湖區康樂街18號","121.618043333333","25.06806","6501100","汐止區"
"221035","622-UM","2018/03/31 20:09:38","新北市汐止區長江街79巷14號","121.65782","25.0728233333333","6501100","汐止區"
"221025","623-UM","2018/03/31 20:09:24","新北市汐止區連興街138號","121.65397","25.061595","6501100","汐止區"
"221038","646-BX","2018/03/31 20:09:37","新北市汐止區大同路三段66-3號","121.668066666667","25.0771533333333","6501100","汐止區"
"221033","647-BX","2018/03/31 20:09:20","新北市汐止區東勢街201巷104號","121.633563333333","25.0429416666667","6501100","汐止區"
"221002","707-TV","2018/03/31 20:09:28","新北市汐止區工建路366號","121.633258333333","25.059425","6501100","汐止區"
"221018","753-BX","2018/03/31 20:09:30","新北市汐止區茄苳路305號","121.673335","25.06695","6501100","汐止區"
"220080","200-UY","2018/03/31 20:09:28","新北市板橋區大觀路二段187巷25號","121.446133333333","24.9993083333333","6500100","板橋區"
"220106","KEA-2550","2018/03/31 20:09:40","新北市板橋區懷德街2號","121.476626666667","25.0331016666667","6500100","板橋區"
"220101","245-BX","2018/03/31 20:09:31","新北市板橋區萬板路150號","121.475421666667","25.023615","6500100","板橋區"
"220103","257-TC","2018/03/31 20:09:24","新北市板橋區自由路26巷23號","121.466566666667","25.0225233333333","6500100","板橋區"
"220072","277-BY","2018/03/31 20:09:33","新北市板橋區金門街281號","121.431348333333","24.9880466666667","6500100","板橋區"
"220071","283-VK","2018/03/31 20:09:28","新北市板橋區和平路16號","121.459678333333","24.9943416666667","6500100","板橋區"
"220083","286-VK","2018/03/31 20:09:38","新北市板橋區僑中二街90巷29號","121.444833333333","25.00932","6500100","板橋區"
"220081","287-VK","2018/03/31 20:09:25","新北市板橋區僑中一街80巷5弄20號","121.446935","25.0126616666667","6500100","板橋區"
"220090","288-VK","2018/03/31 20:09:33","新北市板橋區幸福路32巷65號","121.460381666667","25.0222783333333","6500100","板橋區"
"220061","293-UM","2018/03/31 20:09:31","新北市板橋區中山路一段291-2號","121.47045","25.01416","6500100","板橋區"
"242009","281-VK","2018/03/31 20:09:22","新北市新莊區昌盛街35巷2弄1號","121.454095","25.050355","6500500","新莊區"
"220092","307-R5","2018/03/31 20:09:36","新北市板橋區新海路138號","121.461013333333","25.0233633333333","6500100","板橋區"
"220098","317-R6","2018/03/31 20:09:37","新北市板橋區新海路72巷5弄15號","121.461761666667","25.0226133333333","6500100","板橋區"
"220064","486-VK","2018/03/31 20:09:31","新北市板橋區漢生東路193巷15號","121.470766666667","25.011905","6500100","板橋區"
"242056","280-VK","2018/03/31 20:09:26","新北市新莊區新莊路649巷15弄1號","121.445045","25.03152","6500500","新莊區"
"220088","491-VK","2018/03/31 20:09:36","新北市板橋區民治街92號","121.479218333333","25.031735","6500100","板橋區"
"220055","630-UY","2018/03/31 20:09:33","新北市板橋區仁愛路86巷22-1號","121.460926666667","24.9986283333333","6500100","板橋區"
"220093","689-BX","2018/03/31 20:09:28","新北市板橋區長江路二段157號","121.466141666667","25.0318233333333","6500100","板橋區"
"220102","KEA-2699","2018/03/31 20:09:34","新北市板橋區懷德街79號","121.477881666667","25.03208","6500100","板橋區"
"220067","829-TW","2018/03/31 20:09:21","新北市板橋區中山路一段266號","121.47197","25.0147733333333","6500100","板橋區"
"220068","830-TW","2018/03/31 20:09:28","新北市板橋區中山路二段362號","121.48165","25.0200433333333","6500100","板橋區"
"220089","833-TW","2018/03/31 20:09:22","新北市板橋區互助街84號","121.460455","25.0263666666667","6500100","板橋區"
"220074","895-R6","2018/03/31 20:09:37","新北市板橋區明德街20號","121.460018333333","25.01069","6500100","板橋區"
"220073","985-R7","2018/03/31 20:09:28","新北市板橋區僑中一街124巷72-3號","121.448321666667","25.0171366666667","6500100","板橋區"
"220097","AAC-210","2018/03/31 20:09:37","新北市板橋區文化路一段221巷10-3號","121.463315","25.0177866666667","6500100","板橋區"
"220070","AAC-253","2018/03/31 20:09:41","新北市板橋區四川路二段245巷93號","121.452876666667","24.993165","6500100","板橋區"
