"lineid","car","time","location","longitude","latitude","cityid","cityname"
"234074","AAC-211","2018/03/31 20:49:37","新北市永和區竹林路75巷4弄34號","121.52168","25.0140583333333","6500400","永和區"
"222003","436-BY","2018/03/31 20:49:34","新北市深坑區阿柔洋40號","121.610318333333","24.99844","6501800","深坑區"
"222002","659-BX","2018/03/31 20:49:40","新北市深坑區北深路三段107巷17號","121.604608333333","25.0010283333333","6501800","深坑區"
"231041","002-UM","2018/03/31 20:49:32","台北市文山區景文街146巷26號","121.532803333333","24.9913816666667","6500600","新店區"
"231058","0291-UT","2018/03/31 20:49:32","新北市新店區溪園路395號","121.523548333333","24.9774016666667","6500600","新店區"
"231059","046-UY","2018/03/31 20:49:34","新北市新店區僑信路120巷40號","121.499318333333","24.945965","6500600","新店區"
"231061","047-UY","2018/03/31 20:49:20","新北市新店區永安街93-6號","121.520761666667","24.9866433333333","6500600","新店區"
"231060","106-UY","2018/03/31 20:49:30","新北市新店區安康路三段625號","121.47154","24.9402","6500600","新店區"
"231051","107-UY","2018/03/31 20:49:28","新北市新店區民生路156巷117號","121.526843333333","24.98251","6500600","新店區"
"231048","108-UY","2018/03/31 20:49:33","新北市新店區寶元路二段1巷2號","121.550723333333","24.9840533333333","6500600","新店區"
"231052","187-VK","2018/03/31 20:49:39","新北市新店區新烏路一段247號","121.547381666667","24.930395","6500600","新店區"
"231050","KEA-2219","2018/03/31 20:49:22","新北市新店區三民路20巷10號","121.537713333333","24.970885","6500600","新店區"
"231057","256-BX","2018/03/31 20:49:32","新北市新店區新烏路一段123-1號","121.544938333333","24.9374766666667","6500600","新店區"
"231063","268-BY","2018/03/31 20:49:40","新北市新店區富貴街11巷34號","121.495008333333","24.9483883333333","6500600","新店區"
"231054","AAD-862","2018/03/31 20:49:30","新北市新店區北新路一段96巷23號","121.543005","24.9689233333333","6500600","新店區"
"231056","3713-VJ","2018/03/31 20:49:27","新北市新店區溪園路403號","121.523931666667","24.9782183333333","6500600","新店區"
"231065","512-UM","2018/03/31 20:49:24","新北市新店區安祥路69巷17號","121.481923333333","24.9613466666667","6500600","新店區"
"231064","513-UM","2018/03/31 20:49:39","新北市新店區安民街381號","121.516313333333","24.9763566666667","6500600","新店區"
"231040","619-UM","2018/03/31 20:49:38","新北市新店區中正路272號","121.538938333333","24.973615","6500600","新店區"
"231042","641-BX","2018/03/31 20:49:33","新北市新店區寶興路60巷3號","121.549905","24.9718633333333","6500600","新店區"
"231068","718-UY","2018/03/31 20:49:35","新北市新店區寶元路一段107號","121.545546666667","24.98285","6500600","新店區"
"231049","719-UM","2018/03/31 20:49:26","新北市新店區安康路二段46號","121.515438333333","24.9637733333333","6500600","新店區"
"231062","719-UY","2018/03/31 20:49:24","新北市新店區裕合街143號","121.489101666667","24.949195","6500600","新店區"
"231044","897-TW","2018/03/31 20:49:35","新北市新店區民族路245號","121.536466666667","24.9754233333333","6500600","新店區"
"231043","899-TW","2018/03/31 20:49:21","新北市新店區建國路83-1號","121.54045","24.9764366666667","6500600","新店區"
"231066","AKT-0513","2018/03/31 20:49:26","新北市新店區安民街121巷20號","121.51528","24.9689916666667","6500600","新店區"
"241011","013-R5","2018/03/31 20:49:26","新北市三重區龍濱路168-1號","121.501376666667","25.0726283333333","6500200","三重區"
"241028","022-UY","2018/03/31 20:49:24","新北市三重區中正南路42號","121.493838333333","25.0600566666667","6500200","三重區"
"241008","059-VK","2018/03/31 20:49:40","新北市三重區永福街72巷9號","121.479356666667","25.0767183333333","6500200","三重區"
"241009","060-VK","2018/03/31 20:49:24","新北市三重區三和路四段388-2號","121.482075","25.07909","6500200","三重區"
"241031","061-VK","2018/03/31 20:49:28","新北市三重區重陽路一段113巷2弄2號","121.487505","25.0598516666667","6500200","三重區"
"241015","062-VK","2018/03/31 20:49:40","新北市三重區自強路一段10-2號","121.498935","25.0682183333333","6500200","三重區"
"241017","063-VK","2018/03/31 20:49:28","新北市三重區民生街30號","121.491838333333","25.0670983333333","6500200","三重區"
"241024","065-VK","2018/03/31 20:49:21","新北市三重區大勇街82巷15弄30號","121.481243333333","25.0719083333333","6500200","三重區"
"241002","090-VK","2018/03/31 20:49:38","新北市三重區仁義街157巷89號","121.499038333333","25.08197","6500200","三重區"
"241003","091-VK","2018/03/31 20:49:33","新北市三重區五華街141巷58號","121.493578333333","25.0868233333333","6500200","三重區"
"241005","262-UM","2018/03/31 20:49:26","新北市三重區五華街141巷27號","121.492195","25.0854583333333","6500200","三重區"
"241016","265-UM","2018/03/31 20:49:36","新北市三重區自強路一段228號","121.493633333333","25.06682","6500200","三重區"
"241022","267-UM","2018/03/31 20:49:28","新北市三重區中正北路20巷12號","121.488003333333","25.0625683333333","6500200","三重區"
"241018","268-UM","2018/03/31 20:49:31","新北市三重區龍門路1號","121.494636666667","25.070885","6500200","三重區"
"241032","269-UM","2018/03/31 20:49:41","新北市三重區重陽路一段120巷48號","121.485055","25.0601316666667","6500200","三重區"
"241013","270-UM","2018/03/31 20:49:33","新北市三重區仁愛街131號","121.495558333333","25.07494","6500200","三重區"
"241025","271-UM","2018/03/31 20:49:24","新北市三重區貴陽街18號","121.484138333333","25.061845","6500200","三重區"
"241007","398-BY","2018/03/31 20:49:40","新北市三重區慈愛街10號","121.484565","25.078475","6500200","三重區"
"241035","KEA-2210","2018/03/31 20:49:38","新北市三重區三和路二段228號","121.497515","25.0696","6500200","三重區"
"241004","475-VK","2018/03/31 20:49:23","新北市三重區溪尾街227巷22號","121.488931666667","25.08148","6500200","三重區"
"241020","478-VK","2018/03/31 20:49:35","新北市三重區忠孝路一段101號","121.489488333333","25.0721933333333","6500200","三重區"
"241030","480-VK","2018/03/31 20:49:43","新北市三重區昌隆街26號","121.492066666667","25.05223","6500200","三重區"
"241014","543-UM","2018/03/31 20:49:41","新北市三重區龍濱路80號","121.502363333333","25.0696483333333","6500200","三重區"
"241023","545-UM","2018/03/31 20:49:42","新北市三重區忠孝路三段84巷1號","121.480231666667","25.0644566666667","6500200","三重區"
"241001","547-UM","2018/03/31 20:49:23","新北市三重區自強路三段97號","121.487615","25.07521","6500200","三重區"
"241033","557-UM","2018/03/31 20:39:51","新北市三重區光復路二段47-1號","121.47407","25.05632","6500200","三重區"
"241019","KEA-2593","2018/03/31 20:49:24","新北市三重區三張街22號","121.491891666667","25.0712016666667","6500200","三重區"
"241006","AAD-863","2018/03/31 20:49:21","新北市三重區車路頭街139巷14號","121.484288333333","25.0762283333333","6500200","三重區"
"241026","887-TS","2018/03/31 20:49:34","新北市三重區和平街1號","121.500123333333","25.06235","6500200","三重區"
"241012","941-UM","2018/03/31 20:49:22","新北市三重區仁信街27號","121.501268333333","25.0755666666667","6500200","三重區"
"241029","942-UM","2018/03/31 20:49:31","新北市三重區重安街14號","121.490306666667","25.0582316666667","6500200","三重區"
"235069","4980-A6","2018/03/31 20:49:39","新北市中和區員山路381巷1弄2號","121.480883333333","25.002295","6500300","中和區"
"235060","647-TV","2018/03/31 20:30:38","新北市中和區民享街38-1號","121.473911666667","25.0029966666667","6500300","中和區"
"235026","800-TS","2018/03/31 20:27:53","新北市中和區員山路36巷16-3號","121.484858333333","24.9917166666667","6500300","中和區"
"247024","893-R6","2018/03/31 20:49:31","新北市蘆洲區長樂路118號","121.462073333333","25.089975","6501400","蘆洲區"
"247014","546-UM","2018/03/31 20:49:36","新北市蘆洲區三民路97號","121.473625","25.08511","6501400","蘆洲區"
"247022","500-BY","2018/03/31 20:49:29","新北市蘆洲區民義街9巷2號","121.471355","25.08859","6501400","蘆洲區"
"247010","341-TH","2018/03/31 20:49:36","新北市蘆洲區鷺江街93號","121.476746666667","25.0837816666667","6501400","蘆洲區"
"247012","339-TH","2018/03/31 20:49:28","新北市蘆洲區集賢路217-1號","121.482955","25.086825","6501400","蘆洲區"
"247004","337-TH","2018/03/31 20:49:24","新北市蘆洲區長安街101號","121.4616","25.0808516666667","6501400","蘆洲區"
"247006","336-TH","2018/03/31 20:49:42","新北市蘆洲區永安南路二段50號","121.466053333333","25.07756","6501400","蘆洲區"
"247002","053-VK","2018/03/31 20:49:32","新北市蘆洲區長安街240號","121.4577","25.0857033333333","6501400","蘆洲區"
"247016","007-UY","2018/03/31 20:49:21","新北市蘆洲區中山二路211號","121.47046","25.0803016666667","6501400","蘆洲區"
"247020","001-UY","2018/03/31 20:49:30","新北市蘆洲區仁愛街64號","121.471505","25.094","6501400","蘆洲區"
"222001","KEA-2212","2018/03/31 20:49:34","新北市深坑區北深路三段137號","121.603935","25.0026416666667","6501800","深坑區"
"251001","011-UM","2018/03/31 20:49:33","新北市淡水區淡金路218號","121.460503333333","25.1671483333333","6501000","淡水區"
"251013","179-VK","2018/03/31 20:49:40","新北市淡水區番子厝11號","121.461836666667","25.201835","6501000","淡水區"
"251014","180-VK","2018/03/31 20:49:31","新北市淡水區公埔子32-8號","121.461648333333","25.23236","6501000","淡水區"
"251010","413-VK","2018/03/31 20:49:24","新北市淡水區沙崙路126號","121.42344","25.1829666666667","6501000","淡水區"
"251012","441-VK","2018/03/31 20:49:29","新北市淡水區興仁路162號","121.451591666667","25.2207533333333","6501000","淡水區"
"251016","442-VK","2018/03/31 20:49:28","新北市淡水區淡金路四段476號","121.451805","25.2238633333333","6501000","淡水區"
"251005","443-VK","2018/03/31 20:49:23","新北市淡水區北新路一段69-5號","121.45258","25.18083","6501000","淡水區"
"251006","561-UM","2018/03/31 20:49:22","新北市淡水區商工路30號","121.447221666667","25.188235","6501000","淡水區"
"251007","577-R6","2018/03/31 20:49:32","新北市淡水區鄧公路35巷19弄7號","121.452448333333","25.171805","6501000","淡水區"
"251011","650-BX","2018/03/31 20:49:30","新北市淡水區新民街一段13-1號","121.433098333333","25.1846","6501000","淡水區"
"251002","672-BX","2018/03/31 20:49:27","新北市淡水區英專路42號","121.44561","25.1702316666667","6501000","淡水區"
"251003","673-BX","2018/03/31 20:49:23","新北市淡水區中山北路一段207巷76號","121.441136666667","25.17957","6501000","淡水區"
"252002","178-VK","2018/03/31 20:49:36","新北市三芝區淡金路二段91號","121.504106666667","25.2608533333333","6502100","三芝區"
"242034","AAC-296","2018/03/31 20:49:39","新北市新莊區中正路315-1號","121.448185","25.0349283333333","6500500","新莊區"
"242053","751-BX","2018/03/31 20:49:30","新北市新莊區民安西路189巷10弄28號","121.426413333333","25.01522","6500500","新莊區"
"242042","566-BX","2018/03/31 20:49:32","新北市新莊區天祥街47巷31號","121.416206666667","25.0277483333333","6500500","新莊區"
"242036","442-UM","2018/03/31 20:49:32","新北市新莊區中正路583號","121.434438333333","25.0325433333333","6500500","新莊區"
"242051","441-UM","2018/03/31 20:49:38","新北市新莊區民安西路143號","121.426225","25.0169116666667","6500500","新莊區"
"242007","413-TV","2018/03/31 20:49:24","新北市新莊區化成路585-8號","121.46355","25.0667766666667","6500500","新莊區"
"242023","362-BY","2018/03/31 20:49:37","新北市五股區新五路二段372巷20號","121.447926666667","25.0848566666667","6500500","新莊區"
"242039","133-UY","2018/03/31 20:49:39","新北市新莊區瓊林路59-38號","121.441186666667","25.0235683333333","6500500","新莊區"
"242048","172-VK","2018/03/31 20:49:32","新北市五股區新五路二段222號","121.439041666667","25.0798383333333","6500500","新莊區"
"242002","349-TH","2018/03/31 20:49:40","新北市新莊區中港路五守新村37巷1號","121.454595","25.0388083333333","6500500","新莊區"
"221036","130-UY","2018/03/31 20:49:37","新北市汐止區秀峰路57號","121.659991666667","25.0649416666667","6501100","汐止區"
"221027","281-BY","2018/03/31 20:49:33","新北市汐止區大同路二段370號","121.657598333333","25.0670966666667","6501100","汐止區"
"221029","298-VK","2018/03/31 20:49:37","新北市汐止區樟樹二路299號","121.641191666667","25.0699983333333","6501100","汐止區"
"221035","622-UM","2018/03/31 20:49:37","新北市汐止區康寧街901號","121.651455","25.075005","6501100","汐止區"
"221038","646-BX","2018/03/31 20:49:37","新北市汐止區汐萬路一段256巷1號","121.652015","25.074695","6501100","汐止區"
"221033","647-BX","2018/03/31 20:49:20","台北市南港區合順街8巷7弄38號","121.620235","25.0419983333333","6501100","汐止區"
"221002","707-TV","2018/03/31 20:49:28","新北市汐止區福德二路163號","121.631013333333","25.0652533333333","6501100","汐止區"
"221018","753-BX","2018/03/31 20:49:30","新北市汐止區汐萬路一段273號","121.6505","25.0745383333333","6501100","汐止區"
"220103","257-TC","2018/03/31 20:49:34","新北市板橋區漢生東路83巷25號","121.46738","25.0168266666667","6500100","板橋區"
"242009","281-VK","2018/03/31 20:49:42","新北市新莊區幸福路7號","121.459233333333","25.0494583333333","6500500","新莊區"
"220070","AAC-253","2018/03/31 20:49:34","新北市林口區太平里180號","121.367198333333","25.135105","6500100","板橋區"
