"lineid","car","time","location","longitude","latitude","cityid","cityname"
"234042","862-TW","2018/03/31 21:40:37","新北市永和區福和路1號","121.526345","25.0096266666667","6500400","永和區"
"235010","733-UM","2018/03/31 21:44:18","新北市中和區員山路36巷13號","121.484125","24.9907683333333","6500300","中和區"
"247022","500-BY","2018/03/31 22:09:29","新北市八里區中華路3段78-1號","121.393235","25.1406966666667","6501400","蘆洲區"
"251008","181-VK","2018/03/31 22:09:38","新北市淡水區學府路104號","121.449873333333","25.1718366666667","6501000","淡水區"
"251010","413-VK","2018/03/31 22:09:24","新北市淡水區沙崙路200號","121.424675","25.1839083333333","6501000","淡水區"
"251011","650-BX","2018/03/31 22:09:30","新北市淡水區水碓街7號","121.443166666667","25.1771266666667","6501000","淡水區"
