"lineid","car","time","location","longitude","latitude","cityid","cityname"
"232001","290-BY","2018/09/24 06:39:19","新北市坪林區北宜路八段503號","121.707365","24.9192733333333","6502000","坪林區"
"232012","291-BY","2018/09/24 06:39:15","新北市坪林區北宜路八段558號","121.718003333333","24.909225","6502000","坪林區"
"232010","375-UM","2018/09/24 06:39:26","新北市坪林區北宜路八段553號","121.717125","24.9108266666667","6502000","坪林區"
"232017","705-BZ","2018/09/24 06:39:22","新北市坪林區北宜路八段558號","121.717963333333","24.90928","6502000","坪林區"
"232005","758-BX","2018/09/24 06:39:21","新北市坪林區北宜路八段558號","121.718006666667","24.909265","6502000","坪林區"
"235001","611-BX","2018/09/24 06:39:36","新北市中和區圓通路333號","121.491986666667","24.9906716666667","6500300","中和區"
"223002","KEA-2673","2018/09/24 06:39:17","新北市石碇區石碇東街12號","121.661533333333","24.990835","6501900","石碇區"
"223008","406-TH","2018/09/24 06:39:23","新北市石碇區碇坪路一段282號","121.677511666667","24.9766716666667","6501900","石碇區"
"223007","661-BX","2018/09/24 06:39:32","新北市石碇區碇坪路一段18號","121.651681666667","25.0047","6501900","石碇區"
"223005","677-TV","2018/09/24 06:39:21","新北市石碇區小粗坑(潭邊里)9-2號","121.678695","24.9858516666667","6501900","石碇區"
"227005","282-VK","2018/09/24 06:39:25","新北市雙溪區牡丹里聖南15號","121.85989","25.0512483333333","6502500","雙溪區"
"242001","233-RS","2018/09/24 06:39:23","新北市新莊區中華路二段2號","121.452973333333","25.0445333333333","6500500","新莊區"
