"lineid","car","time","location","longitude","latitude","cityid","cityname"
"248005","653-BX","2018/08/18 07:59:23","新北市五股區明德路10號","121.433373333333","25.0717533333333","6501500","五股區"
"244005","248-BX","2018/08/18 07:59:27","新北市林口區下福里56-6號","121.309766666667","25.11488","6501700","林口區"
"231007","189-VK","2018/08/18 07:59:32","新北市新店區安一路一段1-1號","121.51965","24.9611766666667","6500600","新店區"
"231008","192-VK","2018/08/18 07:59:28","新北市新店區安一路一段1-1號","121.519386666667","24.961265","6500600","新店區"
"226005","5620-A6","2018/08/18 07:59:15","新北市平溪區石底里公園街18-3號","121.733516666667","25.02564","6502400","平溪區"
"226007","7418-A5","2018/08/18 07:59:31","新北市平溪區靜安路三段386號","121.781551666667","25.0470783333333","6502400","平溪區"
"226003","AGD-0702","2018/08/18 07:59:28","新北市平溪區新寮里頂寮子4號","121.773741666667","25.051835","6502400","平溪區"
"223006","022-BY","2018/08/18 07:59:26","新北市石碇區碇格路二段21號","121.638785","24.9555466666667","6501900","石碇區"
"223003","205-TH","2018/08/18 07:57:41","新北市石碇區蛇舌子3號","121.665036666667","24.9677466666667","6501900","石碇區"
"223008","406-TH","2018/08/18 07:59:20","新北市石碇區靜安路一段337號","121.698991666667","25.0145133333333","6501900","石碇區"
"223001","592-UM","2018/08/18 07:58:50","新北市石碇區蛇舌子7號","121.665091666667","24.9665316666667","6501900","石碇區"
"223004","660-BX","2018/08/18 07:59:30","新北市石碇區外按9-2號","121.650626666667","24.9973533333333","6501900","石碇區"
"223007","661-BX","2018/08/18 07:59:18","新北市石碇區靜安路一段337號","121.699025","25.0143983333333","6501900","石碇區"
"223005","677-TV","2018/08/18 07:58:55","新北市石碇區外按9-2號","121.65068","24.9974183333333","6501900","石碇區"
"227006","282-VK","2018/08/18 07:59:34","新北市雙溪區牡丹里中正路69號","121.863965","25.0438033333333","6502500","雙溪區"
"252004","249-BX","2018/08/18 07:59:24","新北市三芝區興華里車埕36-21號","121.505873333333","25.1929766666667","6502100","三芝區"
"252007","AAC-283","2018/08/18 07:59:22","新北市三芝區後厝里土地公坑61-2號","121.464535","25.2478733333333","6502100","三芝區"
"237001","159-UY","2018/08/18 07:59:14","新北市三峽區學成路260號","121.375663333333","24.9429033333333","6500900","三峽區"
"236011","165-UM","2018/08/18 07:59:20","新北市土城區延吉街290號","121.464775","24.9841666666667","6501300","土城區"
"236002","339-SR","2018/08/18 07:59:28","新北市土城區龍泉路66-2號","121.415236666667","24.9421","6501300","土城區"
