"lineid","car","time","location","longitude","latitude","cityid","cityname"
"248005","653-BX","2018/08/18 08:29:23","新北市五股區明德路12巷3號","121.433231666667","25.0718166666667","6501500","五股區"
"244005","248-BX","2018/08/18 08:29:27","新北市林口區嘉溪雅坑39號","121.317028333333","25.1211383333333","6501700","林口區"
"222004","289-BY","2018/08/18 08:29:19","新北市深坑區昇高坑路12號","121.625523333333","24.998905","6501800","深坑區"
"231007","189-VK","2018/08/18 08:29:32","新北市新店區新潭路二段62巷51號","121.523471666667","24.9262066666667","6500600","新店區"
"231008","192-VK","2018/08/18 08:29:28","新北市新店區新烏路三段1號","121.551731666667","24.90671","6500600","新店區"
"235001","611-BX","2018/08/18 08:29:31","新北市中和區民安街42巷36號","121.478993333333","25.00123","6500300","中和區"
"226005","5620-A6","2018/08/18 08:29:15","新北市平溪區南山里六分8號","121.796421666667","25.0496733333333","6502400","平溪區"
"226007","7418-A5","2018/08/18 08:29:11","新北市平溪區東勢里芊蓁坑3號","121.743013333333","25.00241","6502400","平溪區"
"226003","AGD-0702","2018/08/18 08:29:28","新北市平溪區靜安路三段392巷3號","121.783985","25.0495483333333","6502400","平溪區"
"223006","022-BY","2018/08/18 08:29:17","新北市石碇區半路店3號","121.64884","24.9643683333333","6501900","石碇區"
"223003","205-TH","2018/08/18 08:29:21","新北市石碇區北宜路六段塗潭巷7號","121.646128333333","24.934035","6501900","石碇區"
"223008","406-TH","2018/08/18 08:29:20","新北市石碇區十八重溪13號","121.677935","25.0113533333333","6501900","石碇區"
"223001","592-UM","2018/08/18 08:29:30","新北市石碇區北宜路六段塗潭巷7號","121.64621","24.9340583333333","6501900","石碇區"
"223004","660-BX","2018/08/18 08:29:30","新北市石碇區碇坪路一段282號","121.676465","24.976855","6501900","石碇區"
"223007","661-BX","2018/08/18 08:29:18","新北市石碇區十八重溪13號","121.677956666667","25.011245","6501900","石碇區"
"223005","677-TV","2018/08/18 08:29:28","新北市石碇區碇坪路一段282號","121.676268333333","24.9768883333333","6501900","石碇區"
"227006","282-VK","2018/08/18 08:29:34","新北市雙溪區平林里竹寮坑1號","121.841988333333","25.035405","6502500","雙溪區"
"252004","249-BX","2018/08/18 08:29:24","新北市三芝區興華里楓子林45-1號","121.501838333333","25.204625","6502100","三芝區"
"252007","AAC-283","2018/08/18 08:29:22","新北市三芝區後厝里番社后38號","121.4711","25.2433283333333","6502100","三芝區"
"237001","159-UY","2018/08/18 08:29:14","新北市三峽區大學路192號","121.37249","24.9466433333333","6500900","三峽區"
"236011","165-UM","2018/08/18 08:29:20","新北市土城區金城路二段46巷11號","121.454235","24.9735316666667","6501300","土城區"
"236002","339-SR","2018/08/18 08:29:28","新北市土城區中央路三段281巷11弄3號","121.426566666667","24.962865","6501300","土城區"
"236006","498-BY","2018/08/18 08:29:16","新北市土城區中央路四段47號","121.422385","24.9615733333333","6501300","土城區"
