"lineid","car","time","location","longitude","latitude","cityid","cityname"
"248005","653-BX","2018/08/18 10:19:31","新北市五股區中興路二段37巷26號","121.460411666667","25.0749816666667","6501500","五股區"
"222004","289-BY","2018/08/18 10:19:19","新北市深坑區深南路91號","121.62656","25.0158733333333","6501800","深坑區"
"231007","189-VK","2018/08/18 10:19:32","新北市新店區新潭路三段215巷25號","121.508115","24.904085","6500600","新店區"
"231008","192-VK","2018/08/18 10:17:48","新北市新店區小坑一路35巷1號","121.530398333333","24.9101533333333","6500600","新店區"
"227006","282-VK","2018/08/18 10:19:34","新北市雙溪區長源里柑腳18號","121.80469","25.0141466666667","6502500","雙溪區"
"252007","AAC-283","2018/08/18 10:19:22","新北市三芝區新庄里番社后8號","121.502163333333","25.2691133333333","6502100","三芝區"
"237001","159-UY","2018/08/18 10:19:34","新北市樹林區柑園街二段237號","121.37505","24.9523933333333","6500900","三峽區"
"236006","498-BY","2018/08/18 10:19:36","新北市土城區金城路一段112號","121.446533333333","24.975305","6501300","土城區"
