"lineid","car","time","location","longitude","latitude","cityid","cityname"
"231007","189-VK","2018/08/18 10:49:32","新北市新店區新潭路三段80巷31-1號","121.501156666667","24.90991","6500600","新店區"
"231008","192-VK","2018/08/18 10:49:28","新北市新店區松林路81號","121.54568","24.9049583333333","6500600","新店區"
"227006","282-VK","2018/08/18 10:49:34","新北市雙溪區共和里中山路9號","121.865011666667","25.0328566666667","6502500","雙溪區"
"237001","159-UY","2018/08/18 10:49:34","新北市三峽區中山路459巷163-3號","121.34895","24.9330233333333","6500900","三峽區"
"236006","498-BY","2018/08/18 10:49:16","新北市土城區中央路二段241號","121.440185","24.971795","6501300","土城區"
