"lineid","car","time","location","longitude","latitude","cityid","cityname"
"234044","148-BY","2018/08/18 13:09:29","新北市永和區永元路18巷9號","121.523158333333","25.0002916666667","6500400","永和區"
"234005","207-UY","2018/08/18 13:09:22","新北市永和區中山路一段87號","121.511935","25.0106983333333","6500400","永和區"
"234078","298-R6","2018/08/18 13:09:24","新北市永和區國中路156號","121.522495","25.0066466666667","6500400","永和區"
"234036","336-UY","2018/08/18 13:09:29","新北市永和區民樂街88巷1號","121.527343333333","24.9976916666667","6500400","永和區"
"234062","337-UY","2018/08/18 13:09:21","新北市永和區秀朗路二段31號","121.52134","25.0025516666667","6500400","永和區"
"234084","338-UY","2018/08/18 13:09:33","新北市永和區永利路4巷26號","121.517495","25.004715","6500400","永和區"
"234068","552-UM","2018/08/18 13:09:27","新北市永和區豫溪街95巷4弄5號","121.518556666667","25.01061","6500400","永和區"
"234015","745-BX","2018/08/18 13:09:36","新北市永和區文化路90巷17號","121.513681666667","25.01612","6500400","永和區"
"234028","746-BX","2018/08/18 13:09:36","新北市永和區民生路21號","121.522841666667","24.9988616666667","6500400","永和區"
"234052","KEA-2590","2018/08/18 13:09:16","新北市永和區竹林路72巷6號","121.518868333333","25.0127566666667","6500400","永和區"
"234012","KEA-2591","2018/08/18 13:09:27","新北市永和區永和路二段82號","121.514921666667","25.0113016666667","6500400","永和區"
"234060","AAD-866","2018/08/18 13:09:22","新北市永和區安樂路453號","121.514368333333","25.005005","6500400","永和區"
"234040","862-TW","2018/08/18 13:09:31","新北市永和區保平路135號","121.510371666667","25.00627","6500400","永和區"
"234048","863-TW","2018/08/18 13:09:20","新北市永和區保福路二段150巷18號","121.510703333333","25.0150233333333","6500400","永和區"
"234025","9371-KE","2018/08/18 13:09:33","新北市永和區永和路一段38號","121.513208333333","25.0052766666667","6500400","永和區"
"234010","9373-KE","2018/08/18 13:09:21","新北市永和區永和路二段170號","121.515385","25.01314","6500400","永和區"
"248017","225-UY","2018/08/18 13:09:24","新北市五股區成泰路三段101-1號","121.44422","25.0902883333333","6501500","五股區"
"234022","9380-KE","2018/08/18 13:09:20","新北市永和區中興街10巷29號","121.516518333333","25.0110066666667","6500400","永和區"
"234072","AAC-211","2018/08/18 13:09:27","新北市永和區竹林路217號","121.520598333333","25.0088","6500400","永和區"
"234066","AAC-212","2018/08/18 13:09:32","新北市永和區永和路一段63號","121.512956666667","25.0068933333333","6500400","永和區"
"234001","AAC-295","2018/08/18 13:09:26","新北市永和區中山路一段24號","121.513938333333","25.01056","6500400","永和區"
"244005","248-BX","2018/08/18 13:09:37","新北市林口區民族路181號","121.367493333333","25.07673","6501700","林口區"
"231001","001-UM","2018/08/18 13:09:27","新北市新店區安華路28-1號","121.519611666667","24.9609833333333","6500600","新店區"
"231002","002-UM","2018/08/18 13:09:34","新北市新店區安華路28-1號","121.519746666667","24.960845","6500600","新店區"
"231027","0291-UT","2018/08/18 13:09:31","新北市新店區安華路28-1號","121.519318333333","24.96063","6500600","新店區"
"231028","046-UY","2018/08/18 13:09:21","新北市新店區安華路28-1號","121.519548333333","24.9608016666667","6500600","新店區"
"231005","106-UY","2018/08/18 13:09:30","新北市新店區安華路28-1號","121.519621666667","24.9608116666667","6500600","新店區"
"231010","107-UY","2018/08/18 13:09:22","新北市新店區安一路一段1-1號","121.519353333333","24.9614533333333","6500600","新店區"
"231020","108-UY","2018/08/18 13:09:18","新北市新店區安華路28-1號","121.519751666667","24.96104","6500600","新店區"
"231012","187-VK","2018/08/18 13:09:27","新北市新店區安一路一段1-1號","121.519585","24.9612033333333","6500600","新店區"
"231026","256-BX","2018/08/18 13:09:24","新北市新店區安一路一段1-1號","121.519675","24.9611616666667","6500600","新店區"
"231003","268-BY","2018/08/18 13:09:21","新北市新店區安華路28-1號","121.51945","24.9606566666667","6500600","新店區"
"231018","278-BY","2018/08/18 13:09:32","新北市新店區安一路一段1-1號","121.519601666667","24.9610783333333","6500600","新店區"
"231017","AAD-862","2018/08/18 13:09:35","新北市新店區安一路一段1-1號","121.519691666667","24.9614483333333","6500600","新店區"
"231037","4716-K9","2018/08/18 13:09:30","新北市新店區安華路28-1號","121.519643333333","24.9610216666667","6500600","新店區"
"231025","4715-K9","2018/08/18 13:09:24","新北市新店區安華路28-1號","121.519373333333","24.9606483333333","6500600","新店區"
"231036","512-UM","2018/08/18 13:09:37","新北市新店區安一路一段1-1號","121.519271666667","24.9611966666667","6500600","新店區"
"231013","513-UM","2018/08/18 13:09:28","新北市新店區安一路一段1-1號","121.519621666667","24.96117","6500600","新店區"
"231034","641-BX","2018/08/18 13:09:37","新北市新店區安華路1-1號","121.519506666667","24.9604183333333","6500600","新店區"
"231035","719-UM","2018/08/18 13:09:24","新北市新店區安一路一段1-1號","121.519523333333","24.961185","6500600","新店區"
"231033","720-UM","2018/08/18 13:09:29","新北市新店區安一路一段1-1號","121.519275","24.9611116666667","6500600","新店區"
"231004","899-TW","2018/08/18 13:09:33","新北市新店區安華路28-1號","121.519081666667","24.9609516666667","6500600","新店區"
"231024","AKT-0513","2018/08/18 13:09:32","新北市新店區安華路28-1號","121.519576666667","24.960515","6500600","新店區"
"235030","003-UY","2018/08/18 13:09:19","新北市中和區中和路241號","121.504658333333","24.9998216666667","6500300","中和區"
"235028","005-UY","2018/08/18 13:09:37","新北市中和區中正路175號","121.497448333333","24.9936433333333","6500300","中和區"
"235027","006-UY","2018/08/18 13:09:16","新北市中和區員山路36巷16-3號","121.485045","24.991315","6500300","中和區"
"235020","096-UM","2018/08/18 13:09:20","新北市中和區員山路36巷13號","121.484325","24.9914933333333","6500300","中和區"
"235003","097-UM","2018/08/18 13:09:20","新北市中和區中正路501號","121.488818333333","24.99355","6500300","中和區"
"235029","098-UM","2018/08/18 13:09:26","新北市中和區莊敬路49巷20弄22號","121.502748333333","25.0059233333333","6500300","中和區"
"235004","150-BY","2018/08/18 13:09:21","新北市中和區和城路一段271巷1號","121.485421666667","24.9916933333333","6500300","中和區"
"235022","151-BY","2018/08/18 13:09:33","新北市中和區圓通路367巷65號","121.493011666667","24.9826966666667","6500300","中和區"
"235002","185-VK","2018/08/18 13:09:22","新北市中和區大仁街38號","121.517846666667","24.9937216666667","6500300","中和區"
"235031","255-BX","2018/08/18 13:09:18","新北市中和區中正路751巷14弄13號","121.483995","25.0002183333333","6500300","中和區"
"235006","KEA-2878","2018/08/18 13:09:31","新北市中和區景平路159巷23弄8號","121.512993333333","24.9913766666667","6500300","中和區"
"235014","4979-A6","2018/08/18 13:09:36","新北市中和區中正路637巷52弄1號","121.485468333333","24.9934166666667","6500300","中和區"
"235034","558-UM","2018/08/18 13:09:31","新北市中和區中正路291號","121.49348","24.9939183333333","6500300","中和區"
"235009","565-BX","2018/08/18 13:09:17","新北市中和區員山路36巷13號","121.484095","24.9912066666667","6500300","中和區"
"235018","640-BX","2018/08/18 13:09:25","新北市土城區延壽路118-6號","121.46912","24.9945033333333","6500300","中和區"
"235011","732-UM","2018/08/18 13:09:30","新北市中和區員山路36巷16-8號","121.4853","24.9922733333333","6500300","中和區"
"235035","783-BX","2018/08/18 13:09:19","新北市中和區立德街199號","121.484121666667","25.0090166666667","6500300","中和區"
"235026","800-TS","2018/08/18 13:09:19","新北市中和區建一路177號","121.48852","24.998765","6500300","中和區"
"235021","801-TS","2018/08/18 13:09:29","新北市中和區員山路36巷16-3號","121.484821666667","24.9916433333333","6500300","中和區"
"235005","802-TS","2018/08/18 13:09:35","新北市中和區錦和路350-1號","121.490495","24.99357","6500300","中和區"
"235016","805-TS","2018/08/18 13:09:31","新北市中和區中正路273-1號","121.495685","24.9936","6500300","中和區"
"235017","900-TW","2018/08/18 13:09:30","新北市中和區員山路36巷16-2號","121.485071666667","24.9916633333333","6500300","中和區"
"235015","157-BY","2018/08/18 13:09:23","新北市中和區板南路106號","121.50348","24.99248","6500300","中和區"
"235001","AAC-213","2018/08/18 13:09:24","新北市中和區景平路149號","121.513981666667","24.9922566666667","6500300","中和區"
"235023","AAC-215","2018/08/18 13:09:35","新北市中和區員山路36巷16-3號","121.484923333333","24.9914166666667","6500300","中和區"
"228005","097-TW","2018/08/18 13:09:38","新北市貢寮區仁理村研海街62-2號","121.925726666667","25.04398","6502600","貢寮區"
"228004","212-TW","2018/08/18 13:09:29","新北市貢寮區吉林里內寮街75號","121.891185","24.9719433333333","6502600","貢寮區"
"253003","6232-TK","2018/08/18 13:09:38","新北市石門區石崩山27-2號","121.56502","25.2798433333333","6502200","石門區"
"253001","6251-TK","2018/08/18 13:09:17","新北市石門區公地44號","121.545506666667","25.2897166666667","6502200","石門區"
"253002","637-UY","2018/08/18 13:09:21","新北市石門區九芎林1號","121.555926666667","25.2749216666667","6502200","石門區"
"253004","8270-PC","2018/08/18 13:09:24","新北市石門區阿里荖2號","121.61294","25.2790716666667","6502200","石門區"
"207002","749-BX","2018/08/18 13:09:32","新北市萬里區崁腳里內崁路10號","121.641311666667","25.15954","6502800","萬里區"
"207001","681-TV","2018/08/18 13:09:35","新北市萬里區萬里里瑪鋉路70號","121.689821666667","25.17814","6502800","萬里區"
"252005","073-UM","2018/08/18 13:09:21","新北市三芝區八賢里八連溪17-2號","121.510795","25.2424866666667","6502100","三芝區"
"236006","498-BY","2018/08/18 13:09:36","新北市土城區亞洲路21號","121.434033333333","24.972025","6501300","土城區"
"221015","131-UY","2018/08/18 13:09:26","新北市汐止區汐萬路三段256號","121.643903333333","25.1044733333333","6501100","汐止區"
"221010","269-BY","2018/08/18 13:09:28","台北市內湖區大湖山莊街219巷92號","121.602395","25.0916733333333","6501100","汐止區"
"221032","280-BY","2018/08/18 13:09:26","新北市汐止區大同路二段184巷14號","121.653028333333","25.0631833333333","6501100","汐止區"
"220028","461-BY","2018/08/18 13:09:32","新北市板橋區華東街1-9號","121.44815","24.9949216666667","6500100","板橋區"
"235032","KEA-2873","2018/08/18 13:09:30","新北市中和區員山路36巷16-3號","121.485056666667","24.9913283333333","6500300","中和區"
"235025","KEA-2875","2018/08/18 13:09:08","新北市土城區金城路三段259-1號","121.472056666667","24.9901","6500300","中和區"
