"lineid","car","time","location","longitude","latitude","cityid","cityname"
"234044","148-BY","2018/08/18 13:49:29","新北市永和區成功路一段106巷3號","121.526298333333","25.0028733333333","6500400","永和區"
"234005","207-UY","2018/08/18 13:49:22","新北市永和區中和路625號","121.51305","25.0050116666667","6500400","永和區"
"234078","298-R6","2018/08/18 13:49:24","新北市永和區永亨路122號","121.524378333333","25.0039833333333","6500400","永和區"
"234036","336-UY","2018/08/18 13:49:37","新北市永和區成功路二段100號","121.52636","24.9982183333333","6500400","永和區"
"234062","337-UY","2018/08/18 13:49:29","新北市永和區中正路368巷12號","121.518235","25.0008283333333","6500400","永和區"
"234084","338-UY","2018/08/18 13:49:33","新北市永和區中正路614-2號","121.517116666667","25.00767","6500400","永和區"
"234068","552-UM","2018/08/18 13:49:36","新北市永和區竹林路206號","121.52078","25.0083533333333","6500400","永和區"
"234015","745-BX","2018/08/18 13:49:35","新北市永和區文化路29號","121.514968333333","25.015015","6500400","永和區"
"234028","746-BX","2018/08/18 13:49:36","新北市永和區民生路67巷5號","121.522936666667","24.9972366666667","6500400","永和區"
"234052","KEA-2590","2018/08/18 13:49:38","新北市永和區竹林路75巷25弄3號","121.52027","25.0141983333333","6500400","永和區"
"234012","KEA-2591","2018/08/18 13:49:27","新北市永和區永平路278號","121.507965","25.0117366666667","6500400","永和區"
"234060","AAD-866","2018/08/18 13:49:19","新北市永和區中正路281號","121.517593333333","25.001255","6500400","永和區"
"234040","862-TW","2018/08/18 13:49:30","新北市永和區中和路389巷24號","121.508206666667","25.0013466666667","6500400","永和區"
"234048","863-TW","2018/08/18 13:49:20","新北市永和區保安路144號","121.508526666667","25.0148516666667","6500400","永和區"
"234010","9373-KE","2018/08/18 13:49:21","新北市永和區保安路292號","121.50502","25.0117816666667","6500400","永和區"
"248017","225-UY","2018/08/18 13:49:24","新北市五股區民義路二段22巷30-3號","121.424318333333","25.0997033333333","6501500","五股區"
"234022","9380-KE","2018/08/18 13:49:20","新北市永和區復興街16巷5號","121.515786666667","25.0125866666667","6500400","永和區"
"234072","AAC-211","2018/08/18 13:49:25","新北市永和區豫溪街162巷1號","121.52374","25.00954","6500400","永和區"
"234066","AAC-212","2018/08/18 13:49:31","新北市永和區中山路一段255巷18號","121.508241666667","25.0071516666667","6500400","永和區"
"234001","AAC-295","2018/08/18 13:49:26","新北市永和區永和路一段105號","121.513855","25.0078883333333","6500400","永和區"
"231001","001-UM","2018/08/18 13:49:27","新北市新店區三民路139號","121.53431","24.9726833333333","6500600","新店區"
"231002","002-UM","2018/08/18 13:49:14","新北市新店區溪園路253號","121.523236666667","24.9813183333333","6500600","新店區"
"231027","0291-UT","2018/08/18 13:49:30","新北市新店區北宜路一段59號","121.53837","24.9566716666667","6500600","新店區"
"231028","046-UY","2018/08/18 13:49:35","新北市新店區安和路二段221號","121.517356666667","24.97587","6500600","新店區"
"231005","106-UY","2018/08/18 13:49:30","新北市新店區寶中路121號","121.549591666667","24.9795983333333","6500600","新店區"
"231010","107-UY","2018/08/18 13:49:22","新北市新店區平等街73號","121.535765","24.9722933333333","6500600","新店區"
"231020","108-UY","2018/08/18 13:49:18","新北市新店區永興路88號","121.544301666667","24.9328266666667","6500600","新店區"
"231012","187-VK","2018/08/18 13:49:27","新北市新店區德正街27巷29弄78號","121.545905","24.973335","6500600","新店區"
"231023","KEA-2219","2018/08/18 13:49:31","新北市新店區國校路21號","121.537966666667","24.9563516666667","6500600","新店區"
"231026","256-BX","2018/08/18 13:49:33","新北市新店區三民路84巷3號","121.534618333333","24.9728816666667","6500600","新店區"
"231003","268-BY","2018/08/18 13:49:21","新北市新店區大新街9巷28號","121.54418","24.9665616666667","6500600","新店區"
"231018","278-BY","2018/08/18 13:49:32","新北市新店區中正路400巷11號","121.534976666667","24.978105","6500600","新店區"
"231017","AAD-862","2018/08/18 13:49:15","新北市新店區北宜路二段82巷3號","121.553555","24.95307","6500600","新店區"
"231038","3712-VJ","2018/08/18 13:49:21","新北市新店區安華路30巷1號","121.519676666667","24.9592966666667","6500600","新店區"
"231037","4716-K9","2018/08/18 13:49:30","新北市新店區安康路三段356-1號","121.486111666667","24.9517116666667","6500600","新店區"
"231025","4715-K9","2018/08/18 13:49:24","新北市新店區中央六街56號","121.527923333333","24.9757483333333","6500600","新店區"
"231036","512-UM","2018/08/18 13:49:37","新北市新店區安祥路147巷24號","121.475763333333","24.95625","6500600","新店區"
"231013","513-UM","2018/08/18 13:49:28","新北市新店區二十張路25巷20號","121.539345","24.9820916666667","6500600","新店區"
"231006","617-UM","2018/08/18 13:49:28","新北市新店區北宜路一段260號","121.545691666667","24.9527733333333","6500600","新店區"
"231030","619-UM","2018/08/18 13:49:37","新北市新店區安康路一段44號","121.530791666667","24.96106","6500600","新店區"
"231034","641-BX","2018/08/18 13:49:37","新北市新店區達觀路14巷1號","121.503623333333","24.9410766666667","6500600","新店區"
"231035","719-UM","2018/08/18 13:49:24","新北市新店區安忠路57巷21號","121.51336","24.9583916666667","6500600","新店區"
"231033","720-UM","2018/08/18 13:49:29","新北市新店區莒光路44巷21弄11-3號","121.51847","24.9521833333333","6500600","新店區"
"231029","897-TW","2018/08/18 13:49:19","新北市新店區安康路二段109號","121.512578333333","24.9619716666667","6500600","新店區"
"231004","899-TW","2018/08/18 13:49:33","新北市新店區寶橋路132號","121.547281666667","24.9761216666667","6500600","新店區"
"231024","AKT-0513","2018/08/18 13:49:32","新北市新店區北新路一段271巷8號","121.540558333333","24.9667783333333","6500600","新店區"
"235030","003-UY","2018/08/18 13:49:19","新北市中和區水源路18巷4弄11號","121.503948333333","25.0028733333333","6500300","中和區"
"235028","005-UY","2018/08/18 13:49:37","新北市中和區泰和街32號","121.499443333333","25.0003666666667","6500300","中和區"
"235027","006-UY","2018/08/18 13:49:16","新北市中和區錦和路196巷4號","121.489838333333","24.99504","6500300","中和區"
"235020","096-UM","2018/08/18 13:49:19","新北市中和區立德街329號","121.481585","25.0104733333333","6500300","中和區"
"235003","097-UM","2018/08/18 13:49:20","新北市中和區大仁街44號","121.518253333333","24.9938683333333","6500300","中和區"
"235029","098-UM","2018/08/18 13:49:26","新北市中和區中山路二段2巷45弄26-6號","121.501385","25.0069666666667","6500300","中和區"
"235004","150-BY","2018/08/18 13:49:02","新北市中和區安平路38號","121.509973333333","24.995255","6500300","中和區"
"235022","151-BY","2018/08/18 13:49:33","新北市中和區連城路559號","121.479876666667","24.9946516666667","6500300","中和區"
"235019","183-VK","2018/08/18 13:49:34","新北市中和區德光路77巷1號","121.469563333333","25.0034966666667","6500300","中和區"
"235002","185-VK","2018/08/18 13:49:22","新北市中和區大勇街45巷3號","121.517885","24.9946983333333","6500300","中和區"
"235013","186-VK","2018/08/18 13:49:25","新北市中和區景安路173號","121.505243333333","24.9944383333333","6500300","中和區"
"235031","255-BX","2018/08/18 13:49:38","新北市中和區新生街220巷1弄8號","121.483308333333","24.9980816666667","6500300","中和區"
"235008","293-VK","2018/08/18 13:49:17","新北市中和區中興街133號","121.500001666667","24.99147","6500300","中和區"
"235036","301-VK","2018/08/18 13:49:18","新北市中和區中山路二段106號","121.503216666667","25.0040383333333","6500300","中和區"
"235007","352-BY","2018/08/18 13:49:25","新北市中和區景平路1號","121.525708333333","24.9900416666667","6500300","中和區"
"235006","KEA-2878","2018/08/18 13:49:23","新北市中和區秀朗路三段70巷12號","121.525901666667","24.994645","6500300","中和區"
"247009","KEA-2869","2018/08/18 13:49:19","新北市蘆洲區中正路509號","121.459533333333","25.0978616666667","6501400","蘆洲區"
"235014","4979-A6","2018/08/18 13:49:36","新北市中和區忠孝街62巷9弄10號","121.513161666667","24.9840116666667","6500300","中和區"
"235033","4980-A6","2018/08/18 13:49:24","新北市中和區泰和街1號","121.49987","25.0007966666667","6500300","中和區"
"235034","558-UM","2018/08/18 13:49:31","新北市中和區中和路194號","121.505161666667","24.9997","6500300","中和區"
"235009","565-BX","2018/08/18 13:49:37","新北市中和區興南路一段86號","121.509936666667","24.9892716666667","6500300","中和區"
"235018","640-BX","2018/08/18 13:49:25","新北市中和區自治街32號","121.474996666667","25.0032916666667","6500300","中和區"
"235024","647-TV","2018/08/18 13:49:31","新北市中和區中山路三段116號","121.475888333333","25.0059733333333","6500300","中和區"
"235011","732-UM","2018/08/18 13:49:30","新北市中和區興南路二段34巷71號","121.504913333333","24.9851116666667","6500300","中和區"
"235010","733-UM","2018/08/18 13:49:33","新北市中和區仁愛街36巷55號","121.511471666667","24.9862833333333","6500300","中和區"
"235035","783-BX","2018/08/18 13:49:19","新北市中和區立言街50號","121.488358333333","25.0066433333333","6500300","中和區"
"235026","800-TS","2018/08/18 13:49:19","新北市中和區中山路二段276號","121.496641666667","25.0024166666667","6500300","中和區"
"235021","801-TS","2018/08/18 13:49:29","新北市中和區員山路327巷10號","121.480876666667","25.0012166666667","6500300","中和區"
"235005","802-TS","2018/08/18 13:49:35","新北市中和區永貞路221號","121.513616666667","25.0035783333333","6500300","中和區"
"235016","805-TS","2018/08/18 13:49:31","新北市中和區興南路二段399巷100號","121.501018333333","24.9770933333333","6500300","中和區"
"235012","896-TW","2018/08/18 13:49:36","新北市中和區南山路234號","121.506638333333","24.99008","6500300","中和區"
"235017","900-TW","2018/08/18 13:49:30","新北市中和區華福街16號","121.465753333333","24.9966716666667","6500300","中和區"
"235015","157-BY","2018/08/18 13:49:29","新北市中和區忠孝街24號","121.510498333333","24.9829033333333","6500300","中和區"
"235001","AAC-213","2018/08/18 13:49:29","新北市中和區秀朗路三段128巷9弄1號","121.524578333333","24.9931116666667","6500300","中和區"
"235023","AAC-215","2018/08/18 13:49:35","新北市中和區錦和路408號","121.491126666667","24.9897366666667","6500300","中和區"
"220013","072-UY","2018/08/18 13:49:33","新北市板橋區民族路247巷5弄42號","121.470165","25.00847","6500100","板橋區"
"220034","073-UY","2018/08/18 13:49:24","新北市板橋區大智街29號","121.45483","25.0150883333333","6500100","板橋區"
"220105","075-UY","2018/08/18 13:49:25","新北市板橋區民生路二段161巷3號","121.470153333333","25.0197816666667","6500100","板橋區"
"220017","AAD-861","2018/08/18 13:49:33","新北市板橋區大華街1號","121.458808333333","25.00659","6500100","板橋區"
"247003","337-TH","2018/08/18 13:49:33","新北市蘆洲區中原路26號","121.46016","25.0828083333333","6501400","蘆洲區"
"247005","336-TH","2018/08/18 13:49:36","新北市蘆洲區中山二路262號","121.469221666667","25.07878","6501400","蘆洲區"
"247007","056-VK","2018/08/18 13:49:20","新北市蘆洲區永安北路二段76巷1-1號","121.48374","25.0847883333333","6501400","蘆洲區"
"247019","001-UY","2018/08/18 13:49:38","新北市蘆洲區民族路408巷46號","121.474821666667","25.0931633333333","6501400","蘆洲區"
"228005","097-TW","2018/08/18 13:49:38","新北市貢寮區美豐里土地公嶺10號","121.890548333333","25.05688","6502600","貢寮區"
"228004","212-TW","2018/08/18 13:49:29","新北市貢寮區龍崗里嵩陽街46號","121.904668333333","25.0125433333333","6502600","貢寮區"
"253003","6232-TK","2018/08/18 13:49:37","新北市石門區尖子鹿7-2號","121.574928333333","25.279945","6502200","石門區"
"253001","6251-TK","2018/08/18 13:49:17","新北市三芝區新庄里新庄子96號","121.515485","25.27577","6502200","石門區"
"253002","637-UY","2018/08/18 13:48:21","新北市石門區尖山湖18號","121.558581666667","25.2469633333333","6502200","石門區"
"253004","8270-PC","2018/08/18 13:49:24","新北市石門區草埔尾34號","121.603503333333","25.26741","6502200","石門區"
"207002","749-BX","2018/08/18 13:49:24","新北市萬里區崁腳里崁腳路166號","121.645033333333","25.1557783333333","6502800","萬里區"
"207001","681-TV","2018/08/18 13:49:23","新北市萬里區磺潭里公館崙36號","121.631445","25.2098433333333","6502800","萬里區"
"252005","073-UM","2018/08/18 13:49:21","新北市三芝區圓山里二坪頂46號","121.539881666667","25.22792","6502100","三芝區"
"236068","105-UM","2018/08/18 13:49:20","新北市土城區城林路6巷80號","121.438648333333","24.9797","6501300","土城區"
"236040","107-UM","2018/08/18 13:49:20","新北市土城區城林路6巷80號","121.438536666667","24.97977","6501300","土城區"
"236074","166-UM","2018/08/18 13:49:26","新北市土城區中華路二段221號","121.437518333333","24.9729316666667","6501300","土城區"
"236029","253-BX","2018/08/18 13:49:37","新北市土城區城林路6巷80號","121.438635","24.9798166666667","6501300","土城區"
"236024","269-VK","2018/08/18 13:49:34","新北市土城區城林路6巷80號","121.438623333333","24.979795","6501300","土城區"
"236013","270-VK","2018/08/18 13:49:34","新北市土城區城林路6巷80號","121.438553333333","24.9797116666667","6501300","土城區"
"236017","401-BY","2018/08/18 13:49:22","新北市土城區城林路6巷80號","121.438423333333","24.9798116666667","6501300","土城區"
"236006","498-BY","2018/08/18 13:49:16","新北市土城區中央路一段365巷1弄1號","121.44339","24.980965","6501300","土城區"
"236057","912-UM","2018/08/18 13:49:20","新北市土城區中華路二段134號","121.437546666667","24.973105","6501300","土城區"
"236060","915-UM","2018/08/18 13:49:26","新北市土城區城林路6巷80號","121.43851","24.97974","6501300","土城區"
"236054","AAC-216","2018/08/18 13:49:37","新北市土城區城林路6巷80號","121.438731666667","24.9796866666667","6501300","土城區"
"242048","172-VK","2018/08/18 13:49:29","新北市新莊區四維路123號","121.423038333333","25.0230266666667","6500500","新莊區"
"221015","131-UY","2018/08/18 13:49:26","台北市中山區濱江街97號","121.534021666667","25.07272","6501100","汐止區"
"221010","269-BY","2018/08/18 13:49:19","新北市汐止區長青路210巷188號","121.616281666667","25.1133016666667","6501100","汐止區"
"220030","610-BX","2018/08/18 13:49:26","新北市板橋區篤行路三段64號","121.427991666667","24.9863033333333","6500100","板橋區"
"220040","267-BY","2018/08/18 13:49:20","新北市板橋區民生路二段120號","121.470506666667","25.0195433333333","6500100","板橋區"
"220004","276-BY","2018/08/18 13:49:25","新北市板橋區四川路二段23-3號","121.454661666667","24.99556","6500100","板橋區"
"220020","277-BY","2018/08/18 13:49:32","新北市板橋區大觀路三段24號","121.434256666667","24.995785","6500100","板橋區"
"220019","283-VK","2018/08/18 13:49:36","新北市板橋區忠孝路190巷18號","121.466033333333","25.0022516666667","6500100","板橋區"
"220043","285-UM","2018/08/18 13:49:31","新北市板橋區民生路二段161巷1號","121.470118333333","25.0200183333333","6500100","板橋區"
"220001","285-VK","2018/08/18 13:49:17","新北市板橋區民生路二段56-6號","121.470698333333","25.0187716666667","6500100","板橋區"
"220031","286-VK","2018/08/18 13:49:38","新北市板橋區大觀路一段38巷156弄154號","121.443745","25.0088116666667","6500100","板橋區"
"220029","287-VK","2018/08/18 13:49:24","新北市板橋區光華街7號","121.454088333333","25.0115033333333","6500100","板橋區"
"220039","288-VK","2018/08/18 13:49:30","新北市板橋區民生路二段120號","121.47043","25.0197316666667","6500100","板橋區"
"220009","293-UM","2018/08/18 13:49:28","新北市板橋區民生路二段123號","121.470766666667","25.0186016666667","6500100","板橋區"
"220032","296-UM","2018/08/18 13:49:19","新北市板橋區大觀路二段150巷20號","121.441816666667","24.99948","6500100","板橋區"
"220041","299-UM","2018/08/18 13:49:31","新北市板橋區民生路二段120號","121.470775","25.0196483333333","6500100","板橋區"
"220023","303-R5","2018/08/18 13:49:25","新北市板橋區南雅東路79-1號","121.453278333333","25.0079133333333","6500100","板橋區"
"220010","305-R5","2018/08/18 13:49:34","新北市板橋區中山路二段40巷22號","121.473546666667","25.01455","6500100","板橋區"
"220047","317-R6","2018/08/18 13:49:32","新北市板橋區民生路二段120號","121.47051","25.019805","6500100","板橋區"
"220028","461-BY","2018/08/18 13:49:12","新北市板橋區大觀路二段265巷60弄24號","121.441673333333","24.9978683333333","6500100","板橋區"
"220012","486-VK","2018/08/18 13:49:31","新北市板橋區民生路二段36-1號","121.472208333333","25.0168116666667","6500100","板橋區"
"220037","491-VK","2018/08/18 13:49:27","新北市板橋區民生路二段161巷1號","121.470043333333","25.02005","6500100","板橋區"
"220104","560-BX","2018/08/18 13:49:27","新北市板橋區中正路275巷62弄4-3號","121.453066666667","25.0180833333333","6500100","板橋區"
"220052","561-BX","2018/08/18 13:49:35","新北市板橋區民生路二段161巷5號","121.470291666667","25.019775","6500100","板橋區"
"220027","568-UM","2018/08/18 13:49:37","新北市板橋區民權路258-4號","121.457981666667","25.015075","6500100","板橋區"
"220011","609-BX","2018/08/18 13:49:33","新北市板橋區民生路二段89-6號","121.470475","25.01892","6500100","板橋區"
"220005","686-BX","2018/08/18 13:49:26","新北市板橋區館前西路44號","121.458531666667","25.0069633333333","6500100","板橋區"
"220025","687-BX","2018/08/18 13:49:32","新北市板橋區金門街53號","121.433298333333","24.9931166666667","6500100","板橋區"
"220042","689-BX","2018/08/18 13:49:26","新北市板橋區民生路二段188號","121.47011","25.020265","6500100","板橋區"
"220002","741-BX","2018/08/18 13:49:26","新北市板橋區後埔街13號","121.460435","25.0068383333333","6500100","板橋區"
"220051","KEA-2699","2018/08/18 13:49:26","新北市板橋區民生路二段120號","121.470526666667","25.0195666666667","6500100","板橋區"
"220003","827-TW","2018/08/18 13:49:20","新北市板橋區中山路一段143號","121.464605","25.0117066666667","6500100","板橋區"
"220014","829-TW","2018/08/18 13:49:25","新北市板橋區三民路二段正隆巷59號","121.476551666667","25.0133533333333","6500100","板橋區"
"220016","830-TW","2018/08/18 13:49:37","新北市板橋區介壽街117號","121.470473333333","25.0187583333333","6500100","板橋區"
"220045","831-TW","2018/08/18 13:48:19","新北市板橋區民生路二段120號","121.470503333333","25.01966","6500100","板橋區"
"220038","833-TW","2018/08/18 13:49:19","新北市板橋區民生路二段175號","121.469965","25.0202383333333","6500100","板橋區"
"220022","895-R6","2018/08/18 13:49:34","新北市板橋區南門街53號","121.457143333333","25.0083483333333","6500100","板橋區"
"220021","985-R7","2018/08/18 13:49:36","新北市板橋區府中路67號","121.458181666667","25.00947","6500100","板橋區"
"220018","AAC-253","2018/08/18 13:49:24","新北市板橋區四川路一段105號","121.459971666667","25.005365","6500100","板橋區"
"235032","KEA-2873","2018/08/18 13:49:29","新北市中和區圓通路162巷1號","121.497173333333","24.9953133333333","6500300","中和區"
"235025","KEA-2875","2018/08/18 13:49:08","新北市中和區民治街128巷8號","121.47482","25.0029","6500300","中和區"
