"lineid","car","time","location","longitude","latitude","cityid","cityname"
"234044","148-BY","2018/08/18 14:19:29","新北市永和區永元路122號","121.522793333333","25.00277","6500400","永和區"
"234005","207-UY","2018/08/18 14:19:22","新北市永和區中山路一段9號","121.51408","25.0104083333333","6500400","永和區"
"234078","298-R6","2018/08/18 14:19:30","新北市永和區國中路132巷13號","121.523881666667","25.0075383333333","6500400","永和區"
"234036","336-UY","2018/08/18 14:19:35","新北市永和區成功路一段14號","121.527073333333","25.0051833333333","6500400","永和區"
"234062","337-UY","2018/08/18 14:19:30","新北市永和區得和路211號","121.519188333333","25.0002233333333","6500400","永和區"
"234084","338-UY","2018/08/18 14:19:26","新北市永和區永和路二段207號","121.515386666667","25.0138433333333","6500400","永和區"
"234068","552-UM","2018/08/18 14:19:27","新北市永和區福和路237巷1號","121.51846","25.00725","6500400","永和區"
"234028","746-BX","2018/08/18 14:19:36","新北市永和區民權路84號","121.519903333333","24.9970716666667","6500400","永和區"
"234052","KEA-2590","2018/08/18 14:19:36","新北市永和區光復街2巷26弄1號","121.517635","25.0166266666667","6500400","永和區"
"234012","KEA-2591","2018/08/18 14:19:27","新北市永和區保生路55-1號","121.504735","25.0113933333333","6500400","永和區"
"234060","AAD-866","2018/08/18 14:19:39","新北市永和區安樂路194巷17弄6號","121.516043333333","25.0012683333333","6500400","永和區"
"234040","862-TW","2018/08/18 14:19:30","新北市中和區中安街226號","121.512165","24.9987083333333","6500400","永和區"
"234048","863-TW","2018/08/18 14:19:20","新北市永和區文化路230號","121.509765","25.01696","6500400","永和區"
"234025","9371-KE","2018/08/18 14:19:33","新北市永和區安樂路174號","121.5148","25.0012166666667","6500400","永和區"
"248017","225-UY","2018/08/18 14:19:24","新北市五股區壟路1-1號","121.419795","25.0960883333333","6501500","五股區"
"234072","AAC-211","2018/08/18 14:19:25","新北市永和區豫溪街191巷7弄24號","121.523226666667","25.0111166666667","6500400","永和區"
"234066","AAC-212","2018/08/18 14:19:32","新北市永和區保平路292巷60號","121.506993333333","25.0061283333333","6500400","永和區"
"234001","AAC-295","2018/08/18 14:19:30","新北市永和區中正路620號","121.516993333333","25.0078683333333","6500400","永和區"
"231001","001-UM","2018/08/18 14:19:27","新北市新店區中正路75巷71號","121.54305","24.9688816666667","6500600","新店區"
"231002","002-UM","2018/08/18 14:19:34","新北市新店區中央路208號","121.530148333333","24.9738816666667","6500600","新店區"
"231027","0291-UT","2018/08/18 14:19:31","新北市新店區北新路一段90號","121.541915","24.9686","6500600","新店區"
"231028","046-UY","2018/08/18 14:19:39","新北市新店區安和路二段181號","121.51832","24.974735","6500600","新店區"
"231005","106-UY","2018/08/18 14:19:30","新北市新店區中興路三段165號","121.544303333333","24.9805233333333","6500600","新店區"
"231020","108-UY","2018/08/18 14:19:18","新北市新店區櫻花街150號","121.54769","24.920725","6500600","新店區"
"231012","187-VK","2018/08/18 14:19:27","新北市新店區五峰路63巷8弄74號","121.547938333333","24.9684783333333","6500600","新店區"
"231023","KEA-2219","2018/08/18 14:19:31","新北市新店區光明街140號","121.539363333333","24.961355","6500600","新店區"
"231003","268-BY","2018/08/18 14:19:21","新北市新店區中興路一段191號","121.543193333333","24.96502","6500600","新店區"
"231018","278-BY","2018/08/18 14:19:32","新北市新店區中央五街8號","121.529933333333","24.97413","6500600","新店區"
"231017","AAD-862","2018/08/18 14:19:35","新北市新店區北宜路三段54號","121.573268333333","24.95141","6500600","新店區"
"231038","3712-VJ","2018/08/18 14:19:21","新北市新店區溪洲路65號","121.533296666667","24.961005","6500600","新店區"
"231037","4716-K9","2018/08/18 14:19:30","新北市新店區安康路二段341巷5號","121.496943333333","24.9548716666667","6500600","新店區"
"231025","4715-K9","2018/08/18 14:19:24","新北市新店區自立街18號","121.538838333333","24.978245","6500600","新店區"
"231036","512-UM","2018/08/18 14:19:37","新北市新店區安祥路109巷1弄53號","121.477496666667","24.9607116666667","6500600","新店區"
"231013","513-UM","2018/08/18 14:19:28","新北市新店區建國路166號","121.538391666667","24.9795066666667","6500600","新店區"
"231006","617-UM","2018/08/18 14:19:28","新北市新店區北宜路二段599號","121.568193333333","24.9555866666667","6500600","新店區"
"231030","619-UM","2018/08/18 14:19:37","新北市新店區安光路10-1號","121.513666666667","24.96408","6500600","新店區"
"231034","641-BX","2018/08/18 14:19:37","新北市新店區車子路11號","121.50308","24.9520616666667","6500600","新店區"
"231035","719-UM","2018/08/18 14:19:24","新北市新店區安民街156巷33號","121.518031666667","24.97024","6500600","新店區"
"231033","720-UM","2018/08/18 14:19:29","新北市新店區溪洲路201-3號","121.52887","24.96825","6500600","新店區"
"231029","897-TW","2018/08/18 14:19:19","新北市新店區安康路二段300號","121.507661666667","24.9584316666667","6500600","新店區"
"231004","899-TW","2018/08/18 14:19:37","新北市新店區中正路205號","121.540215","24.972625","6500600","新店區"
"231024","AKT-0513","2018/08/18 14:19:32","新北市新店區新生街13巷42號","121.538918333333","24.9665483333333","6500600","新店區"
"235030","003-UY","2018/08/18 14:19:19","新北市中和區景新街2號","121.502573333333","24.9997333333333","6500300","中和區"
"235028","005-UY","2018/08/18 14:19:37","新北市中和區南山路81巷19號","121.502605","24.9981433333333","6500300","中和區"
"235027","006-UY","2018/08/18 14:19:36","新北市中和區連勝街117號","121.495021666667","24.9953316666667","6500300","中和區"
"235020","096-UM","2018/08/18 14:19:19","新北市中和區民富街36號","121.47675","25.00659","6500300","中和區"
"235003","097-UM","2018/08/18 14:19:40","新北市中和區秀峰街64號","121.52065","24.9904733333333","6500300","中和區"
"235029","098-UM","2018/08/18 14:19:26","新北市中和區中山路二段2巷13弄11號","121.503541666667","25.0065283333333","6500300","中和區"
"235004","150-BY","2018/08/18 14:19:22","新北市中和區保健路76巷3號","121.511491666667","24.99617","6500300","中和區"
"235022","151-BY","2018/08/18 14:19:32","新北市中和區連城路469巷44弄19號","121.482285","24.994635","6500300","中和區"
"235019","183-VK","2018/08/18 14:19:34","新北市中和區中山路三段179巷6號","121.473271666667","25.0058633333333","6500300","中和區"
"235002","185-VK","2018/08/18 14:19:22","新北市中和區大仁街10巷51號","121.51994","24.9924316666667","6500300","中和區"
"235013","186-VK","2018/08/18 14:19:25","新北市中和區景新街228-6號","121.508171666667","24.9941633333333","6500300","中和區"
"235031","255-BX","2018/08/18 14:19:37","新北市中和區中正路711號","121.484505","24.998545","6500300","中和區"
"235008","293-VK","2018/08/18 14:19:17","新北市中和區中興街252號","121.499326666667","24.98782","6500300","中和區"
"235036","301-VK","2018/08/18 14:19:38","新北市中和區莊敬路33巷16號","121.500338333333","25.0054083333333","6500300","中和區"
"235007","352-BY","2018/08/18 14:19:25","新北市中和區景平路296號","121.51283","24.9928066666667","6500300","中和區"
"235006","KEA-2878","2018/08/18 14:19:24","新北市中和區安樂路217巷35弄14號","121.514215","24.9975566666667","6500300","中和區"
"247009","KEA-2869","2018/08/18 14:19:36","新北市蘆洲區信義路154號","121.47933","25.0834333333333","6501400","蘆洲區"
"235014","4979-A6","2018/08/18 14:19:36","新北市中和區景安路208巷11號","121.503428333333","24.9912216666667","6500300","中和區"
"235033","4980-A6","2018/08/18 14:19:24","新北市中和區景平路736巷1弄1號","121.49711","25.00402","6500300","中和區"
"235034","558-UM","2018/08/18 14:19:31","新北市中和區中和路44號","121.5005","25.0010466666667","6500300","中和區"
"235009","565-BX","2018/08/18 14:19:17","新北市中和區景新街423巷35弄32號","121.513973333333","24.9902783333333","6500300","中和區"
"235018","640-BX","2018/08/18 14:19:25","新北市中和區國光街109巷32號","121.469316666667","24.999475","6500300","中和區"
"235024","647-TV","2018/08/18 14:19:31","新北市中和區中山路三段47號","121.476975","25.0056866666667","6500300","中和區"
"235011","732-UM","2018/08/18 14:19:30","新北市中和區景平路239巷73號","121.508145","24.9920733333333","6500300","中和區"
"235010","733-UM","2018/08/18 14:19:33","新北市中和區忠孝街2巷16號","121.510701666667","24.9813383333333","6500300","中和區"
"235035","783-BX","2018/08/18 14:19:19","新北市中和區板南路472-1號","121.488821666667","25.0063383333333","6500300","中和區"
"235026","800-TS","2018/08/18 14:19:19","新北市中和區中山路二段488-1號","121.487388333333","25.00495","6500300","中和區"
"235021","801-TS","2018/08/18 14:19:29","新北市中和區員山路423巷12弄1號","121.480471666667","25.0030783333333","6500300","中和區"
"235005","802-TS","2018/08/18 14:19:35","新北市中和區安平路152號","121.512443333333","24.9983266666667","6500300","中和區"
"235016","805-TS","2018/08/18 14:19:31","新北市中和區華新街143巷17號","121.50666","24.9809616666667","6500300","中和區"
"235012","896-TW","2018/08/18 14:19:36","新北市中和區華新街109巷1-3號","121.509078333333","24.9822616666667","6500300","中和區"
"235017","900-TW","2018/08/18 14:19:30","新北市中和區民德路224號","121.468151666667","24.997745","6500300","中和區"
"235015","157-BY","2018/08/18 14:19:23","新北市中和區景平路221巷28號","121.509425","24.9921783333333","6500300","中和區"
"235001","AAC-213","2018/08/18 14:19:24","新北市中和區自立路15巷2號","121.522581666667","24.9960333333333","6500300","中和區"
"235023","AAC-215","2018/08/18 14:19:35","新北市中和區圓通路286巷1號","121.49142","24.991135","6500300","中和區"
"220013","072-UY","2018/08/18 14:19:33","新北市板橋區民族路170巷16號","121.467118333333","25.0072433333333","6500100","板橋區"
"220034","073-UY","2018/08/18 14:19:39","新北市板橋區中正路250巷68號","121.458126666667","25.0197083333333","6500100","板橋區"
"220105","075-UY","2018/08/18 14:19:25","新北市板橋區雙十路三段168號","121.470135","25.0327233333333","6500100","板橋區"
"220017","AAD-861","2018/08/18 14:19:33","新北市板橋區華興街39號","121.458126666667","25.0046483333333","6500100","板橋區"
"247023","893-R6","2018/08/18 14:19:19","新北市蘆洲區長榮路746號","121.460691666667","25.0925716666667","6501400","蘆洲區"
"247021","500-BY","2018/08/18 14:19:27","新北市蘆洲區仁愛街212巷28-1號","121.464098333333","25.0947183333333","6501400","蘆洲區"
"247003","337-TH","2018/08/18 14:19:33","新北市蘆洲區長安街194巷29號","121.46001","25.0847133333333","6501400","蘆洲區"
"247005","336-TH","2018/08/18 14:19:36","新北市蘆洲區長安街23巷19號","121.463488333333","25.0785183333333","6501400","蘆洲區"
"247017","057-VK","2018/08/18 14:19:33","新北市蘆洲區民權路132-1號","121.473383333333","25.0889","6501400","蘆洲區"
"247007","056-VK","2018/08/18 14:19:20","新北市蘆洲區中山一路129號","121.47568","25.081325","6501400","蘆洲區"
"247013","053-VK","2018/08/18 14:19:35","新北市蘆洲區成功路92號","121.472865","25.0816066666667","6501400","蘆洲區"
"247015","007-UY","2018/08/18 14:19:19","新北市蘆洲區中正路185巷31弄36號","121.466941666667","25.0833116666667","6501400","蘆洲區"
"247001","002-UY","2018/08/18 14:19:34","新北市蘆洲區永樂街57號","121.45665","25.0885416666667","6501400","蘆洲區"
"247019","001-UY","2018/08/18 14:19:18","新北市蘆洲區民族路446-5號","121.47258","25.0922316666667","6501400","蘆洲區"
"228005","097-TW","2018/08/18 14:19:38","新北市貢寮區美豐里土地公嶺54號","121.894533333333","25.0649933333333","6502600","貢寮區"
"228004","212-TW","2018/08/18 14:19:29","新北市貢寮區雙玉里田寮洋街39-3號","121.925286666667","25.0139866666667","6502600","貢寮區"
"253003","6232-TK","2018/08/18 14:19:38","新北市石門區內石門62號","121.578005","25.2658766666667","6502200","石門區"
"253001","6251-TK","2018/08/18 14:19:37","新北市石門區八甲12-2號","121.522203333333","25.282075","6502200","石門區"
"253002","637-UY","2018/08/18 14:19:21","新北市三芝區橫山里橫山39-9號","121.54494","25.2560183333333","6502200","石門區"
"253004","8270-PC","2018/08/18 14:19:34","新北市石門區內阿里磅1號","121.592161666667","25.25448","6502200","石門區"
"207002","749-BX","2018/08/18 14:19:04","新北市萬里區溪底里瑞泉路8-2號","121.608231666667","25.1440633333333","6502800","萬里區"
"207001","681-TV","2018/08/18 14:19:24","新北市萬里區磺潭里清水15號","121.6381","25.1981066666667","6502800","萬里區"
"252005","073-UM","2018/08/18 14:19:21","新北市三芝區橫山里橫山56-6號","121.535543333333","25.2507766666667","6502100","三芝區"
"236068","105-UM","2018/08/18 14:19:40","新北市土城區明德路一段154號","121.463148333333","24.9785966666667","6501300","土城區"
"236040","107-UM","2018/08/18 14:19:20","新北市土城區裕生路59號","121.447718333333","24.98632","6501300","土城區"
"236074","166-UM","2018/08/18 14:19:26","新北市土城區永平街2巷2號","121.42738","24.9634716666667","6501300","土城區"
"236029","253-BX","2018/08/18 14:19:39","新北市土城區順風路44號","121.440356666667","24.9769716666667","6501300","土城區"
"236024","269-VK","2018/08/18 14:19:34","新北市土城區承天路67號","121.43954","24.96347","6501300","土城區"
"236013","270-VK","2018/08/18 14:19:34","新北市土城區青雲路39巷7號","121.460346666667","24.9875533333333","6501300","土城區"
"236032","271-VK","2018/08/18 14:19:23","新北市土城區青雲路449號","121.458988333333","24.9751516666667","6501300","土城區"
"236017","401-BY","2018/08/18 14:19:22","新北市土城區明德路二段65號","121.451908333333","24.9806483333333","6501300","土城區"
"236006","498-BY","2018/08/18 14:19:36","新北市土城區城林路6巷80號","121.438726666667","24.97997","6501300","土城區"
"236057","912-UM","2018/08/18 14:19:20","新北市土城區中央路四段418-2號","121.411198333333","24.9521766666667","6501300","土城區"
"236045","913-UM","2018/08/18 14:19:35","新北市土城區明德路一段375-3號","121.454453333333","24.97835","6501300","土城區"
"236060","915-UM","2018/08/18 14:19:26","新北市土城區延壽路37號","121.470936666667","24.991285","6501300","土城區"
"236054","AAC-216","2018/08/18 14:19:37","新北市土城區中華路二段102號","121.438086666667","24.974335","6501300","土城區"
"221015","131-UY","2018/08/18 14:19:26","新北市八里區中山路三段390號","121.368411666667","25.1357","6501100","汐止區"
"221010","269-BY","2018/08/18 14:19:19","新北市汐止區八連路二段161號","121.634686666667","25.0949166666667","6501100","汐止區"
"220030","610-BX","2018/08/18 14:19:30","新北市板橋區金門街319號","121.429693333333","24.9861733333333","6500100","板橋區"
"220050","245-BX","2018/08/18 14:19:19","新北市板橋區莊敬路25巷4弄14號","121.473878333333","25.02704","6500100","板橋區"
"220040","267-BY","2018/08/18 14:19:20","新北市板橋區文聖街156-1號","121.478903333333","25.02736","6500100","板橋區"
"220004","276-BY","2018/08/18 14:19:25","新北市板橋區干城路20巷3號","121.459098333333","24.9934983333333","6500100","板橋區"
"220020","277-BY","2018/08/18 14:19:32","新北市板橋區篤行路二段153號","121.429556666667","24.9880166666667","6500100","板橋區"
"220019","283-VK","2018/08/18 14:19:36","新北市板橋區忠孝路48巷7弄13-1號","121.461585","25.000455","6500100","板橋區"
"220043","285-UM","2018/08/18 14:19:31","新北市板橋區吳鳳路19巷16號","121.466841666667","25.030725","6500100","板橋區"
"220001","285-VK","2018/08/18 14:19:17","新北市板橋區富山街12號","121.47859","25.0217733333333","6500100","板橋區"
"220031","286-VK","2018/08/18 14:19:18","新北市板橋區大觀路二段174巷163弄1號","121.441603333333","25.0031583333333","6500100","板橋區"
"220029","287-VK","2018/08/18 14:19:31","新北市板橋區南雅西路一段10巷7弄1號","121.454586666667","25.004495","6500100","板橋區"
"220039","288-VK","2018/08/18 14:19:30","新北市板橋區四維路349巷16號","121.461601666667","25.0297483333333","6500100","板橋區"
"220009","293-UM","2018/08/18 14:19:28","新北市板橋區中山路二段326號","121.481031666667","25.0195683333333","6500100","板橋區"
"220032","296-UM","2018/08/18 14:19:19","新北市板橋區溪崑一街115號","121.429245","24.9882566666667","6500100","板橋區"
"220041","299-UM","2018/08/18 14:19:31","新北市板橋區光武街73-3號","121.467185","25.0262516666667","6500100","板橋區"
"220023","303-R5","2018/08/18 14:19:40","新北市板橋區南雅西路一段10巷12號","121.454666666667","25.0047633333333","6500100","板橋區"
"220010","305-R5","2018/08/18 14:19:34","新北市板橋區三民路二段153巷4號","121.479613333333","25.014945","6500100","板橋區"
"220047","317-R6","2018/08/18 14:19:33","新北市板橋區四維路266巷2弄27號","121.464186666667","25.0280633333333","6500100","板橋區"
"220028","461-BY","2018/08/18 14:19:32","新北市板橋區大觀路二段5號","121.446956666667","25.0039116666667","6500100","板橋區"
"220012","486-VK","2018/08/18 14:19:32","新北市板橋區中山路一段37號","121.46069","25.0088166666667","6500100","板橋區"
"220037","491-VK","2018/08/18 14:19:33","新北市板橋區雙十路二段144號","121.473435","25.0291383333333","6500100","板橋區"
"220104","560-BX","2018/08/18 14:19:24","新北市板橋區中正路433巷27號","121.453261666667","25.0236483333333","6500100","板橋區"
"220052","561-BX","2018/08/18 14:19:36","新北市板橋區介壽街43-3號","121.468806666667","25.0197616666667","6500100","板橋區"
"220027","568-UM","2018/08/18 14:19:37","新北市板橋區民權路202巷13弄34號","121.458635","25.0163633333333","6500100","板橋區"
"220011","609-BX","2018/08/18 14:19:33","新北市板橋區三民路二段203-4號","121.479195","25.01356","6500100","板橋區"
"220005","686-BX","2018/08/18 14:19:26","新北市中和區民德路358號","121.466428333333","24.9939366666667","6500100","板橋區"
"220025","687-BX","2018/08/18 14:19:23","新北市板橋區大觀路一段34號","121.447088333333","25.0049133333333","6500100","板橋區"
"220042","689-BX","2018/08/18 14:19:27","新北市板橋區漢生西路73號","121.462923333333","25.0187733333333","6500100","板橋區"
"220002","741-BX","2018/08/18 14:19:26","新北市板橋區重慶路153號","121.462468333333","25.0040283333333","6500100","板橋區"
"220051","KEA-2699","2018/08/18 14:19:26","新北市板橋區文聖街163號","121.479083333333","25.0274416666667","6500100","板橋區"
"220003","827-TW","2018/08/18 14:19:20","新北市板橋區實踐路65巷6-7號","121.464495","25.0065316666667","6500100","板橋區"
"220014","829-TW","2018/08/18 14:19:36","新北市板橋區長安街138巷3弄43號","121.47399","25.00978","6500100","板橋區"
"220016","830-TW","2018/08/18 14:19:24","新北市板橋區翠華街6巷94號","121.481846666667","25.0243383333333","6500100","板橋區"
"220045","831-TW","2018/08/18 14:19:20","新北市板橋區大同街26巷33號","121.478545","25.0263666666667","6500100","板橋區"
"220038","833-TW","2018/08/18 14:19:31","新北市板橋區文化路一段309-1號","121.465991666667","25.0199766666667","6500100","板橋區"
"220022","895-R6","2018/08/18 14:19:36","新北市板橋區北門街36號","121.457215","25.0109683333333","6500100","板橋區"
"220021","985-R7","2018/08/18 14:19:36","新北市板橋區中正路360巷37號","121.455791666667","25.0234283333333","6500100","板橋區"
"220046","AAC-210","2018/08/18 14:19:33","新北市板橋區漢生西路89巷5弄8-1號","121.461125","25.019345","6500100","板橋區"
"220018","AAC-253","2018/08/18 14:19:36","新北市板橋區忠孝路96號","121.461865","25.002045","6500100","板橋區"
"235032","KEA-2873","2018/08/18 14:19:29","新北市中和區景平路493-6號","121.499921666667","24.99789","6500300","中和區"
"235025","KEA-2875","2018/08/18 14:19:38","新北市中和區員山路144號","121.481186666667","24.9965483333333","6500300","中和區"
