"lineid","car","time","location","longitude","latitude","cityid","cityname"
"234052","KEA-2590","2018/08/18 14:59:36","新北市八里區下罟子5-6號","121.386471666667","25.1457583333333","6500400","永和區"
"234025","9371-KE","2018/08/18 14:59:33","新北市永和區水源街33巷5號","121.510868333333","25.0041983333333","6500400","永和區"
"248017","225-UY","2018/08/18 14:59:24","新北市五股區登林路118號","121.418493333333","25.0737616666667","6501500","五股區"
"231001","001-UM","2018/08/18 14:59:27","新北市新店區中正路272號","121.538881666667","24.973555","6500600","新店區"
"231002","002-UM","2018/08/18 14:59:34","新北市新店區民權路89號","121.5378","24.9829066666667","6500600","新店區"
"231028","046-UY","2018/08/18 14:59:21","新北市新店區安豐路7號","121.50169","24.9572266666667","6500600","新店區"
"231005","106-UY","2018/08/18 14:59:30","新北市新店區寶慶街58巷2號","121.542071666667","24.9867016666667","6500600","新店區"
"231020","108-UY","2018/08/18 14:59:37","新北市新店區新烏路二段50巷5號","121.548575","24.92686","6500600","新店區"
"231012","187-VK","2018/08/18 14:59:27","新北市新店區寶橋路132號","121.547398333333","24.97608","6500600","新店區"
"231023","KEA-2219","2018/08/18 14:59:31","新北市新店區檳榔路109號","121.544523333333","24.961645","6500600","新店區"
"231026","256-BX","2018/08/18 14:59:25","新北市新店區博愛街1號","121.540528333333","24.97251","6500600","新店區"
"231003","268-BY","2018/08/18 14:59:21","新北市新店區中興路一段298號","121.546205","24.9694683333333","6500600","新店區"
"231018","278-BY","2018/08/18 14:59:32","新北市新店區中央六街3號","121.53037","24.9744283333333","6500600","新店區"
"231017","AAD-862","2018/08/18 14:59:35","新北市新店區北宜路二段493號","121.562898333333","24.9539083333333","6500600","新店區"
"231038","3712-VJ","2018/08/18 14:59:30","新北市新店區安康路一段355-2號","121.519556666667","24.96288","6500600","新店區"
"231025","4715-K9","2018/08/18 14:59:24","新北市新店區大同街31號","121.538635","24.9807233333333","6500600","新店區"
"231036","512-UM","2018/08/18 14:59:37","新北市新店區安祥路106巷20號","121.478018333333","24.9624216666667","6500600","新店區"
"231006","617-UM","2018/08/18 14:59:28","新北市新店區新坡一街72號","121.548926666667","24.9645833333333","6500600","新店區"
"231030","619-UM","2018/08/18 14:59:37","新北市新店區安民街341-1號","121.516713333333","24.97489","6500600","新店區"
"231034","641-BX","2018/08/18 14:59:17","新北市新店區玫瑰路4-1號","121.493611666667","24.9513916666667","6500600","新店區"
"231039","718-UY","2018/08/18 14:59:32","新北市新店區中興路三段88號","121.54532","24.9788116666667","6500600","新店區"
"231035","719-UM","2018/08/18 14:59:23","新北市新店區安業街33號","121.517263333333","24.97734","6500600","新店區"
"231033","720-UM","2018/08/18 14:59:29","新北市新店區安泰路22-1號","121.485271666667","24.9482283333333","6500600","新店區"
"231029","897-TW","2018/08/18 14:59:39","新北市新店區安康路三段664號","121.476223333333","24.9443416666667","6500600","新店區"
"231004","899-TW","2018/08/18 14:59:33","新北市新店區民族路14-1號","121.541468333333","24.9788283333333","6500600","新店區"
"231024","AKT-0513","2018/08/18 14:59:32","新北市新店區中華路48巷13號","121.540261666667","24.9688433333333","6500600","新店區"
"235030","003-UY","2018/08/18 14:59:19","新北市中和區中山路二段31號","121.504788333333","25.0052633333333","6500300","中和區"
"235020","096-UM","2018/08/18 14:59:39","新北市中和區中山路三段170巷6弄1號","121.472613333333","25.007335","6500300","中和區"
"235003","097-UM","2018/08/18 14:59:20","新北市中和區宜安路52巷12號","121.512196666667","24.9970383333333","6500300","中和區"
"235029","098-UM","2018/08/18 14:59:26","新北市中和區永和路128巷9號","121.497665","25.0069433333333","6500300","中和區"
"235004","150-BY","2018/08/18 14:59:22","新北市中和區保健路19巷31號","121.508551666667","24.9988933333333","6500300","中和區"
"235013","186-VK","2018/08/18 14:59:24","新北市中和區南華路15號","121.502441666667","24.99571","6500300","中和區"
"235031","255-BX","2018/08/18 14:59:37","新北市板橋區光武街125巷12號","121.46545","25.0283716666667","6500300","中和區"
"235008","293-VK","2018/08/18 14:59:37","新北市中和區中正路67號","121.501308333333","24.9933583333333","6500300","中和區"
"235036","301-VK","2018/08/18 14:59:38","新北市中和區中山路二段327巷20號","121.493116666667","25.0003033333333","6500300","中和區"
"235007","352-BY","2018/08/18 14:59:25","新北市中和區興南路一段162號","121.508198333333","24.9866583333333","6500300","中和區"
"235006","KEA-2878","2018/08/18 14:59:23","新北市土城區龍泉路349巷2號","121.408776666667","24.9501983333333","6500300","中和區"
"247009","KEA-2869","2018/08/18 14:59:19","新北市五股區中興路二段176號","121.457855","25.077875","6501400","蘆洲區"
"235014","4979-A6","2018/08/18 14:59:36","新北市中和區景平路239巷13號","121.509301666667","24.9924366666667","6500300","中和區"
"235033","4980-A6","2018/08/18 14:59:24","新北市中和區景平路634-2號","121.500876666667","24.9988283333333","6500300","中和區"
"235034","558-UM","2018/08/18 14:59:31","新北市中和區中正路250號","121.495725","24.9940233333333","6500300","中和區"
"235018","640-BX","2018/08/18 14:59:35","新北市中和區自治街1號","121.474653333333","25.0033133333333","6500300","中和區"
"235010","733-UM","2018/08/18 14:59:33","新北市中和區興南路一段105巷20弄8號","121.510393333333","24.9856633333333","6500300","中和區"
"235026","800-TS","2018/08/18 14:59:19","新北市中和區中山路二段342號","121.493801666667","25.0023666666667","6500300","中和區"
"235012","896-TW","2018/08/18 14:59:36","新北市中和區忠孝街1巷2-1號","121.50915","24.98302","6500300","中和區"
"235017","900-TW","2018/08/18 14:59:30","新北市中和區民德路254號","121.46792","24.9971433333333","6500300","中和區"
"235015","157-BY","2018/08/18 14:59:23","新北市中和區板南路187號","121.499885","24.9927816666667","6500300","中和區"
"235001","AAC-213","2018/08/18 14:59:24","新北市中和區自立路99巷22弄7號","121.523321666667","24.9942416666667","6500300","中和區"
"235023","AAC-215","2018/08/18 14:59:35","新北市中和區圓通路335巷1弄1號","121.492051666667","24.99041","6500300","中和區"
"220013","072-UY","2018/08/18 14:59:33","新北市板橋區長安街23號","121.466608333333","25.008745","6500100","板橋區"
"220105","075-UY","2018/08/18 14:59:25","新北市板橋區文聖街11巷22號","121.475896666667","25.032745","6500100","板橋區"
"220017","AAD-861","2018/08/18 14:59:33","新北市板橋區大明街45-3號","121.457798333333","25.002835","6500100","板橋區"
"247006","336-TH","2018/08/18 14:51:28","新北市五股區中興路三段2巷10號","121.449356666667","25.080945","6501400","蘆洲區"
"228004","212-TW","2018/08/18 14:59:29","新北市貢寮區雙玉里田寮洋街24號","121.92895","25.0177333333333","6502600","貢寮區"
"253003","6232-TK","2018/08/18 14:59:17","新北市石門區尖子鹿116-1號","121.574661666667","25.296945","6502200","石門區"
"253001","6251-TK","2018/08/18 14:59:37","新北市石門區小坑9號","121.594671666667","25.2865583333333","6502200","石門區"
"253002","637-UY","2018/08/18 14:59:21","新北市石門區小坑9號","121.59445","25.2891766666667","6502200","石門區"
"253004","8270-PC","2018/08/18 14:59:28","新北市石門區茂林社區247號","121.593453333333","25.2697483333333","6502200","石門區"
"207002","749-BX","2018/08/18 14:59:36","新北市萬里區崁腳里崁腳路64號","121.648453333333","25.1597266666667","6502800","萬里區"
"207001","681-TV","2018/08/18 14:59:23","新北市萬里區雙興里太和路30-1號","121.654726666667","25.177985","6502800","萬里區"
"252005","073-UM","2018/08/18 14:59:23","新北市三芝區埔坪里埔頭坑85號","121.507663333333","25.25442","6502100","三芝區"
"236068","105-UM","2018/08/18 14:59:38","新北市土城區裕生路84巷4號","121.44703","24.9855333333333","6501300","土城區"
"236040","107-UM","2018/08/18 14:59:20","新北市土城區裕民路214巷14號","121.452883333333","24.98406","6501300","土城區"
"236074","166-UM","2018/08/18 14:59:25","新北市土城區中央路四段55-12號","121.4183","24.9578016666667","6501300","土城區"
"236029","253-BX","2018/08/18 14:59:37","新北市土城區福仁街65號","121.439591666667","24.974715","6501300","土城區"
"236024","269-VK","2018/08/18 14:59:34","新北市土城區中正路76號","121.444583333333","24.9754783333333","6501300","土城區"
"236013","270-VK","2018/08/18 14:59:34","新北市土城區永豐路29巷6號","121.463368333333","24.988355","6501300","土城區"
"236032","271-VK","2018/08/18 14:59:22","新北市土城區青仁路51號","121.461591666667","24.9796716666667","6501300","土城區"
"236017","401-BY","2018/08/18 14:59:22","新北市土城區延吉街217巷11弄1號","121.469081666667","24.984385","6501300","土城區"
"236057","912-UM","2018/08/18 14:59:40","新北市土城區金城路二段240號","121.456738333333","24.9830583333333","6501300","土城區"
"236045","913-UM","2018/08/18 14:59:29","新北市土城區青雲路319號","121.458953333333","24.9786216666667","6501300","土城區"
"236060","915-UM","2018/08/18 14:59:29","新北市土城區金城路三段139巷10號","121.468033333333","24.9887266666667","6501300","土城區"
"236054","AAC-216","2018/08/18 14:59:37","新北市土城區學成路67號","121.451595","24.9879866666667","6501300","土城區"
"221015","131-UY","2018/08/18 14:59:26","新北市三重區仁愛街141巷22號","121.496626666667","25.07621","6501100","汐止區"
"221010","269-BY","2018/08/18 14:59:19","新北市汐止區汐萬路一段256巷1號","121.652031666667","25.074805","6501100","汐止區"
"220050","245-BX","2018/08/18 14:59:28","新北市板橋區莒光路167-4號","121.474341666667","25.023625","6500100","板橋區"
"220040","267-BY","2018/08/18 14:59:19","新北市板橋區民治街119巷7號","121.478571666667","25.030655","6500100","板橋區"
"220004","276-BY","2018/08/18 14:59:25","新北市五股區新五路二段126號","121.437663333333","25.0770183333333","6500100","板橋區"
"220019","283-VK","2018/08/18 14:59:36","新北市板橋區廣權路103號","121.464626666667","24.9927816666667","6500100","板橋區"
"220043","285-UM","2018/08/18 14:59:35","新北市板橋區陽明街243號","121.462968333333","25.0246166666667","6500100","板橋區"
"220001","285-VK","2018/08/18 14:59:25","新北市板橋區永豐街169號","121.475666666667","25.0204633333333","6500100","板橋區"
"220031","286-VK","2018/08/18 14:59:37","新北市板橋區僑中二街100巷34號","121.444606666667","25.00876","6500100","板橋區"
"220029","287-VK","2018/08/18 14:59:30","新北市板橋區僑中一街102巷7弄5號","121.446585","25.012865","6500100","板橋區"
"220039","288-VK","2018/08/18 14:59:30","新北市板橋區新海路109巷1弄2號","121.460693333333","25.022425","6500100","板橋區"
"220009","293-UM","2018/08/18 14:59:28","新北市板橋區觀光街3巷16-4號","121.471291666667","25.0155516666667","6500100","板橋區"
"220032","296-UM","2018/08/18 14:59:19","新北市板橋區溪崑二街120號","121.426111666667","24.9882383333333","6500100","板橋區"
"220041","299-UM","2018/08/18 14:59:38","新北市板橋區裕民街133巷2號","121.459401666667","25.02707","6500100","板橋區"
"220047","317-R6","2018/08/18 14:59:33","新北市板橋區新海路72巷15號","121.46256","25.0221733333333","6500100","板橋區"
"220028","461-BY","2018/08/18 14:59:32","新北市板橋區大觀路二段153巷44弄53號","121.446048333333","24.99902","6500100","板橋區"
"220012","486-VK","2018/08/18 14:59:31","新北市板橋區區運路82號","121.46689","25.0104116666667","6500100","板橋區"
"220037","491-VK","2018/08/18 14:59:27","新北市板橋區懷德街133號","121.479133333333","25.0305433333333","6500100","板橋區"
"220104","560-BX","2018/08/18 14:59:24","新北市板橋區新生街39號","121.456845","25.02113","6500100","板橋區"
"220052","561-BX","2018/08/18 14:59:35","新北市板橋區自由路41號","121.465598333333","25.023225","6500100","板橋區"
"220027","568-UM","2018/08/18 14:59:37","新北市新莊區三和路10號","121.442298333333","25.0360866666667","6500100","板橋區"
"220011","609-BX","2018/08/18 14:59:33","新北市板橋區中山路二段318巷2弄4號","121.480453333333","25.0192733333333","6500100","板橋區"
"220025","687-BX","2018/08/18 14:59:23","新北市板橋區僑中一街124巷73號","121.446765","25.017695","6500100","板橋區"
"220042","689-BX","2018/08/18 14:59:32","新北市板橋區文化路二段503號","121.4761","25.0344383333333","6500100","板橋區"
"220002","741-BX","2018/08/18 14:59:26","新北市板橋區忠孝路201巷52號","121.464876666667","25.00392","6500100","板橋區"
"220051","KEA-2699","2018/08/18 14:59:26","新北市板橋區文聖街49號","121.476498333333","25.0313683333333","6500100","板橋區"
"220003","827-TW","2018/08/18 14:59:19","新北市板橋區重慶路290巷42號","121.461633333333","24.9988016666667","6500100","板橋區"
"220014","829-TW","2018/08/18 14:59:25","新北市板橋區中山路一段214號","121.470186666667","25.0139983333333","6500100","板橋區"
"220016","830-TW","2018/08/18 14:59:39","新北市板橋區中山路二段318巷2弄4號","121.480408333333","25.0191333333333","6500100","板橋區"
"220045","831-TW","2018/08/18 14:59:25","新北市板橋區莒光路133巷7弄4-1號","121.472258333333","25.0244933333333","6500100","板橋區"
"220038","833-TW","2018/08/18 14:59:39","新北市板橋區龍泉街55巷26號","121.457665","25.0251616666667","6500100","板橋區"
"220022","895-R6","2018/08/18 14:59:32","新北市板橋區館前西路53號","121.457728333333","25.0066933333333","6500100","板橋區"
"220021","985-R7","2018/08/18 14:59:36","新北市板橋區大觀路288號","121.449611666667","24.9982366666667","6500100","板橋區"
"220046","AAC-210","2018/08/18 14:59:33","新北市板橋區光正街45巷2弄18號","121.460995","25.0173116666667","6500100","板橋區"
"220018","AAC-253","2018/08/18 14:59:24","新北市板橋區四川路二段2號","121.456655","24.996555","6500100","板橋區"
"235032","KEA-2873","2018/08/18 14:59:29","新北市中和區勝利路35巷1弄23號","121.499785","25.0077483333333","6500300","中和區"
