"lineid","car","time","location","longitude","latitude","cityid","cityname"
"231046","107-UY","2018/08/18 16:29:33","新北市新店區灣潭路3-6號","121.537706666667","24.9499533333333","6500600","新店區"
"241011","013-R5","2018/08/18 16:29:22","新北市三重區龍濱路172號","121.501373333333","25.0728133333333","6500200","三重區"
"241028","022-UY","2018/08/18 16:29:31","新北市三重區中正南路186號","121.493971666667","25.0562916666667","6500200","三重區"
"241008","059-VK","2018/08/18 16:29:19","新北市三重區力行路二段136巷45弄10號","121.479048333333","25.075295","6500200","三重區"
"241022","060-VK","2018/08/18 16:29:38","新北市三重區三民街59號","121.486006666667","25.06234","6500200","三重區"
"241031","061-VK","2018/08/18 16:29:29","新北市三重區重陽路一段45號","121.486646666667","25.058145","6500200","三重區"
"241015","062-VK","2018/08/18 16:29:29","新北市三重區福德北路36號","121.50196","25.0652483333333","6500200","三重區"
"241017","063-VK","2018/08/18 16:29:39","新北市三重區大同北路52號","121.495196666667","25.0631183333333","6500200","三重區"
"241024","065-VK","2018/08/18 16:29:26","新北市三重區中正北路257號","121.475456666667","25.071035","6500200","三重區"
"241026","066-VK","2018/08/18 16:29:26","新北市三重區光興街1號","121.500335","25.060415","6500200","三重區"
"241002","090-VK","2018/08/18 16:29:33","新北市三重區五華街32號","121.494591666667","25.0807333333333","6500200","三重區"
"241003","091-VK","2018/08/18 16:29:23","新北市三重區五華街71巷112號","121.494855","25.0842616666667","6500200","三重區"
"241005","262-UM","2018/08/18 16:29:34","新北市三重區溪尾街305號","121.487446666667","25.0837933333333","6500200","三重區"
"241016","266-UM","2018/08/18 16:29:20","新北市三重區大智街25號","121.494298333333","25.065905","6500200","三重區"
"241009","267-UM","2018/08/18 16:29:28","新北市三重區三和路四段203巷119號","121.484716666667","25.0799583333333","6500200","三重區"
"241018","268-UM","2018/08/18 16:29:37","新北市三重區重陽路四段75號","121.492295","25.0707216666667","6500200","三重區"
"241032","269-UM","2018/08/18 16:29:29","新北市三重區三陽路100巷3弄13號","121.482981666667","25.058175","6500200","三重區"
"241013","270-UM","2018/08/18 16:29:37","新北市三重區三和路三段83巷148號","121.498416666667","25.073305","6500200","三重區"
"241025","271-UM","2018/08/18 16:29:39","新北市三重區中正北路560巷100弄17-1號","121.472685","25.068355","6500200","三重區"
"241007","398-BY","2018/08/18 16:29:27","新北市三重區三和路四段167巷196號","121.488265","25.0804383333333","6500200","三重區"
"241004","475-VK","2018/08/18 16:29:21","新北市三重區仁愛街377巷5號","121.49205","25.0806433333333","6500200","三重區"
"241020","478-VK","2018/08/18 16:29:26","新北市三重區後竹圍街250號","121.48434","25.0713333333333","6500200","三重區"
"241030","480-VK","2018/08/18 16:29:25","新北市三重區成功路106-1號","121.487611666667","25.0515466666667","6500200","三重區"
"241014","543-UM","2018/08/18 16:29:31","新北市三重區河邊北街96-1號","121.504075","25.0699166666667","6500200","三重區"
"241023","545-UM","2018/08/18 16:29:25","新北市三重區忠孝路三段50巷45號","121.482911666667","25.064365","6500200","三重區"
"241001","547-UM","2018/08/18 16:29:33","新北市三重區福隆路22號","121.49164","25.0780383333333","6500200","三重區"
"241019","KEA-2593","2018/08/18 16:29:22","新北市三重區重陽路三段142-1號","121.489493333333","25.0671733333333","6500200","三重區"
"241006","AAD-863","2018/08/18 16:29:35","新北市三重區力行路二段164號","121.482996666667","25.0767","6500200","三重區"
"241012","941-UM","2018/08/18 16:29:38","新北市三重區河邊北街351號","121.502133333333","25.0755983333333","6500200","三重區"
"241029","942-UM","2018/08/18 16:29:36","新北市三重區集美街126巷2號","121.489026666667","25.0536716666667","6500200","三重區"
"241033","AAC-255","2018/08/18 16:29:33","新北市三重區重新路五段317巷3弄7號","121.477558333333","25.0496583333333","6500200","三重區"
"247006","336-TH","2018/08/18 16:29:27","新北市五股區中興路三段163號","121.449168333333","25.0807433333333","6501400","蘆洲區"
"224007","275-VK","2018/08/18 16:29:33","新北市瑞芳區中央路49巷19號","121.763356666667","25.10265","6501200","瑞芳區"
"224005","271-BY","2018/08/18 16:29:26","新北市瑞芳區瑞濱路67號","121.822131666667","25.1208666666667","6501200","瑞芳區"
"227002","642-TC","2018/08/18 16:29:37","新北市雙溪區上林里內平林120-2號","121.824688333333","25.02634","6502500","雙溪區"
"227010","400-TW","2018/08/18 16:29:29","新北市雙溪區三港里雙澳路6號","121.869178333333","25.0465583333333","6502500","雙溪區"
"251016","179-VK","2018/08/18 16:29:32","新北市淡水區中正路二段31號","121.419278333333","25.1817383333333","6501000","淡水區"
"251014","180-VK","2018/08/18 16:29:32","新北市淡水區淡海路100號","121.422543333333","25.182275","6501000","淡水區"
