"lineid","car","time","location","longitude","latitude","cityid","cityname"
"234026","9371-KE","2018/08/18 17:53:07","新北市永和區中山路一段64號","121.512751666667","25.0107516666667","6500400","永和區"
"249005","172-UM","2018/08/18 17:52:52","新北市八里區荖阡坑路24-1號","121.4002","25.1368016666667","6502300","八里區"
"249001","173-UM","2018/08/18 17:52:56","新北市八里區龍米路二段81號","121.447825","25.1415366666667","6502300","八里區"
"249004","303-UY","2018/08/18 17:53:00","新北市八里區大崁二街12-1號","121.418521666667","25.1573916666667","6502300","八里區"
"249002","305-UY","2018/08/18 17:52:55","新北市八里區龍形五街37巷8號","121.448441666667","25.132105","6502300","八里區"
"249003","593-UM","2018/08/18 17:53:09","新北市八里區中山路二段75號","121.406286666667","25.153165","6502300","八里區"
"248008","095-VK","2018/08/18 17:53:00","新北市五股區中興路二段37巷28號","121.460163333333","25.0750833333333","6501500","五股區"
"248020","225-UY","2018/08/18 17:52:54","新北市五股區中興路二段83巷26-6號","121.460063333333","25.0752966666667","6501500","五股區"
"248002","678-BX","2018/08/18 17:53:04","新北市五股區中興路二段37巷26號","121.460403333333","25.0748783333333","6501500","五股區"
"232011","375-UM","2018/08/18 17:52:52","新北市坪林區水柳腳39號","121.70965","24.93511","6502000","坪林區"
"244007","080-UY","2018/08/18 17:53:04","新北市林口區林口路118號","121.388548333333","25.08144","6501700","林口區"
"244019","403-UM","2018/08/18 17:53:09","新北市林口區忠孝路542巷5號","121.37314","25.0676","6501700","林口區"
"244013","KEA-2802","2018/08/18 17:52:59","新北市林口區中山路190號","121.389131666667","25.07888","6501700","林口區"
"244023","483-VK","2018/08/18 17:53:13","新北市林口區東湖路96號","121.385741666667","25.073735","6501700","林口區"
"244017","485-VK","2018/08/18 17:53:08","新北市林口區文化二路一段258號","121.370683333333","25.0736016666667","6501700","林口區"
"244009","656-BX","2018/08/18 17:52:59","新北市林口區林口路295號","121.385761666667","25.084775","6501700","林口區"
"244011","657-BX","2018/08/18 17:52:53","新北市林口區中興街3號","121.388986666667","25.0775283333333","6501700","林口區"
"244025","837-TS","2018/08/18 17:53:11","新北市林口區文化三路一段39巷1號","121.360331666667","25.0669483333333","6501700","林口區"
"244021","838-TS","2018/08/18 17:53:09","新北市林口區新寮29-2號","121.399575","25.066345","6501700","林口區"
"222003","436-BY","2018/08/18 17:53:02","新北市深坑區阿柔洋47號","121.612225","24.9976716666667","6501800","深坑區"
"222002","659-BX","2018/08/18 17:52:56","新北市深坑區平埔街22巷8號","121.614921666667","25.000895","6501800","深坑區"
"231046","107-UY","2018/08/18 17:53:13","新北市新店區康雅崙路1號","121.540581666667","24.926215","6500600","新店區"
"241017","063-VK","2018/08/18 17:52:59","新北市五股區新城八路26號","121.448031666667","25.089875","6500200","三重區"
"241024","065-VK","2018/08/18 17:53:06","新北市三重區國道路一段46號","121.482551666667","25.07302","6500200","三重區"
"241016","266-UM","2018/08/18 17:52:59","新北市三重區新北大道一段66號","121.487213333333","25.0614466666667","6500200","三重區"
"241006","AAD-863","2018/08/18 17:53:09","新北市八里區荖阡坑路4-25號","121.398145","25.1429116666667","6500200","三重區"
"241033","AAC-255","2018/08/18 17:53:13","新北市三重區重新路五段602號","121.468826666667","25.0451616666667","6500200","三重區"
"235064","005-UY","2018/08/18 17:53:10","新北市中和區員山路36巷16-3號","121.485066666667","24.9912633333333","6500300","中和區"
"235063","006-UY","2018/08/18 17:52:59","新北市中和區員山路36巷16-3號","121.48495","24.9912966666667","6500300","中和區"
"235058","151-BY","2018/08/18 17:53:14","新北市中和區員山路36巷16-2號","121.485233333333","24.9916633333333","6500300","中和區"
"235038","185-VK","2018/08/18 17:52:55","新北市中和區員山路36巷13號","121.484176666667","24.9909283333333","6500300","中和區"
"235042","KEA-2878","2018/08/18 17:53:01","新北市中和區和城路一段271巷1號","121.485398333333","24.9918116666667","6500300","中和區"
"247010","KEA-2869","2018/08/18 17:52:57","新北市蘆洲區信義路271巷4號","121.478593333333","25.084985","6501400","蘆洲區"
"235070","558-UM","2018/08/18 17:53:05","新北市中和區員山路36巷16-2號","121.485076666667","24.991675","6500300","中和區"
"235052","805-TS","2018/08/18 17:53:07","新北市中和區員山路36巷13號","121.484361666667","24.9914633333333","6500300","中和區"
"235053","900-TW","2018/08/18 17:53:03","新北市中和區員山路36巷16-3號","121.485006666667","24.99164","6500300","中和區"
"235037","AAC-213","2018/08/18 17:53:03","新北市中和區錦和路99號","121.490143333333","24.9955033333333","6500300","中和區"
"247022","500-BY","2018/08/18 17:53:01","新北市蘆洲區中正路400號","121.463221666667","25.0934433333333","6501400","蘆洲區"
"247012","339-TH","2018/08/18 17:53:11","新北市蘆洲區復興路210號","121.478671666667","25.0890333333333","6501400","蘆洲區"
"247018","057-VK","2018/08/18 17:52:59","新北市蘆洲區復興路227巷2弄2號","121.480013333333","25.0900216666667","6501400","蘆洲區"
"247007","056-VK","2018/08/18 17:53:04","新北市蘆洲區信義路37巷10號","121.474365","25.0798033333333","6501400","蘆洲區"
"247014","053-VK","2018/08/18 17:52:59","新北市蘆洲區保和街50-9號","121.47007","25.0864433333333","6501400","蘆洲區"
"247016","007-UY","2018/08/18 17:52:57","新北市蘆洲區中正路185巷23弄2號","121.46703","25.0846366666667","6501400","蘆洲區"
"247002","002-UY","2018/08/18 17:53:10","新北市蘆洲區永平街32巷33弄8號","121.459011666667","25.0921883333333","6501400","蘆洲區"
"247020","001-UY","2018/08/18 17:53:08","新北市蘆洲區民義街71巷31號","121.472201666667","25.091095","6501400","蘆洲區"
"226004","312-R5","2018/08/18 17:53:01","新北市平溪區石底里公園街18-3號","121.733465","25.025705","6502400","平溪區"
"228003","097-TW","2018/08/18 17:52:55","新北市貢寮區真理里美艷山街6-2號","121.928851666667","25.06078","6502600","貢寮區"
"228001","212-TW","2018/08/18 17:52:55","新北市貢寮區仁理村仁愛路95-1號","121.927663333333","25.0554783333333","6502600","貢寮區"
"228002","663-BX","2018/08/18 17:53:04","新北市貢寮區福隆里東興街40號","121.948926666667","25.01796","6502600","貢寮區"
"224010","AGQ-8101","2018/08/18 17:53:01","新北市瑞芳區逢甲路23號","121.809308333333","25.1088183333333","6501200","瑞芳區"
"224006","676-BX","2018/08/18 17:53:05","新北市瑞芳區傑魚坑路183號","121.788471666667","25.1083266666667","6501200","瑞芳區"
"224002","639-TC","2018/08/18 17:52:56","新北市瑞芳區明燈路二段44-1號","121.809485","25.10822","6501200","瑞芳區"
"224008","285-BY","2018/08/18 17:52:59","新北市瑞芳區明燈路一段163號","121.819383333333","25.107445","6501200","瑞芳區"
"224009","273-VK","2018/08/18 17:53:03","新北市瑞芳區山尖路181號","121.852555","25.11296","6501200","瑞芳區"
"224005","271-BY","2018/08/18 17:53:06","新北市瑞芳區建基路一段62巷16號","121.816846666667","25.1278183333333","6501200","瑞芳區"
"227002","642-TC","2018/08/18 17:52:57","新北市雙溪區共和里東榮街52號","121.866288333333","25.0337166666667","6502500","雙溪區"
"253006","295-VK","2018/08/18 17:53:02","新北市石門區老梅路52巷25弄2-1號","121.54659","25.2876866666667","6502200","石門區"
"222001","KEA-2212","2018/08/18 17:52:53","新北市深坑區北深路三段25巷15-2號","121.608685","24.9996783333333","6501800","深坑區"
"208002","KEA-2872","2018/08/18 17:52:56","新北市金山區文化二路42巷1號","121.635321666667","25.22766","6502700","金山區"
"208003","665-BX","2018/08/18 17:52:57","新北市金山區磺清路135號","121.639281666667","25.2276183333333","6502700","金山區"
"208001","761-BX","2018/08/18 17:52:57","新北市金山區磺清路135號","121.63925","25.2276116666667","6502700","金山區"
"251009","008-UM","2018/08/18 17:53:02","新北市淡水區中山路108巷16號","121.44213","25.17119","6501000","淡水區"
"251005","010-UM","2018/08/18 17:52:53","新北市淡水區學府路96號","121.449288333333","25.1711616666667","6501000","淡水區"
"251001","011-UM","2018/08/18 17:53:07","新北市淡水區民權路92巷35-1號","121.46217","25.12675","6501000","淡水區"
"251002","012-UM","2018/08/18 17:52:58","新北市淡水區中山路13號","121.444165","25.169785","6501000","淡水區"
"251013","KEA-2871","2018/08/18 17:53:04","新北市淡水區泉洲厝31號","121.479621666667","25.1910133333333","6501000","淡水區"
"251016","179-VK","2018/08/18 17:53:12","新北市淡水區埤島39-15號","121.452771666667","25.1958833333333","6501000","淡水區"
"251014","180-VK","2018/08/18 17:52:52","新北市淡水區公埔子16-6號","121.481016666667","25.22462","6501000","淡水區"
"251015","181-VK","2018/08/18 17:53:10","新北市淡水區興福寮22-3號","121.493808333333","25.164215","6501000","淡水區"
"251010","413-VK","2018/08/18 17:53:08","新北市淡水區觀海路27號","121.418551666667","25.1816083333333","6501000","淡水區"
"251012","441-VK","2018/08/18 17:53:00","新北市淡水區北新路二段138號","121.481938333333","25.18527","6501000","淡水區"
"251008","442-VK","2018/08/18 17:53:08","新北市淡水區八勢一街46號","121.461235","25.1550616666667","6501000","淡水區"
"251004","443-VK","2018/08/18 17:53:02","新北市淡水區民權路84號","121.45917","25.133525","6501000","淡水區"
"251006","561-UM","2018/08/18 17:53:01","新北市淡水區中山北路一段24號","121.441676666667","25.1752316666667","6501000","淡水區"
"251007","577-R6","2018/08/18 17:53:11","新北市淡水區民生路117巷54弄2號","121.464631666667","25.14047","6501000","淡水區"
"251011","650-BX","2018/08/18 17:50:14","新北市淡水區吳(仔)厝25號","121.479515","25.1490483333333","6501000","淡水區"
"251003","673-BX","2018/08/18 17:52:59","新北市淡水區大忠街13號","121.443348333333","25.176065","6501000","淡水區"
"207003","550-UM","2018/08/18 17:53:07","新北市萬里區野柳里東澳路8號","121.691216666667","25.2038783333333","6502800","萬里區"
"207004","225-TW","2018/08/18 17:53:10","新北市萬里區萬里里瑪鋉頂街100-1號","121.687813333333","25.180525","6502800","萬里區"
"252002","178-VK","2018/08/18 17:53:03","新北市三芝區中山路一段102號","121.502328333333","25.2562733333333","6502100","三芝區"
"252001","292-VK","2018/08/18 17:53:07","新北市三芝區中興街一段28號","121.497698333333","25.25785","6502100","三芝區"
"237004","KEA-2597","2018/08/18 17:52:52","新北市三峽區中園街51號","121.368203333333","24.926065","6500900","三峽區"
"237007","153-BY","2018/08/18 17:53:02","新北市三峽區中園街121號","121.367566666667","24.923805","6500900","三峽區"
"237011","572-TV","2018/08/18 17:53:10","新北市三峽區大同路176號","121.372623333333","24.926825","6500900","三峽區"
"237009","210-TH","2018/08/18 17:53:09","新北市三峽區大勇路13號","121.367245","24.936895","6500900","三峽區"
"237013","252-BX","2018/08/18 17:53:08","新北市三峽區愛國路12號","121.374165","24.9338383333333","6500900","三峽區"
"237012","275-BY","2018/08/18 17:53:13","新北市三峽區民生街86號","121.374285","24.9357366666667","6500900","三峽區"
"237008","302-VK","2018/08/18 17:52:56","新北市三峽區正義街79號","121.369023333333","24.9180933333333","6500900","三峽區"
"237014","433-BY","2018/08/18 17:53:05","新北市三峽區復興路101巷1弄73號","121.371385","24.937545","6500900","三峽區"
"237006","5529-G3","2018/08/18 17:52:59","新北市三峽區介壽路二段136巷106弄16號","121.391831666667","24.933355","6500900","三峽區"
"237016","649-BX","2018/08/18 17:52:56","新北市三峽區白雞149-2號","121.400118333333","24.9055233333333","6500900","三峽區"
"237010","706-TV","2018/08/18 17:52:54","新北市三峽區中山路72號","121.367006666667","24.9350316666667","6500900","三峽區"
"237005","AKY-6261","2018/08/18 17:53:01","新北市三峽區文化路254號","121.367248333333","24.93581","6500900","三峽區"
"236070","105-UM","2018/08/18 17:52:55","新北市土城區青雲路663號","121.464705","24.965795","6501300","土城區"
"236042","107-UM","2018/08/18 17:53:01","新北市土城區城林路6巷80號","121.438531666667","24.9797166666667","6501300","土城區"
"236079","166-UM","2018/08/18 17:52:59","新北市土城區永寧路35號","121.430118333333","24.96215","6501300","土城區"
"236030","253-BX","2018/08/18 17:53:05","新北市土城區城林路6巷80號","121.438666666667","24.9796783333333","6501300","土城區"
"236026","269-VK","2018/08/18 17:53:05","新北市土城區城林路6巷80號","121.438478333333","24.9795866666667","6501300","土城區"
"236014","270-VK","2018/08/18 17:53:13","新北市土城區城林路6巷80號","121.438526666667","24.97962","6501300","土城區"
"236038","271-VK","2018/08/18 17:53:02","新北市土城區城林路6巷80號","121.438483333333","24.9797916666667","6501300","土城區"
"236021","401-BY","2018/08/18 17:53:09","新北市土城區城林路6巷80號","121.438706666667","24.97976","6501300","土城區"
"236059","912-UM","2018/08/18 17:53:06","新北市土城區中央路三段182號","121.430651666667","24.9650983333333","6501300","土城區"
"236049","913-UM","2018/08/18 17:53:10","新北市土城區城林路6巷80號","121.438635","24.9796766666667","6501300","土城區"
"236055","AAC-216","2018/08/18 17:52:59","新北市土城區城林路6巷80號","121.438511666667","24.9795866666667","6501300","土城區"
"242034","AAC-296","2018/08/18 17:53:13","新北市新莊區新莊路692號","121.440723333333","25.0328133333333","6500500","新莊區"
"242058","986-R7","2018/08/18 17:53:08","新北市新莊區新北大道七段355號","121.412411666667","25.0272","6500500","新莊區"
"242023","705-TV","2018/08/18 17:53:07","新北市新莊區福壽街6號","121.457805","25.0476783333333","6500500","新莊區"
"242027","615-BX","2018/08/18 17:53:07","新北市新莊區福壽街175號","121.458051666667","25.05404","6500500","新莊區"
"242025","613-BX","2018/08/18 17:52:51","新北市新莊區新北大道二段167號","121.464936666667","25.0610516666667","6500500","新莊區"
"242042","566-BX","2018/08/18 17:53:05","新北市新莊區中正路612-1號","121.426135","25.0302233333333","6500500","新莊區"
"242046","497-BY","2018/08/18 17:53:08","新北市新莊區福營路165巷23號","121.432605","25.0305466666667","6500500","新莊區"
"242053","442-UM","2018/08/18 17:53:04","新北市新莊區民安西路470-1號","121.431748333333","25.0078766666667","6500500","新莊區"
"242051","441-UM","2018/08/18 17:53:05","新北市新莊區民安西路155巷7弄3號","121.426808333333","25.0165716666667","6500500","新莊區"
"242056","440-UM","2018/08/18 17:53:03","新北市新莊區瓊林路40巷2號","121.448016666667","25.0302316666667","6500500","新莊區"
"242036","415-TV","2018/08/18 17:53:01","新北市新莊區建福路49巷28號","121.427813333333","25.028025","6500500","新莊區"
"242007","413-TV","2018/08/18 17:52:58","新北市新莊區自信街75巷21號","121.45567","25.04908","6500500","新莊區"
"242044","400-BY","2018/08/18 17:53:12","新北市新莊區雙鳳路27號","121.416511666667","25.026995","6500500","新莊區"
"242061","353-BY","2018/08/18 17:53:09","新北市新莊區新樹路579號","121.432975","25.006905","6500500","新莊區"
"242009","132-UY","2018/08/18 17:53:08","新北市新莊區昌明街42號","121.456315","25.052365","6500500","新莊區"
"242039","133-UY","2018/08/18 17:53:13","新北市新莊區民安路95號","121.42441","25.0253666666667","6500500","新莊區"
"242031","135-UY","2018/08/18 17:53:00","新北市新莊區新泰路355號","121.44447","25.0422783333333","6500500","新莊區"
"242048","172-VK","2018/08/18 17:52:54","新北市新莊區萬安街102巷2號","121.4203","25.0225533333333","6500500","新莊區"
"242011","173-VK","2018/08/18 17:53:14","新北市新莊區中港路699號","121.450705","25.0569883333333","6500500","新莊區"
"242017","175-VK","2018/08/18 17:53:05","新北市新莊區中港路341號","121.45221","25.0454016666667","6500500","新莊區"
"242004","176-VK","2018/08/18 17:52:58","新北市新莊區福樂街56巷5號","121.458405","25.0461666666667","6500500","新莊區"
"242015","346-TH","2018/08/18 17:53:10","新北市新莊區新泰路502巷38號","121.443583333333","25.0463316666667","6500500","新莊區"
"242021","347-TH","2018/08/18 17:53:04","新北市新莊區永寧街6鄰28巷1號","121.452808333333","25.0387316666667","6500500","新莊區"
"242002","349-TH","2018/08/18 17:53:01","新北市新莊區景德路87號","121.452251666667","25.0350316666667","6500500","新莊區"
"242019","350-TH","2018/08/18 17:53:11","新北市新莊區明中街48號","121.45674","25.0401","6500500","新莊區"
"238015","755-BX","2018/08/18 17:52:53","新北市樹林區復興路211巷7弄10號","121.420333333333","24.9913316666667","6500700","樹林區"
"238023","601-UM","2018/08/18 17:53:05","新北市樹林區龍興街31巷19號","121.403695","25.0161566666667","6500700","樹林區"
"238019","599-UM","2018/08/18 17:53:04","新北市樹林區太平路235-1號","121.419261666667","24.97415","6500700","樹林區"
"238018","571-TV","2018/08/18 17:53:09","新北市樹林區樹新路76號","121.429225","24.9972766666667","6500700","樹林區"
"238022","KEA-2213","2018/08/18 17:52:54","新北市樹林區太順街86巷25號","121.416391666667","24.9782133333333","6500700","樹林區"
"238021","KEA-2539","2018/08/18 17:53:03","新北市樹林區田尾街88-8號","121.408781666667","24.957535","6500700","樹林區"
"238025","303-VK","2018/08/18 17:53:09","新北市樹林區三俊街172號","121.417763333333","25.0154916666667","6500700","樹林區"
"238017","283-BY","2018/08/18 17:52:56","新北市樹林區俊德街58號","121.415173333333","25.0132766666667","6500700","樹林區"
"238014","282-BY","2018/08/18 17:52:58","新北市樹林區大安路9號","121.42503","25.0005216666667","6500700","樹林區"
"238026","172-UY","2018/08/18 17:52:38","新北市樹林區中山路三段147-5號","121.39596","24.97305","6500700","樹林區"
"238016","169-UY","2018/08/18 17:52:58","新北市樹林區啟智街179號","121.415463333333","24.9874716666667","6500700","樹林區"
"239007","AAC-297","2018/08/18 17:53:11","新北市鶯歌區鶯桃路94巷33號","121.34218","24.9544933333333","6500800","鶯歌區"
"239006","891-R6","2018/08/18 17:53:10","新北市鶯歌區鶯桃路413巷50號","121.330403333333","24.9632933333333","6500800","鶯歌區"
"239008","527-UM","2018/08/18 17:52:54","新北市鶯歌區國際一路108巷1號","121.335313333333","24.9771266666667","6500800","鶯歌區"
"239005","526-UM","2018/08/18 17:53:13","新北市鶯歌區鶯桃路660號","121.329041666667","24.969195","6500800","鶯歌區"
"239001","417-VK","2018/08/18 17:52:58","新北市鶯歌區中正三路268號","121.329285","24.9362566666667","6500800","鶯歌區"
"239003","360-BY","2018/08/18 17:53:10","新北市鶯歌區永吉街46巷1號","121.335503333333","24.9573266666667","6500800","鶯歌區"
"239002","359-BY","2018/08/18 17:53:09","新北市鶯歌區國華路81號","121.342975","24.954335","6500800","鶯歌區"
"239004","193-VK","2018/08/18 17:52:56","新北市鶯歌區中正二路91號","121.348645","24.9495633333333","6500800","鶯歌區"
"221008","489-VK","2018/08/18 17:52:56","新北市汐止區康寧街815巷11號","121.640738333333","25.0748983333333","6501100","汐止區"
"221036","130-UY","2018/08/18 17:52:53","新北市汐止區大同路二段537號","121.662031666667","25.06924","6501100","汐止區"
"221015","131-UY","2018/08/18 17:53:01","新北市汐止區長江街293號","121.665543333333","25.081305","6501100","汐止區"
"221010","269-BY","2018/08/18 17:52:57","新北市汐止區汐萬路二段245巷58號","121.645503333333","25.087975","6501100","汐止區"
"221012","278-VK","2018/08/18 17:53:00","新北市汐止區保長路1號","121.671041666667","25.0800233333333","6501100","汐止區"
"221023","279-VK","2018/08/18 17:53:06","新北市汐止區明峰街13號","121.635038333333","25.0713483333333","6501100","汐止區"
"221027","281-BY","2018/08/18 17:52:54","新北市汐止區汐萬路一段24號","121.655751666667","25.0679766666667","6501100","汐止區"
"221029","298-VK","2018/08/18 17:53:01","新北市汐止區連峰街1巷1號","121.646403333333","25.0760733333333","6501100","汐止區"
"221021","299-VK","2018/08/18 17:53:06","新北市汐止區水源路一段56號","121.65737","25.06544","6501100","汐止區"
"221031","353-TW","2018/08/18 17:53:04","新北市汐止區中興路130-1號","121.632913333333","25.0641983333333","6501100","汐止區"
"221002","129-UY","2018/08/18 17:53:02","新北市汐止區樟樹二路344-1號","121.641525","25.0705683333333","6501100","汐止區"
"221035","622-UM","2018/08/18 17:52:55","新北市汐止區汐萬路一段115巷40號","121.653343333333","25.0703883333333","6501100","汐止區"
"221025","623-UM","2018/08/18 17:53:13","新北市汐止區仁愛路1號","121.658486666667","25.0642766666667","6501100","汐止區"
"221038","646-BX","2018/08/18 17:53:05","新北市汐止區大同路二段182號","121.652015","25.0640033333333","6501100","汐止區"
"221033","647-BX","2018/08/18 17:52:56","台北市南港區舊莊街一段145巷6弄39號","121.622238333333","25.03989","6501100","汐止區"
"221018","753-BX","2018/08/18 17:52:54","新北市汐止區忠孝東路348號","121.66561","25.0697166666667","6501100","汐止區"
"242013","280-VK","2018/08/18 17:53:10","新北市新莊區中和街92號","121.447596666667","25.0467983333333","6500500","新莊區"
"235061","KEA-2875","2018/08/18 17:53:04","新北市中和區員山路36巷16-2號","121.4853","24.9917216666667","6500300","中和區"
