"lineid","car","time","location","longitude","latitude","cityid","cityname"
"234007","207-UY","2018/08/18 18:19:26","新北市永和區仁愛路306巷23號","121.502821666667","25.008455","6500400","永和區"
"234026","9371-KE","2018/08/18 18:19:33","新北市永和區自強街19巷3號","121.514805","25.0083683333333","6500400","永和區"
"249005","172-UM","2018/08/18 18:19:33","新北市八里區荖阡坑路15-28號","121.400441666667","25.1403333333333","6502300","八里區"
"249001","173-UM","2018/08/18 18:19:36","新北市八里區龍米路一段131號","121.452205","25.1267466666667","6502300","八里區"
"249004","303-UY","2018/08/18 18:19:40","新北市八里區文心街39號","121.428598333333","25.1609566666667","6502300","八里區"
"249002","305-UY","2018/08/18 18:19:35","新北市八里區龍形二街58號","121.450395","25.13325","6502300","八里區"
"248014","025-BX","2018/08/18 18:19:42","新北市五股區自強路45號","121.433365","25.0737366666667","6501500","五股區"
"248016","026-BX","2018/08/18 18:19:36","新北市五股區西雲路290號","121.449621666667","25.099195","6501500","五股區"
"248006","077-UY","2018/08/18 18:19:35","新北市五股區中興路一段152號","121.464551666667","25.0738716666667","6501500","五股區"
"248008","095-VK","2018/08/18 18:19:40","新北市五股區更洲路32巷8弄17號","121.459311666667","25.0795916666667","6501500","五股區"
"248020","225-UY","2018/08/18 18:19:34","新北市五股區孝義路47巷23號","121.45026","25.1094016666667","6501500","五股區"
"248012","247-BX","2018/08/18 18:19:41","新北市五股區御史路9號","121.441776666667","25.0904816666667","6501500","五股區"
"248010","272-BY","2018/08/18 18:19:27","新北市五股區成泰路一段126號","121.435256666667","25.074345","6501500","五股區"
"248004","655-BX","2018/08/18 18:19:36","新北市五股區成泰路二段101號","121.438193333333","25.0842866666667","6501500","五股區"
"248002","678-BX","2018/08/18 18:19:44","新北市五股區西雲路68號","121.44368","25.0916483333333","6501500","五股區"
"244007","080-UY","2018/08/18 18:19:24","新北市林口區林口路113巷6弄1號","121.388725","25.080645","6501700","林口區"
"244019","403-UM","2018/08/18 18:19:29","新北市林口區忠孝路569巷6號","121.37397","25.0684866666667","6501700","林口區"
"244013","KEA-2802","2018/08/18 18:19:39","新北市林口區中山路248號","121.386678333333","25.079385","6501700","林口區"
"244023","483-VK","2018/08/18 18:19:33","新北市林口區仁愛路二段8號","121.38586","25.07635","6501700","林口區"
"244017","485-VK","2018/08/18 18:19:28","新北市林口區八德路78號","121.365591666667","25.0657166666667","6501700","林口區"
"244009","656-BX","2018/08/18 18:19:40","新北市林口區文化二路二段166號","121.380431666667","25.08379","6501700","林口區"
"244011","657-BX","2018/08/18 18:19:33","新北市林口區中正路95號","121.394398333333","25.0772066666667","6501700","林口區"
"244025","837-TS","2018/08/18 18:19:32","新北市林口區南勢七街28號","121.35531","25.0692033333333","6501700","林口區"
"244021","838-TS","2018/08/18 18:19:29","新北市林口區自強一街46號","121.399265","25.0775433333333","6501700","林口區"
"243013","AAD-798","2018/08/18 18:19:36","新北市泰山區工專路63號","121.42221","25.0404466666667","6501600","泰山區"
"222003","436-BY","2018/08/18 18:19:42","新北市深坑區旺耽路67號","121.626256666667","25.003045","6501800","深坑區"
"222002","659-BX","2018/08/18 18:19:36","新北市深坑區雲鄉路3-1號","121.621038333333","25.0001616666667","6501800","深坑區"
"231040","001-UM","2018/08/18 18:19:35","新北市新店區安華路28-1號","121.519463333333","24.9608116666667","6500600","新店區"
"231059","046-UY","2018/08/18 18:19:38","新北市新店區安華路28-1號","121.519525","24.9609516666667","6500600","新店區"
"231044","106-UY","2018/08/18 18:19:31","新北市新店區安華路28-1號","121.519736666667","24.9609016666667","6500600","新店區"
"231046","107-UY","2018/08/18 18:19:33","新北市新店區直潭七街60號","121.532263333333","24.939815","6500600","新店區"
"231052","108-UY","2018/08/18 18:19:26","新北市新店區安康路一段164-1號","121.525896666667","24.9630716666667","6500600","新店區"
"231048","187-VK","2018/08/18 18:19:35","新北市新店區安一路一段1-1號","121.519603333333","24.9611216666667","6500600","新店區"
"231054","KEA-2219","2018/08/18 18:19:42","新北市新店區安一路一段1-1號","121.51995","24.9611616666667","6500600","新店區"
"231057","256-BX","2018/08/18 18:19:24","新北市新店區安一路一段1-1號","121.519798333333","24.961155","6500600","新店區"
"231042","268-BY","2018/08/18 18:19:36","新北市新店區安華路28-1號","121.519388333333","24.9606333333333","6500600","新店區"
"231051","278-BY","2018/08/18 18:19:32","新北市新店區安一路一段1-1號","121.519746666667","24.9611","6500600","新店區"
"231050","AAD-862","2018/08/18 18:19:40","新北市新店區安華路28-1號","121.519896666667","24.960975","6500600","新店區"
"231058","3713-VJ","2018/08/18 18:19:30","新北市新店區安康路一段17號","121.533078333333","24.9603866666667","6500600","新店區"
"231066","4716-K9","2018/08/18 18:19:32","新北市新店區安一路一段1-1號","121.519355","24.9611483333333","6500600","新店區"
"231056","4715-K9","2018/08/18 18:19:38","新北市新店區中央路181-3號","121.535948333333","24.96898","6500600","新店區"
"231067","4772-VM","2018/08/18 18:19:26","新北市新店區安華路1-1號","121.519011666667","24.960575","6500600","新店區"
"231065","512-UM","2018/08/18 18:19:32","新北市新店區安一路一段1-1號","121.519195","24.9610666666667","6500600","新店區"
"231049","513-UM","2018/08/18 18:19:31","新北市新店區安華路28-1號","121.519775","24.9610483333333","6500600","新店區"
"231045","617-UM","2018/08/18 18:19:26","新北市新店區安華路28-1號","121.519381666667","24.9608483333333","6500600","新店區"
"231061","619-UM","2018/08/18 18:19:42","新北市新店區安華路28-1號","121.5195","24.9608433333333","6500600","新店區"
"231063","641-BX","2018/08/18 18:19:31","新北市新店區安華路1-1號","121.519488333333","24.9604933333333","6500600","新店區"
"231064","719-UM","2018/08/18 18:19:15","新北市新店區安一路一段1-1號","121.519453333333","24.9613083333333","6500600","新店區"
"231060","897-TW","2018/08/18 18:19:25","新北市新店區安華路28-1號","121.51944","24.9607816666667","6500600","新店區"
"231055","AKT-0513","2018/08/18 18:19:34","新北市新店區環河路1-5號","121.538393333333","24.961665","6500600","新店區"
"241017","063-VK","2018/08/18 18:19:39","新北市八里區商港路48號","121.395648333333","25.14498","6500200","三重區"
"241006","AAD-863","2018/08/18 18:19:29","新北市三重區車路頭街135-1號","121.484233333333","25.0760233333333","6500200","三重區"
"235064","005-UY","2018/08/18 18:19:34","新北市中和區圓通路167巷3號","121.497876666667","24.9952883333333","6500300","中和區"
"235063","006-UY","2018/08/18 18:19:39","新北市中和區中正路585號","121.485973333333","24.9944616666667","6500300","中和區"
"235056","096-UM","2018/08/18 18:19:31","新北市中和區員山路611巷2弄4號","121.477553333333","25.0116183333333","6500300","中和區"
"235039","097-UM","2018/08/18 18:19:30","新北市中和區景平路261號","121.508443333333","24.9930483333333","6500300","中和區"
"235065","098-UM","2018/08/18 18:19:41","新北市中和區莊敬路49巷18號","121.501668333333","25.006125","6500300","中和區"
"235040","150-BY","2018/08/18 18:19:32","新北市中和區中正路169號","121.49802","24.9936433333333","6500300","中和區"
"235058","151-BY","2018/08/18 18:19:34","新北市中和區圓通路367巷18-2號","121.491848333333","24.9887966666667","6500300","中和區"
"235055","183-VK","2018/08/18 18:19:38","新北市中和區員山路72號","121.480946666667","24.9936016666667","6500300","中和區"
"235038","185-VK","2018/08/18 18:19:37","新北市中和區自立路46號","121.522883333333","24.99223","6500300","中和區"
"235049","186-VK","2018/08/18 18:19:31","新北市中和區錦和路350-1號","121.490193333333","24.9935916666667","6500300","中和區"
"235067","255-BX","2018/08/18 18:19:22","新北市中和區和城路一段271巷1號","121.485361666667","24.9918933333333","6500300","中和區"
"235072","301-VK","2018/08/18 18:19:30","新北市中和區連城路202號","121.491848333333","24.9965583333333","6500300","中和區"
"235043","352-BY","2018/08/18 18:19:30","新北市中和區圓通路141巷48弄15號","121.498215","24.9937083333333","6500300","中和區"
"235042","KEA-2878","2018/08/18 18:19:41","新北市中和區大仁街20巷25弄39號","121.519593333333","24.9937783333333","6500300","中和區"
"247010","KEA-2869","2018/08/18 18:19:37","新北市八里區商港路105巷15號","121.389116666667","25.1475883333333","6501400","蘆洲區"
"235050","4979-A6","2018/08/18 18:19:26","新北市中和區捷運路61巷9號","121.509053333333","24.989355","6500300","中和區"
"235069","4980-A6","2018/08/18 18:19:21","新北市中和區錦和路216號","121.490416666667","24.9942016666667","6500300","中和區"
"235070","558-UM","2018/08/18 18:19:36","新北市中和區景平路586號","121.501145","24.99581","6500300","中和區"
"235045","565-BX","2018/08/18 18:19:28","新北市中和區景安路200巷3弄1號","121.503608333333","24.9915033333333","6500300","中和區"
"235054","640-BX","2018/08/18 18:19:42","新北市中和區莒光路203號","121.472431666667","24.9987966666667","6500300","中和區"
"235060","647-TV","2018/08/18 18:19:23","新北市中和區中正路637巷52弄1號","121.485471666667","24.9934266666667","6500300","中和區"
"235047","732-UM","2018/08/18 18:19:25","新北市中和區南山路250巷2號","121.507681666667","24.9890133333333","6500300","中和區"
"235046","733-UM","2018/08/18 18:19:28","新北市中和區連城路222巷6弄1號","121.490791666667","24.9979966666667","6500300","中和區"
"235062","800-TS","2018/08/18 18:19:26","新北市中和區景平路997巷2號","121.49572","25.0059866666667","6500300","中和區"
"235057","801-TS","2018/08/18 18:19:39","新北市中和區民享街97巷18號","121.47536","24.999905","6500300","中和區"
"235052","805-TS","2018/08/18 18:19:27","新北市中和區捷運路135號","121.50689","24.9909366666667","6500300","中和區"
"235048","896-TW","2018/08/18 18:19:38","新北市中和區錦和路350-1號","121.490386666667","24.9935933333333","6500300","中和區"
"235053","900-TW","2018/08/18 18:19:23","新北市中和區員山路36巷16-3號","121.48502","24.9917616666667","6500300","中和區"
"235051","157-BY","2018/08/18 18:19:33","新北市中和區興南路二段130號","121.504273333333","24.983515","6500300","中和區"
"235037","AAC-213","2018/08/18 18:19:43","新北市中和區景新街383巷50號","121.514505","24.9908983333333","6500300","中和區"
"247016","007-UY","2018/08/18 18:19:37","新北市五股區中直路9號","121.427388333333","25.1093983333333","6501400","蘆洲區"
"226004","312-R5","2018/08/18 18:19:41","新北市平溪區靜安路二段86號","121.718578333333","25.022375","6502400","平溪區"
"228003","097-TW","2018/08/18 18:19:35","新北市貢寮區真理里美艷山街64號","121.919153333333","25.0728883333333","6502600","貢寮區"
"228001","212-TW","2018/08/18 18:19:35","新北市貢寮區真理里新港街26巷55弄2-1號","121.9274","25.05288","6502600","貢寮區"
"228002","663-BX","2018/08/18 18:19:44","新北市貢寮區福連里福興街39-1號","121.99181","25.0121716666667","6502600","貢寮區"
"224010","AGQ-8101","2018/08/18 18:09:41","新北市瑞芳區金光路334號","121.848565","25.1101733333333","6501200","瑞芳區"
"224006","676-BX","2018/08/18 18:19:25","新北市瑞芳區三爪子坑路106巷120號","121.809136666667","25.1042966666667","6501200","瑞芳區"
"224002","639-TC","2018/08/18 18:19:36","新北市瑞芳區三爪子坑路149巷32號","121.811796666667","25.1067316666667","6501200","瑞芳區"
"224008","285-BY","2018/08/18 18:19:39","新北市瑞芳區逢甲路15號","121.8098","25.108705","6501200","瑞芳區"
"224007","275-VK","2018/08/18 18:19:32","新北市瑞芳區大埔路國宅新村29號","121.765163333333","25.1004966666667","6501200","瑞芳區"
"224009","273-VK","2018/08/18 18:19:43","新北市瑞芳區五號路4號","121.854795","25.11036","6501200","瑞芳區"
"224005","271-BY","2018/08/18 18:19:26","新北市瑞芳區建基新村20-29號","121.811203333333","25.1311033333333","6501200","瑞芳區"
"227002","642-TC","2018/08/18 18:19:37","新北市雙溪區共和里中山路2號","121.863808333333","25.033805","6502500","雙溪區"
"227010","400-TW","2018/08/18 18:19:29","新北市雙溪區牡丹里牡丹73號","121.851713333333","25.05936","6502500","雙溪區"
"253005","032-BX","2018/08/18 18:19:36","新北市石門區中央路24號","121.567808333333","25.2921016666667","6502200","石門區"
"253006","295-VK","2018/08/18 18:19:42","新北市石門區老梅路49號","121.545433333333","25.289255","6502200","石門區"
"222001","KEA-2212","2018/08/18 18:19:33","新北市深坑區北深路二段66號","121.618988333333","25.0042216666667","6501800","深坑區"
"208002","KEA-2872","2018/08/18 18:19:36","新北市金山區清泉里清水路60巷20號","121.634798333333","25.2340216666667","6502700","金山區"
"208003","665-BX","2018/08/18 18:19:44","新北市金山區民生路196號","121.645378333333","25.221815","6502700","金山區"
"208001","761-BX","2018/08/18 18:19:37","新北市金山區自強路13號","121.640428333333","25.2164333333333","6502700","金山區"
"251005","010-UM","2018/08/18 18:19:39","新北市淡水區水源街一段122巷37號","121.447113333333","25.1704116666667","6501000","淡水區"
"251001","011-UM","2018/08/18 18:19:26","新北市淡水區自強路110-6號","121.461698333333","25.1313783333333","6501000","淡水區"
"251002","012-UM","2018/08/18 18:19:38","新北市淡水區竿蓁二街34巷1號","121.453848333333","25.1628483333333","6501000","淡水區"
"251013","KEA-2871","2018/08/18 18:18:04","新北市淡水區後寮9號","121.477588333333","25.19887","6501000","淡水區"
"251016","179-VK","2018/08/18 18:19:44","新北市淡水區淡金路三段228巷9號","121.449478333333","25.205055","6501000","淡水區"
"251014","180-VK","2018/08/18 18:19:32","新北市淡水區南平17號","121.49027","25.2203433333333","6501000","淡水區"
"251015","181-VK","2018/08/18 18:19:35","新北市淡水區興福寮66巷539號","121.484623333333","25.165125","6501000","淡水區"
"251010","413-VK","2018/08/18 18:19:28","新北市淡水區淡海路199號","121.420376666667","25.184835","6501000","淡水區"
"251012","441-VK","2018/08/18 18:19:40","新北市淡水區北新路二段77-5號","121.480533333333","25.1855466666667","6501000","淡水區"
"251008","442-VK","2018/08/18 18:19:21","新北市淡水區水源街二段346巷1弄1號","121.464285","25.1755216666667","6501000","淡水區"
"251004","443-VK","2018/08/18 18:19:42","新北市淡水區民族路31巷11號","121.462335","25.1363716666667","6501000","淡水區"
"251006","561-UM","2018/08/18 18:19:41","新北市淡水區新民街25號","121.43917","25.1756","6501000","淡水區"
"251007","577-R6","2018/08/18 18:19:31","新北市淡水區中正東路二段143巷2弄1號","121.460536666667","25.1472983333333","6501000","淡水區"
"251011","650-BX","2018/08/18 18:19:31","新北市淡水區坪頂路26號","121.456743333333","25.1618783333333","6501000","淡水區"
"251003","673-BX","2018/08/18 18:19:39","新北市淡水區北新路180號","121.449433333333","25.1788","6501000","淡水區"
"207003","550-UM","2018/08/18 18:19:27","新北市萬里區野柳里港東路8-2號","121.686941666667","25.20348","6502800","萬里區"
"207004","225-TW","2018/08/18 18:19:38","新北市萬里區中幅里中福路38-2號","121.678241666667","25.1667016666667","6502800","萬里區"
"252002","178-VK","2018/08/18 18:19:42","新北市三芝區中山路二段40號","121.503015","25.2551066666667","6502100","三芝區"
"252003","249-BX","2018/08/18 18:19:37","新北市三芝區錫板里南勢崗11號","121.478848333333","25.2614416666667","6502100","三芝區"
"252001","292-VK","2018/08/18 18:19:27","新北市三芝區中興街二段2號","121.498398333333","25.25657","6502100","三芝區"
"237004","KEA-2597","2018/08/18 18:19:31","新北市三峽區圳頭95號","121.380626666667","24.8769133333333","6500900","三峽區"
"237007","153-BY","2018/08/18 18:19:22","新北市三峽區中正路三段70巷69號","121.35515","24.9053633333333","6500900","三峽區"
"237011","572-TV","2018/08/18 18:19:30","新北市三峽區溪東路182號","121.406705","24.9325816666667","6500900","三峽區"
"237009","210-TH","2018/08/18 18:19:29","新北市三峽區大勇路36巷15號","121.36589","24.93706","6500900","三峽區"
"237013","252-BX","2018/08/18 18:19:28","新北市三峽區長泰街5巷9號","121.378305","24.931065","6500900","三峽區"
"237012","275-BY","2018/08/18 18:19:33","新北市三峽區民生街1巷3-11號","121.377035","24.9361316666667","6500900","三峽區"
"237008","302-VK","2018/08/18 18:19:35","新北市三峽區白雞68-85號","121.392568333333","24.90857","6500900","三峽區"
"237014","433-BY","2018/08/18 18:19:25","新北市三峽區民生街88號","121.374191666667","24.9357","6500900","三峽區"
"237006","5529-G3","2018/08/18 18:19:39","新北市三峽區溪東路235號","121.406543333333","24.9326183333333","6500900","三峽區"
"237016","649-BX","2018/08/18 18:19:37","新北市三峽區紫微路19-1號","121.424953333333","24.92141","6500900","三峽區"
"237010","706-TV","2018/08/18 18:19:34","新北市三峽區中山路135號","121.365188333333","24.9360583333333","6500900","三峽區"
"237005","AKY-6261","2018/08/18 18:19:41","新北市三峽區忠孝街31號","121.37094","24.9340016666667","6500900","三峽區"
"236070","105-UM","2018/08/18 18:19:35","新北市土城區永豐路153巷7號","121.467365","24.9824083333333","6501300","土城區"
"236042","107-UM","2018/08/18 18:19:41","新北市土城區裕生路49號","121.447848333333","24.9866366666667","6501300","土城區"
"236079","166-UM","2018/08/18 18:19:39","新北市土城區永平街17號","121.42825","24.9625983333333","6501300","土城區"
"236030","253-BX","2018/08/18 18:19:25","新北市土城區順風路28號","121.440343333333","24.97696","6501300","土城區"
"236026","269-VK","2018/08/18 18:19:25","新北市土城區承天路67號","121.439625","24.9635783333333","6501300","土城區"
"236014","270-VK","2018/08/18 18:19:33","新北市土城區青雲路39巷7號","121.460331666667","24.9875733333333","6501300","土城區"
"236038","271-VK","2018/08/18 18:19:42","新北市土城區青雲路451巷8弄19號","121.459478333333","24.9740783333333","6501300","土城區"
"236021","401-BY","2018/08/18 18:19:29","新北市土城區明德路一段365-1號","121.453886666667","24.9795983333333","6501300","土城區"
"236059","912-UM","2018/08/18 18:19:40","新北市土城區中央路四段440號","121.410621666667","24.951335","6501300","土城區"
"236049","913-UM","2018/08/18 18:19:39","新北市土城區明德路一段361-3號","121.456125","24.9778","6501300","土城區"
"236063","915-UM","2018/08/18 18:19:26","新北市土城區金城路三段245號","121.471641666667","24.9898866666667","6501300","土城區"
"236055","AAC-216","2018/08/18 18:19:39","新北市土城區中華路二段92號","121.438233333333","24.974735","6501300","土城區"
"242058","986-R7","2018/08/18 18:19:28","桃園市龜山區萬壽路一段42號","121.408863333333","25.0193333333333","6500500","新莊區"
"242027","615-BX","2018/08/18 18:19:27","新北市新莊區幸福路759號","121.44805","25.0490383333333","6500500","新莊區"
"242025","613-BX","2018/08/18 18:18:31","新北市新莊區五權一路12巷25弄4號","121.458118333333","25.0641783333333","6500500","新莊區"
"242042","566-BX","2018/08/18 18:19:25","新北市新莊區天祥街74號","121.41591","25.0293133333333","6500500","新莊區"
"242046","497-BY","2018/08/18 18:19:28","新北市新莊區中正路803巷1號","121.421616666667","25.0280966666667","6500500","新莊區"
"242053","442-UM","2018/08/18 18:19:24","新北市新莊區西盛街431號","121.427211666667","25.01201","6500500","新莊區"
"242051","441-UM","2018/08/18 18:19:40","新北市新莊區民安西路67號","121.427295","25.0201","6500500","新莊區"
"242056","440-UM","2018/08/18 18:19:33","新北市新莊區新泰路3巷25號","121.449116666667","25.0316483333333","6500500","新莊區"
"242044","400-BY","2018/08/18 18:19:34","新北市新莊區鳳山街56巷29號","121.413691666667","25.0266116666667","6500500","新莊區"
"242061","353-BY","2018/08/18 18:19:29","新北市新莊區後港一路97號","121.428033333333","25.0269633333333","6500500","新莊區"
"242009","132-UY","2018/08/18 18:19:26","新北市新莊區中華路二段298號","121.452981666667","25.0538616666667","6500500","新莊區"
"242031","135-UY","2018/08/18 18:19:40","新北市新莊區新泰路277巷57弄2號","121.443445","25.0399483333333","6500500","新莊區"
"242048","172-VK","2018/08/18 18:19:34","新北市樹林區俊興街257號","121.418148333333","25.0164783333333","6500500","新莊區"
"242011","173-VK","2018/08/18 18:19:04","新北市新莊區中榮街5號","121.451136666667","25.0526633333333","6500500","新莊區"
"242015","346-TH","2018/08/18 18:19:30","新北市新莊區中平路184巷10弄3號","121.445403333333","25.0481083333333","6500500","新莊區"
"242021","347-TH","2018/08/18 18:19:24","新北市新莊區新興街36巷2號","121.45076","25.0368833333333","6500500","新莊區"
"242002","349-TH","2018/08/18 18:19:41","新北市新莊區大觀街4號","121.454586666667","25.0341466666667","6500500","新莊區"
"238015","755-BX","2018/08/18 18:19:33","新北市樹林區文化街112巷16號","121.417283333333","24.990485","6500700","樹林區"
"238023","601-UM","2018/08/18 18:19:27","新北市樹林區三福街67巷16號","121.40758","25.0157333333333","6500700","樹林區"
"238018","571-TV","2018/08/18 18:19:03","新北市樹林區樹新路45號","121.426961666667","24.9947633333333","6500700","樹林區"
"238024","5061-A6","2018/08/18 18:19:31","新北市樹林區中山路一段176-1號","121.42191","24.98884","6500700","樹林區"
"238025","303-VK","2018/08/18 18:19:29","新北市樹林區保安二街59號","121.4245","24.9945566666667","6500700","樹林區"
"238017","283-BY","2018/08/18 18:19:39","新北市樹林區保安街二段333巷8號","121.411915","25.007525","6500700","樹林區"
"238014","282-BY","2018/08/18 18:19:38","新北市樹林區大安路111巷11號","121.423115","24.9976316666667","6500700","樹林區"
"238026","172-UY","2018/08/18 18:19:37","新北市樹林區佳園路一段75巷184號","121.39649","24.97021","6500700","樹林區"
"238016","169-UY","2018/08/18 18:19:38","新北市樹林區文化街28號","121.419428333333","24.9877933333333","6500700","樹林區"
"239007","AAC-297","2018/08/18 18:19:31","新北市鶯歌區建國路278號","121.34696","24.95327","6500800","鶯歌區"
"239006","891-R6","2018/08/18 18:19:35","新北市鶯歌區德昌街112號","121.331976666667","24.9605083333333","6500800","鶯歌區"
"239008","527-UM","2018/08/18 18:19:34","新北市鶯歌區國際一路179號","121.336211666667","24.976475","6500800","鶯歌區"
"239005","526-UM","2018/08/18 18:19:33","新北市鶯歌區鶯桃路668巷61號","121.329516666667","24.9712116666667","6500800","鶯歌區"
"239001","417-VK","2018/08/18 18:19:38","新北市鶯歌區國中街178號","121.338291666667","24.9392266666667","6500800","鶯歌區"
"239003","360-BY","2018/08/18 18:19:30","新北市鶯歌區福安街58號","121.3356","24.9652316666667","6500800","鶯歌區"
"239002","359-BY","2018/08/18 18:19:42","新北市鶯歌區中正一路4號","121.352553333333","24.9528316666667","6500800","鶯歌區"
"239004","193-VK","2018/08/18 18:19:36","新北市鶯歌區尖山路174巷1號","121.344843333333","24.94774","6500800","鶯歌區"
"221008","489-VK","2018/08/18 18:19:36","新北市汐止區康寧街901號","121.651401666667","25.075105","6501100","汐止區"
"221036","130-UY","2018/08/18 18:19:45","新北市汐止區長安路179號","121.671888333333","25.0773033333333","6501100","汐止區"
"221015","131-UY","2018/08/18 18:19:41","新北市汐止區鄉友街35號","121.66866","25.0813933333333","6501100","汐止區"
"221010","269-BY","2018/08/18 18:19:44","新北市汐止區汐萬路三段14號","121.643026666667","25.0914383333333","6501100","汐止區"
"221012","278-VK","2018/08/18 18:19:40","新北市汐止區保長路33號","121.672655","25.0795283333333","6501100","汐止區"
"221023","279-VK","2018/08/18 18:19:43","新北市汐止區中興路234-1號","121.629931666667","25.0675566666667","6501100","汐止區"
"221027","281-BY","2018/08/18 18:19:34","新北市汐止區和平街11號","121.663116666667","25.0707366666667","6501100","汐止區"
"221029","298-VK","2018/08/18 18:19:21","新北市汐止區樟樹二路330巷76號","121.643073333333","25.0700266666667","6501100","汐止區"
"221021","299-VK","2018/08/18 18:19:26","新北市汐止區連興街120號","121.653701666667","25.0625","6501100","汐止區"
"221031","353-TW","2018/08/18 18:19:24","新北市汐止區大同路一段160-3號","121.634866666667","25.056275","6501100","汐止區"
"221002","129-UY","2018/08/18 18:19:42","新北市汐止區福德一路201巷30號","121.63588","25.06502","6501100","汐止區"
"221035","622-UM","2018/08/18 18:19:34","新北市汐止區大同路二段105號","121.649903333333","25.0633566666667","6501100","汐止區"
"221025","623-UM","2018/08/18 18:19:33","新北市汐止區勤進路12巷37號","121.659126666667","25.0626916666667","6501100","汐止區"
"221038","646-BX","2018/08/18 18:19:25","新北市汐止區忠孝東路282號","121.663788333333","25.06813","6501100","汐止區"
"221033","647-BX","2018/08/18 18:19:37","新北市汐止區宜興街59巷13號","121.62176","25.0426966666667","6501100","汐止區"
"221018","753-BX","2018/08/18 18:19:34","新北市汐止區茄苳路118號","121.668096666667","25.0703183333333","6501100","汐止區"
"220082","610-BX","2018/08/18 18:19:28","新北市板橋區華東街1-9號","121.448245","24.99491","6500100","板橋區"
"220057","686-BX","2018/08/18 18:19:26","新北市板橋區華東街1-9號","121.448225","24.9949033333333","6500100","板橋區"
"235068","KEA-2873","2018/08/18 18:19:17","新北市中和區員山路36巷16-2號","121.485453333333","24.9914016666667","6500300","中和區"
"235061","KEA-2875","2018/08/18 18:19:34","新北市中和區國光街215巷55號","121.467508333333","24.9999516666667","6500300","中和區"
