"lineid","car","time","location","longitude","latitude","cityid","cityname"
"234046","148-BY","2018/08/18 19:39:38","新北市永和區永利路125號","121.524151666667","25.0030866666667","6500400","永和區"
"234007","207-UY","2018/08/18 19:39:26","新北市中和區中和路358號","121.510436666667","25.0016833333333","6500400","永和區"
"234081","298-R6","2018/08/18 19:39:27","新北市永和區國中路104巷6號","121.52468","25.0069016666667","6500400","永和區"
"234038","336-UY","2018/08/18 19:39:44","新北市永和區民樂街31巷4號","121.527753333333","25.0014366666667","6500400","永和區"
"234064","337-UY","2018/08/18 19:39:41","新北市永和區秀朗路一段192巷6弄10號","121.519135","25.0023516666667","6500400","永和區"
"234086","338-UY","2018/08/18 19:39:25","新北市永和區永亨路134號","121.524735","25.0038733333333","6500400","永和區"
"234070","552-UM","2018/08/18 19:39:43","新北市永和區永和路二段237-1號","121.515666666667","25.01438","6500400","永和區"
"234017","745-BX","2018/08/18 19:39:42","新北市永和區永和路二段425巷57弄7號","121.513596666667","25.017075","6500400","永和區"
"234030","746-BX","2018/08/18 19:39:41","新北市永和區民權路1巷38號","121.522155","24.998135","6500400","永和區"
"234054","KEA-2590","2018/08/18 19:39:41","新北市永和區竹林路39巷21號","121.51901","25.0148016666667","6500400","永和區"
"234013","KEA-2591","2018/08/18 19:39:32","新北市永和區永平路254號","121.508308333333","25.01126","6500400","永和區"
"234061","AAD-866","2018/08/18 19:39:28","新北市永和區中正路456號","121.517536666667","25.0029083333333","6500400","永和區"
"234042","862-TW","2018/08/18 19:39:30","新北市中和區中和路460號","121.512136666667","25.0039066666667","6500400","永和區"
"234050","863-TW","2018/08/18 19:39:33","新北市永和區保安路69號","121.509","25.0153166666667","6500400","永和區"
"234026","9371-KE","2018/08/18 19:39:26","新北市中和區中和路390號","121.511223333333","25.00251","6500400","永和區"
"234011","9373-KE","2018/08/18 19:39:27","新北市永和區保福路二段163巷12號","121.508961666667","25.014715","6500400","永和區"
"249004","303-UY","2018/08/18 19:39:28","新北市八里區中山路一段268巷43號","121.413881666667","25.160185","6502300","八里區"
"249002","305-UY","2018/08/18 19:39:35","新北市八里區頂寮二街42號","121.450385","25.1252533333333","6502300","八里區"
"249003","593-UM","2018/08/18 19:39:36","新北市八里區華峰三街46號","121.399161666667","25.145845","6502300","八里區"
"248014","025-BX","2018/08/18 19:39:42","新北市五股區五福路62號","121.433351666667","25.08997","6501500","五股區"
"248016","026-BX","2018/08/18 19:39:13","新北市五股區成泰路四段51-2號","121.456406666667","25.110005","6501500","五股區"
"248008","095-VK","2018/08/18 19:39:40","新北市五股區四維路118巷10弄1號","121.468848333333","25.07431","6501500","五股區"
"248020","225-UY","2018/08/18 19:39:34","新北市五股區中直路19-5號","121.42309","25.1118","6501500","五股區"
"248012","247-BX","2018/08/18 19:39:12","新北市五股區成泰路二段24號","121.436913333333","25.080935","6501500","五股區"
"248010","272-BY","2018/08/18 19:39:26","新北市五股區自強路148號","121.432208333333","25.070575","6501500","五股區"
"248004","655-BX","2018/08/18 19:39:39","新北市五股區成泰路二段64號","121.437345","25.0819683333333","6501500","五股區"
"248002","678-BX","2018/08/18 19:39:44","新北市五股區成泰路三段577巷76號","121.450111666667","25.1035233333333","6501500","五股區"
"234077","969-R7","2018/08/18 19:39:39","新北市永和區民權路1巷6號","121.520466666667","24.9983683333333","6500400","永和區"
"234074","AAC-211","2018/08/18 19:39:43","新北市永和區福和路69號","121.522703333333","25.0079283333333","6500400","永和區"
"234067","AAC-212","2018/08/18 19:39:45","新北市永和區中山路一段190號","121.508931666667","25.0088","6500400","永和區"
"234003","AAC-295","2018/08/18 19:39:38","新北市永和區自由街73號","121.513298333333","25.00513","6500400","永和區"
"244023","483-VK","2018/08/18 19:39:33","新北市林口區文化北路二段266號","121.373366666667","25.0861483333333","6501700","林口區"
"244021","838-TS","2018/08/18 19:39:29","新北市八里區長道坑33-2號","121.400326666667","25.0958733333333","6501700","林口區"
"243013","AAD-798","2018/08/18 19:39:35","新北市泰山區應化街7號","121.423896666667","25.04373","6501600","泰山區"
"243009","297-R6","2018/08/18 19:39:37","新北市泰山區美寧街68號","121.431066666667","25.0646833333333","6501600","泰山區"
"243016","KEA-2801","2018/08/18 19:39:31","新北市泰山區明志路三段308號","121.4209","25.03518","6501600","泰山區"
"243015","421-VK","2018/08/18 19:39:33","新北市泰山區民權街54號","121.4289","25.05043","6501600","泰山區"
"243011","KEA-2215","2018/08/18 19:39:27","新北市泰山區貴子路67巷14弄2號","121.431086666667","25.0407216666667","6501600","泰山區"
"243010","KEA-2216","2018/08/18 19:39:33","新北市泰山區明志路二段7巷2號","121.430348333333","25.0535183333333","6501600","泰山區"
"243012","646-TV","2018/08/18 19:39:41","新北市泰山區全興路285號","121.43691","25.0514333333333","6501600","泰山區"
"243014","680-BX","2018/08/18 19:39:42","新北市泰山區仁義路11巷3號","121.432273333333","25.0555233333333","6501600","泰山區"
"222003","436-BY","2018/08/18 19:39:42","新北市深坑區深南路51號","121.621026666667","25.009735","6501800","深坑區"
"222002","659-BX","2018/08/18 19:39:36","新北市深坑區北深路一段177號","121.632498333333","25.0108983333333","6501800","深坑區"
"231040","001-UM","2018/08/18 19:39:35","新北市新店區中正路75巷71號","121.5431","24.9689516666667","6500600","新店區"
"231041","002-UM","2018/08/18 19:39:30","新北市新店區中正路487號","121.533841666667","24.9821583333333","6500600","新店區"
"231059","046-UY","2018/08/18 19:39:38","新北市新店區安和路三段85號","121.517873333333","24.983875","6500600","新店區"
"231044","106-UY","2018/08/18 19:39:31","新北市新店區北新路三段179號","121.540996666667","24.9843933333333","6500600","新店區"
"231046","107-UY","2018/08/18 19:39:33","新北市新店區中正路329巷3弄2號","121.535433333333","24.97465","6500600","新店區"
"231052","108-UY","2018/08/18 19:39:26","新北市新店區新烏路二段472號","121.55267","24.90818","6500600","新店區"
"231048","187-VK","2018/08/18 19:39:35","新北市新店區五峰路63巷8弄21號","121.547285","24.969355","6500600","新店區"
"231054","KEA-2219","2018/08/18 19:39:42","新北市新店區文中路45號","121.539633333333","24.9566183333333","6500600","新店區"
"231057","256-BX","2018/08/18 19:39:42","新北市新店區橘園一路11號","121.547926666667","24.9340716666667","6500600","新店區"
"231042","268-BY","2018/08/18 19:39:35","新北市新店區中興路一段191號","121.543243333333","24.9650016666667","6500600","新店區"
"231051","278-BY","2018/08/18 19:39:32","新北市新店區中央三街29號","121.52856","24.9742416666667","6500600","新店區"
"231050","AAD-862","2018/08/18 19:39:40","新北市新店區秀水路19號","121.554911666667","24.954955","6500600","新店區"
"231058","3713-VJ","2018/08/18 19:39:34","新北市新店區中正路102巷4號","121.543336666667","24.9709633333333","6500600","新店區"
"231066","4716-K9","2018/08/18 19:39:32","新北市新店區安康路三段456號","121.484318333333","24.9510816666667","6500600","新店區"
"231056","4715-K9","2018/08/18 19:39:38","新北市新店區中央路226號","121.529643333333","24.9727633333333","6500600","新店區"
"231065","512-UM","2018/08/18 19:39:32","新北市新店區安祥路109巷11號","121.475916666667","24.959005","6500600","新店區"
"231049","513-UM","2018/08/18 19:39:43","新北市新店區大豐路37-1號","121.540508333333","24.9800383333333","6500600","新店區"
"231045","617-UM","2018/08/18 19:39:46","新北市新店區北宜路二段126號","121.556831666667","24.9538716666667","6500600","新店區"
"231061","619-UM","2018/08/18 19:39:42","新北市新店區安民街82號","121.51659","24.9670783333333","6500600","新店區"
"231063","641-BX","2018/08/18 19:39:31","新北市新店區達觀路24號","121.501786666667","24.9409133333333","6500600","新店區"
"231064","719-UM","2018/08/18 19:39:35","新北市新店區安和路一段52巷2號","121.517623333333","24.966045","6500600","新店區"
"231062","720-UM","2018/08/18 19:39:32","新北市新店區太平路25-6號","121.533676666667","24.9579116666667","6500600","新店區"
"231060","897-TW","2018/08/18 19:39:25","新北市新店區安康路二段159巷2號","121.510403333333","24.95933","6500600","新店區"
"231043","899-TW","2018/08/18 19:39:29","新北市新店區中正路137號","121.541748333333","24.971465","6500600","新店區"
"231055","AKT-0513","2018/08/18 19:39:33","新北市新店區力行路14巷16弄2號","121.539173333333","24.965385","6500600","新店區"
"241011","013-R5","2018/08/18 19:39:25","新北市三重區秀江街207號","121.497593333333","25.0716933333333","6500200","三重區"
"241028","022-UY","2018/08/18 19:39:30","新北市三重區中正南路157號","121.493855","25.0560466666667","6500200","三重區"
"241008","059-VK","2018/08/18 19:39:35","新北市三重區永福街74號","121.478853333333","25.0767216666667","6500200","三重區"
"241022","060-VK","2018/08/18 19:39:42","新北市三重區三民街157巷1號","121.483888333333","25.0646383333333","6500200","三重區"
"241031","061-VK","2018/08/18 19:39:29","新北市三重區重新路四段248號","121.486111666667","25.0534766666667","6500200","三重區"
"241015","062-VK","2018/08/18 19:39:41","新北市三重區福德北路34號","121.502095","25.0652366666667","6500200","三重區"
"241017","063-VK","2018/08/18 19:39:39","新北市三重區大仁街1號","121.491701666667","25.0635933333333","6500200","三重區"
"241026","066-VK","2018/08/18 19:39:25","新北市三重區光興街37號","121.499503333333","25.06026","6500200","三重區"
"241003","091-VK","2018/08/18 19:39:37","新北市三重區五華街93巷85號","121.49377","25.0848816666667","6500200","三重區"
"241009","267-UM","2018/08/18 19:39:28","新北市三重區三和路四段404號","121.480973333333","25.0795783333333","6500200","三重區"
"241032","269-UM","2018/08/18 19:39:25","新北市三重區重陽路一段60巷38號","121.485076666667","25.0581933333333","6500200","三重區"
"241013","270-UM","2018/08/18 19:39:32","新北市三重區仁福街64巷39號","121.497453333333","25.0759966666667","6500200","三重區"
"241025","271-UM","2018/08/18 19:39:30","新北市三重區忠孝路三段99巷4號","121.48019","25.0642733333333","6500200","三重區"
"241007","398-BY","2018/08/18 19:39:27","新北市三重區三和路四段125巷58號","121.486768333333","25.0784216666667","6500200","三重區"
"241035","462-BY","2018/08/18 19:39:40","新北市三重區正義北路68號","121.497176666667","25.0645233333333","6500200","三重區"
"241020","478-VK","2018/08/18 19:39:26","新北市三重區三和路四段20巷85號","121.488766666667","25.0733816666667","6500200","三重區"
"241030","480-VK","2018/08/18 19:39:25","新北市三重區新興路29號","121.492098333333","25.0534316666667","6500200","三重區"
"241014","543-UM","2018/08/18 19:39:31","新北市三重區長壽街196號","121.504173333333","25.06903","6500200","三重區"
"241023","545-UM","2018/08/18 19:39:25","新北市三重區忠孝路三段99巷11號","121.479831666667","25.0642683333333","6500200","三重區"
"241001","547-UM","2018/08/18 19:39:26","新北市三重區仁愛街315巷5號","121.49303","25.0795166666667","6500200","三重區"
"241019","KEA-2593","2018/08/18 19:39:42","新北市三重區六張街194巷1弄12號","121.488198333333","25.0681616666667","6500200","三重區"
"241006","AAD-863","2018/08/18 19:39:29","新北市三重區永福街252號","121.483941666667","25.074715","6500200","三重區"
"241012","941-UM","2018/08/18 19:39:38","新北市三重區仁興街33巷26號","121.499663333333","25.0756266666667","6500200","三重區"
"241029","942-UM","2018/08/18 19:39:41","新北市三重區重安街102號","121.493033333333","25.0559933333333","6500200","三重區"
"235066","003-UY","2018/08/18 19:39:32","新北市中和區景新街129號","121.505735","24.99732","6500300","中和區"
"235064","005-UY","2018/08/18 19:39:30","新北市中和區南山路127巷18弄1號","121.503465","24.9974016666667","6500300","中和區"
"235063","006-UY","2018/08/18 19:39:39","新北市中和區連城路263巷6弄2號","121.492171666667","24.9957216666667","6500300","中和區"
"235056","096-UM","2018/08/18 19:39:31","新北市中和區中山路三段114巷67號","121.47581","25.0077666666667","6500300","中和區"
"235039","097-UM","2018/08/18 19:39:30","新北市中和區景平路71-7號","121.51824","24.9917116666667","6500300","中和區"
"235065","098-UM","2018/08/18 19:39:41","新北市中和區永和路9巷1號","121.499216666667","25.00402","6500300","中和區"
"235040","150-BY","2018/08/18 19:39:32","新北市中和區安平路74號","121.510938333333","24.996495","6500300","中和區"
"235058","151-BY","2018/08/18 19:39:34","新北市中和區連城路525號","121.481645","24.9951283333333","6500300","中和區"
"235055","183-VK","2018/08/18 19:39:37","新北市中和區中山路三段177號","121.472775","25.006145","6500300","中和區"
"235038","185-VK","2018/08/18 19:39:34","新北市中和區自立路20巷9號","121.521781666667","24.9933116666667","6500300","中和區"
"235049","186-VK","2018/08/18 19:39:31","新北市中和區明禮街5號","121.505206666667","24.9957633333333","6500300","中和區"
"235067","255-BX","2018/08/18 19:39:41","新北市中和區新生街237號","121.483853333333","24.99901","6500300","中和區"
"235044","293-VK","2018/08/18 19:39:42","新北市中和區南山路533號","121.507996666667","24.9869566666667","6500300","中和區"
"235072","301-VK","2018/08/18 19:39:30","新北市中和區連城路265巷6弄6號","121.491161666667","24.9958833333333","6500300","中和區"
"235043","352-BY","2018/08/18 19:39:36","新北市中和區興南路一段20-2號","121.511248333333","24.991115","6500300","中和區"
"235042","KEA-2878","2018/08/18 19:39:41","新北市中和區景安路79巷35號","121.507395","24.9963216666667","6500300","中和區"
"247010","KEA-2869","2018/08/18 19:39:26","新北市五股區中興路三段2巷10號","121.449293333333","25.0809116666667","6501400","蘆洲區"
"235050","4979-A6","2018/08/18 19:39:26","新北市中和區錦和路350-1號","121.490361666667","24.993565","6500300","中和區"
"235070","558-UM","2018/08/18 19:39:45","新北市中和區連勝街31號","121.498443333333","24.9978166666667","6500300","中和區"
"235045","565-BX","2018/08/18 19:39:28","新北市中和區景新街469號","121.513361666667","24.988005","6500300","中和區"
"235054","640-BX","2018/08/18 19:39:42","新北市中和區民德路189巷1號","121.468635","24.9991583333333","6500300","中和區"
"235060","647-TV","2018/08/18 19:39:43","新北市中和區中山路二段523巷11號","121.48174","25.00414","6500300","中和區"
"235047","732-UM","2018/08/18 19:39:41","新北市中和區南山路229巷2號","121.503808333333","24.99334","6500300","中和區"
"235046","733-UM","2018/08/18 19:39:28","新北市中和區景新街496巷8弄1號","121.513348333333","24.9866483333333","6500300","中和區"
"235071","783-BX","2018/08/18 19:39:42","新北市中和區中正路814號","121.484996666667","25.003235","6500300","中和區"
"235057","801-TS","2018/08/18 19:39:39","新北市中和區員山路283號","121.481291666667","24.9996883333333","6500300","中和區"
"235041","802-TS","2018/08/18 19:39:38","新北市永和區中和路603號","121.512391666667","25.0042933333333","6500300","中和區"
"235052","805-TS","2018/08/18 19:39:27","新北市中和區華新街206巷21弄2號","121.50598","24.9827016666667","6500300","中和區"
"235048","896-TW","2018/08/18 19:39:38","新北市中和區忠孝街1巷2-1號","121.5092","24.98309","6500300","中和區"
"235053","900-TW","2018/08/18 19:39:23","新北市中和區國光街184巷16號","121.467366666667","25.0020866666667","6500300","中和區"
"235051","157-BY","2018/08/18 19:39:33","新北市中和區板南路100號","121.503896666667","24.9925683333333","6500300","中和區"
"235037","AAC-213","2018/08/18 19:39:43","新北市中和區秀朗路三段107號","121.526545","24.9946033333333","6500300","中和區"
"235059","AAC-215","2018/08/18 19:39:31","新北市中和區圓通路341號","121.491461666667","24.9905","6500300","中和區"
"220065","072-UY","2018/08/18 19:39:42","新北市板橋區國泰街39巷5弄6號","121.468625","25.0060383333333","6500100","板橋區"
"220086","073-UY","2018/08/18 19:39:34","新北市板橋區館前西路160巷32號","121.452258333333","25.0091933333333","6500100","板橋區"
"220106","075-UY","2018/08/18 19:39:45","新北市板橋區民治街26巷12號","121.477515","25.0337416666667","6500100","板橋區"
"220069","AAD-861","2018/08/18 19:39:32","新北市板橋區南雅南路二段1-1號","121.454758333333","25.00367","6500100","板橋區"
"247004","337-TH","2018/08/18 19:39:33","新北市蘆洲區長安街102巷67號","121.462533333333","25.08236","6501400","蘆洲區"
"247007","056-VK","2018/08/18 19:39:30","新北市蘆洲區中山一路174號","121.474375","25.081195","6501400","蘆洲區"
"247002","002-UY","2018/08/18 19:39:31","新北市蘆洲區三民路595號","121.46093","25.0936866666667","6501400","蘆洲區"
"226004","312-R5","2018/08/18 19:39:41","新北市平溪區南山里南山坪94號","121.776988333333","25.0412166666667","6502400","平溪區"
"228003","097-TW","2018/08/18 19:39:35","新北市貢寮區真理里美艷山街19-1號","121.923501666667","25.0683666666667","6502600","貢寮區"
"228001","212-TW","2018/08/18 19:39:35","新北市貢寮區真理里延平街49號","121.924616666667","25.0556333333333","6502600","貢寮區"
"224010","AGQ-8101","2018/08/18 19:37:21","新北市瑞芳區基山街118號","121.843843333333","25.1083916666667","6501200","瑞芳區"
"224002","639-TC","2018/08/18 19:39:36","新北市瑞芳區三爪子坑路13巷203號","121.815525","25.1061533333333","6501200","瑞芳區"
"227002","642-TC","2018/08/18 19:39:37","新北市雙溪區雙溪里太平路62號","121.865075","25.0358433333333","6502500","雙溪區"
"227010","400-TW","2018/08/18 19:39:29","新北市雙溪區新基里新基北街22號","121.867243333333","25.0389533333333","6502500","雙溪區"
"222001","KEA-2212","2018/08/18 19:39:33","新北市深坑區深坑街148號","121.613088333333","25.001285","6501800","深坑區"
"208002","KEA-2872","2018/08/18 19:39:35","新北市金山區四維路14號","121.635168333333","25.222845","6502700","金山區"
"208003","665-BX","2018/08/18 19:39:37","新北市金山區仁愛路6號","121.638583333333","25.22012","6502700","金山區"
"208001","761-BX","2018/08/18 19:39:36","新北市金山區南勢104號","121.625645","25.2201933333333","6502700","金山區"
"251009","008-UM","2018/08/18 19:39:42","新北市淡水區中山北路一段198巷9號","121.445221666667","25.1792966666667","6501000","淡水區"
"251005","010-UM","2018/08/18 19:39:33","新北市淡水區原德路108巷2號","121.443373333333","25.1735416666667","6501000","淡水區"
"251001","011-UM","2018/08/18 19:39:39","新北市淡水區民權路13-5號","121.459763333333","25.141855","6501000","淡水區"
"251002","012-UM","2018/08/18 19:39:38","新北市淡水區下圭柔山90-8號","121.431243333333","25.2102816666667","6501000","淡水區"
"251013","KEA-2871","2018/08/18 19:39:44","新北市淡水區店子後10號","121.460205","25.21911","6501000","淡水區"
"251016","179-VK","2018/08/18 19:39:32","新北市淡水區下圭柔山119-51號","121.450731666667","25.2084883333333","6501000","淡水區"
"251014","180-VK","2018/08/18 19:39:32","新北市淡水區桂竹圍4-3號","121.475578333333","25.2321716666667","6501000","淡水區"
"251015","181-VK","2018/08/18 19:39:35","新北市淡水區泉洲厝19號","121.49047","25.1905166666667","6501000","淡水區"
"251010","413-VK","2018/08/18 19:39:28","新北市淡水區濱海路二段202巷65弄31號","121.435063333333","25.1936116666667","6501000","淡水區"
"251012","441-VK","2018/08/18 19:39:40","新北市淡水區埤島6-10號","121.445845","25.19457","6501000","淡水區"
"251008","442-VK","2018/08/18 19:39:41","新北市淡水區中正路一段8巷1弄11號","121.428246666667","25.1758333333333","6501000","淡水區"
"251006","561-UM","2018/08/18 19:39:41","新北市淡水區中山北路一段207巷8號","121.44382","25.1791183333333","6501000","淡水區"
"251007","577-R6","2018/08/18 19:39:31","新北市淡水區淡金路77巷9號","121.455173333333","25.161365","6501000","淡水區"
"251011","650-BX","2018/08/18 19:39:28","新北市淡水區中正東路二段5巷31號","121.46032","25.1587583333333","6501000","淡水區"
"207003","550-UM","2018/08/18 19:39:27","新北市萬里區大鵬里下社41-1號","121.649038333333","25.2163266666667","6502800","萬里區"
"207004","225-TW","2018/08/18 19:39:38","新北市萬里區萬里里瑪鋉路5-1號","121.686863333333","25.17531","6502800","萬里區"
"252002","178-VK","2018/08/18 19:39:42","新北市三芝區三民街22號","121.504611666667","25.2586216666667","6502100","三芝區"
"252001","292-VK","2018/08/18 19:39:27","新北市三芝區公正街66號","121.49983","25.257445","6502100","三芝區"
"237004","KEA-2597","2018/08/18 19:39:31","新北市三峽區有木3號","121.42115","24.8660716666667","6500900","三峽區"
"237007","153-BY","2018/08/18 19:39:42","新北市三峽區二鬮路61-1號","121.359828333333","24.9074933333333","6500900","三峽區"
"237011","572-TV","2018/08/18 19:39:30","新北市三峽區中正路二段9號","121.367228333333","24.91954","6500900","三峽區"
"237009","210-TH","2018/08/18 19:39:36","新北市三峽區中園街117號","121.367675","24.92419","6500900","三峽區"
"237013","252-BX","2018/08/18 19:39:28","新北市三峽區介壽路二段91號","121.391975","24.9354016666667","6500900","三峽區"
"237012","275-BY","2018/08/18 19:39:33","新北市三峽區光明路35號","121.37364","24.9307766666667","6500900","三峽區"
"237008","302-VK","2018/08/18 19:39:35","新北市三峽區永安街133號","121.37378","24.9284116666667","6500900","三峽區"
"237014","433-BY","2018/08/18 19:39:25","新北市三峽區嘉添85號","121.368808333333","24.9099516666667","6500900","三峽區"
"237006","5529-G3","2018/08/18 19:39:39","新北市三峽區中正路一段330-10號","121.369891666667","24.9246383333333","6500900","三峽區"
"237016","649-BX","2018/08/18 19:39:36","新北市三峽區溪東路218巷2-1號","121.40757","24.93211","6500900","三峽區"
"237005","AKY-6261","2018/08/18 19:39:41","新北市三峽區中山路118號","121.365701666667","24.9358833333333","6500900","三峽區"
"236070","105-UM","2018/08/18 19:39:34","新北市土城區金城路二段2巷5號","121.447301666667","24.9760033333333","6501300","土城區"
"236042","107-UM","2018/08/18 19:39:41","新北市土城區學士路2號","121.454013333333","24.9833033333333","6501300","土城區"
"236079","166-UM","2018/08/18 19:39:39","新北市土城區中州路27巷78號","121.412555","24.9563166666667","6501300","土城區"
"236030","253-BX","2018/08/18 19:39:45","新北市土城區福祥街64號","121.441551666667","24.9816","6501300","土城區"
"236026","269-VK","2018/08/18 19:39:45","新北市土城區中央路二段61巷26號","121.443273333333","24.9787883333333","6501300","土城區"
"236038","271-VK","2018/08/18 19:39:22","新北市土城區青雲路281巷13弄2號","121.459845","24.9801766666667","6501300","土城區"
"236021","401-BY","2018/08/18 19:39:29","新北市土城區金城路三段200-5號","121.468893333333","24.9875466666667","6501300","土城區"
"236059","912-UM","2018/08/18 19:39:40","新北市土城區中央路二段63號","121.442551666667","24.9790833333333","6501300","土城區"
"236049","913-UM","2018/08/18 19:39:30","新北市土城區明德路一段53號","121.465261666667","24.9846816666667","6501300","土城區"
"236063","915-UM","2018/08/18 19:39:26","新北市土城區延平街56號","121.468013333333","24.99245","6501300","土城區"
"236055","AAC-216","2018/08/18 19:39:39","新北市土城區學府路一段52號","121.457475","24.9884833333333","6501300","土城區"
"242036","415-TV","2018/08/18 19:39:41","新北市新莊區民安路207巷21弄2號","121.427161666667","25.0233583333333","6500500","新莊區"
"242031","135-UY","2018/08/18 19:39:32","新北市新莊區公園一路141號","121.446441666667","25.0383233333333","6500500","新莊區"
"242048","172-VK","2018/08/18 19:39:37","新北市新莊區民安路37巷3號","121.423825","25.0269366666667","6500500","新莊區"
"242011","173-VK","2018/08/18 19:39:44","新北市新莊區三和路12-21號","121.442051666667","25.0387483333333","6500500","新莊區"
"242004","176-VK","2018/08/18 19:39:35","新北市新莊區化成路29巷40號","121.46352","25.0439566666667","6500500","新莊區"
"242002","349-TH","2018/08/18 19:39:41","新北市新莊區新泰路277巷19號","121.445028333333","25.04028","6500500","新莊區"
"238023","601-UM","2018/08/18 19:39:25","新北市樹林區三福街81號","121.40725","25.0163466666667","6500700","樹林區"
"238024","5061-A6","2018/08/18 19:39:31","新北市樹林區中山路三段24號","121.395463333333","24.972995","6500700","樹林區"
"238022","KEA-2213","2018/08/18 19:39:34","新北市樹林區國凱街72巷1號","121.421095","24.9789733333333","6500700","樹林區"
"238021","KEA-2539","2018/08/18 19:39:35","新北市樹林區佳園路三段145巷36-22號","121.389073333333","24.9490366666667","6500700","樹林區"
"238025","303-VK","2018/08/18 19:39:28","新北市樹林區鎮前街417-1號","121.413945","24.9831083333333","6500700","樹林區"
"238017","283-BY","2018/08/18 19:39:36","新北市樹林區保安街二段167巷15號","121.414458333333","25.0028366666667","6500700","樹林區"
"238014","282-BY","2018/08/18 19:39:38","新北市樹林區千歲街48號","121.426085","24.9969533333333","6500700","樹林區"
"239006","891-R6","2018/08/18 19:39:30","新北市鶯歌區文化路253號","121.353358333333","24.9531216666667","6500800","鶯歌區"
"239002","359-BY","2018/08/18 19:39:29","新北市鶯歌區大湖路18號","121.342853333333","24.9609416666667","6500800","鶯歌區"
"221008","489-VK","2018/08/18 19:39:36","新北市汐止區康寧街61巷63號","121.620048333333","25.0678416666667","6501100","汐止區"
"221036","130-UY","2018/08/18 19:39:32","新北市汐止區康寧街901號","121.651561666667","25.0749233333333","6501100","汐止區"
"221015","131-UY","2018/08/18 19:39:27","新北市汐止區中正路311號","121.655971666667","25.0676666666667","6501100","汐止區"
"221010","269-BY","2018/08/18 19:39:37","新北市汐止區汐萬路一段411號","121.649185","25.0794033333333","6501100","汐止區"
"221012","278-VK","2018/08/18 19:39:40","新北市汐止區大同路三段495號","121.680058333333","25.0711316666667","6501100","汐止區"
"221023","279-VK","2018/08/18 19:39:35","新北市汐止區中興路286巷1號","121.628193333333","25.0696","6501100","汐止區"
"221027","281-BY","2018/08/18 19:39:34","新北市汐止區忠孝東路9號","121.65835","25.0659833333333","6501100","汐止區"
"221029","298-VK","2018/08/18 19:39:41","新北市汐止區康寧街901號","121.651505","25.0749316666667","6501100","汐止區"
"221021","299-VK","2018/08/18 19:39:26","新北市汐止區新台五路一段131號","121.65236","25.0619416666667","6501100","汐止區"
"221031","353-TW","2018/08/18 19:39:24","新北市汐止區康寧街901號","121.650705","25.075275","6501100","汐止區"
"221002","129-UY","2018/08/18 19:39:42","新北市汐止區大同路一段219巷27號","121.633338333333","25.0583383333333","6501100","汐止區"
"221025","623-UM","2018/08/18 19:39:33","新北市汐止區福安街20巷7號","121.662521666667","25.0647766666667","6501100","汐止區"
"221038","646-BX","2018/08/18 19:39:45","新北市汐止區忠孝東路245號","121.662891666667","25.0674266666667","6501100","汐止區"
"221033","647-BX","2018/08/18 19:39:37","新北市汐止區南勢街1巷8號","121.626598333333","25.0376783333333","6501100","汐止區"
"220082","610-BX","2018/08/18 19:39:28","新北市板橋區篤行路一段37號","121.432048333333","24.99389","6500100","板橋區"
"220101","245-BX","2018/08/18 19:39:41","新北市板橋區萬板路42號","121.472413333333","25.0224766666667","6500100","板橋區"
"220091","267-BY","2018/08/18 19:39:40","新北市板橋區懷德街139巷5號","121.47951","25.030615","6500100","板橋區"
"220056","276-BY","2018/08/18 19:39:27","新北市板橋區四川路二段47巷4弄1號","121.454186666667","24.9946233333333","6500100","板橋區"
"220072","277-BY","2018/08/18 19:39:35","新北市板橋區金門街253巷10弄19-1號","121.433406666667","24.9880533333333","6500100","板橋區"
"220071","283-VK","2018/08/18 19:39:38","新北市板橋區信義路279巷21號","121.464325","24.9902233333333","6500100","板橋區"
"220094","285-UM","2018/08/18 19:39:32","新北市板橋區宏國路77巷2弄5號","121.469551666667","25.032525","6500100","板橋區"
"220053","285-VK","2018/08/18 19:39:43","新北市板橋區民享街95號","121.477148333333","25.0159733333333","6500100","板橋區"
"220083","286-VK","2018/08/18 19:39:41","新北市板橋區龍興街71巷27號","121.442683333333","25.0022866666667","6500100","板橋區"
"220081","287-VK","2018/08/18 19:39:39","新北市板橋區大觀路一段29巷131弄10號","121.450643333333","25.00513","6500100","板橋區"
"220090","288-VK","2018/08/18 19:39:36","新北市板橋區裕民街78號","121.460783333333","25.0283283333333","6500100","板橋區"
"220061","293-UM","2018/08/18 19:39:31","新北市板橋區漢生東路113巷7號","121.467635","25.0153316666667","6500100","板橋區"
"220084","296-UM","2018/08/18 19:39:33","新北市板橋區滿平二街12號","121.425503333333","24.9868316666667","6500100","板橋區"
"220092","299-UM","2018/08/18 19:39:35","新北市板橋區陽明街67號","121.464335","25.0228033333333","6500100","板橋區"
"220075","303-R5","2018/08/18 19:39:25","新北市板橋區大勇街71號","121.45307","25.0166933333333","6500100","板橋區"
"220062","305-R5","2018/08/18 19:39:45","新北市板橋區三民路二段29巷31弄1號","121.481336666667","25.017725","6500100","板橋區"
"220098","317-R6","2018/08/18 19:39:35","新北市板橋區四維路269巷25號","121.462205","25.027885","6500100","板橋區"
"220080","461-BY","2018/08/18 19:39:32","新北市板橋區大觀路二段37巷69號","121.44983","25.0024733333333","6500100","板橋區"
"220064","486-VK","2018/08/18 19:39:34","新北市板橋區重慶路67巷1號","121.462093333333","25.0073533333333","6500100","板橋區"
"220088","491-VK","2018/08/18 19:39:35","新北市板橋區仁化街150號","121.477615","25.0331066666667","6500100","板橋區"
"220035","560-BX","2018/08/18 19:39:40","新北市板橋區中正路375巷20號","121.45407","25.0207283333333","6500100","板橋區"
"220103","561-BX","2018/08/18 19:39:42","新北市板橋區文化路一段288號","121.467473333333","25.0214116666667","6500100","板橋區"
"220079","568-UM","2018/08/18 19:39:39","新北市板橋區民權路202巷17弄50號","121.458878333333","25.0168766666667","6500100","板橋區"
"220063","609-BX","2018/08/18 19:39:45","新北市板橋區中山路二段399號","121.480411666667","25.0195266666667","6500100","板橋區"
"220057","686-BX","2018/08/18 19:39:26","新北市板橋區和平路安樂巷27號","121.461633333333","24.9935033333333","6500100","板橋區"
"220077","687-BX","2018/08/18 19:39:41","新北市板橋區僑中二街92巷1號","121.446321666667","25.0087566666667","6500100","板橋區"
"220093","689-BX","2018/08/18 19:39:43","新北市板橋區長江路一段125號","121.460253333333","25.0300416666667","6500100","板橋區"
"220054","741-BX","2018/08/18 19:39:29","新北市板橋區忠孝路202號","121.465821666667","25.0027133333333","6500100","板橋區"
"220102","KEA-2699","2018/08/18 19:39:32","新北市板橋區文化路二段410巷2弄6號","121.474068333333","25.0309333333333","6500100","板橋區"
"220055","827-TW","2018/08/18 19:39:44","新北市板橋區國慶路149巷6號","121.461268333333","24.99698","6500100","板橋區"
"220067","829-TW","2018/08/18 19:39:42","新北市板橋區長安街148號","121.472991666667","25.0103016666667","6500100","板橋區"
"220068","830-TW","2018/08/18 19:39:36","新北市板橋區中山路二段507號","121.482745","25.02114","6500100","板橋區"
"220096","831-TW","2018/08/18 19:39:43","新北市板橋區民生路二段234巷67號","121.470063333333","25.0225633333333","6500100","板橋區"
"220089","833-TW","2018/08/18 19:39:28","新北市板橋區英士路17號","121.461793333333","25.02516","6500100","板橋區"
"220074","895-R6","2018/08/18 19:39:34","新北市板橋區福德街9號","121.456168333333","25.00929","6500100","板橋區"
"220073","985-R7","2018/08/18 19:39:35","新北市板橋區國光路67巷16號","121.459218333333","25.0187566666667","6500100","板橋區"
"220097","AAC-210","2018/08/18 19:39:26","新北市板橋區幸福路32巷4弄4號","121.461091666667","25.02127","6500100","板橋區"
"220070","AAC-253","2018/08/18 19:39:29","新北市板橋區民族路269號","121.470678333333","25.006875","6500100","板橋區"
"235068","KEA-2873","2018/08/18 19:39:17","新北市中和區廟美街11-1號","121.500606666667","25.0014816666667","6500300","中和區"
"235061","KEA-2875","2018/08/18 19:39:34","新北市中和區民安街2巷37弄1號","121.479965","25.0014966666667","6500300","中和區"
