"lineid","car","time","location","longitude","latitude","cityid","cityname"
"234046","148-BY","2018/08/18 19:49:38","新北市永和區永利路248號","121.524208333333","25.002905","6500400","永和區"
"234007","207-UY","2018/08/18 19:49:26","新北市中和區中山路二段67號","121.504111666667","25.0044883333333","6500400","永和區"
"234081","298-R6","2018/08/18 19:49:27","新北市永和區永亨路98號","121.52301","25.00481","6500400","永和區"
"234038","336-UY","2018/08/18 19:49:27","新北市永和區民樂街57巷19號","121.52831","24.9986333333333","6500400","永和區"
"234064","337-UY","2018/08/18 19:49:41","新北市永和區中正路368巷21號","121.518363333333","25.0008583333333","6500400","永和區"
"234086","338-UY","2018/08/18 19:49:45","新北市永和區福和路247號","121.518123333333","25.0074866666667","6500400","永和區"
"234070","552-UM","2018/08/18 19:49:43","新北市永和區竹林路112-2號","121.519771666667","25.011665","6500400","永和區"
"234017","745-BX","2018/08/18 19:49:42","新北市永和區永和路二段299號","121.51606","25.0161216666667","6500400","永和區"
"234030","746-BX","2018/08/18 19:49:41","新北市永和區民生路67巷22號","121.52378","24.99707","6500400","永和區"
"234054","KEA-2590","2018/08/18 19:49:41","新北市永和區竹林路75巷25弄6號","121.520341666667","25.0142433333333","6500400","永和區"
"234013","KEA-2591","2018/08/18 19:49:33","新北市永和區永平路288號","121.507543333333","25.0120533333333","6500400","永和區"
"234061","AAD-866","2018/08/18 19:49:46","新北市永和區中正路100號","121.514315","24.9956316666667","6500400","永和區"
"234042","862-TW","2018/08/18 19:49:30","新北市永和區中和路389巷10號","121.508126666667","25.0009783333333","6500400","永和區"
"234050","863-TW","2018/08/18 19:49:35","新北市永和區保安路75號","121.508751666667","25.0148483333333","6500400","永和區"
"234026","9371-KE","2018/08/18 19:49:26","新北市永和區雙和街8號","121.50973","25.001845","6500400","永和區"
"234011","9373-KE","2018/08/18 19:49:28","新北市永和區保生路55-1號","121.504606666667","25.010935","6500400","永和區"
"249001","173-UM","2018/08/18 19:49:34","新北市八里區中華路二段252號","121.40541","25.1496716666667","6502300","八里區"
"249004","303-UY","2018/08/18 19:49:27","新北市八里區仁愛路59號","121.41227","25.16025","6502300","八里區"
"249002","305-UY","2018/08/18 19:49:35","新北市八里區頂寮五街22號","121.451228333333","25.1262216666667","6502300","八里區"
"249003","593-UM","2018/08/18 19:49:37","新北市八里區華峰三街35號","121.398486666667","25.1453683333333","6502300","八里區"
"248014","025-BX","2018/08/18 19:49:42","新北市五股區五福路24號","121.434255","25.0888983333333","6501500","五股區"
"248016","026-BX","2018/08/18 19:49:33","新北市五股區成泰路三段601巷17-1號","121.451773333333","25.1033283333333","6501500","五股區"
"248008","095-VK","2018/08/18 19:49:40","新北市蘆洲區中山二路300巷1號","121.468478333333","25.0766083333333","6501500","五股區"
"248020","225-UY","2018/08/18 19:49:34","新北市五股區中直路40號","121.419953333333","25.1151066666667","6501500","五股區"
"248012","247-BX","2018/08/18 19:49:33","新北市五股區蓬萊路24號","121.434033333333","25.0799233333333","6501500","五股區"
"248010","272-BY","2018/08/18 19:49:26","新北市五股區登林路76-5號","121.43053","25.0694116666667","6501500","五股區"
"248004","655-BX","2018/08/18 19:49:36","新北市五股區成泰路一段106-1號","121.435743333333","25.07174","6501500","五股區"
"248002","678-BX","2018/08/18 19:49:24","新北市五股區成泰路三段544-18號","121.452798333333","25.1035333333333","6501500","五股區"
"234077","969-R7","2018/08/18 19:49:33","新北市永和區民治街97巷7號","121.516885","24.9980633333333","6500400","永和區"
"234074","AAC-211","2018/08/18 19:49:43","新北市永和區竹林路179巷35號","121.522185","25.01024","6500400","永和區"
"234067","AAC-212","2018/08/18 19:49:25","新北市永和區中山路一段144號","121.5099","25.0095566666667","6500400","永和區"
"234003","AAC-295","2018/08/18 19:49:37","新北市永和區福和路310-1號","121.516178333333","25.0073583333333","6500400","永和區"
"243013","AAD-798","2018/08/18 19:40:42","新北市泰山區應化街7號","121.4239","25.04373","6501600","泰山區"
"243009","297-R6","2018/08/18 19:49:37","新北市泰山區美寧街68號","121.431093333333","25.06469","6501600","泰山區"
"243016","KEA-2801","2018/08/18 19:49:31","新北市泰山區中山路三段114號","121.417765","25.032105","6501600","泰山區"
"243015","421-VK","2018/08/18 19:49:33","新北市泰山區明志路二段237巷14號","121.427758333333","25.0480216666667","6501600","泰山區"
"243011","KEA-2215","2018/08/18 19:49:39","新北市泰山區明志路三段204巷12號","121.422046666667","25.0383066666667","6501600","泰山區"
"243010","KEA-2216","2018/08/18 19:49:33","新北市泰山區民生路33號","121.43077","25.0520916666667","6501600","泰山區"
"243012","646-TV","2018/08/18 19:49:40","新北市泰山區福興一街64號","121.43234","25.0580066666667","6501600","泰山區"
"243014","680-BX","2018/08/18 19:49:42","新北市泰山區泰林路二段33-8號","121.435178333333","25.0565066666667","6501600","泰山區"
"222003","436-BY","2018/08/18 19:49:42","新北市深坑區深南路51-1號","121.621138333333","25.009765","6501800","深坑區"
"222002","659-BX","2018/08/18 19:49:36","新北市深坑區北深路二段2巷1號","121.621393333333","25.004645","6501800","深坑區"
"231040","001-UM","2018/08/18 19:49:35","新北市新店區中正路75巷71號","121.543061666667","24.96893","6500600","新店區"
"231041","002-UM","2018/08/18 19:49:30","新北市新店區中央路151號","121.529433333333","24.9723233333333","6500600","新店區"
"231059","046-UY","2018/08/18 19:49:43","新北市新店區安和路二段192-1號","121.518661666667","24.9746983333333","6500600","新店區"
"231044","106-UY","2018/08/18 19:49:31","新北市新店區復興路51-8號","121.536316666667","24.9872316666667","6500600","新店區"
"231046","107-UY","2018/08/18 19:49:33","新北市新店區三民路159巷19弄48號","121.53215","24.9731983333333","6500600","新店區"
"231052","108-UY","2018/08/18 19:49:46","新北市新店區新烏路三段157號","121.550866666667","24.90152","6500600","新店區"
"231048","187-VK","2018/08/18 19:49:35","新北市新店區寶興路42巷1號","121.549056666667","24.9731266666667","6500600","新店區"
"231054","KEA-2219","2018/08/18 19:49:42","新北市新店區光明街93號","121.538988333333","24.961045","6500600","新店區"
"231057","256-BX","2018/08/18 19:49:42","新北市新店區梅崗三路1號","121.55838","24.9312516666667","6500600","新店區"
"231042","268-BY","2018/08/18 19:49:26","新北市新店區中興路一段268-3號","121.545215","24.9679266666667","6500600","新店區"
"231051","278-BY","2018/08/18 19:49:32","新北市新店區中央三街25號","121.528723333333","24.9739016666667","6500600","新店區"
"231050","AAD-862","2018/08/18 19:49:40","新北市新店區郵政路81號","121.555151666667","24.9516433333333","6500600","新店區"
"231066","4716-K9","2018/08/18 19:49:31","新北市新店區安康路三段165巷2弄3號","121.489296666667","24.951295","6500600","新店區"
"231056","4715-K9","2018/08/18 19:49:38","新北市新店區民權路42號","121.540436666667","24.983065","6500600","新店區"
"231065","512-UM","2018/08/18 19:49:32","新北市新店區安祥路109巷90弄42號","121.476826666667","24.9590816666667","6500600","新店區"
"231049","513-UM","2018/08/18 19:49:40","新北市新店區民權路127巷13號","121.535698333333","24.9818266666667","6500600","新店區"
"231045","617-UM","2018/08/18 19:49:46","新北市新店區中生路60號","121.564603333333","24.9527366666667","6500600","新店區"
"231061","619-UM","2018/08/18 19:49:42","新北市新店區安民街172號","121.51688","24.9708266666667","6500600","新店區"
"231063","641-BX","2018/08/18 19:49:31","新北市新店區車子路11號","121.502993333333","24.952015","6500600","新店區"
"231064","719-UM","2018/08/18 19:49:35","新北市新店區安和路一段52巷2-1號","121.51765","24.9664166666667","6500600","新店區"
"231062","720-UM","2018/08/18 19:49:32","新北市新店區永業路46號","121.53174","24.9537116666667","6500600","新店區"
"231060","897-TW","2018/08/18 19:49:45","新北市新店區安康路二段233號","121.508375","24.9585783333333","6500600","新店區"
"231043","899-TW","2018/08/18 19:49:29","新北市新店區中正路263-2號","121.538446666667","24.9737833333333","6500600","新店區"
"231055","AKT-0513","2018/08/18 19:49:33","新北市新店區力行路94號","121.538305","24.966615","6500600","新店區"
"241011","013-R5","2018/08/18 19:49:25","新北市三重區介壽路43號","121.498855","25.070115","6500200","三重區"
"241028","022-UY","2018/08/18 19:49:30","新北市三重區中正南路150號","121.494135","25.0573466666667","6500200","三重區"
"241008","059-VK","2018/08/18 19:49:35","新北市三重區永福街147-8號","121.478716666667","25.076105","6500200","三重區"
"241022","060-VK","2018/08/18 19:49:41","新北市三重區新北大道一段7號","121.48979","25.061435","6500200","三重區"
"241031","061-VK","2018/08/18 19:49:29","新北市三重區重新路四段244巷6號","121.486171666667","25.0535716666667","6500200","三重區"
"241015","062-VK","2018/08/18 19:49:41","新北市三重區重新路一段1號","121.503815","25.0643133333333","6500200","三重區"
"241017","063-VK","2018/08/18 19:49:39","新北市三重區重陽路三段5巷8弄20號","121.48963","25.0665116666667","6500200","三重區"
"241024","065-VK","2018/08/18 19:49:38","新北市三重區中正北路253號","121.4756","25.0707766666667","6500200","三重區"
"241026","066-VK","2018/08/18 19:49:45","新北市三重區文化南路42號","121.500458333333","25.060295","6500200","三重區"
"241003","091-VK","2018/08/18 19:49:37","新北市三重區五華街130號","121.491551666667","25.0834633333333","6500200","三重區"
"241016","266-UM","2018/08/18 19:49:39","新北市三重區正義北路48巷61號","121.495725","25.063595","6500200","三重區"
"241009","267-UM","2018/08/18 19:49:28","新北市三重區三和路四段396巷2-1號","121.481348333333","25.0791433333333","6500200","三重區"
"241018","268-UM","2018/08/18 19:49:27","新北市三重區雙園街57巷9號","121.494766666667","25.0678316666667","6500200","三重區"
"241032","269-UM","2018/08/18 19:49:45","新北市三重區捷運路19巷33號","121.48462","25.0577933333333","6500200","三重區"
"241013","270-UM","2018/08/18 19:49:32","新北市三重區仁福街64巷23號","121.497671666667","25.075395","6500200","三重區"
"241025","271-UM","2018/08/18 19:49:30","新北市三重區忠孝路三段54號","121.480668333333","25.065545","6500200","三重區"
"241007","398-BY","2018/08/18 19:49:27","新北市三重區慈愛街1號","121.484626666667","25.0784116666667","6500200","三重區"
"241035","462-BY","2018/08/18 19:49:40","新北市三重區文化北路8號","121.499295","25.063585","6500200","三重區"
"241004","475-VK","2018/08/18 19:49:41","新北市三重區五華街74號","121.493426666667","25.0819733333333","6500200","三重區"
"241020","478-VK","2018/08/18 19:49:37","新北市三重區後竹圍街1號","121.491505","25.073645","6500200","三重區"
"241030","480-VK","2018/08/18 19:49:45","新北市三重區環河南路254巷36-1號","121.48983","25.0511383333333","6500200","三重區"
"241014","543-UM","2018/08/18 19:49:31","新北市三重區長安街73號","121.501418333333","25.06745","6500200","三重區"
"241023","545-UM","2018/08/18 19:49:25","新北市三重區頂崁街172號","121.477525","25.0659283333333","6500200","三重區"
"241001","547-UM","2018/08/18 19:49:26","新北市三重區仁愛街327巷23號","121.492903333333","25.0798633333333","6500200","三重區"
"241019","KEA-2593","2018/08/18 19:49:42","新北市三重區自強路二段74巷23-1號","121.487773333333","25.0697216666667","6500200","三重區"
"241006","AAD-863","2018/08/18 19:49:29","新北市三重區力行路二段76巷17號","121.481086666667","25.07356","6500200","三重區"
"241012","941-UM","2018/08/18 19:49:38","新北市三重區仁興街41號","121.49906","25.0758183333333","6500200","三重區"
"241029","942-UM","2018/08/18 19:49:41","新北市三重區光明路11號","121.490953333333","25.058705","6500200","三重區"
"241033","AAC-255","2018/08/18 19:49:43","新北市三重區中興南街66號","121.470641666667","25.043985","6500200","三重區"
"235066","003-UY","2018/08/18 19:49:32","新北市中和區南工路2巷2號","121.505466666667","25","6500300","中和區"
"235056","096-UM","2018/08/18 19:49:31","新北市中和區中山路三段136巷10弄17號","121.474","25.0076266666667","6500300","中和區"
"235039","097-UM","2018/08/18 19:49:31","新北市中和區大勇街27巷7號","121.517061666667","24.9936316666667","6500300","中和區"
"235065","098-UM","2018/08/18 19:49:21","新北市中和區莊敬路7號","121.499838333333","25.0044466666667","6500300","中和區"
"235040","150-BY","2018/08/18 19:49:32","新北市中和區安平路38號","121.509738333333","24.9949833333333","6500300","中和區"
"235058","151-BY","2018/08/18 19:49:37","新北市中和區員山路132巷1號","121.481458333333","24.9963183333333","6500300","中和區"
"235055","183-VK","2018/08/18 19:49:37","新北市中和區中山路三段181巷28號","121.472878333333","25.005035","6500300","中和區"
"235038","185-VK","2018/08/18 19:49:34","新北市永和區民生路83號","121.522655","24.9968033333333","6500300","中和區"
"235049","186-VK","2018/08/18 19:49:31","新北市中和區中興街38號","121.50082","24.9947116666667","6500300","中和區"
"235067","255-BX","2018/08/18 19:49:41","新北市中和區中正路751巷3弄1號","121.48441","24.9996466666667","6500300","中和區"
"235044","293-VK","2018/08/18 19:49:29","新北市中和區南山路229巷6號","121.503821666667","24.9930866666667","6500300","中和區"
"235072","301-VK","2018/08/18 19:49:30","新北市中和區板南路399巷2號","121.493381666667","24.9991","6500300","中和區"
"235043","352-BY","2018/08/18 19:49:30","新北市中和區華新街230號","121.506048333333","24.9817433333333","6500300","中和區"
"247010","KEA-2869","2018/08/18 19:49:26","新北市蘆洲區環堤大道368號","121.478243333333","25.0964133333333","6501400","蘆洲區"
"235050","4979-A6","2018/08/18 19:49:26","新北市中和區景平路241巷82弄39號","121.506265","24.9924066666667","6500300","中和區"
"235070","558-UM","2018/08/18 19:49:45","新北市中和區圓通路165-1號","121.497716666667","24.9954316666667","6500300","中和區"
"235054","640-BX","2018/08/18 19:49:42","新北市中和區莒光路131號","121.472526666667","25.0018466666667","6500300","中和區"
"235060","647-TV","2018/08/18 19:49:43","新北市中和區員山路390號","121.480556666667","25.0045233333333","6500300","中和區"
"235047","732-UM","2018/08/18 19:49:25","新北市中和區和平街3-2號","121.509756666667","24.990075","6500300","中和區"
"235046","733-UM","2018/08/18 19:49:28","新北市中和區仁愛街16號","121.51074","24.98892","6500300","中和區"
"235041","802-TS","2018/08/18 19:49:38","新北市中和區永貞路239巷4號","121.512985","25.0036566666667","6500300","中和區"
"235052","805-TS","2018/08/18 19:49:27","新北市中和區興南路二段119巷6號","121.505758333333","24.9839533333333","6500300","中和區"
"235048","896-TW","2018/08/18 19:49:38","新北市中和區興南路一段137號","121.50887","24.9875333333333","6500300","中和區"
"235053","900-TW","2018/08/18 19:49:32","新北市中和區國光街171巷6號","121.467586666667","25.00138","6500300","中和區"
"235051","157-BY","2018/08/18 19:49:33","新北市中和區中興街132巷1號","121.499625","24.9921333333333","6500300","中和區"
"235037","AAC-213","2018/08/18 19:49:43","新北市中和區自立路66號","121.523888333333","24.9913233333333","6500300","中和區"
"235059","AAC-215","2018/08/18 19:49:31","新北市中和區圓通路305巷27弄1號","121.494988333333","24.98914","6500300","中和區"
"220065","072-UY","2018/08/18 19:49:42","新北市板橋區海山路45號","121.466815","25.0099233333333","6500100","板橋區"
"220086","073-UY","2018/08/18 19:49:28","新北市五股區新五路二段128-1號","121.43786","25.0773833333333","6500100","板橋區"
"220106","075-UY","2018/08/18 19:49:25","新北市板橋區民治街57巷24弄6號","121.480381666667","25.0337033333333","6500100","板橋區"
"220069","AAD-861","2018/08/18 19:49:32","新北市板橋區貴興路60號","121.456726666667","25.00303","6500100","板橋區"
"247004","337-TH","2018/08/18 19:49:33","新北市蘆洲區中原路83號","121.458133333333","25.08163","6501400","蘆洲區"
"247006","336-TH","2018/08/18 19:49:36","新北市蘆洲區永安南路二段32號","121.467021666667","25.0770816666667","6501400","蘆洲區"
"247007","056-VK","2018/08/18 19:49:30","新北市蘆洲區信義路133號","121.478965","25.0803766666667","6501400","蘆洲區"
"247014","053-VK","2018/08/18 19:49:41","新北市蘆洲區復興路11號","121.472005","25.0853433333333","6501400","蘆洲區"
"247002","002-UY","2018/08/18 19:49:31","新北市蘆洲區永平街27號","121.458628333333","25.090835","6501400","蘆洲區"
"226004","312-R5","2018/08/18 19:49:41","新北市平溪區石底里公園街18-3號","121.73348","25.0256483333333","6502400","平溪區"
"228003","097-TW","2018/08/18 19:49:35","新北市貢寮區真理里美艷山街3-1號","121.926108333333","25.0596533333333","6502600","貢寮區"
"228001","212-TW","2018/08/18 19:49:35","新北市貢寮區真理里新港街78號","121.927301666667","25.0557433333333","6502600","貢寮區"
"224010","AGQ-8101","2018/08/18 19:49:21","新北市瑞芳區基山街41號","121.845443333333","25.1091483333333","6501200","瑞芳區"
"224002","639-TC","2018/08/18 19:49:36","新北市瑞芳區民享新村38號","121.817891666667","25.1060116666667","6501200","瑞芳區"
"227002","642-TC","2018/08/18 19:49:37","新北市雙溪區雙溪里內挖路83號","121.863201666667","25.0368866666667","6502500","雙溪區"
"227010","400-TW","2018/08/18 19:49:29","新北市雙溪區新基里中華路84號","121.865895","25.0384733333333","6502500","雙溪區"
"222001","KEA-2212","2018/08/18 19:49:33","新北市深坑區北深路三段108號","121.606833333333","25.0015733333333","6501800","深坑區"
"208002","KEA-2872","2018/08/18 19:49:35","新北市金山區八德街11號","121.634998333333","25.2235466666667","6502700","金山區"
"208003","665-BX","2018/08/18 19:49:37","新北市金山區海興路22號","121.630425","25.237735","6502700","金山區"
"208001","761-BX","2018/08/18 19:49:43","新北市金山區重和里六股林口21-5號","121.603743333333","25.2195983333333","6502700","金山區"
"251009","008-UM","2018/08/18 19:49:43","新北市淡水區中正路38-1號","121.443761666667","25.1693083333333","6501000","淡水區"
"251005","010-UM","2018/08/18 19:49:37","新北市淡水區中山路21號","121.444148333333","25.16999","6501000","淡水區"
"251001","011-UM","2018/08/18 19:49:33","新北市淡水區淡金路132號","121.457955","25.16483","6501000","淡水區"
"251002","012-UM","2018/08/18 19:49:38","新北市淡水區下圭柔山90-8號","121.431196666667","25.2102883333333","6501000","淡水區"
"251013","KEA-2871","2018/08/18 19:49:24","新北市淡水區頂田寮路160號","121.459001666667","25.21598","6501000","淡水區"
"251016","179-VK","2018/08/18 19:49:32","新北市淡水區三塊厝2-1號","121.454478333333","25.2096666666667","6501000","淡水區"
"251014","180-VK","2018/08/18 19:49:32","新北市淡水區番社前4-2號","121.47261","25.2369833333333","6501000","淡水區"
"251015","181-VK","2018/08/18 19:49:35","新北市淡水區竹圍子5-1號","121.482721666667","25.192645","6501000","淡水區"
"251010","413-VK","2018/08/18 19:49:28","新北市淡水區崁頂78-5號","121.42959","25.20685","6501000","淡水區"
"251012","441-VK","2018/08/18 19:49:40","新北市淡水區淡金路三段170號","121.448566666667","25.2022133333333","6501000","淡水區"
"251008","442-VK","2018/08/18 19:49:41","新北市淡水區中正路一段24巷2-4號","121.426766666667","25.177035","6501000","淡水區"
"251006","561-UM","2018/08/18 19:49:41","新北市淡水區水碓街15號","121.44352","25.1770116666667","6501000","淡水區"
"251007","577-R6","2018/08/18 19:49:31","新北市淡水區中正東路一段13號","121.451466666667","25.1636883333333","6501000","淡水區"
"251011","650-BX","2018/08/18 19:49:28","新北市淡水區埤島7-2號","121.444751666667","25.1924433333333","6501000","淡水區"
"251003","673-BX","2018/08/18 19:49:39","新北市淡水區中山北路三段165-1號","121.445198333333","25.19681","6501000","淡水區"
"207003","550-UM","2018/08/18 19:49:27","新北市萬里區大鵬里萬里加投68號","121.642233333333","25.2146733333333","6502800","萬里區"
"207004","225-TW","2018/08/18 19:49:38","新北市萬里區萬里里瑪鋉路221號","121.68978","25.1798416666667","6502800","萬里區"
"252002","178-VK","2018/08/18 19:49:42","新北市三芝區三民街33-1號","121.504656666667","25.2585683333333","6502100","三芝區"
"252001","292-VK","2018/08/18 19:49:27","新北市三芝區公正街66號","121.499831666667","25.2574716666667","6502100","三芝區"
"237004","KEA-2597","2018/08/18 19:49:31","新北市三峽區添福295號","121.377913333333","24.8848833333333","6500900","三峽區"
"237007","153-BY","2018/08/18 19:49:42","新北市三峽區二鬮路136巷20弄83號","121.358226666667","24.9090033333333","6500900","三峽區"
"237009","210-TH","2018/08/18 19:49:29","新北市三峽區民權街219號","121.36778","24.9282533333333","6500900","三峽區"
"237013","252-BX","2018/08/18 19:49:28","新北市三峽區溪北街35號","121.396863333333","24.9361833333333","6500900","三峽區"
"237012","275-BY","2018/08/18 19:49:33","新北市三峽區光明路1-12號","121.37285","24.9322066666667","6500900","三峽區"
"237008","302-VK","2018/08/18 19:49:35","新北市三峽區大同路147巷9號","121.37113","24.92638","6500900","三峽區"
"237014","433-BY","2018/08/18 19:49:45","新北市三峽區添福59-3號","121.374733333333","24.9033133333333","6500900","三峽區"
"237006","5529-G3","2018/08/18 19:49:39","新北市三峽區中正路一段336巷15弄2號","121.36992","24.9249733333333","6500900","三峽區"
"237016","649-BX","2018/08/18 19:49:36","新北市三峽區橫溪路57號","121.39721","24.9352566666667","6500900","三峽區"
"237005","AKY-6261","2018/08/18 19:49:41","新北市三峽區長泰街86號","121.376363333333","24.933195","6500900","三峽區"
"236070","105-UM","2018/08/18 19:49:34","新北市土城區中央路二段266號","121.441486666667","24.9744016666667","6501300","土城區"
"236042","107-UM","2018/08/18 19:49:41","新北市土城區裕民路233巷5號","121.45491","24.9835133333333","6501300","土城區"
"236079","166-UM","2018/08/18 19:49:39","新北市土城區溪頭路22號","121.412695","24.95544","6501300","土城區"
"236030","253-BX","2018/08/18 19:49:24","新北市土城區中央路一段290號","121.443331666667","24.98242","6501300","土城區"
"236026","269-VK","2018/08/18 19:49:25","新北市土城區中央路二段61巷26號","121.443278333333","24.9787883333333","6501300","土城區"
"236038","271-VK","2018/08/18 19:49:42","新北市土城區國際路139巷24號","121.46847","24.97695","6501300","土城區"
"236021","401-BY","2018/08/18 19:49:29","新北市土城區延吉街163號","121.46995","24.9858533333333","6501300","土城區"
"236059","912-UM","2018/08/18 19:49:40","新北市土城區中央路一段205號","121.445875","24.986685","6501300","土城區"
"236049","913-UM","2018/08/18 19:49:41","新北市土城區青雲路275號","121.459078333333","24.9802533333333","6501300","土城區"
"236063","915-UM","2018/08/18 19:49:26","新北市土城區延和路105巷4弄1號","121.467475","24.9908733333333","6501300","土城區"
"236055","AAC-216","2018/08/18 19:49:40","新北市土城區延和路115號","121.467961666667","24.9903233333333","6501300","土城區"
"242034","AAC-296","2018/08/18 19:49:35","新北市新莊區公園一路112-1號","121.444951666667","25.03738","6500500","新莊區"
"242058","986-R7","2018/08/18 19:49:29","新北市新莊區新樹路93號","121.437648333333","25.0272166666667","6500500","新莊區"
"242023","705-TV","2018/08/18 19:49:28","新北市新莊區化成路254號","121.46561","25.047185","6500500","新莊區"
"242036","415-TV","2018/08/18 19:49:41","新北市新莊區民安路207巷32弄7號","121.428401666667","25.0242933333333","6500500","新莊區"
"242007","413-TV","2018/08/18 19:49:42","新北市新莊區思源路593巷6弄16號","121.458805","25.0600066666667","6500500","新莊區"
"242061","353-BY","2018/08/18 19:49:41","新北市新莊區中環路一段10號","121.442823333333","25.0257916666667","6500500","新莊區"
"242039","133-UY","2018/08/18 19:49:33","新北市新莊區民安路299巷33號","121.429288333333","25.02321","6500500","新莊區"
"242031","135-UY","2018/08/18 19:49:31","新北市新莊區忠孝街27號","121.443873333333","25.0355233333333","6500500","新莊區"
"242048","172-VK","2018/08/18 19:49:37","新北市新莊區建安街76巷3弄15號","121.425791666667","25.0245633333333","6500500","新莊區"
"242011","173-VK","2018/08/18 19:49:24","新北市新莊區立信一街59號","121.442616666667","25.049695","6500500","新莊區"
"242017","175-VK","2018/08/18 19:49:24","新北市新莊區中港路287號","121.452811666667","25.04398","6500500","新莊區"
"242004","176-VK","2018/08/18 19:49:43","新北市新莊區化成路63巷24弄33號","121.462295","25.0459916666667","6500500","新莊區"
"242021","347-TH","2018/08/18 19:49:24","新北市新莊區新泰路137號","121.448068333333","25.03639","6500500","新莊區"
"242002","349-TH","2018/08/18 19:49:41","新北市新莊區武前街29號","121.450235","25.0325616666667","6500500","新莊區"
"242019","350-TH","2018/08/18 19:49:46","新北市新莊區中華路一段136巷26號","121.453456666667","25.0412466666667","6500500","新莊區"
"238021","KEA-2539","2018/08/18 19:49:36","新北市樹林區佳園路三段181巷97號","121.391833333333","24.9484066666667","6500700","樹林區"
"238017","283-BY","2018/08/18 19:49:36","新北市樹林區保安街二段65號","121.416038333333","25.0004916666667","6500700","樹林區"
"239006","891-R6","2018/08/18 19:49:30","新北市鶯歌區文化路115巷23號","121.357795","24.9551183333333","6500800","鶯歌區"
"221008","489-VK","2018/08/18 19:49:36","新北市汐止區康寧街143號","121.621426666667","25.0664933333333","6501100","汐止區"
"221036","130-UY","2018/08/18 19:49:32","新北市汐止區汐萬路一段160號","121.652745","25.0715416666667","6501100","汐止區"
"221015","131-UY","2018/08/18 19:49:27","新北市汐止區忠孝東路500巷10號","121.666683333333","25.0749316666667","6501100","汐止區"
"221010","269-BY","2018/08/18 19:49:37","新北市汐止區連峰街128號","121.646195","25.079105","6501100","汐止區"
"221012","278-VK","2018/08/18 19:49:40","新北市汐止區保長路273巷6號","121.681465","25.0740166666667","6501100","汐止區"
"221023","279-VK","2018/08/18 19:49:35","新北市汐止區民族六街4巷2號","121.62938","25.0702733333333","6501100","汐止區"
"221027","281-BY","2018/08/18 19:49:34","新北市汐止區南昌街35號","121.662748333333","25.0689116666667","6501100","汐止區"
"221029","298-VK","2018/08/18 19:49:41","新北市汐止區康寧街901號","121.651561666667","25.0750683333333","6501100","汐止區"
"221021","299-VK","2018/08/18 19:49:26","新北市汐止區新興路85巷1號","121.657946666667","25.0616","6501100","汐止區"
"221031","353-TW","2018/08/18 19:49:44","新北市汐止區福德三路127號","121.633645","25.06752","6501100","汐止區"
"221035","622-UM","2018/08/18 19:49:34","新北市汐止區長江街13巷8號","121.654715","25.0718833333333","6501100","汐止區"
"221025","623-UM","2018/08/18 19:49:33","新北市汐止區秀峰路81巷32號","121.661208333333","25.0645666666667","6501100","汐止區"
"221038","646-BX","2018/08/18 19:49:25","新北市汐止區忠孝東路443號","121.665976666667","25.0721816666667","6501100","汐止區"
"221033","647-BX","2018/08/18 19:49:36","新北市汐止區東勢街76巷100-1號","121.636398333333","25.039035","6501100","汐止區"
"221018","753-BX","2018/08/18 19:49:34","新北市汐止區大同路二段540號","121.661466666667","25.0687283333333","6501100","汐止區"
"220082","610-BX","2018/08/18 19:49:36","新北市板橋區篤行路二段105號","121.431715","24.9912716666667","6500100","板橋區"
"220101","245-BX","2018/08/18 19:49:34","新北市板橋區縣民大道三段83號","121.475558333333","25.0217283333333","6500100","板橋區"
"220091","267-BY","2018/08/18 19:49:40","新北市板橋區懷德街115號","121.478728333333","25.0313666666667","6500100","板橋區"
"220056","276-BY","2018/08/18 19:49:27","新北市板橋區四川路二段99巷2弄2號","121.452645","24.9945133333333","6500100","板橋區"
"220072","277-BY","2018/08/18 19:49:39","新北市板橋區金門街127巷14號","121.433555","24.9910433333333","6500100","板橋區"
"220071","283-VK","2018/08/18 19:49:38","新北市板橋區五權街30巷9號","121.464421666667","24.993195","6500100","板橋區"
"220094","285-UM","2018/08/18 19:49:32","新北市板橋區溪頭街2號","121.45748","25.0289383333333","6500100","板橋區"
"220053","285-VK","2018/08/18 19:49:43","新北市板橋區中山路二段90巷24號","121.475616666667","25.0156083333333","6500100","板橋區"
"220083","286-VK","2018/08/18 19:49:41","新北市板橋區龍興街63巷54號","121.441896666667","25.0018383333333","6500100","板橋區"
"220081","287-VK","2018/08/18 19:49:32","新北市板橋區大觀路一段28巷20號","121.44996","25.0092033333333","6500100","板橋區"
"220090","288-VK","2018/08/18 19:49:36","新北市板橋區龍泉街54巷8弄10號","121.45732","25.026855","6500100","板橋區"
"220061","293-UM","2018/08/18 19:49:42","新北市板橋區板新路112號","121.471411666667","25.015275","6500100","板橋區"
"220084","296-UM","2018/08/18 19:49:33","新北市板橋區溪崑二街111巷1號","121.426603333333","24.9887066666667","6500100","板橋區"
"220092","299-UM","2018/08/18 19:49:35","新北市板橋區四維路259巷19號","121.462358333333","25.0276183333333","6500100","板橋區"
"220075","303-R5","2018/08/18 19:49:45","新北市板橋區金華街10巷5號","121.456053333333","25.0201533333333","6500100","板橋區"
"220062","305-R5","2018/08/18 19:49:45","新北市板橋區光復街68號","121.482626666667","25.01847","6500100","板橋區"
"220098","317-R6","2018/08/18 19:49:35","新北市板橋區四維路269巷92號","121.459628333333","25.026635","6500100","板橋區"
"220080","461-BY","2018/08/18 19:49:45","新北市板橋區大觀路二段153巷47號","121.447093333333","25.0007433333333","6500100","板橋區"
"220064","486-VK","2018/08/18 19:49:29","新北市板橋區實踐路23號","121.463653333333","25.0073383333333","6500100","板橋區"
"220088","491-VK","2018/08/18 19:49:28","新北市板橋區大同街71號","121.479425","25.0280383333333","6500100","板橋區"
"220035","560-BX","2018/08/18 19:49:40","新北市板橋區新生街89巷2號","121.45826","25.0219766666667","6500100","板橋區"
"220103","561-BX","2018/08/18 19:49:42","新北市板橋區陽明街29巷5號","121.465103333333","25.0217116666667","6500100","板橋區"
"220079","568-UM","2018/08/18 19:49:39","新北市板橋區中正路135巷12弄6號","121.455686666667","25.0158416666667","6500100","板橋區"
"220063","609-BX","2018/08/18 19:49:35","新北市板橋區三民路一段136號","121.479175","25.0204833333333","6500100","板橋區"
"220057","686-BX","2018/08/18 19:49:26","新北市板橋區信義路201號","121.459175","24.991675","6500100","板橋區"
"220077","687-BX","2018/08/18 19:49:41","新北市板橋區僑中一街102巷3弄20號","121.445988333333","25.01242","6500100","板橋區"
"220093","689-BX","2018/08/18 19:49:23","新北市板橋區長江路二段295號","121.470545","25.0332133333333","6500100","板橋區"
"220054","741-BX","2018/08/18 19:49:27","新北市板橋區忠孝路忠義巷19弄2號","121.46665","25.0039","6500100","板橋區"
"220102","KEA-2699","2018/08/18 19:49:30","新北市板橋區松柏街50巷35-1號","121.47603","25.029685","6500100","板橋區"
"220055","827-TW","2018/08/18 19:49:44","新北市板橋區國慶路145號","121.461278333333","24.9960033333333","6500100","板橋區"
"220067","829-TW","2018/08/18 19:49:42","新北市板橋區民生路一段23號","121.474873333333","25.0115383333333","6500100","板橋區"
"220068","830-TW","2018/08/18 19:49:31","新北市板橋區中山路二段416巷36號","121.483236666667","25.0199666666667","6500100","板橋區"
"220096","831-TW","2018/08/18 19:49:23","新北市板橋區莊敬路127號","121.471973333333","25.0252433333333","6500100","板橋區"
"220089","833-TW","2018/08/18 19:49:28","新北市板橋區龍泉街92-4號","121.456528333333","25.0250966666667","6500100","板橋區"
"220074","895-R6","2018/08/18 19:49:33","新北市板橋區府中路29-2號","121.458476666667","25.0081916666667","6500100","板橋區"
"220073","985-R7","2018/08/18 19:49:35","新北市板橋區大仁街98號","121.453443333333","25.0161","6500100","板橋區"
"220097","AAC-210","2018/08/18 19:49:26","新北市板橋區文化路一段285巷52號","121.463228333333","25.019885","6500100","板橋區"
"220070","AAC-253","2018/08/18 19:49:29","新北市板橋區館前東路130號","121.463965","25.007815","6500100","板橋區"
"235068","KEA-2873","2018/08/18 19:49:17","新北市中和區莊敬路16巷15弄4號","121.500331666667","25.0036566666667","6500300","中和區"
"235061","KEA-2875","2018/08/18 19:49:45","新北市中和區員山路226巷3弄5號","121.48167","25.00113","6500300","中和區"
