"lineid","car","time","location","longitude","latitude","cityid","cityname"
"234046","148-BY","2018/08/18 19:59:38","新北市永和區成功路一段82號","121.526743333333","25.0030283333333","6500400","永和區"
"234007","207-UY","2018/08/18 19:59:26","新北市永和區中山路一段242號","121.50758","25.0080216666667","6500400","永和區"
"234081","298-R6","2018/08/18 19:59:27","新北市永和區永利路81巷2弄2號","121.521571666667","25.0036416666667","6500400","永和區"
"234038","336-UY","2018/08/18 19:59:44","新北市永和區成功路二段126號","121.526585","24.99768","6500400","永和區"
"234064","337-UY","2018/08/18 19:59:41","新北市永和區中正路412巷2弄11號","121.5185","25.0019666666667","6500400","永和區"
"234086","338-UY","2018/08/18 19:59:45","新北市永和區福和路137號","121.521181666667","25.0077466666667","6500400","永和區"
"234070","552-UM","2018/08/18 19:59:43","新北市永和區國光路39-2號","121.519051666667","25.0080783333333","6500400","永和區"
"234017","745-BX","2018/08/18 19:59:42","新北市永和區文化路86號","121.513933333333","25.01516","6500400","永和區"
"234030","746-BX","2018/08/18 19:59:41","新北市永和區民生路47巷16號","121.523918333333","24.9976416666667","6500400","永和區"
"234054","KEA-2590","2018/08/18 19:59:41","新北市永和區竹林路39巷35號","121.520526666667","25.015795","6500400","永和區"
"234013","KEA-2591","2018/08/18 19:59:32","新北市永和區保生路55號","121.504723333333","25.0106216666667","6500400","永和區"
"234061","AAD-866","2018/08/18 19:59:41","新北市永和區中正路283巷37號","121.51613","24.9995983333333","6500400","永和區"
"234042","862-TW","2018/08/18 19:59:38","新北市永和區雙和街17巷21號","121.508971666667","25.0013066666667","6500400","永和區"
"234050","863-TW","2018/08/18 19:59:41","新北市永和區保安路258號","121.506046666667","25.0125566666667","6500400","永和區"
"234026","9371-KE","2018/08/18 19:59:27","新北市永和區水源街33巷1號","121.510756666667","25.004445","6500400","永和區"
"234011","9373-KE","2018/08/18 19:59:27","新北市永和區仁愛路352巷92弄18號","121.501363333333","25.0083016666667","6500400","永和區"
"249005","172-UM","2018/08/18 19:59:33","新北市八里區楓林路3-4號","121.382188333333","25.12938","6502300","八里區"
"249001","173-UM","2018/08/18 19:59:34","新北市八里區中華路二段310號","121.403761666667","25.1484383333333","6502300","八里區"
"249004","303-UY","2018/08/18 19:59:28","新北市八里區中華路一段333-1號","121.413126666667","25.1541533333333","6502300","八里區"
"249002","305-UY","2018/08/18 19:59:35","新北市八里區頂寮二街1號","121.451068333333","25.1238616666667","6502300","八里區"
"249003","593-UM","2018/08/18 19:59:37","新北市八里區中華路二段568號","121.398516666667","25.1446983333333","6502300","八里區"
"248014","025-BX","2018/08/18 19:59:42","新北市五股區五福路6巷3號","121.434818333333","25.0882866666667","6501500","五股區"
"248016","026-BX","2018/08/18 19:59:33","新北市五股區成泰路三段577巷80弄54號","121.44978","25.105095","6501500","五股區"
"248008","095-VK","2018/08/18 19:59:40","新北市五股區四維路30巷29號","121.468498333333","25.0714916666667","6501500","五股區"
"248020","225-UY","2018/08/18 19:59:34","新北市五股區凌雲路三段9號","121.431055","25.1066416666667","6501500","五股區"
"248012","247-BX","2018/08/18 19:59:32","新北市五股區民義路一段109號","121.433983333333","25.086405","6501500","五股區"
"248010","272-BY","2018/08/18 19:59:46","新北市五股區登林路46巷3號","121.431921666667","25.0687366666667","6501500","五股區"
"248004","655-BX","2018/08/18 19:59:36","新北市五股區成泰路一段32巷60號","121.434938333333","25.0669666666667","6501500","五股區"
"248002","678-BX","2018/08/18 19:59:44","新北市五股區成泰路三段591號","121.45256","25.10288","6501500","五股區"
"234023","9380-KE","2018/08/18 19:59:22","新北市永和區中正路702巷20弄1號","121.516466666667","25.0106216666667","6500400","永和區"
"234077","969-R7","2018/08/18 19:59:35","新北市永和區民有街16號","121.516473333333","24.9966766666667","6500400","永和區"
"234074","AAC-211","2018/08/18 19:59:43","新北市永和區豫溪街205號","121.523628333333","25.0096766666667","6500400","永和區"
"234067","AAC-212","2018/08/18 19:59:45","新北市永和區中山路一段281巷2弄1號","121.50722","25.0066516666667","6500400","永和區"
"234003","AAC-295","2018/08/18 19:59:37","新北市永和區中正路706號","121.516185","25.0099716666667","6500400","永和區"
"243013","AAD-798","2018/08/18 19:40:42","新北市泰山區應化街7號","121.4239","25.04373","6501600","泰山區"
"243009","297-R6","2018/08/18 19:59:17","新北市泰山區泰林路二段164巷31號","121.434396666667","25.06114","6501600","泰山區"
"243016","KEA-2801","2018/08/18 19:59:32","新北市泰山區明志路三段521號","121.421175","25.03148","6501600","泰山區"
"243015","421-VK","2018/08/18 19:59:33","新北市泰山區明志路二段194號","121.427488333333","25.0496733333333","6501600","泰山區"
"243011","KEA-2215","2018/08/18 19:59:27","新北市泰山區明志路三段182巷39號","121.423026666667","25.0394016666667","6501600","泰山區"
"243010","KEA-2216","2018/08/18 19:59:13","新北市泰山區中華街9號","121.427848333333","25.052425","6501600","泰山區"
"243012","646-TV","2018/08/18 19:59:41","新北市泰山區福興三街193號","121.433481666667","25.0572616666667","6501600","泰山區"
"243014","680-BX","2018/08/18 19:59:42","新北市泰山區泰林路二段109-1號","121.434483333333","25.0591583333333","6501600","泰山區"
"222003","436-BY","2018/08/18 19:59:42","新北市深坑區埔新街14號","121.620786666667","25.003935","6501800","深坑區"
"222002","659-BX","2018/08/18 19:59:36","新北市深坑區北深路二段81巷8弄1號","121.61837","25.0029683333333","6501800","深坑區"
"231040","001-UM","2018/08/18 19:59:35","新北市新店區中正路59號","121.544253333333","24.96996","6500600","新店區"
"231041","002-UM","2018/08/18 19:59:30","新北市新店區中正路356號","121.53568","24.9756816666667","6500600","新店區"
"231059","046-UY","2018/08/18 19:59:38","新北市新店區安康路二段1號","121.51637","24.9637216666667","6500600","新店區"
"231044","106-UY","2018/08/18 19:59:31","新北市新店區復興路30號","121.539203333333","24.98689","6500600","新店區"
"231052","108-UY","2018/08/18 19:59:26","新北市新店區新烏路三段寶島巷2弄3號","121.551998333333","24.8985466666667","6500600","新店區"
"231048","187-VK","2018/08/18 19:59:35","新北市新店區寶宏路3-6號","121.549261666667","24.9762783333333","6500600","新店區"
"231054","KEA-2219","2018/08/18 19:59:44","新北市新店區光明街151號","121.5396","24.9622616666667","6500600","新店區"
"231057","256-BX","2018/08/18 19:59:42","新北市新店區花園二路一段11號","121.555521666667","24.9325466666667","6500600","新店區"
"231042","268-BY","2018/08/18 19:59:35","新北市新店區中興路一段280號","121.545575","24.96837","6500600","新店區"
"231051","278-BY","2018/08/18 19:59:32","新北市新店區中央一街14-1號","121.528616666667","24.9729016666667","6500600","新店區"
"231050","AAD-862","2018/08/18 19:55:00","新北市新店區北宜路二段579巷2號","121.565446666667","24.95421","6500600","新店區"
"231066","4716-K9","2018/08/18 19:59:31","新北市新店區安康路二段341巷5號","121.496893333333","24.955035","6500600","新店區"
"231056","4715-K9","2018/08/18 19:59:38","新北市新店區北新路二段29巷3弄1號","121.542236666667","24.973035","6500600","新店區"
"231065","512-UM","2018/08/18 19:59:32","新北市新店區安祥路109巷1弄6號","121.475458333333","24.9588866666667","6500600","新店區"
"231049","513-UM","2018/08/18 19:59:31","新北市新店區明德路38號","121.541431666667","24.977895","6500600","新店區"
"231045","617-UM","2018/08/18 19:59:47","新北市新店區北宜路二段168號","121.558131666667","24.9540616666667","6500600","新店區"
"231061","619-UM","2018/08/18 19:59:42","新北市新店區安民街318號","121.517533333333","24.9742966666667","6500600","新店區"
"231063","641-BX","2018/08/18 19:59:38","新北市新店區黎明路11號","121.502076666667","24.9500266666667","6500600","新店區"
"231068","718-UY","2018/08/18 19:59:17","新北市新店區安一路一段1-1號","121.519391666667","24.961215","6500600","新店區"
"231064","719-UM","2018/08/18 19:59:35","新北市新店區碧安街15巷24號","121.51686","24.9692283333333","6500600","新店區"
"231062","720-UM","2018/08/18 19:59:32","新北市新店區精忠路7號","121.528691666667","24.9560433333333","6500600","新店區"
"231060","897-TW","2018/08/18 19:59:45","新北市新店區安康路二段391號","121.494503333333","24.9542483333333","6500600","新店區"
"231043","899-TW","2018/08/18 19:59:29","新北市新店區中正路263-3號","121.538366666667","24.9738033333333","6500600","新店區"
"231055","AKT-0513","2018/08/18 19:59:33","新北市新店區中華路83號","121.539335","24.9686433333333","6500600","新店區"
"241011","013-R5","2018/08/18 19:59:25","新北市三重區三和路二段222號","121.497835","25.069605","6500200","三重區"
"241028","022-UY","2018/08/18 19:59:30","新北市三重區重新路三段90號","121.492945","25.0608116666667","6500200","三重區"
"241008","059-VK","2018/08/18 19:59:35","新北市三重區永福街179巷21號","121.47821","25.0748933333333","6500200","三重區"
"241022","060-VK","2018/08/18 19:59:41","新北市三重區過圳街31巷2號","121.489006666667","25.0606516666667","6500200","三重區"
"241031","061-VK","2018/08/18 19:59:29","新北市三重區重新路四段184巷10號","121.48669","25.0550466666667","6500200","三重區"
"241015","062-VK","2018/08/18 19:59:41","新北市三重區三和路二段35-1號","121.500925","25.06713","6500200","三重區"
"241017","063-VK","2018/08/18 19:59:39","新北市三重區重陽路三段192-4號","121.490541666667","25.0685616666667","6500200","三重區"
"241024","065-VK","2018/08/18 19:59:40","新北市三重區大勇街49號","121.481393333333","25.0718266666667","6500200","三重區"
"241026","066-VK","2018/08/18 19:59:45","新北市三重區中央南路7號","121.501308333333","25.0628683333333","6500200","三重區"
"241003","091-VK","2018/08/18 19:59:37","新北市三重區仁愛街453號","121.490126666667","25.0817116666667","6500200","三重區"
"241005","262-UM","2018/08/18 19:59:34","新北市三重區溪尾街325巷32號","121.488645","25.0834033333333","6500200","三重區"
"241016","266-UM","2018/08/18 19:59:40","新北市三重區正義北路36巷7號","121.496943333333","25.0634133333333","6500200","三重區"
"241009","267-UM","2018/08/18 19:59:28","新北市三重區三和路四段390巷20號","121.481181666667","25.0788116666667","6500200","三重區"
"241018","268-UM","2018/08/18 19:59:26","新北市三重區雙園街57巷21-1號","121.494768333333","25.0679633333333","6500200","三重區"
"241032","269-UM","2018/08/18 19:59:25","新北市三重區捷運路65號","121.483463333333","25.0556116666667","6500200","三重區"
"241013","270-UM","2018/08/18 19:59:32","新北市三重區三和路三段127號","121.492813333333","25.0733233333333","6500200","三重區"
"241025","271-UM","2018/08/18 19:59:30","新北市三重區頂崁街210巷26號","121.47609","25.0679783333333","6500200","三重區"
"241007","398-BY","2018/08/18 19:59:27","新北市三重區慈愛街88號","121.488588333333","25.0798983333333","6500200","三重區"
"241035","462-BY","2018/08/18 19:59:40","新北市三重區大榮街9號","121.498201666667","25.06317","6500200","三重區"
"241004","475-VK","2018/08/18 19:59:41","新北市三重區五華街82號","121.493223333333","25.082165","6500200","三重區"
"241020","478-VK","2018/08/18 19:59:26","新北市三重區忠孝路一段101號","121.489458333333","25.0721583333333","6500200","三重區"
"241030","480-VK","2018/08/18 19:59:25","新北市三重區重新路四段248-1號","121.486168333333","25.0534366666667","6500200","三重區"
"241014","543-UM","2018/08/18 19:59:31","新北市三重區三和路二段164號","121.49923","25.0686416666667","6500200","三重區"
"241023","545-UM","2018/08/18 19:59:25","新北市三重區頂崁街172號","121.47754","25.06595","6500200","三重區"
"241001","547-UM","2018/08/18 19:59:41","新北市三重區福隆路52號","121.492598333333","25.0785566666667","6500200","三重區"
"241019","KEA-2593","2018/08/18 19:59:42","新北市三重區重陽路4段37-1號","121.491598333333","25.0698366666667","6500200","三重區"
"241006","AAD-863","2018/08/18 19:59:34","新北市三重區力行路二段156號","121.482705","25.0762466666667","6500200","三重區"
"241012","941-UM","2018/08/18 19:59:38","新北市三重區仁厚街6號","121.499176666667","25.0761916666667","6500200","三重區"
"241029","942-UM","2018/08/18 19:59:41","新北市三重區重新路三段204號","121.490106666667","25.0584283333333","6500200","三重區"
"241033","AAC-255","2018/08/18 19:59:43","新北市三重區中興北街22號","121.469653333333","25.0485666666667","6500200","三重區"
"235066","003-UY","2018/08/18 19:59:36","新北市中和區光華街31巷1號","121.504983333333","25.004085","6500300","中和區"
"235056","096-UM","2018/08/18 19:59:31","新北市中和區中山路三段170巷8弄17號","121.473005","25.0077333333333","6500300","中和區"
"235039","097-UM","2018/08/18 19:59:30","新北市中和區景平路278巷14弄2號","121.514215","24.9929883333333","6500300","中和區"
"235065","098-UM","2018/08/18 19:59:41","新北市中和區福美路269號","121.498133333333","25.00507","6500300","中和區"
"235040","150-BY","2018/08/18 19:59:32","新北市中和區保健路10巷3弄1號","121.507783333333","24.9977516666667","6500300","中和區"
"235058","151-BY","2018/08/18 19:59:34","新北市中和區員山路150-17號","121.48131","24.9978233333333","6500300","中和區"
"235055","183-VK","2018/08/18 19:59:37","新北市中和區德光路26-1號","121.470673333333","25.004605","6500300","中和區"
"235049","186-VK","2018/08/18 19:59:31","新北市中和區景平路415號","121.502028333333","24.9949533333333","6500300","中和區"
"235067","255-BX","2018/08/18 19:59:41","新北市中和區新生街220巷4號","121.483015","24.9985083333333","6500300","中和區"
"235044","293-VK","2018/08/18 19:59:29","新北市中和區南山路287號","121.504295","24.9921816666667","6500300","中和區"
"247010","KEA-2869","2018/08/18 19:59:26","新北市三重區集賢路188號","121.483958333333","25.0880366666667","6501400","蘆洲區"
"235050","4979-A6","2018/08/18 19:59:46","新北市中和區景平路239巷57號","121.50865","24.9922033333333","6500300","中和區"
"235069","4980-A6","2018/08/18 19:59:41","新北市中和區景平路624號","121.500473333333","24.9974016666667","6500300","中和區"
"235054","640-BX","2018/08/18 19:59:42","新北市中和區莒光路11號","121.471985","25.005805","6500300","中和區"
"235046","733-UM","2018/08/18 19:59:28","新北市中和區興南路一段105巷20弄5號","121.510283333333","24.9855466666667","6500300","中和區"
"235052","805-TS","2018/08/18 19:59:27","新北市中和區華新街192巷22弄6號","121.506846666667","24.983385","6500300","中和區"
"235048","896-TW","2018/08/18 19:59:38","新北市中和區景新街362巷1弄2號","121.512136666667","24.98998","6500300","中和區"
"235053","900-TW","2018/08/18 19:59:43","新北市中和區華安街99號","121.46815","24.9962883333333","6500300","中和區"
"235051","157-BY","2018/08/18 19:59:33","新北市中和區復興路301巷16號","121.501471666667","24.9895233333333","6500300","中和區"
"235037","AAC-213","2018/08/18 19:59:43","新北市中和區立人街3號","121.521878333333","24.9940333333333","6500300","中和區"
"235059","AAC-215","2018/08/18 19:59:31","新北市中和區圓通路367巷18-2號","121.491785","24.9887783333333","6500300","中和區"
"220065","072-UY","2018/08/18 19:59:42","新北市板橋區新府路148號","121.465223333333","25.01113","6500100","板橋區"
"220086","073-UY","2018/08/18 19:59:28","新北市八里區商港路88-3號","121.394331666667","25.147905","6500100","板橋區"
"220106","075-UY","2018/08/18 19:59:45","新北市板橋區民治街42巷26號","121.478191666667","25.03299","6500100","板橋區"
"220069","AAD-861","2018/08/18 19:59:32","新北市板橋區大明街25巷4弄9號","121.457673333333","25.0020416666667","6500100","板橋區"
"247024","893-R6","2018/08/18 19:59:34","新北市蘆洲區光榮路120巷8弄21號","121.465163333333","25.0883416666667","6501400","蘆洲區"
"247012","339-TH","2018/08/18 19:59:30","新北市蘆洲區民族路226號","121.479531666667","25.088085","6501400","蘆洲區"
"247004","337-TH","2018/08/18 19:59:33","新北市蘆洲區長安街271號","121.458498333333","25.08397","6501400","蘆洲區"
"247006","336-TH","2018/08/18 19:59:36","新北市蘆洲區九芎街82號","121.466085","25.0795433333333","6501400","蘆洲區"
"247018","057-VK","2018/08/18 19:59:44","新北市蘆洲區民族路290巷3號","121.47821","25.0897266666667","6501400","蘆洲區"
"247007","056-VK","2018/08/18 19:59:30","新北市蘆洲區中山一路61巷34號","121.477328333333","25.0807883333333","6501400","蘆洲區"
"247014","053-VK","2018/08/18 19:59:41","新北市蘆洲區成功路141號","121.472186666667","25.0824633333333","6501400","蘆洲區"
"247016","007-UY","2018/08/18 19:59:37","新北市蘆洲區光華路15-1號","121.469618333333","25.083365","6501400","蘆洲區"
"247002","002-UY","2018/08/18 19:59:31","新北市蘆洲區長安街274巷11號","121.457981666667","25.08712","6501400","蘆洲區"
"247020","001-UY","2018/08/18 19:59:36","新北市蘆洲區民義街72號","121.47328","25.0900283333333","6501400","蘆洲區"
"228003","097-TW","2018/08/18 19:59:42","新北市貢寮區仁理村仁和路124號","121.922986666667","25.0512816666667","6502600","貢寮區"
"224002","639-TC","2018/08/18 19:59:36","新北市瑞芳區員山子路員山巷17-1號","121.816873333333","25.1039866666667","6501200","瑞芳區"
"227002","642-TC","2018/08/18 19:59:37","新北市雙溪區雙溪里長安街16號","121.864936666667","25.034705","6502500","雙溪區"
"227010","400-TW","2018/08/18 19:59:29","新北市雙溪區新基里朝陽街3號","121.86626","25.038335","6502500","雙溪區"
"222001","KEA-2212","2018/08/18 19:59:37","新北市深坑區北深路三段165-1號","121.602045","25.003265","6501800","深坑區"
"208002","KEA-2872","2018/08/18 19:59:35","新北市金山區中正路149號","121.631808333333","25.2214316666667","6502700","金山區"
"208003","665-BX","2018/08/18 19:59:37","新北市金山區永興里濆水路29號","121.625665","25.2695816666667","6502700","金山區"
"208001","761-BX","2018/08/18 19:59:36","新北市金山區重和里六股林口4-1號","121.599776666667","25.2120916666667","6502700","金山區"
"251009","008-UM","2018/08/18 19:59:42","新北市淡水區英專路28巷18號","121.44597","25.1698383333333","6501000","淡水區"
"251005","010-UM","2018/08/18 19:59:33","新北市淡水區學府路136巷38號","121.452058333333","25.1726233333333","6501000","淡水區"
"251001","011-UM","2018/08/18 19:59:26","新北市淡水區新市二路四段265號","121.445735","25.1925116666667","6501000","淡水區"
"251002","012-UM","2018/08/18 19:59:38","新北市淡水區沙崙路331號","121.427621666667","25.1877333333333","6501000","淡水區"
"251013","KEA-2871","2018/08/18 19:59:44","新北市淡水區下圭柔山63-7號","121.451756666667","25.2061816666667","6501000","淡水區"
"251016","179-VK","2018/08/18 19:59:32","新北市淡水區興仁路162號","121.451383333333","25.22068","6501000","淡水區"
"251014","180-VK","2018/08/18 19:59:32","新北市淡水區石頭厝14-53號","121.464168333333","25.236705","6501000","淡水區"
"251015","181-VK","2018/08/18 19:59:35","新北市淡水區商工路329號","121.46323","25.1859966666667","6501000","淡水區"
"251010","413-VK","2018/08/18 19:59:28","新北市淡水區下圭柔山91-4號","121.429468333333","25.2086316666667","6501000","淡水區"
"251012","441-VK","2018/08/18 19:59:40","新北市淡水區下圭柔山93-4號","121.436623333333","25.2094316666667","6501000","淡水區"
"251008","442-VK","2018/08/18 19:59:41","新北市淡水區淡海路72巷21號","121.42433","25.181185","6501000","淡水區"
"251004","443-VK","2018/08/18 19:59:26","新北市淡水區民族路48號","121.461618333333","25.13603","6501000","淡水區"
"251006","561-UM","2018/08/18 19:59:41","新北市淡水區北新路14號","121.444666666667","25.1773983333333","6501000","淡水區"
"251007","577-R6","2018/08/18 19:59:31","新北市淡水區竿蓁二街61-3號","121.454973333333","25.1633683333333","6501000","淡水區"
"251011","650-BX","2018/08/18 19:59:28","新北市淡水區崁頂55號","121.442368333333","25.1966416666667","6501000","淡水區"
"251003","673-BX","2018/08/18 19:59:39","新北市淡水區中山北路二段189巷15弄31號","121.443623333333","25.1840566666667","6501000","淡水區"
"207003","550-UM","2018/08/18 19:59:27","新北市萬里區磺潭里公館崙5號","121.64193","25.2142783333333","6502800","萬里區"
"207004","225-TW","2018/08/18 19:59:38","新北市萬里區北基里忠二街35號","121.685626666667","25.175705","6502800","萬里區"
"252002","178-VK","2018/08/18 19:59:42","新北市三芝區三民街39巷5號","121.505475","25.2576483333333","6502100","三芝區"
"252001","292-VK","2018/08/18 19:59:27","新北市三芝區公正街9號","121.499835","25.2575516666667","6502100","三芝區"
"237004","KEA-2597","2018/08/18 19:59:31","新北市三峽區添福15-6號","121.372138333333","24.9057483333333","6500900","三峽區"
"237007","153-BY","2018/08/18 19:59:42","新北市三峽區二鬮路136巷139號","121.356773333333","24.910675","6500900","三峽區"
"237009","210-TH","2018/08/18 19:59:29","新北市三峽區民族街28巷9弄2號","121.368791666667","24.9306966666667","6500900","三峽區"
"237012","275-BY","2018/08/18 19:59:33","新北市三峽區中華路31號","121.37293","24.9313033333333","6500900","三峽區"
"237008","302-VK","2018/08/18 19:59:35","新北市三峽區中正路一段108巷14號","121.373628333333","24.9300066666667","6500900","三峽區"
"237014","433-BY","2018/08/18 19:59:25","新北市三峽區中正路一段323-1號","121.371178333333","24.924015","6500900","三峽區"
"237006","5529-G3","2018/08/18 19:59:39","新北市三峽區正義街59巷9號","121.370105","24.91842","6500900","三峽區"
"237016","649-BX","2018/08/18 19:59:36","新北市三峽區介壽路二段138巷1弄62號","121.396655","24.9334","6500900","三峽區"
"237005","AKY-6261","2018/08/18 19:59:41","新北市三峽區三樹路44巷20號","121.378496666667","24.9373016666667","6500900","三峽區"
"236070","105-UM","2018/08/18 19:59:34","新北市土城區忠義路77號","121.443","24.9651066666667","6501300","土城區"
"236042","107-UM","2018/08/18 19:59:41","新北市土城區學府路一段98巷15號","121.455728333333","24.9885433333333","6501300","土城區"
"236079","166-UM","2018/08/18 19:59:39","新北市土城區中央路四段187號","121.414865","24.956665","6501300","土城區"
"236030","253-BX","2018/08/18 19:59:44","新北市土城區中央路一段287號","121.44444","24.9844866666667","6501300","土城區"
"236026","269-VK","2018/08/18 19:59:39","新北市土城區員林街6-1號","121.442746666667","24.9780033333333","6501300","土城區"
"236014","270-VK","2018/08/18 19:59:32","新北市土城區廣福街123號","121.456263333333","24.9929533333333","6501300","土城區"
"236038","271-VK","2018/08/18 19:59:42","新北市土城區國際路17號","121.465561666667","24.9797416666667","6501300","土城區"
"236021","401-BY","2018/08/18 19:59:46","新北市土城區延吉街111巷15號","121.471851666667","24.9860183333333","6501300","土城區"
"236059","912-UM","2018/08/18 19:59:40","新北市土城區中央路一段289-1號","121.444305","24.9840766666667","6501300","土城區"
"236049","913-UM","2018/08/18 19:59:30","新北市土城區金城路三段190號","121.468338333333","24.9879833333333","6501300","土城區"
"236063","915-UM","2018/08/18 19:59:46","新北市土城區延和路62巷11號","121.466115","24.9886733333333","6501300","土城區"
"236055","AAC-216","2018/08/18 19:59:39","新北市土城區青雲路35號","121.46011","24.9884116666667","6501300","土城區"
"242034","AAC-296","2018/08/18 19:59:35","新北市新莊區建中街107號","121.446333333333","25.0365183333333","6500500","新莊區"
"242058","986-R7","2018/08/18 19:59:29","新北市新莊區八德街25號","121.425063333333","25.022475","6500500","新莊區"
"242023","705-TV","2018/08/18 19:59:41","新北市新莊區化成路436號","121.46602","25.0513566666667","6500500","新莊區"
"242025","613-BX","2018/08/18 19:59:34","新北市新莊區五工一路90號","121.461248333333","25.0678083333333","6500500","新莊區"
"242042","566-BX","2018/08/18 19:59:36","新北市新莊區青山路一段50號","121.409956666667","25.02786","6500500","新莊區"
"242053","442-UM","2018/08/18 19:59:44","新北市新莊區西盛街416巷2號","121.427273333333","25.0123033333333","6500500","新莊區"
"242056","440-UM","2018/08/18 19:59:38","新北市新莊區新豐街20巷28號","121.447593333333","25.0345266666667","6500500","新莊區"
"242036","415-TV","2018/08/18 19:59:41","新北市新莊區建安街25巷1號","121.429103333333","25.0260533333333","6500500","新莊區"
"242007","413-TV","2018/08/18 19:59:38","新北市新莊區福壽街202巷14號","121.458745","25.053695","6500500","新莊區"
"242044","400-BY","2018/08/18 19:59:39","新北市新莊區中正路891-17號","121.412816666667","25.0224683333333","6500500","新莊區"
"242061","353-BY","2018/08/18 19:59:41","新北市新莊區瓊泰路26號","121.444393333333","25.0286566666667","6500500","新莊區"
"242039","133-UY","2018/08/18 19:59:33","新北市新莊區民安路318號","121.42866","25.0221216666667","6500500","新莊區"
"242031","135-UY","2018/08/18 19:59:31","新北市新莊區公園一路92號","121.4433","25.0371783333333","6500500","新莊區"
"242048","172-VK","2018/08/18 19:59:37","新北市新莊區四維路10號","121.423818333333","25.0251533333333","6500500","新莊區"
"242011","173-VK","2018/08/18 19:56:04","新北市新莊區中港路531巷7號","121.451306666667","25.0515466666667","6500500","新莊區"
"242017","175-VK","2018/08/18 19:59:44","新北市新莊區中港路320號","121.452566666667","25.0458316666667","6500500","新莊區"
"242004","176-VK","2018/08/18 19:59:35","新北市新莊區頭前路82號","121.465975","25.0525733333333","6500500","新莊區"
"242015","346-TH","2018/08/18 19:59:30","新北市新莊區復興路一段49號","121.4471","25.0422633333333","6500500","新莊區"
"242021","347-TH","2018/08/18 19:59:44","新北市新莊區建中街16巷35號","121.448681666667","25.038485","6500500","新莊區"
"242002","349-TH","2018/08/18 19:59:41","新北市新莊區中正路219號","121.450941666667","25.0357866666667","6500500","新莊區"
"242019","350-TH","2018/08/18 19:59:32","新北市新莊區民生街17號","121.45593","25.0421666666667","6500500","新莊區"
"238021","KEA-2539","2018/08/18 19:59:35","新北市樹林區佳園路三段99巷19號","121.389343333333","24.9522066666667","6500700","樹林區"
"221008","489-VK","2018/08/18 19:59:36","台北市內湖區康樂街125巷2號","121.619615","25.0734616666667","6501100","汐止區"
"221036","130-UY","2018/08/18 19:59:32","新北市汐止區忠孝東路258巷11弄7號","121.66398","25.0674883333333","6501100","汐止區"
"221015","131-UY","2018/08/18 19:59:27","新北市汐止區忠孝東路473巷24-1號","121.665266666667","25.07353","6501100","汐止區"
"221010","269-BY","2018/08/18 19:59:37","新北市汐止區八連路一段106號","121.643701666667","25.07988","6501100","汐止區"
"221012","278-VK","2018/08/18 19:59:40","新北市汐止區大同路三段262-1號","121.676611666667","25.071765","6501100","汐止區"
"221023","279-VK","2018/08/18 19:59:35","新北市汐止區明峰街292號","121.625585","25.0680116666667","6501100","汐止區"
"221032","280-BY","2018/08/18 19:59:27","新北市汐止區大同路一段146巷19號","121.633575","25.0537","6501100","汐止區"
"221027","281-BY","2018/08/18 19:59:34","新北市汐止區中正路88號","121.661433333333","25.0695816666667","6501100","汐止區"
"221029","298-VK","2018/08/18 19:59:41","新北市汐止區樟樹一路137巷26號","121.640993333333","25.066035","6501100","汐止區"
"221021","299-VK","2018/08/18 19:59:26","新北市汐止區水源路一段138號","121.656023333333","25.0624733333333","6501100","汐止區"
"221031","353-TW","2018/08/18 19:59:24","新北市汐止區福德一路240號","121.633773333333","25.0647633333333","6501100","汐止區"
"221035","622-UM","2018/08/18 19:59:34","新北市汐止區長江街57巷4號","121.656271666667","25.0717083333333","6501100","汐止區"
"221025","623-UM","2018/08/18 19:59:33","新北市汐止區秀峰路109巷3號","121.660316666667","25.06349","6501100","汐止區"
"221038","646-BX","2018/08/18 19:59:25","新北市汐止區忠孝東路512號","121.666853333333","25.075515","6501100","汐止區"
"221033","647-BX","2018/08/18 19:59:36","新北市汐止區東勢街201巷2號","121.633691666667","25.0421166666667","6501100","汐止區"
"221018","753-BX","2018/08/18 19:59:34","新北市汐止區茄苳路33號","121.66545","25.0708583333333","6501100","汐止區"
"220082","610-BX","2018/08/18 19:59:28","新北市板橋區大觀路三段100號","121.432651666667","24.9946116666667","6500100","板橋區"
"220101","245-BX","2018/08/18 19:59:45","新北市板橋區萬板路150號","121.475446666667","25.0234616666667","6500100","板橋區"
"220091","267-BY","2018/08/18 19:59:00","新北市板橋區文聖街89巷22號","121.478121666667","25.0302116666667","6500100","板橋區"
"220072","277-BY","2018/08/18 19:59:39","新北市板橋區金門街109巷27-2號","121.433955","24.9916533333333","6500100","板橋區"
"220071","283-VK","2018/08/18 19:59:39","新北市板橋區和平路174巷38弄3-1號","121.465296666667","24.993935","6500100","板橋區"
"220094","285-UM","2018/08/18 19:59:32","新北市板橋區陽明街239號","121.463203333333","25.0245683333333","6500100","板橋區"
"220053","285-VK","2018/08/18 19:59:30","新北市板橋區永豐街92號","121.475668333333","25.0202866666667","6500100","板橋區"
"220083","286-VK","2018/08/18 19:59:41","新北市板橋區僑中二街8巷33號","121.445501666667","25.0114133333333","6500100","板橋區"
"220081","287-VK","2018/08/18 19:59:32","新北市板橋區僑中一街80巷10弄2號","121.44795","25.0127366666667","6500100","板橋區"
"220090","288-VK","2018/08/18 19:59:36","新北市板橋區新海路135巷11號","121.46045","25.0233116666667","6500100","板橋區"
"220061","293-UM","2018/08/18 19:59:28","新北市板橋區觀光街4巷2弄1號","121.472321666667","25.0158583333333","6500100","板橋區"
"220084","296-UM","2018/08/18 19:59:33","新北市板橋區滿平街84巷70號","121.425965","24.9874966666667","6500100","板橋區"
"220092","299-UM","2018/08/18 19:59:35","新北市板橋區新海路135巷2號","121.459898333333","25.02296","6500100","板橋區"
"220075","303-R5","2018/08/18 19:59:44","新北市板橋區金華街10巷121號","121.459595","25.0206516666667","6500100","板橋區"
"220098","317-R6","2018/08/18 19:59:35","新北市板橋區新海路72巷39號","121.461945","25.0230783333333","6500100","板橋區"
"220080","461-BY","2018/08/18 19:59:40","新北市板橋區大觀路二段179巷22號","121.445788333333","24.9996833333333","6500100","板橋區"
"220064","486-VK","2018/08/18 19:59:40","新北市板橋區長安街331巷79號","121.472506666667","25.0127583333333","6500100","板橋區"
"220088","491-VK","2018/08/18 19:59:28","新北市板橋區仁化街124號","121.47723","25.0326383333333","6500100","板橋區"
"220035","560-BX","2018/08/18 19:59:45","新北市板橋區新生街87巷32號","121.456575","25.0222016666667","6500100","板橋區"
"220103","561-BX","2018/08/18 19:59:42","新北市板橋區自由路24號","121.46561","25.0227466666667","6500100","板橋區"
"220079","568-UM","2018/08/18 19:59:39","新北市板橋區南雅西路二段175巷2號","121.451591666667","25.01255","6500100","板橋區"
"220093","689-BX","2018/08/18 19:59:43","新北市板橋區長江路三段96號","121.47455","25.034245","6500100","板橋區"
"220054","741-BX","2018/08/18 19:59:47","新北市板橋區忠孝路忠義巷11號","121.465616666667","25.0036783333333","6500100","板橋區"
"220102","KEA-2699","2018/08/18 19:59:32","新北市板橋區文聖街20號","121.475785","25.0318366666667","6500100","板橋區"
"220055","827-TW","2018/08/18 19:59:44","新北市板橋區仁愛路62巷15弄1號","121.45999","24.99853","6500100","板橋區"
"220067","829-TW","2018/08/18 19:59:42","新北市板橋區漢生東路195號","121.469991666667","25.0116083333333","6500100","板橋區"
"220068","830-TW","2018/08/18 19:59:28","新北市板橋區光復街172巷17號","121.485631666667","25.0192433333333","6500100","板橋區"
"220096","831-TW","2018/08/18 19:59:43","新北市板橋區莒光路102號","121.472118333333","25.024005","6500100","板橋區"
"220089","833-TW","2018/08/18 19:59:31","新北市板橋區新海路403巷18號","121.457846666667","25.02645","6500100","板橋區"
"220074","895-R6","2018/08/18 19:59:34","新北市板橋區縣民大道一段297號","121.46103","25.0108016666667","6500100","板橋區"
"220073","985-R7","2018/08/18 19:59:35","新北市板橋區南雅西路二段24號","121.452986666667","25.00962","6500100","板橋區"
"220097","AAC-210","2018/08/18 19:59:32","新北市板橋區光正街45巷2弄18號","121.460966666667","25.0173733333333","6500100","板橋區"
"220070","AAC-253","2018/08/18 19:59:29","新北市板橋區四川路一段336號","121.456986666667","24.9970883333333","6500100","板橋區"
"235068","KEA-2873","2018/08/18 19:59:17","新北市中和區景平路736巷5弄11號","121.497728333333","25.0035","6500300","中和區"
