"lineid","car","time","location","longitude","latitude","cityid","cityname"
"234040","862-TW","2018/08/18 22:13:34","新北市永和區福和路1號","121.52643","25.0096666666667","6500400","永和區"
"247005","336-TH","2018/08/18 22:19:48","新北市五股區中興路三段2巷10號","121.449095","25.080915","6501400","蘆洲區"
"251013","KEA-2871","2018/08/18 22:29:30","新北市淡水區下圭柔山91-3號","121.431173333333","25.20992","6501000","淡水區"
"251010","413-VK","2018/08/18 22:29:28","新北市淡水區沙崙路200號","121.42469","25.1839166666667","6501000","淡水區"
"251008","442-VK","2018/08/18 22:29:41","新北市淡水區學府路104號","121.449873333333","25.1718333333333","6501000","淡水區"
"251004","443-VK","2018/08/18 22:29:41","新北市淡水區民族路76號","121.462165","25.135695","6501000","淡水區"
"251007","577-R6","2018/08/18 22:29:31","新北市淡水區北新路137號","121.449418333333","25.1788183333333","6501000","淡水區"
"251011","650-BX","2018/08/18 22:29:28","新北市淡水區水碓街7號","121.44317","25.1771083333333","6501000","淡水區"
