"lineid","car","time","location","longitude","latitude","cityid","cityname"
"232004","290-BY","2018/05/05 07:30:24","新北市坪林區下坑子口6-15號","121.71118","24.9433816666667","6502000","坪林區"
"244005","248-BX","2018/05/05 07:58:23","新北市林口區下福里86-1號","121.308456666667","25.1157266666667","6501700","林口區"
"231007","188-VK","2018/05/05 07:58:38","新北市新店區安康路一段202號","121.52428","24.9634166666667","6500600","新店區"
"231008","192-VK","2018/05/05 07:58:27","新北市新店區安華路28-1號","121.519313333333","24.9613066666667","6500600","新店區"
"226005","5620-A6","2018/05/05 07:58:32","新北市平溪區石底里公園街18-3號","121.733486666667","25.0255766666667","6502400","平溪區"
"226002","7418-A5","2018/05/05 07:58:20","新北市平溪區南山里南山坪136號","121.782986666667","25.0464683333333","6502400","平溪區"
"226002","AGD-0702","2018/05/05 07:58:30","新北市平溪區新寮里頂寮子4號","121.773695","25.0518516666667","6502400","平溪區"
"223006","022-BY","2018/05/05 07:58:25","新北市石碇區碇格路二段8號","121.645505","24.960815","6501900","石碇區"
"223001","205-TH","2018/05/05 07:58:19","新北市石碇區小粗坑(格頭里)1號","121.653861666667","24.9550416666667","6501900","石碇區"
"223008","406-TH","2018/05/05 07:58:31","新北市石碇區靜安路一段311號","121.69569","25.00686","6501900","石碇區"
"223001","592-UM","2018/05/05 07:58:28","新北市石碇區小粗坑(格頭里)1號","121.653533333333","24.9542666666667","6501900","石碇區"
"223004","660-BX","2018/05/05 07:58:26","新北市石碇區外按11-1號","121.650955","24.9988316666667","6501900","石碇區"
"223005","677-TV","2018/05/05 07:58:24","新北市石碇區外按18-2號","121.65112","24.9993216666667","6501900","石碇區"
"227006","282-VK","2018/05/05 07:58:26","新北市雙溪區牡丹里中正路68號","121.863765","25.042705","6502500","雙溪區"
"252004","249-BX","2018/05/05 07:58:21","新北市三芝區興華里車埕36-3號","121.505333333333","25.191685","6502100","三芝區"
"252007","AAC-283","2018/05/05 07:58:20","新北市三芝區後厝里土地公坑999號","121.464533333333","25.24878","6502100","三芝區"
"237001","159-UY","2018/05/05 07:58:28","新北市三峽區學成路278-3號","121.376443333333","24.9433816666667","6500900","三峽區"
"236011","165-UM","2018/05/05 07:58:21","新北市土城區青雲路322巷12號","121.457643333333","24.9768766666667","6501300","土城區"
"236002","339-SR","2018/05/05 07:58:19","新北市土城區龍泉路46號","121.412231666667","24.9453983333333","6501300","土城區"
"220070","282-UM","2018/05/05 07:58:31","新北市五股區新五路二段100號","121.437236666667","25.075535","6500100","板橋區"
