"lineid","car","time","location","longitude","latitude","cityid","cityname"
"244002","656-BX","2018/05/05 08:58:24","新北市林口區文化一路一段135巷12號","121.373626666667","25.072415","6501700","林口區"
"222004","289-BY","2018/05/05 08:38:32","新北市深坑區大崙尾1-1號","121.615563333333","24.975135","6501800","深坑區"
"231007","188-VK","2018/05/05 08:58:38","新北市新店區新潭路三段215巷25號","121.508136666667","24.904095","6500600","新店區"
"231008","192-VK","2018/05/05 08:58:27","新北市新店區松林路5號","121.546956666667","24.9114216666667","6500600","新店區"
"226002","7418-A5","2018/05/05 08:58:40","新北市平溪區東勢里芊蓁坑30號","121.727535","24.9791516666667","6502400","平溪區"
"226002","AGD-0702","2018/05/05 08:58:30","新北市平溪區十分里十分街210號","121.77912","25.0443816666667","6502400","平溪區"
"223001","205-TH","2018/05/05 08:58:19","新北市石碇區北宜路四段26號","121.62316","24.957925","6501900","石碇區"
"223008","406-TH","2018/05/05 08:58:31","新北市石碇區光明路22-1號","121.693495","25.0304766666667","6501900","石碇區"
"223001","592-UM","2018/05/05 08:58:28","新北市石碇區北宜路五段34號","121.631066666667","24.9526833333333","6501900","石碇區"
"223004","660-BX","2018/05/05 08:58:26","新北市石碇區磨石坑38號","121.689678333333","24.9649966666667","6501900","石碇區"
"223005","677-TV","2018/05/05 08:58:34","新北市石碇區磨石坑33號","121.69286","24.9680683333333","6501900","石碇區"
"227006","282-VK","2018/05/05 08:58:26","新北市雙溪區上林里內平林124-1號","121.82412","25.0277816666667","6502500","雙溪區"
"252004","249-BX","2018/05/05 08:58:21","新北市三芝區興華里田心子31號","121.488831666667","25.2004316666667","6502100","三芝區"
"252007","AAC-283","2018/05/05 08:58:40","新北市三芝區後厝里北勢子22號","121.473251666667","25.253445","6502100","三芝區"
"237001","159-UY","2018/05/05 08:58:28","新北市三峽區學府路126號","121.374561666667","24.949005","6500900","三峽區"
"236011","165-UM","2018/05/05 08:58:40","新北市土城區中央路三段122號","121.435128333333","24.966095","6501300","土城區"
"236002","339-SR","2018/05/05 08:58:19","新北市土城區中正路2號","121.442278333333","24.974955","6501300","土城區"
"236006","498-BY","2018/05/05 08:58:35","新北市土城區承天路1號","121.435851666667","24.9662533333333","6501300","土城區"
