"lineid","car","time","location","longitude","latitude","cityid","cityname"
"244002","656-BX","2018/05/05 09:58:24","新北市林口區文化一路一段137號","121.373683333333","25.0723666666667","6501700","林口區"
"222004","289-BY","2018/05/05 09:58:27","新北市深坑區風格街1號","121.625573333333","25.0165916666667","6501800","深坑區"
"231007","188-VK","2018/05/05 09:58:38","新北市新店區新潭路三段215巷25號","121.508128333333","24.9040633333333","6500600","新店區"
"231008","192-VK","2018/05/05 09:58:27","新北市新店區平廣路一段202巷2弄8號","121.51611","24.8891133333333","6500600","新店區"
"235001","611-BX","2018/05/05 09:58:32","新北市中和區和城路一段271巷1號","121.485635","24.99193","6500300","中和區"
"227006","282-VK","2018/05/05 09:58:26","新北市雙溪區長源里柑腳18號","121.804628333333","25.0143","6502500","雙溪區"
"252004","249-BX","2018/05/05 09:58:21","新北市三芝區福德里土地公埔47號","121.515431666667","25.2262683333333","6502100","三芝區"
"252007","AAC-283","2018/05/05 09:58:20","新北市三芝區新庄里新庄子80號","121.508333333333","25.2722416666667","6502100","三芝區"
