"lineid","car","time","location","longitude","latitude","cityid","cityname"
"244002","656-BX","2018/05/05 10:18:24","新北市林口區文化一路一段135巷12號","121.373678333333","25.0724466666667","6501700","林口區"
"222004","289-BY","2018/05/05 10:18:27","新北市深坑區深南路88巷1號","121.621021666667","25.01154","6501800","深坑區"
"231007","188-VK","2018/05/05 10:18:38","新北市新店區新烏路三段215巷19號","121.50652","24.90317","6500600","新店區"
"231008","192-VK","2018/05/05 10:18:07","新北市新店區小坑一路71號","121.53106","24.9083816666667","6500600","新店區"
"227006","282-VK","2018/05/05 10:18:26","新北市雙溪區長源里柑腳18號","121.804638333333","25.014295","6502500","雙溪區"
"252007","AAC-283","2018/05/05 10:18:40","新北市三芝區古庄里茂興店77號","121.493033333333","25.2668583333333","6502100","三芝區"
