"lineid","car","time","location","longitude","latitude","cityid","cityname"
"244002","656-BX","2018/05/05 10:28:24","新北市林口區文化一路一段135巷12號","121.373621666667","25.0724533333333","6501700","林口區"
"222004","289-BY","2018/05/05 10:28:27","新北市深坑區深南路88巷1號","121.620901666667","25.0115116666667","6501800","深坑區"
"231007","188-VK","2018/05/05 10:28:38","新北市新店區小坑三路81號","121.514498333333","24.9091333333333","6500600","新店區"
"231008","192-VK","2018/05/05 10:28:27","新北市新店區小坑一路21-1號","121.530668333333","24.9118333333333","6500600","新店區"
"227006","282-VK","2018/05/05 10:28:26","新北市雙溪區平林里外平林80號","121.840443333333","25.034125","6502500","雙溪區"
"252007","AAC-283","2018/05/05 10:28:40","新北市三芝區新庄里番社后24-2號","121.500893333333","25.2722283333333","6502100","三芝區"
