"lineid","car","time","location","longitude","latitude","cityid","cityname"
"234044","148-BY","2018/05/05 12:58:35","新北市永和區得和路373巷16弄9號","121.525506666667","25.00012","6500400","永和區"
"234005","207-UY","2018/05/05 12:58:36","新北市永和區中興街3巷5號","121.515416666667","25.012415","6500400","永和區"
"234078","298-R6","2018/05/05 12:58:39","新北市永和區永亨路59號","121.520961666667","25.006175","6500400","永和區"
"234036","336-UY","2018/05/05 12:58:43","新北市永和區成功路二段213號","121.526653333333","24.9958233333333","6500400","永和區"
"234062","337-UY","2018/05/05 12:58:28","新北市永和區秀朗路一段146號","121.518261666667","25.0034566666667","6500400","永和區"
"234084","338-UY","2018/05/05 12:58:44","新北市永和區永寧街121號","121.518111666667","25.0056816666667","6500400","永和區"
"234068","552-UM","2018/05/05 12:58:27","新北市永和區中興街84巷8號","121.518575","25.0116433333333","6500400","永和區"
"234015","745-BX","2018/05/05 12:58:36","新北市永和區永和路二段314號","121.51614","25.0161833333333","6500400","永和區"
"234028","746-BX","2018/05/05 12:58:37","新北市永和區厚德街14號","121.525803333333","24.9979733333333","6500400","永和區"
"234052","KEA-2590","2018/05/05 12:58:26","新北市永和區竹林路66巷2號","121.518228333333","25.0134366666667","6500400","永和區"
"234012","KEA-2591","2018/05/05 12:58:36","新北市永和區信義路17巷6號","121.513985","25.0117883333333","6500400","永和區"
"234060","AAD-866","2018/05/05 12:58:29","新北市永和區福和路309巷1號","121.516388333333","25.00704","6500400","永和區"
"234040","862-TW","2018/05/05 12:58:29","新北市永和區永貞路306號","121.511853333333","25.0048516666667","6500400","永和區"
"234048","863-TW","2018/05/05 12:58:32","新北市永和區文化路208號","121.510198333333","25.0165883333333","6500400","永和區"
"234025","9371-KE","2018/05/05 12:58:39","新北市永和區永和路一段66號","121.513036666667","25.0060933333333","6500400","永和區"
"234010","9373-KE","2018/05/05 12:58:32","新北市永和區文化路113巷19號","121.513256666667","25.0140116666667","6500400","永和區"
"248017","225-UY","2018/05/05 12:58:24","新北市五股區中興路二段83巷26-6號","121.45998","25.0752866666667","6501500","五股區"
"234022","9380-KE","2018/05/05 12:58:36","新北市永和區竹林路75巷33弄3號","121.520503333333","25.0143","6500400","永和區"
"234076","969-R7","2018/05/05 12:58:36","新北市永和區智光街126號","121.515","24.9956816666667","6500400","永和區"
"234072","AAC-211","2018/05/05 12:58:42","新北市永和區環河東路二段92號","121.524425","25.0106366666667","6500400","永和區"
"234066","AAC-212","2018/05/05 12:58:27","新北市永和區中和路625號","121.512935","25.004995","6500400","永和區"
"234001","AAC-295","2018/05/05 12:58:32","新北市永和區永和路184-1號","121.514253333333","25.0090283333333","6500400","永和區"
"244005","248-BX","2018/05/05 12:58:35","新北市林口區粉寮69號","121.405115","25.0908216666667","6501700","林口區"
"231005","001-UM","2018/05/05 12:58:24","新北市新店區安華路28-1號","121.519501666667","24.9608816666667","6500600","新店區"
"231027","0293-UT","2018/05/05 12:58:32","新北市新店區安華路28-1號","121.51975","24.96053","6500600","新店區"
"231028","046-UY","2018/05/05 12:58:46","新北市新店區安華路28-1號","121.519641666667","24.960775","6500600","新店區"
"231001","047-UY","2018/05/05 12:58:32","新北市新店區安華路28-1號","121.519456666667","24.9609366666667","6500600","新店區"
"231010","107-UY","2018/05/05 12:58:43","新北市新店區安華路28-1號","121.51947","24.9614583333333","6500600","新店區"
"231020","108-UY","2018/05/05 12:58:28","新北市新店區安華路28-1號","121.519745","24.961215","6500600","新店區"
"231012","187-VK","2018/05/05 12:58:32","新北市新店區安華路28-1號","121.519551666667","24.96114","6500600","新店區"
"231023","KEA-2219","2018/05/05 12:58:42","新北市新店區安華路28-1號","121.519715","24.9612483333333","6500600","新店區"
"231003","268-BY","2018/05/05 12:58:27","新北市新店區安華路28-1號","121.51943","24.9606116666667","6500600","新店區"
"231018","278-BY","2018/05/05 12:58:24","新北市新店區安華路28-1號","121.5196","24.9611533333333","6500600","新店區"
"231017","AAD-862","2018/05/05 12:58:31","新北市新店區安華路28-1號","121.519913333333","24.961285","6500600","新店區"
"231037","4716-K9","2018/05/05 12:58:32","新北市新店區安華路28-1號","121.519258333333","24.96114","6500600","新店區"
"231025","4715-K9","2018/05/05 12:58:38","新北市新店區安華路28-1號","121.51934","24.960655","6500600","新店區"
"231036","512-UM","2018/05/05 12:58:40","新北市新店區安華路28-1號","121.519296666667","24.9611683333333","6500600","新店區"
"231013","513-UM","2018/05/05 12:58:42","新北市新店區安華路28-1號","121.519615","24.9611616666667","6500600","新店區"
"231006","617-UM","2018/05/05 12:53:48","新北市新店區安華路28-1號","121.519441666667","24.96111","6500600","新店區"
"231030","619-UM","2018/05/05 12:58:42","新北市新店區安華路28-1號","121.519538333333","24.96101","6500600","新店區"
"231033","720-UM","2018/05/05 12:58:33","新北市新店區安華路28-1號","121.519483333333","24.9610883333333","6500600","新店區"
"231004","899-TW","2018/05/05 12:58:26","新北市新店區安華路28-1號","121.519228333333","24.9608433333333","6500600","新店區"
"231024","AKT-0513","2018/05/05 12:58:33","新北市新店區安華路28-1號","121.519558333333","24.9606566666667","6500600","新店區"
"235027","006-UY","2018/05/05 12:58:36","新北市中和區員山路36巷16-3號","121.484921666667","24.991185","6500300","中和區"
"235011","031-BX","2018/05/05 12:58:32","新北市中和區員山路36巷13號","121.484098333333","24.99068","6500300","中和區"
"235022","151-BY","2018/05/05 12:58:38","新北市中和區錦和路400號","121.49099","24.98994","6500300","中和區"
"235002","185-VK","2018/05/05 12:58:35","新北市中和區秀朗路三段10巷37弄13號","121.524163333333","24.9958133333333","6500300","中和區"
"235031","255-BX","2018/05/05 12:58:36","新北市中和區中山路二段550號","121.48383","25.00532","6500300","中和區"
"235014","4979-A6","2018/05/05 12:53:50","新北市中和區員山路36巷13號","121.484395","24.9911783333333","6500300","中和區"
"235006","551-UM","2018/05/05 12:58:30","新北市中和區員山路36巷16-2號","121.485371666667","24.9916916666667","6500300","中和區"
"235034","558-UM","2018/05/05 12:58:29","新北市中和區員山路36巷16-3號","121.485028333333","24.991735","6500300","中和區"
"235018","640-BX","2018/05/05 12:58:24","新北市中和區員山路36巷16-2號","121.485145","24.9917833333333","6500300","中和區"
"235035","783-BX","2018/05/05 12:58:27","新北市中和區新生街217號","121.483863333333","24.9995266666667","6500300","中和區"
"235015","157-BY","2018/05/05 12:58:39","新北市中和區員山路36巷13號","121.484198333333","24.9908716666667","6500300","中和區"
"235001","AAC-213","2018/05/05 12:58:25","新北市中和區中正路637巷52弄1號","121.485485","24.9934416666667","6500300","中和區"
"247019","001-UY","2018/05/05 12:57:42","新北市五股區中興路三段163號","121.44948","25.0807233333333","6501400","蘆洲區"
"235029","251-BX","2018/05/05 12:58:29","新北市中和區連城路174巷2號","121.493028333333","24.9974766666667","6500300","中和區"
"228005","097-TW","2018/05/05 12:58:29","新北市貢寮區福隆里桂安街18號","121.956795","25.0197683333333","6502600","貢寮區"
"228004","212-TW","2018/05/05 12:58:39","新北市貢寮區吉林里內寮街10號","121.888015","24.9899766666667","6502600","貢寮區"
"207002","749-BX","2018/05/05 12:58:40","新北市萬里區雙興里大坪路39號","121.625491666667","25.1713966666667","6502800","萬里區"
"207001","662-BX","2018/05/05 12:58:35","新北市萬里區萬里里獅頭路22-1號","121.692998333333","25.178245","6502800","萬里區"
"252005","AAC-283","2018/05/05 12:58:39","新北市三芝區埔坪里埔頭坑169號","121.50526","25.2514783333333","6502100","三芝區"
"236006","498-BY","2018/05/05 12:58:31","新北市土城區亞洲路34號","121.436008333333","24.9741","6501300","土城區"
"242048","172-VK","2018/05/05 12:58:34","新北市新莊區豐年街53-2號","121.446555","25.0313483333333","6500500","新莊區"
"221032","280-BY","2018/05/05 12:58:41","新北市汐止區建成路80號","121.662556666667","25.0730983333333","6501100","汐止區"
"220018","AAC-253","2018/05/05 12:50:43","新北市板橋區華東街1-10號","121.448283333333","24.9949033333333","6500100","板橋區"
