"lineid","car","time","location","longitude","latitude","cityid","cityname"
"234044","148-BY","2018/05/05 13:58:35","新北市永和區成功路一段16巷7號","121.526561666667","25.0053566666667","6500400","永和區"
"234005","207-UY","2018/05/05 13:58:36","新北市中和區中和路330號","121.509946666667","25.001115","6500400","永和區"
"234078","298-R6","2018/05/05 13:58:34","新北市永和區國中路12號","121.524356666667","25.0049383333333","6500400","永和區"
"234036","336-UY","2018/05/05 13:58:43","新北市永和區成功路二段165號","121.526688333333","24.99716","6500400","永和區"
"234062","337-UY","2018/05/05 13:58:28","新北市永和區中正路412巷20弄14號","121.51883","25.00154","6500400","永和區"
"234084","338-UY","2018/05/05 13:58:44","新北市永和區福和路130號","121.521983333333","25.0079116666667","6500400","永和區"
"234068","552-UM","2018/05/05 13:58:27","新北市永和區國光路6號","121.519811666667","25.00857","6500400","永和區"
"234015","745-BX","2018/05/05 13:58:36","新北市永和區文化路156號","121.512368333333","25.0154266666667","6500400","永和區"
"234028","746-BX","2018/05/05 13:58:37","新北市永和區民生路67巷55號","121.525556666667","24.9975716666667","6500400","永和區"
"234052","KEA-2590","2018/05/05 13:58:26","新北市永和區竹林路39巷42弄1號","121.520113333333","25.0152183333333","6500400","永和區"
"234012","KEA-2591","2018/05/05 13:58:36","新北市永和區保生路55號","121.504685","25.0106116666667","6500400","永和區"
"234060","AAD-866","2018/05/05 13:58:29","新北市永和區中正路151巷5弄2號","121.515811666667","24.9986616666667","6500400","永和區"
"234040","862-TW","2018/05/05 13:58:27","新北市永和區中和路421巷5弄17號","121.508501666667","25.00086","6500400","永和區"
"234048","863-TW","2018/05/05 13:58:33","新北市永和區保安路256號","121.506068333333","25.0125633333333","6500400","永和區"
"234025","9371-KE","2018/05/05 13:58:39","新北市永和區自由街56號","121.513768333333","25.0060283333333","6500400","永和區"
"234010","9373-KE","2018/05/05 13:58:40","新北市永和區仁愛路352巷112弄5號","121.50074","25.0084033333333","6500400","永和區"
"248017","225-UY","2018/05/05 13:58:26","新北市五股區民義路一段287巷3號","121.425106666667","25.0921016666667","6501500","五股區"
"234022","9380-KE","2018/05/05 13:58:36","新北市永和區復興街56號","121.516541666667","25.0132583333333","6500400","永和區"
"234076","969-R7","2018/05/05 13:58:39","新北市永和區民權路21號","121.520068333333","24.997975","6500400","永和區"
"234072","AAC-211","2018/05/05 13:58:42","新北市永和區豫溪街185號","121.5225","25.01038","6500400","永和區"
"234066","AAC-212","2018/05/05 13:58:47","新北市永和區永貞路362號","121.510328333333","25.00676","6500400","永和區"
"234001","AAC-295","2018/05/05 13:58:40","新北市永和區福和路326號","121.515583333333","25.0072783333333","6500400","永和區"
"231005","001-UM","2018/05/05 13:58:44","新北市新店區中興路三段200號","121.543853333333","24.9819133333333","6500600","新店區"
"231027","0293-UT","2018/05/05 13:58:33","新北市新店區中興路一段34號","121.538678333333","24.9585083333333","6500600","新店區"
"231028","046-UY","2018/05/05 13:58:45","新北市新店區安和路三段7號","121.518125","24.980495","6500600","新店區"
"231001","047-UY","2018/05/05 13:58:32","新北市新店區三民路24號","121.537221666667","24.9709966666667","6500600","新店區"
"231010","107-UY","2018/05/05 13:58:43","新北市新店區安康路一段3-1號","121.535243333333","24.9610416666667","6500600","新店區"
"231020","108-UY","2018/05/05 13:58:28","新北市新店區屈尺路83-1號","121.54451","24.9223966666667","6500600","新店區"
"231012","187-VK","2018/05/05 13:58:32","新北市新店區中興路二段79巷14號","121.54629","24.9714666666667","6500600","新店區"
"231023","KEA-2219","2018/05/05 13:58:42","新北市新店區文中路45號","121.53955","24.9566833333333","6500600","新店區"
"231026","256-BX","2018/05/05 13:58:31","新北市新店區安康路一段24巷2號","121.532913333333","24.9604416666667","6500600","新店區"
"231003","268-BY","2018/05/05 13:58:27","新北市新店區中興路一段113號","121.541355","24.9626683333333","6500600","新店區"
"231018","278-BY","2018/05/05 13:58:44","新北市新店區中央路192號","121.530738333333","24.9746566666667","6500600","新店區"
"231017","AAD-862","2018/05/05 13:58:31","新北市新店區郵政路1巷6號","121.557353333333","24.9521","6500600","新店區"
"231038","3712-VJ","2018/05/05 13:58:34","新北市新店區溪洲路121號","121.531573333333","24.96263","6500600","新店區"
"231037","4716-K9","2018/05/05 13:58:32","新北市新店區安康路三段207巷19號","121.488443333333","24.9507883333333","6500600","新店區"
"231025","4715-K9","2018/05/05 13:58:38","新北市新店區中正路328巷22弄2號","121.537545","24.9757133333333","6500600","新店區"
"231036","512-UM","2018/05/05 13:58:34","新北市新店區安祥路140號","121.474271666667","24.95603","6500600","新店區"
"231013","513-UM","2018/05/05 13:58:42","新北市新店區明德路64號","121.541548333333","24.9794683333333","6500600","新店區"
"231034","616-UM","2018/05/05 13:58:38","新北市新店區達觀路12號","121.504225","24.94078","6500600","新店區"
"231006","617-UM","2018/05/05 13:58:25","新北市新店區北宜路二段197號","121.552885","24.9533583333333","6500600","新店區"
"231002","618-UM","2018/05/05 13:58:27","新北市新店區中正路608號","121.533913333333","24.9883733333333","6500600","新店區"
"231030","619-UM","2018/05/05 13:58:42","新北市新店區安康路一段351-1號","121.519631666667","24.9640533333333","6500600","新店區"
"231035","719-UM","2018/05/05 13:58:31","新北市新店區安康路二段85巷11-1號","121.513756666667","24.96223","6500600","新店區"
"231033","720-UM","2018/05/05 13:58:29","新北市新店區華城路36巷35號","121.526421666667","24.9536566666667","6500600","新店區"
"231029","897-TW","2018/05/05 13:58:40","新北市新店區安和路一段9號","121.516833333333","24.9640083333333","6500600","新店區"
"231004","899-TW","2018/05/05 13:58:46","新北市新店區北新路二段137號","121.542788333333","24.975595","6500600","新店區"
"231024","AKT-0513","2018/05/05 13:58:33","新北市新店區中央路183-3號","121.536175","24.9687516666667","6500600","新店區"
"235028","005-UY","2018/05/05 13:58:39","新北市中和區泰和街44巷25號","121.49826","25.0009516666667","6500300","中和區"
"235027","006-UY","2018/05/05 13:58:36","新北市中和區中正路538號","121.487531666667","24.9944216666667","6500300","中和區"
"235011","031-BX","2018/05/05 13:58:32","新北市中和區興南路二段34巷10號","121.506545","24.985865","6500300","中和區"
"235020","096-UM","2018/05/05 13:58:39","新北市中和區員山路506-4號","121.480388333333","25.0090316666667","6500300","中和區"
"235003","097-UM","2018/05/05 13:58:44","新北市中和區景平路64巷15號","121.522233333333","24.9913566666667","6500300","中和區"
"235004","150-BY","2018/05/05 13:58:28","新北市中和區保健路46巷2號","121.50962","24.9969816666667","6500300","中和區"
"235022","151-BY","2018/05/05 13:57:18","新北市中和區連城路532巷3-1號","121.475446666667","24.9918716666667","6500300","中和區"
"235019","183-VK","2018/05/05 13:58:30","新北市中和區民生街28巷12號","121.469763333333","25.005955","6500300","中和區"
"235002","185-VK","2018/05/05 13:58:35","新北市中和區立人街24-4號","121.518858333333","24.9942383333333","6500300","中和區"
"235013","186-VK","2018/05/05 13:58:32","新北市中和區景安路167巷13號","121.505961666667","24.9948566666667","6500300","中和區"
"235031","255-BX","2018/05/05 13:58:36","新北市中和區新生街233巷10號","121.484275","24.9985216666667","6500300","中和區"
"235008","293-VK","2018/05/05 13:58:28","新北市中和區中興街161巷1弄2號","121.500308333333","24.9908966666667","6500300","中和區"
"235036","301-VK","2018/05/05 13:58:40","新北市中和區中山路二段47號","121.5044","25.0050233333333","6500300","中和區"
"235007","352-BY","2018/05/05 13:58:34","新北市中和區秀朗路三段93號","121.526561666667","24.9952766666667","6500300","中和區"
"235032","377-QA","2018/05/05 13:58:33","新北市中和區圓通路162巷1號","121.497223333333","24.9953566666667","6500300","中和區"
"235025","378-QA","2018/05/05 13:58:38","新北市中和區民有街59號","121.476276666667","25.00364","6500300","中和區"
"235014","4979-A6","2018/05/05 13:58:25","新北市中和區忠孝街39-1號","121.511531666667","24.98369","6500300","中和區"
"235033","4980-A6","2018/05/05 13:58:35","新北市中和區圓通路109巷1弄3號","121.499751666667","24.9964883333333","6500300","中和區"
"235006","551-UM","2018/05/05 13:58:34","新北市中和區秀朗路三段50巷4弄2號","121.52572","24.9956616666667","6500300","中和區"
"235034","558-UM","2018/05/05 13:58:33","新北市中和區安和路213號","121.505976666667","24.9989883333333","6500300","中和區"
"235009","565-BX","2018/05/05 13:58:31","新北市中和區景新街467巷20弄84號","121.51447","24.9876033333333","6500300","中和區"
"235018","640-BX","2018/05/05 13:58:45","新北市中和區民享街37號","121.474125","25.0035833333333","6500300","中和區"
"235024","647-TV","2018/05/05 13:58:26","新北市中和區民治街13巷1號","121.475248333333","25.0040833333333","6500300","中和區"
"235010","733-UM","2018/05/05 13:58:42","新北市中和區興南路二段3巷17號","121.50887","24.9864916666667","6500300","中和區"
"235035","783-BX","2018/05/05 13:58:28","新北市中和區建一路179號","121.488241666667","24.9986283333333","6500300","中和區"
"235026","800-TS","2018/05/05 13:58:34","新北市中和區橋安街17號","121.492778333333","25.003795","6500300","中和區"
"235021","801-TS","2018/05/05 13:58:36","新北市中和區民安街53-3號","121.479235","24.999925","6500300","中和區"
"235005","802-TS","2018/05/05 13:58:32","新北市中和區中安街42號","121.512995","25.0027333333333","6500300","中和區"
"235012","896-TW","2018/05/05 13:58:45","新北市中和區華新街25號","121.507655","24.9849683333333","6500300","中和區"
"235017","900-TW","2018/05/05 13:58:32","新北市中和區民德路360號","121.466086666667","24.9938783333333","6500300","中和區"
"235030","911-UM","2018/05/05 13:58:28","新北市中和區中山路二段131巷5弄4號","121.5029","25.0028283333333","6500300","中和區"
"235001","AAC-213","2018/05/05 13:58:25","新北市中和區秀朗路三段10巷14弄106號","121.52302","24.9967266666667","6500300","中和區"
"235023","AAC-215","2018/05/05 13:58:39","新北市中和區圓通路367巷20弄23號","121.49145","24.9883816666667","6500300","中和區"
"220016","013-TV","2018/05/05 13:58:35","新北市板橋區中山路二段465巷74弄4號","121.481346666667","25.0220433333333","6500100","板橋區"
"220013","072-UY","2018/05/05 13:58:40","新北市板橋區漢生東路324號","121.471835","25.0079166666667","6500100","板橋區"
"220034","073-UY","2018/05/05 13:58:46","新北市板橋區中正路236巷16號","121.456465","25.0191233333333","6500100","板橋區"
"220105","075-UY","2018/05/05 13:58:36","新北市板橋區文化路二段124巷14號","121.470835","25.025925","6500100","板橋區"
"220017","AAD-861","2018/05/05 13:58:28","新北市板橋區華興街84號","121.45695","25.00519","6500100","板橋區"
"247013","546-UM","2018/05/05 13:58:37","新北市蘆洲區中正路100號","121.469873333333","25.0841833333333","6501400","蘆洲區"
"247009","341-TH","2018/05/05 13:58:40","新北市蘆洲區中興街48號","121.481485","25.0872966666667","6501400","蘆洲區"
"247011","339-TH","2018/05/05 13:58:43","新北市蘆洲區民族路160號","121.479623333333","25.0862666666667","6501400","蘆洲區"
"247003","337-TH","2018/05/05 13:58:14","新北市蘆洲區長榮路48號","121.462871666667","25.08344","6501400","蘆洲區"
"247005","336-TH","2018/05/05 13:58:36","新北市蘆洲區永安南路二段52號","121.465816666667","25.0776966666667","6501400","蘆洲區"
"247017","057-VK","2018/05/05 13:58:28","新北市蘆洲區民族路253-1號","121.47662","25.0901516666667","6501400","蘆洲區"
"247007","056-VK","2018/05/05 13:58:24","新北市蘆洲區重陽一街3號","121.481738333333","25.0815016666667","6501400","蘆洲區"
"247015","007-UY","2018/05/05 13:58:41","新北市蘆洲區光華路42號","121.468918333333","25.08311","6501400","蘆洲區"
"247019","001-UY","2018/05/05 13:58:43","新北市蘆洲區民族路422巷19號","121.473716666667","25.092945","6501400","蘆洲區"
"235029","251-BX","2018/05/05 13:58:28","新北市中和區中山路二段2巷45弄44號","121.501865","25.0064416666667","6500300","中和區"
"228005","097-TW","2018/05/05 13:58:29","新北市貢寮區美豐里雞母嶺街52號","121.890851666667","25.0670233333333","6502600","貢寮區"
"228004","212-TW","2018/05/05 13:58:39","新北市貢寮區龍崗里泮宮路51-1號","121.90809","25.0166816666667","6502600","貢寮區"
"253003","6232-TK","2018/05/05 13:58:39","新北市石門區尖子鹿15號","121.57615","25.2794416666667","6502200","石門區"
"253001","6251-TK","2018/05/05 13:58:40","新北市石門區八甲55號","121.523743333333","25.2736166666667","6502200","石門區"
"253002","637-UY","2018/05/05 13:58:34","新北市石門區七股56號","121.553581666667","25.2562316666667","6502200","石門區"
"253004","8270-PC","2018/05/05 13:58:11","新北市石門區小坑43-2號","121.600298333333","25.2644566666667","6502200","石門區"
"207002","749-BX","2018/05/05 13:58:20","新北市萬里區溪底里烏塗炭3-1號","121.635936666667","25.15109","6502800","萬里區"
"207001","662-BX","2018/05/05 13:58:35","新北市萬里區磺潭里清水18號","121.637825","25.1977666666667","6502800","萬里區"
"252005","AAC-283","2018/05/05 13:58:39","新北市三芝區圓山里二坪頂47號","121.539","25.243525","6502100","三芝區"
"236068","105-UM","2018/05/05 13:58:35","新北市土城區和平路28號","121.443411666667","24.9726466666667","6501300","土城區"
"236040","107-UM","2018/05/05 13:58:31","新北市土城區城林路6巷80號","121.438525","24.9797116666667","6501300","土城區"
"236074","166-UM","2018/05/05 13:58:29","新北市土城區永寧路25號","121.430473333333","24.9637566666667","6501300","土城區"
"236029","253-BX","2018/05/05 13:58:46","新北市土城區城林路6巷80號","121.438511666667","24.97977","6501300","土城區"
"236024","269-VK","2018/05/05 13:58:28","新北市土城區承天路18號","121.439398333333","24.9635816666667","6501300","土城區"
"236013","270-VK","2018/05/05 13:58:36","新北市土城區城林路6巷80號","121.438578333333","24.979735","6501300","土城區"
"236032","271-VK","2018/05/05 13:58:34","新北市土城區城林路6巷80號","121.438453333333","24.9797016666667","6501300","土城區"
"236017","401-BY","2018/05/05 13:58:42","新北市土城區城林路6巷80號","121.438586666667","24.97975","6501300","土城區"
"236006","498-BY","2018/05/05 13:58:31","新北市土城區中央路一段67-3號","121.447668333333","24.9897216666667","6501300","土城區"
"236057","912-UM","2018/05/05 13:58:41","新北市土城區中央路三段226號","121.428733333333","24.9644116666667","6501300","土城區"
"236045","913-UM","2018/05/05 13:58:36","新北市土城區城林路6巷80號","121.438578333333","24.9796983333333","6501300","土城區"
"236060","915-UM","2018/05/05 13:58:44","新北市土城區員林街26-1號","121.443875","24.977475","6501300","土城區"
"236054","AAC-216","2018/05/05 13:58:38","新北市土城區城林路6巷80號","121.43841","24.9797016666667","6501300","土城區"
"242048","172-VK","2018/05/05 13:58:34","新北市新莊區新泰路255巷83號","121.442181666667","25.03904","6500500","新莊區"
"220027","145-BY","2018/05/05 13:58:43","新北市板橋區民權路260巷1弄30號","121.458706666667","25.015845","6500100","板橋區"
"220028","200-UY","2018/05/05 13:58:43","新北市板橋區大觀路二段153巷44弄3號","121.446476666667","24.9993983333333","6500100","板橋區"
"220030","610-BX","2018/05/05 13:58:44","新北市板橋區溪崑一街112號","121.429205","24.9887416666667","6500100","板橋區"
"220050","245-BX","2018/05/05 13:58:28","新北市板橋區文化路二段182巷3弄2號","121.471463333333","25.0271733333333","6500100","板橋區"
"220052","257-TC","2018/05/05 13:58:43","新北市板橋區民生路二段123號","121.47062","25.01857","6500100","板橋區"
"220040","267-BY","2018/05/05 13:58:40","新北市板橋區萬板路165號","121.474098333333","25.0234316666667","6500100","板橋區"
"220004","276-BY","2018/05/05 13:58:44","新北市板橋區信義路161號","121.458461666667","24.9926066666667","6500100","板橋區"
"220020","277-BY","2018/05/05 13:58:43","新北市板橋區篤行路一段39號","121.432013333333","24.99406","6500100","板橋區"
"220043","283-UM","2018/05/05 13:58:38","新北市板橋區文化路二段76號","121.469498333333","25.0250083333333","6500100","板橋區"
"220019","283-VK","2018/05/05 13:58:44","新北市板橋區忠孝路154巷25號","121.464306666667","25.0014733333333","6500100","板橋區"
"220001","285-VK","2018/05/05 13:58:41","新北市板橋區中山路二段89巷43號","121.47368","25.0172066666667","6500100","板橋區"
"220031","286-VK","2018/05/05 13:58:27","新北市板橋區龍興街99巷2號","121.444198333333","25.0029566666667","6500100","板橋區"
"220029","287-VK","2018/05/05 13:58:30","新北市板橋區光華街19巷36號","121.453291666667","25.012015","6500100","板橋區"
"220039","288-VK","2018/05/05 13:58:37","新北市板橋區四維路152號","121.464848333333","25.0257533333333","6500100","板橋區"
"220009","293-UM","2018/05/05 13:58:28","新北市板橋區太和街6巷1號","121.473655","25.0200916666667","6500100","板橋區"
"220032","296-UM","2018/05/05 13:58:29","新北市板橋區大觀路二段443-2號","121.438671666667","24.9952966666667","6500100","板橋區"
"220023","303-R5","2018/05/05 13:58:32","新北市板橋區南雅東路89號","121.453196666667","25.0086866666667","6500100","板橋區"
"220010","305-R5","2018/05/05 13:57:17","新北市板橋區三民路二段253-1號","121.47903","25.0116316666667","6500100","板橋區"
"220041","307-R5","2018/05/05 13:58:35","新北市板橋區文化路一段88號","121.464346666667","25.017435","6500100","板橋區"
"220047","317-R6","2018/05/05 13:58:29","新北市板橋區民生路三段64號","121.46711","25.02562","6500100","板橋區"
"220012","486-VK","2018/05/05 13:58:30","新北市板橋區縣民大道二段106號","121.467128333333","25.0150133333333","6500100","板橋區"
"220037","491-VK","2018/05/05 13:58:37","新北市板橋區文化路二段4號","121.46874","25.024","6500100","板橋區"
"220104","560-BX","2018/05/05 13:58:27","新北市板橋區中正路379巷3弄4號","121.453258333333","25.0213433333333","6500100","板橋區"
"220011","609-BX","2018/05/05 13:58:42","新北市板橋區中山路二段123號","121.474945","25.0163516666667","6500100","板橋區"
"220005","686-BX","2018/05/05 13:58:40","新北市板橋區重慶路85號","121.46213","25.0063966666667","6500100","板橋區"
"220025","687-BX","2018/05/05 13:58:36","新北市板橋區大觀路一段38巷156弄4號","121.442555","25.0045566666667","6500100","板橋區"
"220042","689-BX","2018/05/05 13:58:37","新北市板橋區民生路二段236號","121.46823","25.0231183333333","6500100","板橋區"
"220002","741-BX","2018/05/05 13:58:37","新北市板橋區成都街23號","121.460731666667","25.0048816666667","6500100","板橋區"
"220051","KEA-2699","2018/05/05 13:58:42","新北市板橋區文聖街211號","121.480031666667","25.02617","6500100","板橋區"
"220003","827-TW","2018/05/05 13:58:38","新北市板橋區新站路1號","121.467438333333","25.0112683333333","6500100","板橋區"
"220014","829-TW","2018/05/05 13:58:42","新北市板橋區三民路二段正隆巷56號","121.47667","25.0142066666667","6500100","板橋區"
"220045","830-TW","2018/05/05 13:58:37","新北市板橋區莒光路79巷2號","121.471901666667","25.0242733333333","6500100","板橋區"
"220038","833-TW","2018/05/05 13:58:27","新北市板橋區文化路二段315號","121.472141666667","25.0297033333333","6500100","板橋區"
"220022","895-R6","2018/05/05 13:58:34","新北市板橋區南雅西路二段4號","121.45361","25.0090233333333","6500100","板橋區"
"220021","985-R7","2018/05/05 13:58:36","新北市板橋區西門街42號","121.454383333333","25.0093816666667","6500100","板橋區"
"220046","AAC-210","2018/05/05 13:58:28","新北市板橋區文化路一段88號","121.464493333333","25.01747","6500100","板橋區"
"220018","AAC-253","2018/05/05 13:58:39","新北市板橋區四川路一段233號","121.460025","25.0029333333333","6500100","板橋區"
