"lineid","car","time","location","longitude","latitude","cityid","cityname"
"234026","9371-KE","2018/05/05 18:09:39","新北市永和區永和路一段72巷4號","121.513435","25.0060683333333","6500400","永和區"
"234011","9373-KE","2018/05/05 18:09:50","新北市永和區福和路1號","121.525593333333","25.009385","6500400","永和區"
"249005","172-UM","2018/05/05 18:09:35","新北市八里區荖阡坑路15號","121.4017","25.1398766666667","6502300","八里區"
"249001","173-UM","2018/05/05 18:09:32","新北市八里區龍米路二段28號","121.44871","25.1397016666667","6502300","八里區"
"249004","303-UY","2018/05/05 18:09:41","新北市八里區龍米路二段170號","121.434573333333","25.1582366666667","6502300","八里區"
"249002","305-UY","2018/05/05 18:09:40","新北市八里區龍米路一段356巷5號","121.452313333333","25.1312116666667","6502300","八里區"
"249003","593-UM","2018/05/05 18:09:35","新北市八里區松子腳3-2號","121.403083333333","25.1442883333333","6502300","八里區"
"248006","077-UY","2018/05/05 18:09:35","新北市五股區中興路二段82號","121.460818333333","25.077295","6501500","五股區"
"248008","095-VK","2018/05/05 18:09:42","新北市五股區中興路二段182巷15弄13-9號","121.45764","25.0808333333333","6501500","五股區"
"248020","225-UY","2018/05/05 18:09:41","新北市五股區成泰路四段2號","121.45284","25.1061816666667","6501500","五股區"
"248014","261-SL","2018/05/05 18:09:42","新北市五股區成泰路一段189巷27號","121.433635","25.076365","6501500","五股區"
"248010","272-BY","2018/05/05 18:09:44","新北市五股區成泰路一段223號","121.434296666667","25.077575","6501500","五股區"
"248004","677-BX","2018/05/05 18:09:37","新北市五股區工商路63號","121.438925","25.084415","6501500","五股區"
"248002","678-BX","2018/05/05 18:09:48","新北市五股區成泰路三段61號","121.443356666667","25.0895666666667","6501500","五股區"
"232011","375-UM","2018/05/05 18:09:41","新北市坪林區水柳腳4號","121.711478333333","24.9354733333333","6502000","坪林區"
"244013","069-UM","2018/05/05 18:09:42","新北市林口區中山路50號","121.39521","25.0784433333333","6501700","林口區"
"244007","080-UY","2018/05/05 18:09:41","新北市林口區林口路124巷8號","121.388971666667","25.08182","6501700","林口區"
"244019","403-UM","2018/05/05 18:09:43","新北市林口區文化一路一段124號","121.374933333333","25.07227","6501700","林口區"
"244023","483-VK","2018/05/05 18:09:33","新北市林口區東湖路153巷135號","121.382203333333","25.0735816666667","6501700","林口區"
"244017","485-VK","2018/05/05 18:09:49","新北市林口區忠孝路504巷18號","121.369855","25.0696766666667","6501700","林口區"
"244009","656-BX","2018/05/05 18:09:44","新北市林口區中山路256-1號","121.385596666667","25.0798816666667","6501700","林口區"
"244011","657-BX","2018/05/05 18:09:50","新北市林口區中正路43號","121.395661666667","25.0774433333333","6501700","林口區"
"244025","837-TS","2018/05/05 18:09:38","新北市林口區文化北路一段293-2號","121.360071666667","25.0727333333333","6501700","林口區"
"243013","AAD-798","2018/05/05 18:09:45","新北市泰山區南林路99巷8號","121.41525","25.0491966666667","6501600","泰山區"
"222003","436-BY","2018/05/05 18:09:50","新北市深坑區文山路三段15號","121.61266","24.9979833333333","6501800","深坑區"
"222002","659-BX","2018/05/05 18:09:44","新北市深坑區文化街54號","121.618895","25.00172","6501800","深坑區"
"231044","001-UM","2018/05/05 18:09:40","新北市新店區安華路28-1號","121.51956","24.9611133333333","6500600","新店區"
"231059","046-UY","2018/05/05 18:09:35","新北市新店區安華路28-1號","121.519666666667","24.9610766666667","6500600","新店區"
"231040","047-UY","2018/05/05 18:09:44","新北市新店區安華路28-1號","121.519188333333","24.9608733333333","6500600","新店區"
"231046","107-UY","2018/05/05 18:09:35","新北市新店區直潭七街60號","121.53225","24.9398166666667","6500600","新店區"
"231052","108-UY","2018/05/05 18:09:33","新北市新店區安華路28-1號","121.519976666667","24.9608933333333","6500600","新店區"
"231048","187-VK","2018/05/05 18:09:35","新北市新店區安華路28-1號","121.51973","24.9611433333333","6500600","新店區"
"231054","KEA-2219","2018/05/05 18:09:51","新北市新店區安華路28-1號","121.52004","24.9610683333333","6500600","新店區"
"231042","268-BY","2018/05/05 18:09:34","新北市新店區安華路28-1號","121.519438333333","24.9607133333333","6500600","新店區"
"231051","278-BY","2018/05/05 18:09:38","新北市新店區安華路28-1號","121.519766666667","24.961155","6500600","新店區"
"231050","AAD-862","2018/05/05 18:09:31","新北市新店區安華路28-1號","121.520003333333","24.96117","6500600","新店區"
"231058","3713-VJ","2018/05/05 18:09:43","新北市新店區安華路28-1號","121.519278333333","24.9606866666667","6500600","新店區"
"231066","4716-K9","2018/05/05 18:09:47","新北市新店區安華路28-1號","121.519283333333","24.9612216666667","6500600","新店區"
"231056","4715-K9","2018/05/05 18:09:39","新北市新店區安華路1-1號","121.519116666667","24.96053","6500600","新店區"
"231067","4772-VM","2018/05/05 18:09:45","新北市新店區安華路28-1號","121.519283333333","24.96071","6500600","新店區"
"231065","512-UM","2018/05/05 18:09:40","新北市新店區安華路28-1號","121.519396666667","24.961185","6500600","新店區"
"231049","513-UM","2018/05/05 18:09:47","新北市新店區安華路28-1號","121.519716666667","24.9611716666667","6500600","新店區"
"231045","617-UM","2018/05/05 18:09:36","新北市新店區安華路28-1號","121.519543333333","24.9611666666667","6500600","新店區"
"231061","619-UM","2018/05/05 18:09:50","新北市新店區安華路28-1號","121.519658333333","24.960815","6500600","新店區"
"231064","719-UM","2018/05/05 18:09:34","新北市新店區安華路28-1號","121.519531666667","24.9611566666667","6500600","新店區"
"231062","720-UM","2018/05/05 18:09:36","新北市新店區安華路28-1號","121.519251666667","24.9610983333333","6500600","新店區"
"231060","897-TW","2018/05/05 18:09:47","新北市新店區安華路28-1號","121.519538333333","24.960665","6500600","新店區"
"231043","899-TW","2018/05/05 18:09:51","新北市新店區安華路28-1號","121.51914","24.960895","6500600","新店區"
"231055","AKT-0513","2018/05/05 18:09:36","新北市新店區安華路1-1號","121.519675","24.9603433333333","6500600","新店區"
"235064","005-UY","2018/05/05 18:09:30","新北市中和區中正路175號","121.497373333333","24.993705","6500300","中和區"
"235063","006-UY","2018/05/05 18:09:37","新北市中和區員山路36巷16-3號","121.484893333333","24.9913116666667","6500300","中和區"
"235047","031-BX","2018/05/05 18:09:41","新北市中和區員山路36巷16-6號","121.485205","24.99222","6500300","中和區"
"235056","096-UM","2018/05/05 18:09:51","新北市中和區連城路469巷89號","121.484561666667","24.9937216666667","6500300","中和區"
"235058","151-BY","2018/05/05 18:09:48","新北市中和區圓通路367巷33弄24號","121.494235","24.98479","6500300","中和區"
"235038","185-VK","2018/05/05 18:09:39","新北市中和區大智街55巷1號","121.520956666667","24.9920866666667","6500300","中和區"
"235067","255-BX","2018/05/05 18:09:47","新北市中和區和城路一段271巷1號","121.485765","24.99175","6500300","中和區"
"235043","352-BY","2018/05/05 18:09:39","新北市中和區員山路36巷16-2號","121.485096666667","24.9916883333333","6500300","中和區"
"235061","378-QA","2018/05/05 18:09:51","新北市中和區連城路532號","121.47575","24.99154","6500300","中和區"
"235050","4979-A6","2018/05/05 18:09:51","新北市中和區中正路271-2號","121.495716666667","24.99352","6500300","中和區"
"235042","551-UM","2018/05/05 18:09:41","新北市中和區興南路一段56巷5號","121.510465","24.9911966666667","6500300","中和區"
"235070","558-UM","2018/05/05 18:09:46","新北市中和區中正路412號","121.492013333333","24.9940233333333","6500300","中和區"
"235045","565-BX","2018/05/05 18:09:34","新北市中和區錦和路350-1號","121.490503333333","24.9936383333333","6500300","中和區"
"235054","640-BX","2018/05/05 18:09:35","新北市中和區莒光路203號","121.472605","24.9989683333333","6500300","中和區"
"235060","647-TV","2018/05/05 18:09:44","新北市中和區和城路一段271巷1號","121.485423333333","24.99184","6500300","中和區"
"235046","733-UM","2018/05/05 18:09:46","新北市中和區中正路637巷52弄1號","121.485545","24.99369","6500300","中和區"
"235062","800-TS","2018/05/05 18:09:40","新北市中和區永和路103巷2號","121.49501","25.0065433333333","6500300","中和區"
"235053","900-TW","2018/05/05 18:09:46","新北市中和區員山路36巷16-6號","121.485188333333","24.9921116666667","6500300","中和區"
"235066","911-UM","2018/05/05 18:09:31","新北市中和區圓通路25號","121.501168333333","24.9978633333333","6500300","中和區"
"235051","157-BY","2018/05/05 18:09:31","新北市中和區復興路265號","121.502801666667","24.9901933333333","6500300","中和區"
"235037","AAC-213","2018/05/05 18:09:42","新北市中和區景平路149號","121.513766666667","24.992195","6500300","中和區"
"247002","002-UY","2018/05/05 18:09:45","新北市蘆洲區永平街32巷69弄25號","121.459003333333","25.0936183333333","6501400","蘆洲區"
"235065","251-BX","2018/05/05 18:09:44","新北市中和區莊敬路49巷18號","121.501675","25.00619","6500300","中和區"
"228003","097-TW","2018/05/05 18:09:38","新北市貢寮區真理里美艷山街6-2號","121.928881666667","25.0607516666667","6502600","貢寮區"
"228001","212-TW","2018/05/05 18:09:50","新北市貢寮區真理里新港街26巷55弄2-1號","121.927403333333","25.052875","6502600","貢寮區"
"228002","585-TW","2018/05/05 18:09:40","新北市貢寮區福連里福興街31號","121.991523333333","25.010945","6502600","貢寮區"
"224010","AGQ-8101","2018/05/05 18:00:15","新北市瑞芳區金光路334號","121.8482","25.109545","6501200","瑞芳區"
"224006","676-BX","2018/05/05 18:09:39","新北市瑞芳區民權街3-2號","121.808133333333","25.1074766666667","6501200","瑞芳區"
"224002","639-TC","2018/05/05 18:09:38","新北市瑞芳區三爪子坑路94-7號","121.80912","25.1052333333333","6501200","瑞芳區"
"224008","285-BY","2018/05/05 18:09:38","新北市瑞芳區員山子路23號","121.821368333333","25.1030083333333","6501200","瑞芳區"
"224007","275-VK","2018/05/05 18:09:43","新北市瑞芳區四腳亭坑路22號","121.777371666667","25.1096033333333","6501200","瑞芳區"
"224009","273-VK","2018/05/05 18:09:32","新北市瑞芳區金光路117號","121.853648333333","25.1062283333333","6501200","瑞芳區"
"224005","271-BY","2018/05/05 18:09:49","新北市瑞芳區深澳路1號","121.816346666667","25.1283983333333","6501200","瑞芳區"
"227010","642-TC","2018/05/05 18:09:30","新北市雙溪區三貂里定福路1-2號","121.850745","25.0634516666667","6502500","雙溪區"
"227002","400-TW","2018/05/05 18:09:46","新北市雙溪區共和里東榮街42號","121.866093333333","25.033745","6502500","雙溪區"
"253006","295-VK","2018/05/05 18:09:37","新北市石門區老梅路52巷21號","121.546411666667","25.2885966666667","6502200","石門區"
"253001","4710-YM","2018/05/05 18:09:41","新北市石門區中央路1-13號","121.561576666667","25.29107","6502200","石門區"
"222001","KEA-2212","2018/05/05 18:09:47","新北市深坑區北深路二段188號","121.613966666667","25.0022683333333","6501800","深坑區"
"208002","KEA-2872","2018/05/05 18:09:48","新北市金山區三界壇路1-8號","121.618671666667","25.23281","6502700","金山區"
"208003","665-BX","2018/05/05 18:09:41","新北市金山區磺港里磺港路22號","121.649715","25.2304233333333","6502700","金山區"
"208001","761-BX","2018/05/05 18:09:46","新北市金山區磺港里磺港路113號","121.646233333333","25.2266033333333","6502700","金山區"
"251009","008-UM","2018/05/05 18:09:43","新北市淡水區大忠街34巷2號","121.44346","25.1756433333333","6501000","淡水區"
"251004","009-UM","2018/05/05 18:09:45","新北市淡水區民族路110巷12弄1號","121.461913333333","25.1355633333333","6501000","淡水區"
"251005","010-UM","2018/05/05 18:09:34","新北市淡水區水源街一段139號","121.447175","25.1718716666667","6501000","淡水區"
"251001","011-UM","2018/05/05 18:09:32","新北市淡水區自立路10號","121.463116666667","25.1298066666667","6501000","淡水區"
"251002","012-UM","2018/05/05 18:09:45","新北市淡水區中正東路一段125號","121.455478333333","25.1593233333333","6501000","淡水區"
"251013","KEA-2871","2018/05/05 18:09:33","新北市淡水區竹圍子12號","121.476235","25.1938916666667","6501000","淡水區"
"251014","180-VK","2018/05/05 18:09:46","新北市淡水區南平15號","121.488541666667","25.2189633333333","6501000","淡水區"
"251008","181-VK","2018/05/05 18:09:38","新北市淡水區淡金路16巷62弄1號","121.460025","25.1610366666667","6501000","淡水區"
"251015","182-VK","2018/05/05 18:09:41","新北市淡水區興福寮88巷1號","121.485303333333","25.1648233333333","6501000","淡水區"
"251010","413-VK","2018/05/05 18:09:31","新北市淡水區中正路二段50巷10號","121.419903333333","25.1834366666667","6501000","淡水區"
"251012","441-VK","2018/05/05 18:09:48","新北市淡水區泉洲厝20號","121.490516666667","25.1908783333333","6501000","淡水區"
"251006","561-UM","2018/05/05 18:09:30","新北市淡水區新民街74號","121.4387","25.176385","6501000","淡水區"
"251016","575-R6","2018/05/05 18:09:47","新北市淡水區下圭柔山15號","121.452936666667","25.2020116666667","6501000","淡水區"
"251011","650-BX","2018/05/05 18:09:42","新北市淡水區三空泉5號","121.477461666667","25.1612383333333","6501000","淡水區"
"251003","673-BX","2018/05/05 18:09:45","新北市淡水區北新路182巷43號","121.448226666667","25.1774783333333","6501000","淡水區"
"207003","550-UM","2018/05/05 18:09:47","新北市萬里區野柳里港西路75號","121.685726666667","25.2050783333333","6502800","萬里區"
"207004","225-TW","2018/05/05 18:09:36","新北市萬里區中幅里中福路136號","121.67457","25.1664033333333","6502800","萬里區"
"252002","178-VK","2018/05/05 18:09:49","新北市三芝區埔坪里埔頭坑41號","121.50453","25.2646833333333","6502100","三芝區"
"252003","249-BX","2018/05/05 18:09:33","新北市三芝區埔頭里埔頭37號","121.498516666667","25.2603416666667","6502100","三芝區"
"252001","292-VK","2018/05/05 18:09:38","新北市三芝區中興街二段2號","121.498336666667","25.2566666666667","6502100","三芝區"
"237007","153-BY","2018/05/05 18:09:46","新北市三峽區中正路二段355號","121.365388333333","24.9086983333333","6500900","三峽區"
"237011","572-TV","2018/05/05 18:09:31","新北市三峽區溪東路124號","121.404448333333","24.93343","6500900","三峽區"
"237009","210-TH","2018/05/05 18:09:37","新北市三峽區大仁路55號","121.365343333333","24.9374616666667","6500900","三峽區"
"237013","252-BX","2018/05/05 18:09:44","新北市三峽區長泰街78巷5號","121.376556666667","24.9336466666667","6500900","三峽區"
"237012","275-BY","2018/05/05 18:09:49","新北市三峽區民生街1巷1-29號","121.377665","24.9353333333333","6500900","三峽區"
"237008","302-VK","2018/05/05 18:09:32","新北市三峽區白雞39-1號","121.381018333333","24.9114533333333","6500900","三峽區"
"237014","433-BY","2018/05/05 18:09:33","新北市三峽區國光街81巷13號","121.373671666667","24.9379116666667","6500900","三峽區"
"237006","5529-G3","2018/05/05 18:09:33","新北市三峽區溪東路34巷13號","121.400418333333","24.9344983333333","6500900","三峽區"
"237010","706-TV","2018/05/05 18:09:44","新北市三峽區民族街149號","121.368968333333","24.9280666666667","6500900","三峽區"
"237005","AKY-6261","2018/05/05 18:09:33","新北市三峽區民生街152-1號","121.37194","24.9349216666667","6500900","三峽區"
"236070","105-UM","2018/05/05 18:09:30","新北市土城區石門路12號","121.45936","24.9680133333333","6501300","土城區"
"236042","107-UM","2018/05/05 18:09:45","新北市土城區中華路二段2號","121.439193333333","24.97975","6501300","土城區"
"236079","166-UM","2018/05/05 18:09:46","新北市土城區永安街76號","121.432223333333","24.963775","6501300","土城區"
"236030","253-BX","2018/05/05 18:09:45","新北市土城區城林路6巷80號","121.438436666667","24.9798033333333","6501300","土城區"
"236026","269-VK","2018/05/05 18:09:41","新北市土城區承天路18號","121.439398333333","24.9635183333333","6501300","土城區"
"236014","270-VK","2018/05/05 18:09:44","新北市土城區學府路2段81-1號","121.44859","24.980965","6501300","土城區"
"236038","271-VK","2018/05/05 18:09:32","新北市土城區青雲路449號","121.458786666667","24.97509","6501300","土城區"
"236021","401-BY","2018/05/05 18:09:43","新北市土城區城林路6巷80號","121.43843","24.979575","6501300","土城區"
"236059","912-UM","2018/05/05 18:09:47","新北市土城區中央路四段133-1號","121.416048333333","24.95741","6501300","土城區"
"236049","913-UM","2018/05/05 18:09:36","新北市土城區金城路二段39巷2-1號","121.45005","24.9778866666667","6501300","土城區"
"236063","915-UM","2018/05/05 18:09:43","新北市土城區明德路一段295號","121.460041666667","24.97724","6501300","土城區"
"236055","AAC-216","2018/05/05 18:09:44","新北市土城區城林路6巷80號","121.438528333333","24.9797166666667","6501300","土城區"
"242034","AAC-296","2018/05/05 18:09:39","新北市新莊區新莊路500號","121.446201666667","25.0334316666667","6500500","新莊區"
"242058","986-R7","2018/05/05 18:09:37","新北市新莊區新北大道七段722號","121.412531666667","25.0260083333333","6500500","新莊區"
"242053","751-BX","2018/05/05 18:09:38","新北市新莊區民安西路329號","121.427683333333","25.0110666666667","6500500","新莊區"
"242061","705-TV","2018/05/05 18:09:31","新北市新莊區新樹路79號","121.437726666667","25.02753","6500500","新莊區"
"242027","615-BX","2018/05/05 18:09:50","新北市新莊區幸福路565號","121.454228333333","25.0492333333333","6500500","新莊區"
"242025","613-BX","2018/05/05 18:09:50","新北市新莊區五工一路97巷8號","121.460226666667","25.0676916666667","6500500","新莊區"
"242029","612-BX","2018/05/05 18:09:46","新北市新莊區中平路158號","121.444763333333","25.0475083333333","6500500","新莊區"
"242042","566-BX","2018/05/05 18:09:46","新北市新莊區天祥街135巷7號","121.413921666667","25.02946","6500500","新莊區"
"242046","497-BY","2018/05/05 18:09:34","新北市新莊區福營路336號","121.421658333333","25.0267783333333","6500500","新莊區"
"242039","442-UM","2018/05/05 18:09:39","新北市新莊區民安西路40號","121.4273","25.020995","6500500","新莊區"
"242051","441-UM","2018/05/05 18:09:45","新北市新莊區民本街33巷22號","121.429086666667","25.01864","6500500","新莊區"
"242056","440-UM","2018/05/05 18:09:46","新北市新莊區豐年街豐1巷24號","121.447415","25.0310916666667","6500500","新莊區"
"242007","413-TV","2018/05/05 18:09:49","新北市新莊區自立街79巷10號","121.454458333333","25.0458533333333","6500500","新莊區"
"242023","362-BY","2018/05/05 18:09:36","新北市新莊區幸福路763號","121.447825","25.04883","6500500","新莊區"
"242009","132-UY","2018/05/05 18:09:38","新北市新莊區昌平街39號","121.454761666667","25.052465","6500500","新莊區"
"242031","135-UY","2018/05/05 18:09:50","新北市新莊區新泰路277巷51號","121.443733333333","25.040145","6500500","新莊區"
"242048","172-VK","2018/05/05 18:09:51","新北市新莊區富國路152號","121.423173333333","25.0248816666667","6500500","新莊區"
"242017","175-VK","2018/05/05 18:09:31","新北市新莊區永樂街32號","121.451613333333","25.045075","6500500","新莊區"
"242015","346-TH","2018/05/05 18:09:45","新北市新莊區中平路132巷16號","121.445643333333","25.046685","6500500","新莊區"
"242021","347-TH","2018/05/05 18:09:36","新北市新莊區建興街71-2號","121.44972","25.0379566666667","6500500","新莊區"
"242044","348-TH","2018/05/05 18:09:44","新北市新莊區中正路730-2號","121.4148","25.0239966666667","6500500","新莊區"
"242036","349-TH","2018/05/05 18:09:43","新北市新莊區後港一路32號","121.425471666667","25.0260166666667","6500500","新莊區"
"242019","350-TH","2018/05/05 18:09:40","新北市新莊區公園路224號","121.456705","25.040635","6500500","新莊區"
"242013","351-TH","2018/05/05 18:09:34","新北市新莊區中正路400號","121.441965","25.03418","6500500","新莊區"
"238015","755-BX","2018/05/05 18:09:41","新北市樹林區啟智街156巷1號","121.414783333333","24.9873716666667","6500700","樹林區"
"238023","601-UM","2018/05/05 18:09:45","新北市樹林區龍興街46巷36號","121.401875","25.0151616666667","6500700","樹林區"
"238019","599-UM","2018/05/05 18:09:37","新北市樹林區國凱街136巷29弄14號","121.423978333333","24.9795966666667","6500700","樹林區"
"238018","571-TV","2018/05/05 18:09:49","新北市樹林區保順街85號","121.429025","24.99441","6500700","樹林區"
"238024","5061-A6","2018/05/05 18:09:37","新北市樹林區文化街59號","121.417268333333","24.9889183333333","6500700","樹林區"
"238022","KEA-2213","2018/05/05 18:09:45","新北市樹林區太平路174巷3號","121.41807","24.9766816666667","6500700","樹林區"
"238021","KEA-2539","2018/05/05 18:09:43","新北市樹林區柑園街二段169號","121.38074","24.95333","6500700","樹林區"
"238025","303-VK","2018/05/05 18:09:51","新北市樹林區保安二街二段6-1號","121.416003333333","25.00089","6500700","樹林區"
"238017","283-BY","2018/05/05 18:09:44","新北市樹林區中正路699號","121.411651666667","25.0138516666667","6500700","樹林區"
"238014","282-BY","2018/05/05 18:09:33","新北市樹林區潭興街59號","121.424258333333","24.9980816666667","6500700","樹林區"
"238020","268-VK","2018/05/05 18:09:37","新北市樹林區三俊街70號","121.413201666667","25.0157466666667","6500700","樹林區"
"238026","172-UY","2018/05/05 18:09:38","新北市樹林區佳園路一段81號","121.393425","24.9696666666667","6500700","樹林區"
"238016","169-UY","2018/05/05 18:09:33","新北市樹林區中山路一段276號","121.42073","24.9870466666667","6500700","樹林區"
"239007","AAC-297","2018/05/05 18:09:37","新北市鶯歌區育英街91號","121.347435","24.9514516666667","6500800","鶯歌區"
"239006","891-R6","2018/05/05 18:09:43","新北市鶯歌區鶯桃路377號","121.333745","24.963165","6500800","鶯歌區"
"239008","527-UM","2018/05/05 18:09:30","新北市鶯歌區國際一路114巷1號","121.336016666667","24.9764266666667","6500800","鶯歌區"
"239005","526-UM","2018/05/05 18:09:45","新北市鶯歌區鶯桃路668巷67號","121.329591666667","24.9713783333333","6500800","鶯歌區"
"239001","417-VK","2018/05/05 18:09:34","新北市鶯歌區中正三路曾厝巷7號","121.341951666667","24.9448933333333","6500800","鶯歌區"
"239003","360-BY","2018/05/05 18:09:49","新北市鶯歌區福安街32巷14號","121.334916666667","24.9637966666667","6500800","鶯歌區"
"239002","359-BY","2018/05/05 18:09:46","新北市鶯歌區中山路329巷26弄13號","121.345725","24.9561616666667","6500800","鶯歌區"
"239004","193-VK","2018/05/05 18:09:41","新北市鶯歌區尖山路174巷35弄3號","121.344316666667","24.9485233333333","6500800","鶯歌區"
"221036","130-UY","2018/05/05 18:09:37","新北市汐止區大同路三段99號","121.668243333333","25.0774316666667","6501100","汐止區"
"221015","131-UY","2018/05/05 18:08:55","新北市汐止區鄉長路二段124-1號","121.664323333333","25.0860816666667","6501100","汐止區"
"221010","269-BY","2018/05/05 18:09:32","新北市汐止區汐萬路二段273號","121.646046666667","25.088875","6501100","汐止區"
"221012","278-VK","2018/05/05 18:09:44","新北市汐止區保一街39號","121.674193333333","25.0799033333333","6501100","汐止區"
"221023","279-VK","2018/05/05 18:09:34","新北市汐止區民族五街81號","121.627523333333","25.0698366666667","6501100","汐止區"
"221032","280-BY","2018/05/05 18:09:42","新北市汐止區橫科路19號","121.617773333333","25.05127","6501100","汐止區"
"221027","281-BY","2018/05/05 18:09:51","新北市汐止區中正路7號","121.663228333333","25.0699666666667","6501100","汐止區"
"221029","298-VK","2018/05/05 18:09:33","新北市汐止區樟樹二路101號","121.640171666667","25.06621","6501100","汐止區"
"221021","299-VK","2018/05/05 18:09:44","新北市汐止區龍安路202巷28號","121.652643333333","25.0634366666667","6501100","汐止區"
"221008","129-UY","2018/05/05 18:09:30","新北市汐止區康寧街338號","121.62777","25.0675083333333","6501100","汐止區"
"221035","622-UM","2018/05/05 18:09:41","新北市汐止區大同路二段187巷2弄1號","121.652193333333","25.0648966666667","6501100","汐止區"
"221025","623-UM","2018/05/05 18:09:31","新北市汐止區勤進路1號","121.660421666667","25.0620783333333","6501100","汐止區"
"221038","646-BX","2018/05/05 18:09:41","新北市汐止區南興路100號","121.653166666667","25.0585533333333","6501100","汐止區"
"221033","647-BX","2018/05/05 18:09:34","新北市汐止區宜興街10巷21號","121.622098333333","25.040745","6501100","汐止區"
"221002","707-TV","2018/05/05 18:09:34","新北市汐止區福德一路201巷27號","121.635878333333","25.0647216666667","6501100","汐止區"
"221018","753-BX","2018/05/05 18:09:36","新北市汐止區忠孝東路351號","121.665508333333","25.0705183333333","6501100","汐止區"
"242002","KEA-2550","2018/05/05 18:09:39","新北市新莊區新莊路1號","121.459431666667","25.0379483333333","6500500","新莊區"
"220054","741-BX","2018/05/05 18:02:23","新北市板橋區華東街1-9號","121.448111666667","24.994865","6500100","板橋區"
