"lineid","car","time","location","longitude","latitude","cityid","cityname"
"234046","148-BY","2018/05/05 18:39:45","新北市永和區永元路94號","121.522593333333","25.00163","6500400","永和區"
"234007","207-UY","2018/05/05 18:39:32","新北市永和區環河西路二段185號","121.502328333333","25.01119","6500400","永和區"
"234038","336-UY","2018/05/05 18:39:33","新北市永和區福和路1號","121.526528333333","25.010065","6500400","永和區"
"234064","337-UY","2018/05/05 18:39:29","新北市永和區福和路1號","121.526461666667","25.0099433333333","6500400","永和區"
"234086","338-UY","2018/05/05 18:39:31","新北市中和區安平路116號","121.511821666667","24.9975283333333","6500400","永和區"
"234017","745-BX","2018/05/05 18:39:38","新北市永和區福和路1號","121.526311666667","25.009625","6500400","永和區"
"234030","746-BX","2018/05/05 18:39:48","新北市永和區福和路7巷15弄19號","121.526008333333","25.0076233333333","6500400","永和區"
"234013","KEA-2591","2018/05/05 18:39:43","新北市永和區保福路二段88巷18號","121.511541666667","25.01366","6500400","永和區"
"234061","AAD-866","2018/05/05 18:39:39","新北市永和區福和路1號","121.525826666667","25.009565","6500400","永和區"
"234042","862-TW","2018/05/05 18:39:42","新北市永和區永貞路267號","121.511771666667","25.00481","6500400","永和區"
"234050","863-TW","2018/05/05 18:39:34","新北市永和區福和路1號","121.526576666667","25.0097733333333","6500400","永和區"
"234026","9371-KE","2018/05/05 18:39:39","新北市永和區仁愛路287號","121.5055","25.009555","6500400","永和區"
"234011","9373-KE","2018/05/05 18:39:50","新北市永和區文化路9巷22弄32號","121.514491666667","25.01459","6500400","永和區"
"249005","172-UM","2018/05/05 18:39:35","新北市八里區中華路三段190號","121.388326666667","25.1258633333333","6502300","八里區"
"249001","173-UM","2018/05/05 18:39:32","新北市八里區龍米路一段219號","121.451488333333","25.13176","6502300","八里區"
"249004","303-UY","2018/05/05 18:39:41","新北市八里區龍米路三段60號","121.42367","25.158995","6502300","八里區"
"249002","305-UY","2018/05/05 18:39:40","新北市八里區龍形一街33巷8-3號","121.449226666667","25.1297816666667","6502300","八里區"
"248016","026-BX","2018/05/05 18:39:46","新北市五股區凌雲路一段133巷27-3號","121.448645","25.1009","6501500","五股區"
"248008","095-VK","2018/05/05 18:39:42","新北市五股區中興路一段151巷1弄1號","121.465011666667","25.0732616666667","6501500","五股區"
"248020","225-UY","2018/05/05 18:34:01","新北市五股區孝義路73-1號","121.445453333333","25.1195366666667","6501500","五股區"
"248012","247-BX","2018/05/05 18:39:46","新北市五股區御成路150號","121.440981666667","25.09468","6501500","五股區"
"248014","261-SL","2018/05/05 18:39:42","新北市五股區民義路一段3號","121.437343333333","25.0832433333333","6501500","五股區"
"248010","272-BY","2018/05/05 18:39:44","新北市五股區明德路27號","121.434543333333","25.0713116666667","6501500","五股區"
"248004","677-BX","2018/05/05 18:39:37","新北市五股區民義路一段236-6號","121.427451666667","25.0912566666667","6501500","五股區"
"248002","678-BX","2018/05/05 18:39:48","新北市五股區西雲路220號","121.448205","25.0961583333333","6501500","五股區"
"234023","9380-KE","2018/05/05 18:39:40","新北市永和區福和路12巷2號","121.5244","25.0085866666667","6500400","永和區"
"234077","969-R7","2018/05/05 18:39:34","新北市永和區中正路164號","121.51509","24.99659","6500400","永和區"
"234067","AAC-212","2018/05/05 18:39:42","新北市永和區福和路199號","121.519518333333","25.0074516666667","6500400","永和區"
"234003","AAC-295","2018/05/05 18:39:36","新北市永和區福和路1號","121.526605","25.0099066666667","6500400","永和區"
"244013","069-UM","2018/05/05 18:39:42","新北市林口區佳林路136號","121.384706666667","25.0779716666667","6501700","林口區"
"244007","080-UY","2018/05/05 18:39:41","新北市林口區湖北里55號","121.384923333333","25.106425","6501700","林口區"
"244019","403-UM","2018/05/05 18:39:43","新北市林口區忠孝路622巷1弄2號","121.377846666667","25.0677616666667","6501700","林口區"
"244023","483-VK","2018/05/05 18:39:34","新北市林口區文化二路二段102號","121.378903333333","25.0818116666667","6501700","林口區"
"244017","485-VK","2018/05/05 18:39:52","新北市林口區文化二路一段68巷12-1號","121.366251666667","25.0680183333333","6501700","林口區"
"244009","656-BX","2018/05/05 18:39:44","新北市林口區竹林路320巷4號","121.391116666667","25.0823033333333","6501700","林口區"
"244011","657-BX","2018/05/05 18:39:29","新北市林口區新寮1-61號","121.39284","25.0764516666667","6501700","林口區"
"244025","837-TS","2018/05/05 18:39:40","新北市林口區南勢五街65號","121.356823333333","25.0752266666667","6501700","林口區"
"243013","AAD-798","2018/05/05 18:34:08","新北市泰山區明志路三段206巷8號","121.42334","25.0380183333333","6501600","泰山區"
"243012","646-TV","2018/05/05 18:39:36","新北市泰山區泰林路二段194號","121.43353","25.0610983333333","6501600","泰山區"
"222003","436-BY","2018/05/05 18:39:30","新北市深坑區翠谷街27號","121.626823333333","25.00881","6501800","深坑區"
"222002","659-BX","2018/05/05 18:39:44","新北市深坑區雲鄉路28號","121.62147","24.9997233333333","6501800","深坑區"
"231044","001-UM","2018/05/05 18:39:20","新北市新店區安康路一段117號","121.52841","24.9617583333333","6500600","新店區"
"231059","046-UY","2018/05/05 18:39:35","新北市新店區安華路28-1號","121.519568333333","24.9609","6500600","新店區"
"231040","047-UY","2018/05/05 18:39:44","新北市新店區安華路28-1號","121.51922","24.9608966666667","6500600","新店區"
"231046","107-UY","2018/05/05 18:39:35","新北市新店區直潭二街1號","121.535505","24.943195","6500600","新店區"
"231052","108-UY","2018/05/05 18:39:47","新北市新店區長興路24號","121.546495","24.939825","6500600","新店區"
"231048","187-VK","2018/05/05 18:39:35","新北市新店區安康路一段355-3號","121.519758333333","24.9616583333333","6500600","新店區"
"231054","KEA-2219","2018/05/05 18:39:31","新北市新店區安華路28-1號","121.520016666667","24.961265","6500600","新店區"
"231057","256-BX","2018/05/05 18:39:34","新北市新店區新烏路一段205-2號","121.54759","24.93264","6500600","新店區"
"231042","268-BY","2018/05/05 18:39:34","新北市新店區秀山路72號","121.53143","24.9608383333333","6500600","新店區"
"231051","278-BY","2018/05/05 18:39:38","新北市新店區中央路216號","121.52993","24.973265","6500600","新店區"
"231050","AAD-862","2018/05/05 18:39:51","新北市新店區安華路28-1號","121.519705","24.96127","6500600","新店區"
"231058","3713-VJ","2018/05/05 18:39:43","新北市新店區新店路13號","121.540381666667","24.9529133333333","6500600","新店區"
"231066","4716-K9","2018/05/05 18:39:47","新北市新店區安華路30巷1號","121.519508333333","24.9596133333333","6500600","新店區"
"231056","4715-K9","2018/05/05 18:39:39","新北市新店區民族路106號","121.539081666667","24.9780216666667","6500600","新店區"
"231067","4772-VM","2018/05/05 18:39:45","新北市新店區安康路一段76巷10-1號","121.528481666667","24.962425","6500600","新店區"
"231065","512-UM","2018/05/05 18:39:40","新北市新店區安華路28-1號","121.519441666667","24.9612033333333","6500600","新店區"
"231049","513-UM","2018/05/05 18:39:47","新北市新店區安華路28-1號","121.51968","24.9611283333333","6500600","新店區"
"231063","616-UM","2018/05/05 18:39:37","新北市新店區安華路28-1號","121.519438333333","24.9605666666667","6500600","新店區"
"231045","617-UM","2018/05/05 18:39:36","新北市新店區安華路28-1號","121.51948","24.9608783333333","6500600","新店區"
"231061","619-UM","2018/05/05 18:39:30","新北市新店區安華路28-1號","121.519663333333","24.9609516666667","6500600","新店區"
"231064","719-UM","2018/05/05 18:39:33","新北市新店區安華路28-1號","121.519581666667","24.961175","6500600","新店區"
"231062","720-UM","2018/05/05 18:39:36","新北市新店區安華路28-1號","121.519133333333","24.9612133333333","6500600","新店區"
"231060","897-TW","2018/05/05 18:39:47","新北市新店區安華路28-1號","121.519648333333","24.9609233333333","6500600","新店區"
"231043","899-TW","2018/05/05 18:39:30","新北市新店區安華路28-1號","121.51919","24.960875","6500600","新店區"
"231055","AKT-0513","2018/05/05 18:39:36","新北市新店區中華路47巷2弄2號","121.53975","24.96764","6500600","新店區"
"235064","005-UY","2018/05/05 18:39:50","新北市中和區連城路109巷45號","121.497015","24.99833","6500300","中和區"
"235063","006-UY","2018/05/05 18:39:17","新北市中和區連城路347巷2號","121.488096666667","24.9958583333333","6500300","中和區"
"235047","031-BX","2018/05/05 18:39:41","新北市中和區南山路320巷10弄11號","121.506781666667","24.9866166666667","6500300","中和區"
"235056","096-UM","2018/05/05 18:39:31","新北市中和區員山路611巷5弄1號","121.477983333333","25.011315","6500300","中和區"
"235039","097-UM","2018/05/05 18:17:27","新北市中和區中正路305號","121.492228333333","24.993655","6500300","中和區"
"235058","151-BY","2018/05/05 18:39:48","新北市中和區圓通路369巷30弄2號","121.488921666667","24.9843933333333","6500300","中和區"
"235055","183-VK","2018/05/05 18:39:49","新北市中和區中山路三段229巷45號","121.469328333333","25.0055633333333","6500300","中和區"
"235038","185-VK","2018/05/05 18:39:39","新北市中和區自強路64號","121.519891666667","24.9944233333333","6500300","中和區"
"235049","186-VK","2018/05/05 18:39:44","新北市中和區明義街38號","121.503651666667","24.995335","6500300","中和區"
"235067","255-BX","2018/05/05 18:39:47","新北市中和區中正路881號","121.484296666667","25.00415","6500300","中和區"
"235044","293-VK","2018/05/05 18:39:30","新北市中和區復興路280巷6號","121.502335","24.9910783333333","6500300","中和區"
"235072","301-VK","2018/05/05 18:39:38","新北市中和區連城路3號","121.49935","25.00223","6500300","中和區"
"235043","352-BY","2018/05/05 18:39:39","新北市中和區景平路155號","121.51331","24.992285","6500300","中和區"
"235068","377-QA","2018/05/05 18:39:35","新北市中和區中正路211巷24號","121.497011666667","24.993015","6500300","中和區"
"235061","378-QA","2018/05/05 18:39:35","新北市中和區民享街92巷32號","121.473696666667","24.99974","6500300","中和區"
"235050","4979-A6","2018/05/05 18:39:31","新北市中和區景新街418巷22弄1號","121.512443333333","24.98799","6500300","中和區"
"235069","4980-A6","2018/05/05 18:39:42","新北市中和區連城路89巷18號","121.497176666667","24.9989766666667","6500300","中和區"
"235042","551-UM","2018/05/05 18:39:41","新北市中和區成功路97巷18弄9號","121.526928333333","24.9914333333333","6500300","中和區"
"235070","558-UM","2018/05/05 18:39:46","新北市中和區南山路127巷18弄42號","121.503588333333","24.9964716666667","6500300","中和區"
"235045","565-BX","2018/05/05 18:39:34","新北市中和區南山路236巷55號","121.504671666667","24.9881433333333","6500300","中和區"
"235054","640-BX","2018/05/05 18:39:39","新北市中和區莒光路116號","121.472406666667","25.001925","6500300","中和區"
"235060","647-TV","2018/05/05 18:39:44","新北市中和區中山路二段479號","121.483043333333","25.0049983333333","6500300","中和區"
"235046","733-UM","2018/05/05 18:39:46","新北市中和區忠孝街126-1號","121.512136666667","24.986255","6500300","中和區"
"235062","800-TS","2018/05/05 18:23:20","新北市中和區景平路784-1號","121.496","25.005685","6500300","中和區"
"235057","801-TS","2018/05/05 18:39:33","新北市中和區員山路327巷21號","121.48057","25.0016416666667","6500300","中和區"
"235041","802-TS","2018/05/05 18:39:37","新北市中和區宜安路156號","121.50924","24.9987366666667","6500300","中和區"
"235052","805-TS","2018/05/05 18:39:47","新北市中和區興南路三段73巷8號","121.492328333333","24.9742516666667","6500300","中和區"
"235048","896-TW","2018/05/05 18:39:39","新北市中和區南山路325號","121.505053333333","24.9912533333333","6500300","中和區"
"235053","900-TW","2018/05/05 18:39:46","新北市中和區華安街98-1號","121.468336666667","24.99606","6500300","中和區"
"235066","911-UM","2018/05/05 18:39:51","新北市中和區水源路34巷1號","121.504971666667","25.0035633333333","6500300","中和區"
"235051","157-BY","2018/05/05 18:39:31","新北市中和區華新街143巷106弄7號","121.506083333333","24.9788866666667","6500300","中和區"
"235037","AAC-213","2018/05/05 18:39:42","新北市中和區景德街35號","121.518435","24.9911916666667","6500300","中和區"
"220065","072-UY","2018/05/05 18:39:38","新北市板橋區民族路247巷5弄42號","121.470245","25.00849","6500100","板橋區"
"220086","073-UY","2018/05/05 18:39:37","新北市板橋區南雅西路二段192巷1弄48號","121.45252","25.01526","6500100","板橋區"
"220069","AAD-861","2018/05/05 18:39:43","新北市板橋區華東街1-10號","121.448381666667","24.9951166666667","6500100","板橋區"
"235065","251-BX","2018/05/05 18:39:44","新北市中和區中山路二段2巷45弄44號","121.501728333333","25.0062583333333","6500300","中和區"
"228003","097-TW","2018/05/05 18:39:47","新北市貢寮區和美里龍洞街40號","121.915035","25.1117633333333","6502600","貢寮區"
"228001","212-TW","2018/05/05 18:39:30","新北市貢寮區仁理村研海街12-1號","121.923785","25.0516233333333","6502600","貢寮區"
"228002","585-TW","2018/05/05 18:39:40","新北市貢寮區福隆里東興街31-1號","121.95314","25.02101","6502600","貢寮區"
"224010","AGQ-8101","2018/05/05 18:38:55","新北市瑞芳區崙頂路99號","121.844676666667","25.1071683333333","6501200","瑞芳區"
"224006","676-BX","2018/05/05 18:39:39","新北市瑞芳區一坑路34-3號","121.803756666667","25.1094916666667","6501200","瑞芳區"
"224002","639-TC","2018/05/05 18:39:38","新北市瑞芳區三爪子坑路91巷1號","121.811778333333","25.1074016666667","6501200","瑞芳區"
"224008","285-BY","2018/05/05 18:39:38","新北市瑞芳區逢甲路187號","121.804796666667","25.1106016666667","6501200","瑞芳區"
"224007","275-VK","2018/05/05 18:39:43","新北市瑞芳區大埔路117號","121.763563333333","25.1010233333333","6501200","瑞芳區"
"224009","273-VK","2018/05/05 18:39:32","新北市瑞芳區五號路314號","121.857808333333","25.1113316666667","6501200","瑞芳區"
"224005","271-BY","2018/05/05 18:39:49","新北市瑞芳區瑞濱路20號","121.826093333333","25.1212083333333","6501200","瑞芳區"
"227010","642-TC","2018/05/05 18:39:30","新北市雙溪區牡丹里下坑11號","121.85103","25.056215","6502500","雙溪區"
"227002","400-TW","2018/05/05 18:39:46","新北市雙溪區魚行里坤溪3-5號","121.875193333333","25.0215833333333","6502500","雙溪區"
"253006","295-VK","2018/05/05 18:39:37","新北市石門區崁子腳28-5號","121.538056666667","25.2893716666667","6502200","石門區"
"253001","4710-YM","2018/05/05 18:39:40","新北市石門區八甲3-2號","121.521313333333","25.28389","6502200","石門區"
"222001","KEA-2212","2018/05/05 18:39:47","新北市深坑區北深路一段98號","121.635901666667","25.0107316666667","6501800","深坑區"
"208002","KEA-2872","2018/05/05 18:39:48","新北市金山區忠孝一路22號","121.638455","25.219545","6502700","金山區"
"208003","665-BX","2018/05/05 18:39:40","新北市金山區中山路254號","121.63565","25.2239533333333","6502700","金山區"
"208001","761-BX","2018/05/05 18:39:45","新北市金山區文化三路7號","121.635158333333","25.2249066666667","6502700","金山區"
"251004","009-UM","2018/05/05 18:39:45","新北市淡水區大同路113巷6號","121.463525","25.1415733333333","6501000","淡水區"
"251001","011-UM","2018/05/05 18:39:32","新北市淡水區自強路419號","121.465556666667","25.1342683333333","6501000","淡水區"
"251002","012-UM","2018/05/05 18:39:45","新北市淡水區中正東路一段3巷14弄1號","121.45092","25.1641483333333","6501000","淡水區"
"251013","KEA-2871","2018/05/05 18:39:33","新北市淡水區雲廣坑9號","121.477773333333","25.2105933333333","6501000","淡水區"
"251014","180-VK","2018/05/05 18:39:46","新北市淡水區崙頂12-8號","121.49557","25.2172616666667","6501000","淡水區"
"251008","181-VK","2018/05/05 18:39:38","新北市淡水區北投子17-3號","121.453538333333","25.183235","6501000","淡水區"
"251015","182-VK","2018/05/05 18:39:40","新北市淡水區樹林口52號","121.485011666667","25.1629133333333","6501000","淡水區"
"251010","413-VK","2018/05/05 18:39:31","新北市淡水區沙崙路126號","121.423568333333","25.18281","6501000","淡水區"
"251012","441-VK","2018/05/05 18:39:37","新北市淡水區北新路138號","121.448746666667","25.17839","6501000","淡水區"
"251006","561-UM","2018/05/05 18:39:30","新北市淡水區崁頂64號","121.43883","25.200805","6501000","淡水區"
"251016","575-R6","2018/05/05 18:39:47","新北市淡水區下圭柔山83號","121.437945","25.2053083333333","6501000","淡水區"
"251011","650-BX","2018/05/05 18:39:42","新北市淡水區鄧公路36巷13號","121.455853333333","25.1691916666667","6501000","淡水區"
"251003","673-BX","2018/05/05 18:39:31","新北市淡水區北新路69巷26號","121.446728333333","25.1800416666667","6501000","淡水區"
"207003","550-UM","2018/05/05 18:39:27","新北市萬里區大鵬里頂社2-1號","121.660378333333","25.2071366666667","6502800","萬里區"
"207004","225-TW","2018/05/05 18:39:35","新北市萬里區萬里里獅頭路10-1號","121.692091666667","25.17873","6502800","萬里區"
"252002","178-VK","2018/05/05 18:39:29","新北市三芝區民生街64巷6號","121.503575","25.255235","6502100","三芝區"
"252003","249-BX","2018/05/05 18:39:33","新北市三芝區後厝里土地公坑54-17號","121.466006666667","25.2495783333333","6502100","三芝區"
"252001","292-VK","2018/05/05 18:39:38","新北市三芝區中興街二段260號","121.501481666667","25.2532816666667","6502100","三芝區"
"237007","153-BY","2018/05/05 18:39:46","新北市三峽區中正路三段152號","121.353088333333","24.9035133333333","6500900","三峽區"
"237011","572-TV","2018/05/05 18:39:50","新北市三峽區介壽路三段48號","121.395796666667","24.9370716666667","6500900","三峽區"
"237009","210-TH","2018/05/05 18:39:37","新北市三峽區弘園街73號","121.366028333333","24.9268766666667","6500900","三峽區"
"237013","252-BX","2018/05/05 18:39:44","新北市三峽區大同路52號","121.37694","24.92911","6500900","三峽區"
"237012","275-BY","2018/05/05 18:39:29","新北市三峽區三樹路340號","121.383956666667","24.9433366666667","6500900","三峽區"
"237008","302-VK","2018/05/05 18:39:32","新北市三峽區白雞33-60號","121.370913333333","24.9131316666667","6500900","三峽區"
"237014","433-BY","2018/05/05 18:39:33","新北市三峽區復興路480巷52-1號","121.361685","24.9408783333333","6500900","三峽區"
"237006","5529-G3","2018/05/05 18:39:33","新北市三峽區溪東路222號","121.407841666667","24.9319266666667","6500900","三峽區"
"237010","706-TV","2018/05/05 18:39:43","新北市三峽區復興路287號","121.36601","24.938875","6500900","三峽區"
"237005","AKY-6261","2018/05/05 18:39:33","新北市三峽區新興街6號","121.372583333333","24.935865","6500900","三峽區"
"236070","105-UM","2018/05/05 18:39:30","新北市土城區永豐路157巷29弄6-1號","121.46836","24.981515","6501300","土城區"
"236042","107-UM","2018/05/05 18:39:45","新北市土城區裕民路45-1號","121.448623333333","24.9884116666667","6501300","土城區"
"236079","166-UM","2018/05/05 18:39:46","新北市土城區頂埔街47號","121.417101666667","24.959185","6501300","土城區"
"236030","253-BX","2018/05/05 18:39:45","新北市土城區福仁街72號","121.439293333333","24.9741466666667","6501300","土城區"
"236026","269-VK","2018/05/05 18:39:41","新北市土城區忠義路49-1號","121.44042","24.9690683333333","6501300","土城區"
"236014","270-VK","2018/05/05 18:39:44","新北市土城區清水路207巷11號","121.459878333333","24.9823633333333","6501300","土城區"
"236038","271-VK","2018/05/05 18:39:32","新北市土城區明德路一段313巷11弄5號","121.4601","24.975875","6501300","土城區"
"236021","401-BY","2018/05/05 18:39:43","新北市土城區延吉街327-1號","121.465545","24.9842233333333","6501300","土城區"
"236059","912-UM","2018/05/05 18:39:47","新北市土城區中央路三段193號","121.430338333333","24.9646683333333","6501300","土城區"
"236049","913-UM","2018/05/05 18:39:36","新北市土城區明德路一段22號","121.465066666667","24.9849233333333","6501300","土城區"
"236063","915-UM","2018/05/05 18:39:43","新北市土城區延和路125巷63號","121.469378333333","24.991615","6501300","土城區"
"236055","AAC-216","2018/05/05 18:39:44","新北市土城區中央路一段80號","121.447023333333","24.9890933333333","6501300","土城區"
"242058","986-R7","2018/05/05 18:39:37","新北市泰山區新北大道六段381號","121.421961666667","25.0325666666667","6500500","新莊區"
"242061","705-TV","2018/05/05 18:39:31","新北市新莊區新樹路168號","121.434878333333","25.0222133333333","6500500","新莊區"
"242042","566-BX","2018/05/05 18:39:46","新北市泰山區中山路二段699號","121.429203333333","25.0395533333333","6500500","新莊區"
"242051","441-UM","2018/05/05 18:39:44","新北市新莊區新樹路537號","121.432771666667","25.0087916666667","6500500","新莊區"
"242048","172-VK","2018/05/05 18:39:51","新北市樹林區中山路三段214號","121.379878333333","24.9674133333333","6500500","新莊區"
"238015","755-BX","2018/05/05 18:39:41","新北市樹林區中山路三段28號","121.395373333333","24.9728016666667","6500700","樹林區"
"238023","601-UM","2018/05/05 18:39:44","新北市樹林區三福街81號","121.407175","25.016315","6500700","樹林區"
"238019","599-UM","2018/05/05 18:39:36","新北市樹林區中山路三段125-3號","121.396863333333","24.9734216666667","6500700","樹林區"
"238018","571-TV","2018/05/05 18:39:49","新北市樹林區樹新路5號","121.426466666667","24.9939266666667","6500700","樹林區"
"238024","5061-A6","2018/05/05 18:39:38","新北市樹林區太順街49巷5號","121.418101666667","24.97892","6500700","樹林區"
"238022","KEA-2213","2018/05/05 18:39:45","新北市樹林區東興街4巷2號","121.408705","24.9800483333333","6500700","樹林區"
"238025","303-VK","2018/05/05 18:39:31","新北市樹林區中山路三段22號","121.395668333333","24.9729616666667","6500700","樹林區"
"238017","283-BY","2018/05/05 18:39:44","新北市樹林區光興街50號","121.409853333333","25.0027466666667","6500700","樹林區"
"238020","268-VK","2018/05/05 18:39:37","新北市樹林區俊英街223巷2號","121.423725","25.013315","6500700","樹林區"
"238026","172-UY","2018/05/05 18:39:38","新北市樹林區信和街6巷7號","121.389661666667","24.9711216666667","6500700","樹林區"
"238016","169-UY","2018/05/05 18:39:33","新北市樹林區文化街26號","121.41941","24.9876316666667","6500700","樹林區"
"239007","AAC-297","2018/05/05 18:29:17","新北市鶯歌區育英街55號","121.347118333333","24.9525866666667","6500800","鶯歌區"
"239006","891-R6","2018/05/05 18:39:43","新北市鶯歌區鶯桃路296巷48號","121.335846666667","24.961295","6500800","鶯歌區"
"239008","527-UM","2018/05/05 18:39:30","新北市鶯歌區國際一路14號","121.336045","24.976455","6500800","鶯歌區"
"239005","526-UM","2018/05/05 18:39:45","新北市鶯歌區鳳吉一街34號","121.325968333333","24.9736333333333","6500800","鶯歌區"
"239001","417-VK","2018/05/05 18:39:34","新北市鶯歌區國中街178號","121.338336666667","24.9393716666667","6500800","鶯歌區"
"239003","360-BY","2018/05/05 18:39:48","新北市鶯歌區永和街69號","121.333003333333","24.9678166666667","6500800","鶯歌區"
"239002","359-BY","2018/05/05 18:39:46","新北市鶯歌區中正一路478號","121.365493333333","24.9566966666667","6500800","鶯歌區"
"239004","193-VK","2018/05/05 18:39:41","新北市鶯歌區中正三路194巷2-3號","121.332641666667","24.9385333333333","6500800","鶯歌區"
"221036","130-UY","2018/05/05 18:39:37","新北市汐止區水碓街51號","121.665181666667","25.0693733333333","6501100","汐止區"
"221015","131-UY","2018/05/05 18:39:34","新北市汐止區吉祥街12巷4-1號","121.668495","25.080255","6501100","汐止區"
"221010","269-BY","2018/05/05 18:39:32","新北市汐止區汐萬路三段268號","121.642823333333","25.106175","6501100","汐止區"
"221012","278-VK","2018/05/05 18:39:44","新北市汐止區長江街190號","121.660221666667","25.0759483333333","6501100","汐止區"
"221023","279-VK","2018/05/05 18:39:34","新北市汐止區湖前街27號","121.632478333333","25.0693166666667","6501100","汐止區"
"221032","280-BY","2018/05/05 18:39:43","新北市汐止區福山街58巷18號","121.617965","25.0459616666667","6501100","汐止區"
"221027","281-BY","2018/05/05 18:39:49","新北市汐止區汐萬路一段147號","121.65338","25.0711283333333","6501100","汐止區"
"221029","298-VK","2018/05/05 18:39:33","新北市汐止區樟樹一路142號","121.642216666667","25.06501","6501100","汐止區"
"221031","353-TW","2018/05/05 18:39:36","新北市汐止區福德一路274號","121.632123333333","25.0640483333333","6501100","汐止區"
"221008","129-UY","2018/05/05 18:39:30","新北市汐止區康寧街901號","121.651503333333","25.07498","6501100","汐止區"
"221035","622-UM","2018/05/05 18:39:42","新北市汐止區汐萬路一段2號","121.656283333333","25.0670866666667","6501100","汐止區"
"221025","623-UM","2018/05/05 18:39:31","新北市汐止區仁愛路113巷26號","121.661785","25.064385","6501100","汐止區"
"221038","646-BX","2018/05/05 18:39:34","新北市汐止區汐萬路一段256巷3號","121.65336","25.0746883333333","6501100","汐止區"
"221033","647-BX","2018/05/05 18:39:34","新北市汐止區南勢街3號","121.627068333333","25.0372733333333","6501100","汐止區"
"221002","707-TV","2018/05/05 18:39:34","新北市汐止區中興路21號","121.636911666667","25.0594666666667","6501100","汐止區"
"221018","753-BX","2018/05/05 18:39:36","新北市汐止區茄苳路299號","121.673248333333","25.067085","6501100","汐止區"
"220079","145-BY","2018/05/05 18:39:36","新北市板橋區南雅西路一段73號","121.45289","25.0083933333333","6500100","板橋區"
"220080","200-UY","2018/05/05 18:39:46","新北市板橋區大觀路二段265巷130弄30號","121.441148333333","24.9966333333333","6500100","板橋區"
"242002","KEA-2550","2018/05/05 18:39:39","新北市新莊區三和路12-21號","121.44205","25.03802","6500500","新莊區"
"220082","610-BX","2018/05/05 18:39:43","新北市板橋區大觀路三段5-4號","121.432553333333","24.9958816666667","6500100","板橋區"
"220103","257-TC","2018/05/05 18:39:42","新北市板橋區民生路二段120號","121.470678333333","25.019495","6500100","板橋區"
"220056","276-BY","2018/05/05 18:39:47","新北市板橋區華東街1-9號","121.448126666667","24.994965","6500100","板橋區"
"220072","277-BY","2018/05/05 18:39:41","新北市板橋區大觀路三段59巷17弄6-1號","121.435945","24.99552","6500100","板橋區"
"220071","283-VK","2018/05/05 18:39:35","新北市板橋區四川路二段57號","121.453653333333","24.9950716666667","6500100","板橋區"
"220094","285-UM","2018/05/05 18:39:39","新北市板橋區民生路二段120號","121.47083","25.019645","6500100","板橋區"
"220083","286-VK","2018/05/05 18:39:38","新北市板橋區大觀路二段111號","121.446133333333","25.00166","6500100","板橋區"
"220081","287-VK","2018/05/05 18:39:51","新北市板橋區大觀路二段109巷2號","121.446405","25.00154","6500100","板橋區"
"220061","293-UM","2018/05/05 18:39:33","新北市板橋區民生路二段120號","121.47048","25.019875","6500100","板橋區"
"220084","296-UM","2018/05/05 18:39:38","新北市板橋區大觀路二段205號","121.44508","24.99928","6500100","板橋區"
"220075","303-R5","2018/05/05 18:39:44","新北市板橋區南雅南路二段116號","121.452435","25.0004","6500100","板橋區"
"220062","305-R5","2018/05/05 18:39:36","新北市板橋區民生路二段120號","121.470731666667","25.0196533333333","6500100","板橋區"
"220064","486-VK","2018/05/05 18:39:43","新北市板橋區縣民大道一段312號","121.461465","25.0109283333333","6500100","板橋區"
"220035","560-BX","2018/05/05 18:39:41","新北市板橋區南雅西路二段177號","121.451803333333","25.0125416666667","6500100","板橋區"
"220057","686-BX","2018/05/05 18:39:40","新北市板橋區華東街1-10號","121.4483","24.99487","6500100","板橋區"
"220077","687-BX","2018/05/05 18:39:38","新北市板橋區大觀路二段431-1號","121.441536666667","24.9950516666667","6500100","板橋區"
"220054","741-BX","2018/05/05 18:39:29","新北市板橋區華東街1-9號","121.448086666667","24.9949216666667","6500100","板橋區"
"220055","827-TW","2018/05/05 18:39:43","新北市板橋區華東街1-9號","121.44816","24.9949283333333","6500100","板橋區"
"220074","895-R6","2018/05/05 18:39:39","新北市板橋區南雅南路二段134號","121.45208","24.9965433333333","6500100","板橋區"
"220073","985-R7","2018/05/05 18:39:47","新北市板橋區貴興路7號","121.457785","25.0043183333333","6500100","板橋區"
"220070","AAC-253","2018/05/05 18:39:33","新北市板橋區華東街1-9號","121.44827","24.99488","6500100","板橋區"
