"lineid","car","time","location","longitude","latitude","cityid","cityname"
"234046","148-BY","2018/05/05 18:49:45","新北市永和區秀朗路二段124-3號","121.524831666667","25.0015533333333","6500400","永和區"
"234007","207-UY","2018/05/05 18:49:32","新北市永和區文化路170號","121.511831666667","25.0154966666667","6500400","永和區"
"234078","298-R6","2018/05/05 18:49:36","新北市永和區永利路110號","121.521275","25.0033133333333","6500400","永和區"
"234038","336-UY","2018/05/05 18:49:33","新北市永和區成功路一段112號","121.526761666667","25.0025216666667","6500400","永和區"
"234064","337-UY","2018/05/05 18:49:49","新北市永和區福和路1號","121.525575","25.0094583333333","6500400","永和區"
"234086","338-UY","2018/05/05 18:49:37","新北市永和區中正路39-1號","121.514408333333","24.995955","6500400","永和區"
"234017","745-BX","2018/05/05 18:49:38","新北市永和區永和路二段314號","121.516153333333","25.01619","6500400","永和區"
"234030","746-BX","2018/05/05 18:49:28","新北市永和區得和路321號","121.523398333333","24.9995766666667","6500400","永和區"
"234054","KEA-2590","2018/05/05 18:49:47","新北市永和區豫溪街189巷1號","121.52258","25.010325","6500400","永和區"
"234013","KEA-2591","2018/05/05 18:49:43","新北市永和區仁愛路202巷42號","121.50886","25.0133333333333","6500400","永和區"
"234061","AAD-866","2018/05/05 18:49:39","新北市永和區福和路309巷6號","121.516183333333","25.0067833333333","6500400","永和區"
"234042","862-TW","2018/05/05 18:49:42","新北市永和區永貞路271號","121.511706666667","25.004835","6500400","永和區"
"234050","863-TW","2018/05/05 18:49:34","新北市永和區福和路1號","121.526078333333","25.0098383333333","6500400","永和區"
"234011","9373-KE","2018/05/05 18:49:50","新北市永和區文化路111號","121.512761666667","25.01525","6500400","永和區"
"249005","172-UM","2018/05/05 18:49:35","新北市八里區長道坑16-2號","121.394951666667","25.11713","6502300","八里區"
"249001","173-UM","2018/05/05 18:49:32","新北市八里區龍米路二段58-1號","121.448091666667","25.1411116666667","6502300","八里區"
"249004","303-UY","2018/05/05 18:49:44","新北市八里區中山路一段268巷5弄2號","121.41461","25.16072","6502300","八里區"
"248016","026-BX","2018/05/05 18:49:46","新北市五股區凌雲路一段149巷42號","121.448615","25.1009216666667","6501500","五股區"
"248006","077-UY","2018/05/05 18:49:35","新北市五股區四維路1巷2弄2號","121.466521666667","25.07014","6501500","五股區"
"248008","095-VK","2018/05/05 18:49:42","新北市五股區中興路一段128巷6號","121.465721666667","25.074085","6501500","五股區"
"248020","225-UY","2018/05/05 18:49:41","新北市五股區凌雲路三段41號","121.429791666667","25.1181533333333","6501500","五股區"
"248012","247-BX","2018/05/05 18:49:46","新北市五股區成泰路二段157號","121.439028333333","25.0859016666667","6501500","五股區"
"248010","272-BY","2018/05/05 18:49:44","新北市五股區水碓九路140號","121.430205","25.0731166666667","6501500","五股區"
"248004","677-BX","2018/05/05 18:49:37","新北市五股區民義路二段63號","121.409445","25.1052133333333","6501500","五股區"
"248002","678-BX","2018/05/05 18:49:48","新北市五股區成泰路三段433號","121.44984","25.0977816666667","6501500","五股區"
"234023","9380-KE","2018/05/05 18:49:40","新北市永和區竹林路119巷35號","121.521821666667","25.0118633333333","6500400","永和區"
"234077","969-R7","2018/05/05 18:49:34","新北市永和區中正路2巷29弄2-2號","121.513821666667","24.9938533333333","6500400","永和區"
"234067","AAC-212","2018/05/05 18:49:42","新北市永和區永和路一段22號","121.513008333333","25.0048183333333","6500400","永和區"
"234003","AAC-295","2018/05/05 18:49:36","新北市永和區中正路627號","121.515608333333","25.0099866666667","6500400","永和區"
"232011","375-UM","2018/05/05 18:49:30","新北市坪林區坪碇路71號","121.711475","24.9376416666667","6502000","坪林區"
"244013","069-UM","2018/05/05 18:49:42","新北市林口區文化一路一段137號","121.374101666667","25.0720033333333","6501700","林口區"
"244007","080-UY","2018/05/05 18:49:41","新北市林口區太平里19號","121.377775","25.1159933333333","6501700","林口區"
"244019","403-UM","2018/05/05 18:49:43","新北市林口區麗園二街23巷9號","121.379943333333","25.0701266666667","6501700","林口區"
"244023","483-VK","2018/05/05 18:49:33","新北市林口區文化三路二段77巷39號","121.373011666667","25.08024","6501700","林口區"
"244017","485-VK","2018/05/05 18:49:49","新北市林口區文化二路一段120巷7號","121.367903333333","25.0698966666667","6501700","林口區"
"244009","656-BX","2018/05/05 18:49:44","新北市林口區竹林路366巷2號","121.391776666667","25.0848533333333","6501700","林口區"
"244011","657-BX","2018/05/05 18:49:50","新北市林口區粉寮路一段35號","121.396446666667","25.07697","6501700","林口區"
"244025","837-TS","2018/05/05 18:49:38","新北市林口區南勢二街311號","121.359413333333","25.0762783333333","6501700","林口區"
"243013","AAD-798","2018/05/05 18:34:08","新北市泰山區明志路三段206巷8號","121.42334","25.0380183333333","6501600","泰山區"
"243016","380-SR","2018/05/05 18:49:48","新北市泰山區明志路一段504號","121.430486666667","25.054355","6501600","泰山區"
"243015","421-VK","2018/05/05 18:49:46","新北市泰山區泰林路二段429號","121.426335","25.064155","6501600","泰山區"
"243012","646-TV","2018/05/05 18:49:36","新北市泰山區福興三街13號","121.434458333333","25.05775","6501600","泰山區"
"222003","436-BY","2018/05/05 18:49:30","新北市深坑區深南路48號","121.620226666667","25.0088033333333","6501800","深坑區"
"222002","659-BX","2018/05/05 18:49:44","新北市深坑區文山路一段69號","121.627015","25.0018483333333","6501800","深坑區"
"231044","001-UM","2018/05/05 18:49:40","新北市新店區中興路二段192號","121.54834","24.9734433333333","6500600","新店區"
"231059","046-UY","2018/05/05 18:49:35","新北市新店區安華路28-1號","121.519578333333","24.9608716666667","6500600","新店區"
"231040","047-UY","2018/05/05 18:49:44","新北市新店區中央路137號","121.530225","24.9736216666667","6500600","新店區"
"231046","107-UY","2018/05/05 18:49:35","新北市新店區直潭路65號","121.532648333333","24.9422633333333","6500600","新店區"
"231052","108-UY","2018/05/05 18:49:33","新北市新店區湖子內路59-2號","121.541013333333","24.9295983333333","6500600","新店區"
"231048","187-VK","2018/05/05 18:49:35","新北市新店區北新路一段86號","121.54151","24.9674416666667","6500600","新店區"
"231054","KEA-2219","2018/05/05 18:49:51","新北市新店區安康路一段84號","121.528106666667","24.9619066666667","6500600","新店區"
"231042","268-BY","2018/05/05 18:49:34","新北市新店區北新路一段126巷21號","121.542761666667","24.9696833333333","6500600","新店區"
"231051","278-BY","2018/05/05 18:49:38","新北市新店區中正路444號","121.534085","24.97841","6500600","新店區"
"231050","AAD-862","2018/05/05 18:49:31","新北市新店區秀山路68-1號","121.53098","24.9609633333333","6500600","新店區"
"231058","3713-VJ","2018/05/05 18:49:43","新北市新店區北宜路一段105巷2號","121.53947","24.9554833333333","6500600","新店區"
"231066","4716-K9","2018/05/05 18:49:46","新北市新店區安豐路22巷14號","121.502886666667","24.9549416666667","6500600","新店區"
"231056","4715-K9","2018/05/05 18:49:39","新北市新店區大同街24號","121.539186666667","24.980275","6500600","新店區"
"231067","4772-VM","2018/05/05 18:49:45","新北市新店區安康路一段281巷21號","121.523716666667","24.96266","6500600","新店區"
"231065","512-UM","2018/05/05 18:49:40","新北市新店區車子路10-4號","121.504991666667","24.9545816666667","6500600","新店區"
"231049","513-UM","2018/05/05 18:49:47","新北市新店區中央路137號","121.530226666667","24.9736866666667","6500600","新店區"
"231063","616-UM","2018/05/05 18:49:37","新北市新店區安華路1-1號","121.519388333333","24.960455","6500600","新店區"
"231045","617-UM","2018/05/05 18:49:36","新北市新店區秀山路66號","121.530773333333","24.9609816666667","6500600","新店區"
"231061","619-UM","2018/05/05 18:49:30","新北市新店區安華路28-1號","121.519615","24.96094","6500600","新店區"
"231064","719-UM","2018/05/05 18:49:34","新北市新店區安華路28-1號","121.519555","24.96115","6500600","新店區"
"231062","720-UM","2018/05/05 18:49:36","新北市新店區安華路28-1號","121.519325","24.9611716666667","6500600","新店區"
"231060","897-TW","2018/05/05 18:49:28","新北市新店區安華路28-1號","121.519645","24.9608733333333","6500600","新店區"
"231043","899-TW","2018/05/05 18:49:30","新北市新店區安康路一段79巷1號","121.529865","24.961225","6500600","新店區"
"231055","AKT-0513","2018/05/05 18:49:36","新北市新店區北新路一段271巷8號","121.540558333333","24.96679","6500600","新店區"
"235064","005-UY","2018/05/05 18:49:50","新北市中和區連城路75巷3-1號","121.497911666667","24.999435","6500300","中和區"
"235063","006-UY","2018/05/05 18:49:37","新北市中和區連城路319巷11弄12號","121.489695","24.9948916666667","6500300","中和區"
"235047","031-BX","2018/05/05 18:49:41","新北市中和區興南路二段34巷55弄1號","121.504841666667","24.9861683333333","6500300","中和區"
"235056","096-UM","2018/05/05 18:49:31","新北市中和區員山路611巷1號","121.477928333333","25.0112933333333","6500300","中和區"
"235040","150-BY","2018/05/05 18:49:33","新北市中和區保健路106巷15號","121.512386666667","24.9955783333333","6500300","中和區"
"235058","151-BY","2018/05/05 18:49:48","新北市中和區連城路539號","121.480438333333","24.9948166666667","6500300","中和區"
"235055","183-VK","2018/05/05 18:49:49","新北市中和區民生街59號","121.469398333333","25.0050183333333","6500300","中和區"
"235038","185-VK","2018/05/05 18:49:39","新北市中和區大勇街60巷9號","121.518435","24.9948516666667","6500300","中和區"
"235049","186-VK","2018/05/05 18:49:44","新北市中和區景安路177巷13號","121.505893333333","24.99432","6500300","中和區"
"235067","255-BX","2018/05/05 18:49:47","新北市中和區中正路849巷1號","121.484663333333","25.0026683333333","6500300","中和區"
"235044","293-VK","2018/05/05 18:49:30","新北市中和區中興街178號","121.499878333333","24.9909866666667","6500300","中和區"
"235072","301-VK","2018/05/05 18:49:38","新北市中和區中山路二段68號","121.50395","25.0046116666667","6500300","中和區"
"235043","352-BY","2018/05/05 18:49:39","新北市中和區成功路139號","121.525966666667","24.9906416666667","6500300","中和區"
"235068","377-QA","2018/05/05 18:49:35","新北市中和區中正路211巷36弄22號","121.496743333333","24.9923316666667","6500300","中和區"
"235061","378-QA","2018/05/05 18:49:31","新北市中和區民享街46號","121.473955","25.0027083333333","6500300","中和區"
"235050","4979-A6","2018/05/05 18:49:31","新北市中和區景新街496巷30弄30號","121.512658333333","24.9856233333333","6500300","中和區"
"235069","4980-A6","2018/05/05 18:49:42","新北市中和區泰和街2號","121.50002","25.00113","6500300","中和區"
"235042","551-UM","2018/05/05 18:49:41","新北市中和區秀朗路三段135巷5弄1號","121.52549","24.9921966666667","6500300","中和區"
"235070","558-UM","2018/05/05 18:49:46","新北市中和區南山路6號","121.501966666667","24.9988283333333","6500300","中和區"
"235045","565-BX","2018/05/05 18:49:34","新北市中和區景安路211號","121.504513333333","24.9917716666667","6500300","中和區"
"235054","640-BX","2018/05/05 18:49:35","新北市中和區民享街68巷2號","121.473995","25.0018533333333","6500300","中和區"
"235060","647-TV","2018/05/05 18:49:44","新北市中和區中山路三段177號","121.472878333333","25.00619","6500300","中和區"
"235046","733-UM","2018/05/05 18:49:46","新北市中和區仁愛街36巷43號","121.511186666667","24.9868033333333","6500300","中和區"
"235062","800-TS","2018/05/05 18:23:20","新北市中和區景平路784-1號","121.496","25.005685","6500300","中和區"
"235057","801-TS","2018/05/05 18:49:33","新北市中和區民安街25巷9號","121.48055","25.000415","6500300","中和區"
"235041","802-TS","2018/05/05 18:49:37","新北市中和區宜安路118巷18號","121.510821666667","24.9985516666667","6500300","中和區"
"235052","805-TS","2018/05/05 18:49:47","新北市中和區興南路二段399巷98弄70號","121.497906666667","24.9763416666667","6500300","中和區"
"235048","896-TW","2018/05/05 18:49:39","新北市中和區華新街2-6號","121.507433333333","24.98523","6500300","中和區"
"235053","900-TW","2018/05/05 18:49:46","新北市中和區華福街42巷5號","121.466405","24.996185","6500300","中和區"
"235066","911-UM","2018/05/05 18:49:31","新北市中和區中山路二段131巷25號","121.50365","25.0026166666667","6500300","中和區"
"235051","157-BY","2018/05/05 18:49:34","新北市中和區忠孝街24號","121.510496666667","24.982955","6500300","中和區"
"235037","AAC-213","2018/05/05 18:49:42","新北市中和區秀朗路三段128巷7弄2號","121.524521666667","24.993005","6500300","中和區"
"235059","AAC-215","2018/05/05 18:49:39","新北市中和區錦和路408號","121.491081666667","24.9897633333333","6500300","中和區"
"220068","013-TV","2018/05/05 18:49:44","新北市板橋區民生路二段89-4號","121.471011666667","25.0183216666667","6500100","板橋區"
"220065","072-UY","2018/05/05 18:49:38","新北市板橋區民族路247巷5弄42號","121.470253333333","25.0084783333333","6500100","板橋區"
"220086","073-UY","2018/05/05 18:49:37","新北市板橋區大智街53-1號","121.454143333333","25.0153483333333","6500100","板橋區"
"220106","075-UY","2018/05/05 18:49:46","新北市板橋區民生路二段161巷1號","121.470243333333","25.0201233333333","6500100","板橋區"
"220069","AAD-861","2018/05/05 18:49:43","新北市板橋區大華街10號","121.458868333333","25.0062383333333","6500100","板橋區"
"235065","251-BX","2018/05/05 18:49:44","新北市中和區中山路二段2巷21-2號","121.503403333333","25.006925","6500300","中和區"
"228003","097-TW","2018/05/05 18:49:38","新北市貢寮區和美里龍洞街63-7號","121.917346666667","25.11841","6502600","貢寮區"
"228001","212-TW","2018/05/05 18:49:50","新北市貢寮區仁理村保健街73號","121.923695","25.05168","6502600","貢寮區"
"228002","585-TW","2018/05/05 18:49:40","新北市貢寮區福隆里東興街6-11號","121.950761666667","25.0210783333333","6502600","貢寮區"
"224010","AGQ-8101","2018/05/05 18:47:55","新北市瑞芳區烏勢巷145號","121.847721666667","25.10901","6501200","瑞芳區"
"224006","676-BX","2018/05/05 18:49:39","新北市瑞芳區中正路45號","121.807036666667","25.107165","6501200","瑞芳區"
"224002","639-TC","2018/05/05 18:49:38","新北市瑞芳區傑魚坑路311-1號","121.794515","25.1075083333333","6501200","瑞芳區"
"224008","285-BY","2018/05/05 18:49:38","新北市瑞芳區逢甲路343-1號","121.800298333333","25.1122766666667","6501200","瑞芳區"
"224007","275-VK","2018/05/05 18:49:43","新北市瑞芳區大埔路東泰新村1號","121.761251666667","25.1011366666667","6501200","瑞芳區"
"224009","273-VK","2018/05/05 18:49:32","新北市瑞芳區祈堂路2號","121.859696666667","25.1117266666667","6501200","瑞芳區"
"224005","271-BY","2018/05/05 18:49:49","新北市瑞芳區海濱路38-1號","121.831156666667","25.1234466666667","6501200","瑞芳區"
"227010","642-TC","2018/05/05 18:49:50","新北市雙溪區牡丹里聖南19號","121.857788333333","25.0526116666667","6502500","雙溪區"
"227002","400-TW","2018/05/05 18:49:46","新北市雙溪區平林里梅竹蹊28號","121.861648333333","25.03602","6502500","雙溪區"
"253006","295-VK","2018/05/05 18:49:16","新北市石門區下員坑15-13號","121.512141666667","25.2843466666667","6502200","石門區"
"253001","4710-YM","2018/05/05 18:49:40","新北市石門區楓林29-1號","121.543436666667","25.2884466666667","6502200","石門區"
"222001","KEA-2212","2018/05/05 18:49:47","新北市深坑區松柏街34號","121.63876","25.011385","6501800","深坑區"
"208002","KEA-2872","2018/05/05 18:49:48","新北市金山區信義路66號","121.635673333333","25.2189283333333","6502700","金山區"
"208003","665-BX","2018/05/05 18:49:40","新北市金山區中山路393號","121.633478333333","25.2252283333333","6502700","金山區"
"208001","761-BX","2018/05/05 18:49:45","新北市金山區文化三路66巷1號","121.634186666667","25.2256816666667","6502700","金山區"
"251009","008-UM","2018/05/05 18:49:43","新北市淡水區重建街138號","121.440471666667","25.1733633333333","6501000","淡水區"
"251001","011-UM","2018/05/05 18:49:32","新北市淡水區自強路86號","121.462831666667","25.1282666666667","6501000","淡水區"
"251002","012-UM","2018/05/05 18:49:45","新北市淡水區學府路68號","121.448785","25.1703","6501000","淡水區"
"251013","KEA-2871","2018/05/05 18:49:34","新北市淡水區安子內5號","121.484293333333","25.2148066666667","6501000","淡水區"
"251014","180-VK","2018/05/05 18:49:46","新北市淡水區崙頂3號","121.491073333333","25.2239016666667","6501000","淡水區"
"251015","182-VK","2018/05/05 18:49:40","新北市淡水區興福寮66巷40號","121.486768333333","25.162665","6501000","淡水區"
"251010","413-VK","2018/05/05 18:49:51","新北市淡水區沙崙路20號","121.421338333333","25.1810916666667","6501000","淡水區"
"251012","441-VK","2018/05/05 18:49:48","新北市淡水區新興街13號","121.443291666667","25.1803866666667","6501000","淡水區"
"251016","575-R6","2018/05/05 18:49:47","新北市淡水區下圭柔山71-3號","121.447075","25.2062383333333","6501000","淡水區"
"251011","650-BX","2018/05/05 18:49:42","新北市淡水區中正東路71-4號","121.447316666667","25.16745","6501000","淡水區"
"251003","673-BX","2018/05/05 18:49:51","新北市淡水區中山北路一段186巷24號","121.446188333333","25.1786116666667","6501000","淡水區"
"207003","550-UM","2018/05/05 18:49:47","新北市萬里區大鵬里頂社1號","121.656988333333","25.2096916666667","6502800","萬里區"
"207004","225-TW","2018/05/05 18:49:36","新北市萬里區萬里里獅頭路23號","121.69319","25.1782633333333","6502800","萬里區"
"252002","178-VK","2018/05/05 18:49:29","新北市三芝區中正路一段101號","121.50477","25.2564416666667","6502100","三芝區"
"252003","249-BX","2018/05/05 18:49:33","新北市三芝區後厝里大片頭74-6號","121.459231666667","25.2452566666667","6502100","三芝區"
"252001","292-VK","2018/05/05 18:49:38","新北市三芝區中正路三段9號","121.503081666667","25.2540033333333","6502100","三芝區"
"237007","153-BY","2018/05/05 18:49:46","新北市三峽區中正路二段421號","121.36305","24.906865","6500900","三峽區"
"237011","572-TV","2018/05/05 18:49:30","新北市三峽區介壽路三段217號","121.403285","24.9447133333333","6500900","三峽區"
"237013","252-BX","2018/05/05 18:49:44","新北市三峽區大同路48巷17弄8-1號","121.376803333333","24.9291366666667","6500900","三峽區"
"237012","275-BY","2018/05/05 18:49:28","新北市三峽區三樹路358號","121.383928333333","24.9434066666667","6500900","三峽區"
"237008","302-VK","2018/05/05 18:49:32","新北市三峽區中正路一段409號","121.370326666667","24.9207683333333","6500900","三峽區"
"237014","433-BY","2018/05/05 18:49:33","新北市三峽區隆恩街158巷42號","121.36588","24.94518","6500900","三峽區"
"237006","5529-G3","2018/05/05 18:49:33","新北市三峽區溪東路233巷4弄13號","121.406931666667","24.9338383333333","6500900","三峽區"
"237010","706-TV","2018/05/05 18:49:44","新北市三峽區國光街322號","121.372221666667","24.9393466666667","6500900","三峽區"
"237005","AKY-6261","2018/05/05 18:49:33","新北市三峽區中山路331號","121.360356666667","24.9381","6500900","三峽區"
"236070","105-UM","2018/05/05 18:49:50","新北市土城區延和路21巷5號","121.464081666667","24.9886116666667","6501300","土城區"
"236042","107-UM","2018/05/05 18:49:46","新北市土城區裕民路114巷19號","121.450508333333","24.9857333333333","6501300","土城區"
"236079","166-UM","2018/05/05 18:49:46","新北市土城區中央路四段69號","121.417555","24.9579133333333","6501300","土城區"
"236030","253-BX","2018/05/05 18:49:45","新北市土城區忠義路26巷25號","121.439563333333","24.9696466666667","6501300","土城區"
"236026","269-VK","2018/05/05 18:49:41","新北市土城區興城路66號","121.441261666667","24.97221","6501300","土城區"
"236014","270-VK","2018/05/05 18:49:49","新北市土城區金城路二段354巷16號","121.460886666667","24.98434","6501300","土城區"
"236038","271-VK","2018/05/05 18:49:32","新北市土城區明德路一段221巷5號","121.463723333333","24.9780833333333","6501300","土城區"
"236021","401-BY","2018/05/05 18:49:42","新北市土城區延吉街253巷9號","121.46788","24.9844333333333","6501300","土城區"
"236059","912-UM","2018/05/05 18:49:47","新北市土城區金城路二段12號","121.449215","24.9772033333333","6501300","土城區"
"236049","913-UM","2018/05/05 18:49:49","新北市土城區青雲路14號","121.460026666667","24.9889316666667","6501300","土城區"
"236063","915-UM","2018/05/05 18:49:43","新北市土城區金城路三段167號","121.469193333333","24.98852","6501300","土城區"
"236055","AAC-216","2018/05/05 18:49:44","新北市土城區裕民路222號","121.453588333333","24.984245","6501300","土城區"
"242051","441-UM","2018/05/05 18:49:44","新北市樹林區太平路269號","121.419615","24.9731116666667","6500500","新莊區"
"242048","172-VK","2018/05/05 18:49:31","新北市板橋區金門街215巷57弄22-1號","121.435003333333","24.9896516666667","6500500","新莊區"
"238023","601-UM","2018/05/05 18:49:44","桃園市龜山區萬壽路一段253號","121.404266666667","25.0173866666667","6500700","樹林區"
"238019","599-UM","2018/05/05 18:49:36","新北市樹林區東陽街20號","121.41289","24.9819183333333","6500700","樹林區"
"238018","571-TV","2018/05/05 18:49:29","新北市樹林區東榮街39號","121.417405","24.9832783333333","6500700","樹林區"
"238024","5061-A6","2018/05/05 18:49:37","新北市樹林區八德街584號","121.39863","24.9699816666667","6500700","樹林區"
"238022","KEA-2213","2018/05/05 18:49:45","新北市樹林區東順街60巷2號","121.411198333333","24.9781116666667","6500700","樹林區"
"238025","303-VK","2018/05/05 18:49:50","新北市樹林區中山路三段22號","121.395643333333","24.9729166666667","6500700","樹林區"
"238017","283-BY","2018/05/05 18:49:44","新北市樹林區光興街50號","121.409851666667","25.0027383333333","6500700","樹林區"
"238020","268-VK","2018/05/05 18:49:37","新北市樹林區俊英街83巷1號","121.425793333333","25.0080433333333","6500700","樹林區"
"238026","172-UY","2018/05/05 18:49:38","新北市樹林區中和街6號","121.391875","24.9729816666667","6500700","樹林區"
"238016","169-UY","2018/05/05 18:49:33","新北市樹林區文化街28號","121.419305","24.98767","6500700","樹林區"
"239007","AAC-297","2018/05/05 18:29:17","新北市鶯歌區育英街55號","121.347118333333","24.9525866666667","6500800","鶯歌區"
"239006","891-R6","2018/05/05 18:49:43","新北市鶯歌區鶯桃路296巷84弄37號","121.33775","24.96114","6500800","鶯歌區"
"239008","527-UM","2018/05/05 18:49:30","新北市鶯歌區晨曦街1號","121.336505","24.9760966666667","6500800","鶯歌區"
"239005","526-UM","2018/05/05 18:49:45","新北市鶯歌區大湖路361巷18號","121.330556666667","24.9780133333333","6500800","鶯歌區"
"239001","417-VK","2018/05/05 18:49:34","新北市鶯歌區中正三路191號","121.335785","24.9392966666667","6500800","鶯歌區"
"239003","360-BY","2018/05/05 18:49:29","新北市鶯歌區鶯桃路658巷49-2號","121.330876666667","24.970245","6500800","鶯歌區"
"239002","359-BY","2018/05/05 18:49:46","新北市鶯歌區中山路325號","121.34392","24.956895","6500800","鶯歌區"
"239004","193-VK","2018/05/05 18:49:41","新北市鶯歌區中正三路302巷14號","121.328135","24.9361333333333","6500800","鶯歌區"
"221036","130-UY","2018/05/05 18:49:37","新北市汐止區南昌街22-1號","121.66321","25.068315","6501100","汐止區"
"221015","131-UY","2018/05/05 18:49:34","新北市汐止區鄉長路一段55巷22號","121.664731666667","25.07632","6501100","汐止區"
"221010","269-BY","2018/05/05 18:49:32","新北市汐止區汐萬路一段420號","121.649828333333","25.0781","6501100","汐止區"
"221012","278-VK","2018/05/05 18:49:44","新北市汐止區汐萬路一段256巷3號","121.652621666667","25.074565","6501100","汐止區"
"221023","279-VK","2018/05/05 18:49:34","新北市汐止區伯爵街1巷2號","121.641711666667","25.0752316666667","6501100","汐止區"
"221032","280-BY","2018/05/05 18:49:42","新北市汐止區民權街二段79號","121.61919","25.0480416666667","6501100","汐止區"
"221027","281-BY","2018/05/05 18:49:29","新北市汐止區康寧街901號","121.651453333333","25.0749383333333","6501100","汐止區"
"221029","298-VK","2018/05/05 18:49:13","新北市汐止區工建路66號","121.640521666667","25.062645","6501100","汐止區"
"221031","353-TW","2018/05/05 18:49:36","新北市汐止區福德一路300巷32號","121.630476666667","25.064395","6501100","汐止區"
"221008","129-UY","2018/05/05 18:49:30","新北市汐止區康寧街901號","121.651398333333","25.0749883333333","6501100","汐止區"
"221035","622-UM","2018/05/05 18:49:41","新北市汐止區汐萬路一段256巷3號","121.653316666667","25.074505","6501100","汐止區"
"221025","623-UM","2018/05/05 18:49:31","新北市汐止區水源路一段4號","121.657101666667","25.06704","6501100","汐止區"
"221038","646-BX","2018/05/05 18:49:34","新北市汐止區汐萬路一段312號","121.65065","25.0753233333333","6501100","汐止區"
"221033","647-BX","2018/05/05 18:49:34","新北市汐止區南勢街3號","121.62711","25.0373416666667","6501100","汐止區"
"221002","707-TV","2018/05/05 18:49:34","新北市汐止區大同路一段98-1號","121.629568333333","25.054285","6501100","汐止區"
"221018","753-BX","2018/05/05 18:49:36","新北市汐止區大同路二段435號","121.659308333333","25.06739","6501100","汐止區"
"220079","145-BY","2018/05/05 18:49:41","新北市板橋區民權路202巷7弄29號","121.458831666667","25.0149166666667","6500100","板橋區"
"220080","200-UY","2018/05/05 18:49:46","新北市板橋區大觀路二段265巷60弄35號","121.441756666667","24.9978366666667","6500100","板橋區"
"242002","KEA-2550","2018/05/05 18:49:39","新北市新莊區三和路12-21號","121.442065","25.0379733333333","6500500","新莊區"
"220082","610-BX","2018/05/05 18:49:43","新北市板橋區篤行路三段69號","121.427418333333","24.98562","6500100","板橋區"
"220101","245-BX","2018/05/05 18:49:49","新北市板橋區民生路二段120號","121.470543333333","25.0197866666667","6500100","板橋區"
"220103","257-TC","2018/05/05 18:49:42","新北市板橋區民生路二段120號","121.470493333333","25.0195283333333","6500100","板橋區"
"220091","267-BY","2018/05/05 18:49:32","新北市板橋區民生路二段171號","121.469855","25.0201483333333","6500100","板橋區"
"220056","276-BY","2018/05/05 18:49:47","新北市板橋區四川路二段14號","121.45596","24.9961383333333","6500100","板橋區"
"220072","277-BY","2018/05/05 18:49:49","新北市板橋區大觀路三段36巷30弄3號","121.434185","24.9964933333333","6500100","板橋區"
"220071","283-VK","2018/05/05 18:49:35","新北市板橋區忠孝路196巷27號","121.465498333333","25.0017916666667","6500100","板橋區"
"220094","285-UM","2018/05/05 18:49:40","新北市板橋區民生路二段120號","121.470536666667","25.0194966666667","6500100","板橋區"
"220053","285-VK","2018/05/05 18:49:46","新北市板橋區民生路二段97號","121.471521666667","25.0177716666667","6500100","板橋區"
"220083","286-VK","2018/05/05 18:49:38","新北市板橋區僑中一街70號","121.447443333333","25.0114516666667","6500100","板橋區"
"220081","287-VK","2018/05/05 18:49:51","新北市板橋區光華街13巷27號","121.453185","25.0112816666667","6500100","板橋區"
"220090","288-VK","2018/05/05 18:49:43","新北市板橋區民生路二段120號","121.470531666667","25.01957","6500100","板橋區"
"220061","293-UM","2018/05/05 18:49:33","新北市板橋區民生路二段89-4號","121.47094","25.01834","6500100","板橋區"
"220084","296-UM","2018/05/05 18:49:38","新北市板橋區大觀路二段150巷23號","121.441621666667","24.9995566666667","6500100","板橋區"
"220075","303-R5","2018/05/05 18:49:44","新北市板橋區館前西路162號","121.45293","25.0085716666667","6500100","板橋區"
"220062","305-R5","2018/05/05 18:49:36","新北市板橋區中山路二段23號","121.472351666667","25.0153266666667","6500100","板橋區"
"220092","307-R5","2018/05/05 18:49:48","新北市板橋區民生路二段120號","121.47044","25.019795","6500100","板橋區"
"220098","317-R6","2018/05/05 18:49:35","新北市板橋區民生路二段120號","121.470728333333","25.0196783333333","6500100","板橋區"
"220064","486-VK","2018/05/05 18:49:23","新北市板橋區觀光街8號","121.472345","25.0164383333333","6500100","板橋區"
"220088","491-VK","2018/05/05 18:49:36","新北市板橋區民生路二段171號","121.469821666667","25.0201266666667","6500100","板橋區"
"220035","560-BX","2018/05/05 18:49:41","新北市板橋區中正路325巷5弄9號","121.45371","25.01889","6500100","板橋區"
"220063","609-BX","2018/05/05 18:49:36","新北市板橋區民生路二段89-2號","121.471711666667","25.0173366666667","6500100","板橋區"
"220057","686-BX","2018/05/05 18:49:40","新北市板橋區華東街260號","121.452666666667","25.0016766666667","6500100","板橋區"
"220077","687-BX","2018/05/05 18:49:38","新北市板橋區龍興街101巷1號","121.444363333333","25.0031533333333","6500100","板橋區"
"220054","741-BX","2018/05/05 18:49:49","新北市板橋區館前西路1號","121.459213333333","25.0070383333333","6500100","板橋區"
"220102","KEA-2699","2018/05/05 18:49:52","新北市板橋區民生路二段120號","121.470581666667","25.0194683333333","6500100","板橋區"
"220055","827-TW","2018/05/05 18:49:43","新北市板橋區南雅南路二段4巷2號","121.45445","25.0038266666667","6500100","板橋區"
"220067","829-TW","2018/05/05 18:49:49","新北市板橋區三民路二段正隆巷58號","121.476708333333","25.0142566666667","6500100","板橋區"
"220089","833-TW","2018/05/05 18:49:29","新北市板橋區民生路二段180號","121.470883333333","25.02015","6500100","板橋區"
"220074","895-R6","2018/05/05 18:49:39","新北市板橋區南門街14號","121.457325","25.0088483333333","6500100","板橋區"
"220073","985-R7","2018/05/05 18:49:47","新北市板橋區西門街1號","121.456171666667","25.0116666666667","6500100","板橋區"
"220070","AAC-253","2018/05/05 18:49:33","新北市板橋區華東街260號","121.452665","25.0015983333333","6500100","板橋區"
