"lineid","car","time","location","longitude","latitude","cityid","cityname"
"234046","148-BY","2018/05/05 18:59:45","新北市永和區永元路52巷52號","121.524461666667","25.0007616666667","6500400","永和區"
"234007","207-UY","2018/05/05 18:59:32","新北市永和區永和路二段74號","121.515053333333","25.0111966666667","6500400","永和區"
"234078","298-R6","2018/05/05 18:59:49","新北市永和區永貞路52號","121.520771666667","25.0062016666667","6500400","永和區"
"234038","336-UY","2018/05/05 18:59:33","新北市中和區秀朗路三段38號","121.526506666667","24.9959666666667","6500400","永和區"
"234064","337-UY","2018/05/05 18:59:29","新北市永和區秀朗路一段154號","121.5183","25.0033366666667","6500400","永和區"
"234086","338-UY","2018/05/05 18:59:31","新北市永和區永利路20號","121.518071666667","25.0057433333333","6500400","永和區"
"234070","552-UM","2018/05/05 18:59:35","新北市永和區竹林路124巷26號","121.518426666667","25.01143","6500400","永和區"
"234017","745-BX","2018/05/05 18:59:40","新北市永和區永和路二段297號","121.516106666667","25.0160483333333","6500400","永和區"
"234030","746-BX","2018/05/05 18:59:41","新北市永和區厚德街14號","121.525796666667","24.997945","6500400","永和區"
"234054","KEA-2590","2018/05/05 18:59:47","新北市永和區竹林路69號","121.518433333333","25.01348","6500400","永和區"
"234013","KEA-2591","2018/05/05 18:59:43","新北市永和區中山路一段60巷18號","121.513378333333","25.0110816666667","6500400","永和區"
"234061","AAD-866","2018/05/05 18:59:39","新北市永和區福和路313號","121.516173333333","25.0071483333333","6500400","永和區"
"234042","862-TW","2018/05/05 18:59:42","新北市永和區永貞路271號","121.51164","25.0048233333333","6500400","永和區"
"234050","863-TW","2018/05/05 18:59:34","新北市永和區文化路194號","121.510691666667","25.016275","6500400","永和區"
"234011","9373-KE","2018/05/05 18:59:50","新北市永和區文化路111號","121.512826666667","25.0151866666667","6500400","永和區"
"249005","172-UM","2018/05/05 18:59:35","新北市八里區長道坑2號","121.393616666667","25.1247133333333","6502300","八里區"
"249001","173-UM","2018/05/05 18:59:32","新北市八里區龍米路二段228-2號","121.432508333333","25.1583933333333","6502300","八里區"
"248016","026-BX","2018/05/05 18:59:46","新北市五股區成泰路三段543巷29號","121.450165","25.102695","6501500","五股區"
"248006","077-UY","2018/05/05 18:59:35","新北市五股區中興路一段68號","121.467268333333","25.0729733333333","6501500","五股區"
"248008","095-VK","2018/05/05 18:59:42","新北市五股區中興路一段118巷6弄20號","121.46635","25.07466","6501500","五股區"
"248020","225-UY","2018/05/05 18:59:41","新北市五股區凌雲路三段57號","121.42522","25.1250083333333","6501500","五股區"
"248012","247-BX","2018/05/05 18:59:46","新北市五股區工商路18巷23弄8號","121.440263333333","25.0841966666667","6501500","五股區"
"248010","272-BY","2018/05/05 18:59:44","新北市五股區水碓七路18號","121.428616666667","25.0715366666667","6501500","五股區"
"248004","677-BX","2018/05/05 18:59:37","新北市五股區民義路二段50號","121.413195","25.10191","6501500","五股區"
"248002","678-BX","2018/05/05 18:59:48","新北市五股區凌雲路一段117號","121.450025","25.1017783333333","6501500","五股區"
"234023","9380-KE","2018/05/05 18:59:48","新北市永和區竹林路75巷33弄1號","121.520643333333","25.0142933333333","6500400","永和區"
"234077","969-R7","2018/05/05 18:59:34","新北市永和區中正路314號","121.517831666667","24.9993333333333","6500400","永和區"
"234074","AAC-211","2018/05/05 18:59:44","新北市永和區環河東路二段100號","121.524108333333","25.010325","6500400","永和區"
"234067","AAC-212","2018/05/05 18:59:42","新北市永和區中和路625號","121.512958333333","25.0050116666667","6500400","永和區"
"234003","AAC-295","2018/05/05 18:59:36","新北市永和區和平街34號","121.513146666667","25.0099816666667","6500400","永和區"
"232011","375-UM","2018/05/05 18:59:50","新北市坪林區水聳淒坑28號","121.71138","24.9340266666667","6502000","坪林區"
"244013","069-UM","2018/05/05 18:59:42","新北市林口區麗園一街6巷2-3號","121.3765","25.069825","6501700","林口區"
"244019","403-UM","2018/05/05 18:59:43","新北市林口區麗園二街47巷15號","121.381471666667","25.0695716666667","6501700","林口區"
"244023","483-VK","2018/05/05 18:59:33","新北市林口區文林六街32號","121.371548333333","25.0811583333333","6501700","林口區"
"244017","485-VK","2018/05/05 18:59:29","新北市林口區忠孝路308巷14號","121.36772","25.0729966666667","6501700","林口區"
"244009","656-BX","2018/05/05 18:59:44","新北市林口區竹林路446巷2弄2號","121.387833333333","25.0855316666667","6501700","林口區"
"244011","657-BX","2018/05/05 18:59:29","新北市林口區中正路335號","121.388246666667","25.0776466666667","6501700","林口區"
"244025","837-TS","2018/05/05 18:59:38","新北市林口區文化北路一段412巷76號","121.365818333333","25.076095","6501700","林口區"
"243013","AAD-798","2018/05/05 18:59:44","新北市泰山區明志路三段239號","121.423528333333","25.037735","6501600","泰山區"
"243009","297-R6","2018/05/05 18:59:35","新北市泰山區泰林路二段365號","121.427985","25.0637183333333","6501600","泰山區"
"243016","380-SR","2018/05/05 18:59:48","新北市泰山區明志路二段196號","121.427495","25.0494883333333","6501600","泰山區"
"243015","421-VK","2018/05/05 18:59:46","新北市泰山區明志路一段213號","121.432695","25.06125","6501600","泰山區"
"243011","KEA-2215","2018/05/05 18:59:49","新北市泰山區明志路二段295號","121.426666666667","25.0467233333333","6501600","泰山區"
"243010","KEA-2216","2018/05/05 18:59:40","新北市泰山區辭修路30號","121.428926666667","25.0581083333333","6501600","泰山區"
"243012","646-TV","2018/05/05 18:59:42","新北市泰山區同義街13巷32號","121.432218333333","25.05712","6501600","泰山區"
"243014","680-BX","2018/05/05 18:59:39","新北市泰山區黎明路2-5號","121.42084","25.0626316666667","6501600","泰山區"
"222003","436-BY","2018/05/05 18:59:50","新北市深坑區深南路51-1號","121.621338333333","25.0101516666667","6501800","深坑區"
"222002","659-BX","2018/05/05 18:59:44","新北市深坑區文山路一段31巷2號","121.629908333333","25.0032866666667","6501800","深坑區"
"231044","001-UM","2018/05/05 18:59:40","新北市新店區寶中路72號","121.547876666667","24.9805716666667","6500600","新店區"
"231059","046-UY","2018/05/05 18:59:35","新北市新店區安華路28-1號","121.519543333333","24.9607783333333","6500600","新店區"
"231040","047-UY","2018/05/05 18:59:44","新北市新店區中正路397號","121.534485","24.9772616666667","6500600","新店區"
"231046","107-UY","2018/05/05 18:59:35","新北市新店區直潭六街20號","121.534356666667","24.9407883333333","6500600","新店區"
"231052","108-UY","2018/05/05 18:59:33","新北市新店區櫻花街19號","121.54718","24.926505","6500600","新店區"
"231048","187-VK","2018/05/05 18:59:35","新北市新店區德正街23巷12-1號","121.544573333333","24.972215","6500600","新店區"
"231054","KEA-2219","2018/05/05 18:59:31","新北市新店區新店路21號","121.540221666667","24.95281","6500600","新店區"
"231042","268-BY","2018/05/05 18:59:34","新北市新店區五峰路58號","121.545713333333","24.96835","6500600","新店區"
"231051","278-BY","2018/05/05 18:59:38","新北市新店區百忍街31號","121.533736666667","24.9756583333333","6500600","新店區"
"231050","AAD-862","2018/05/05 18:59:51","新北市新店區北宜路二段30巷5弄28號","121.54883","24.950875","6500600","新店區"
"231058","3713-VJ","2018/05/05 18:59:43","新北市新店區檳榔路68號","121.542456666667","24.963485","6500600","新店區"
"231066","4716-K9","2018/05/05 18:59:47","新北市新店區安祥路35-2號","121.490486666667","24.9570183333333","6500600","新店區"
"231056","4715-K9","2018/05/05 18:59:39","新北市新店區二十張路46巷37弄21-3號","121.535665","24.9813566666667","6500600","新店區"
"231067","4772-VM","2018/05/05 18:59:45","新北市新店區安康路一段247巷31號","121.52481","24.9619316666667","6500600","新店區"
"231065","512-UM","2018/05/05 18:59:50","新北市新店區安祥路142號","121.473938333333","24.9554333333333","6500600","新店區"
"231049","513-UM","2018/05/05 18:59:47","新北市新店區二十張路143-1號","121.535151666667","24.97883","6500600","新店區"
"231063","616-UM","2018/05/05 18:59:37","新北市新店區安華路30巷12-1號","121.517636666667","24.9580316666667","6500600","新店區"
"231045","617-UM","2018/05/05 18:59:36","新北市新店區光明街1號","121.538216666667","24.9589916666667","6500600","新店區"
"231041","618-UM","2018/05/05 18:59:48","新北市新店區環河路60號","121.537043333333","24.9625916666667","6500600","新店區"
"231061","619-UM","2018/05/05 18:59:50","新北市新店區安華路1-1號","121.519546666667","24.9602333333333","6500600","新店區"
"231064","719-UM","2018/05/05 18:59:34","新北市新店區安華路8號","121.519793333333","24.9615866666667","6500600","新店區"
"231062","720-UM","2018/05/05 18:59:36","新北市新店區安豐路58號","121.498758333333","24.9541183333333","6500600","新店區"
"231060","897-TW","2018/05/05 18:59:47","新北市新店區安華路16號","121.515938333333","24.9579883333333","6500600","新店區"
"231043","899-TW","2018/05/05 18:59:30","新北市新店區北新路二段1號","121.542688333333","24.971275","6500600","新店區"
"231055","AKT-0513","2018/05/05 18:59:39","新北市新店區力行路30號","121.539173333333","24.96466","6500600","新店區"
"235064","005-UY","2018/05/05 18:59:50","新北市中和區泰和街44巷25號","121.49826","25.0009666666667","6500300","中和區"
"235063","006-UY","2018/05/05 18:59:37","新北市中和區中正路537號","121.487603333333","24.9942766666667","6500300","中和區"
"235047","031-BX","2018/05/05 18:59:48","新北市中和區興南路二段74巷10號","121.505253333333","24.984885","6500300","中和區"
"235056","096-UM","2018/05/05 18:59:31","新北市中和區員山路466巷34號","121.482396666667","25.0063483333333","6500300","中和區"
"235040","150-BY","2018/05/05 18:59:44","新北市中和區宜安路23巷3號","121.512771666667","24.9956133333333","6500300","中和區"
"235058","151-BY","2018/05/05 18:59:48","新北市中和區連城路530號","121.475888333333","24.9915533333333","6500300","中和區"
"235055","183-VK","2018/05/05 18:59:49","新北市中和區民德路25巷1號","121.469098333333","25.00279","6500300","中和區"
"235038","185-VK","2018/05/05 18:59:39","新北市中和區大勇街31巷13弄13號","121.517358333333","24.993905","6500300","中和區"
"235049","186-VK","2018/05/05 18:59:43","新北市中和區景安路167巷1號","121.50557","24.99463","6500300","中和區"
"235067","255-BX","2018/05/05 18:59:48","新北市中和區新生街182號","121.483645","24.9997733333333","6500300","中和區"
"235044","293-VK","2018/05/05 18:59:50","新北市中和區中興街161巷1弄1號","121.500206666667","24.9908883333333","6500300","中和區"
"235072","301-VK","2018/05/05 18:59:38","新北市中和區中山路二段131號","121.50247","25.0033033333333","6500300","中和區"
"235043","352-BY","2018/05/05 18:59:39","新北市中和區成功路48號","121.526051666667","24.9927766666667","6500300","中和區"
"235068","377-QA","2018/05/05 18:59:35","新北市中和區圓通路200號","121.49623","24.9942566666667","6500300","中和區"
"235061","378-QA","2018/05/05 18:59:32","新北市中和區民享街55號","121.474095","25.0025516666667","6500300","中和區"
"235050","4979-A6","2018/05/05 18:59:51","新北市中和區忠孝街58巷13號","121.512268333333","24.9832033333333","6500300","中和區"
"235069","4980-A6","2018/05/05 18:59:42","新北市中和區景平路459巷1弄1號","121.500355","24.99638","6500300","中和區"
"235042","551-UM","2018/05/05 18:59:41","新北市中和區秀朗路三段128巷36弄2號","121.524921666667","24.9936566666667","6500300","中和區"
"235070","558-UM","2018/05/05 18:59:46","新北市中和區安和路163號","121.506098333333","24.9975583333333","6500300","中和區"
"235045","565-BX","2018/05/05 18:59:34","新北市中和區景新街467巷14號","121.513975","24.9882483333333","6500300","中和區"
"235054","640-BX","2018/05/05 18:59:47","新北市中和區中山路三段147號","121.473741666667","25.00607","6500300","中和區"
"235060","647-TV","2018/05/05 18:59:44","新北市中和區民治街8巷2號","121.474906666667","25.00513","6500300","中和區"
"235046","733-UM","2018/05/05 18:59:46","新北市中和區興南路一段135巷17號","121.509415","24.9870433333333","6500300","中和區"
"235062","800-TS","2018/05/05 18:59:39","新北市中和區中山路二段417號","121.486106666667","25.004755","6500300","中和區"
"235057","801-TS","2018/05/05 18:59:33","新北市中和區民利街56號","121.479048333333","24.9987616666667","6500300","中和區"
"235041","802-TS","2018/05/05 18:59:37","新北市中和區安平路130號","121.51198","24.99787","6500300","中和區"
"235052","805-TS","2018/05/05 18:59:47","新北市中和區興南路二段178號","121.503598333333","24.98246","6500300","中和區"
"235048","896-TW","2018/05/05 18:59:39","新北市中和區華新街111號","121.50871","24.98165","6500300","中和區"
"235053","900-TW","2018/05/05 18:59:46","新北市中和區民德路360號","121.466065","24.993915","6500300","中和區"
"235066","911-UM","2018/05/05 18:59:51","新北市中和區中山路二段131巷5弄28號","121.503516666667","25.0032883333333","6500300","中和區"
"235051","157-BY","2018/05/05 18:59:32","新北市中和區忠孝街11巷5號","121.509798333333","24.9831983333333","6500300","中和區"
"235037","AAC-213","2018/05/05 18:59:42","新北市中和區自立路17號","121.522178333333","24.9959416666667","6500300","中和區"
"235059","AAC-215","2018/05/05 18:59:39","新北市中和區圓通路367巷2號","121.491301666667","24.98944","6500300","中和區"
"220068","013-TV","2018/05/05 18:59:44","新北市板橋區中山路二段465巷92-1號","121.481151666667","25.0225416666667","6500100","板橋區"
"220065","072-UY","2018/05/05 18:59:48","新北市板橋區民族路285號","121.471225","25.006975","6500100","板橋區"
"220086","073-UY","2018/05/05 18:59:37","新北市板橋區中正路162號","121.456521666667","25.0168366666667","6500100","板橋區"
"220106","075-UY","2018/05/05 18:59:47","新北市板橋區文化路二段124巷28-2號","121.471218333333","25.0256883333333","6500100","板橋區"
"220069","AAD-861","2018/05/05 18:59:43","新北市板橋區東興街2號","121.458721666667","25.0053566666667","6500100","板橋區"
"235065","251-BX","2018/05/05 18:59:44","新北市中和區勝利路35巷3弄23號","121.499963333333","25.0074766666667","6500300","中和區"
"228003","097-TW","2018/05/05 18:59:38","新北市貢寮區和美里龍洞街52-1號","121.911736666667","25.113385","6502600","貢寮區"
"228001","212-TW","2018/05/05 18:59:50","新北市貢寮區仁理村仁義街8號","121.923736666667","25.0518666666667","6502600","貢寮區"
"228002","585-TW","2018/05/05 18:59:40","新北市貢寮區福隆里東興街104號","121.945986666667","25.0173133333333","6502600","貢寮區"
"224010","AGQ-8101","2018/05/05 18:59:35","新北市瑞芳區汽車路34號","121.845988333333","25.1102066666667","6501200","瑞芳區"
"224006","676-BX","2018/05/05 18:59:38","新北市瑞芳區三爪子坑路106巷182號","121.809215","25.10355","6501200","瑞芳區"
"224008","285-BY","2018/05/05 18:59:38","新北市瑞芳區瑞芳街82-1號","121.802956666667","25.1099683333333","6501200","瑞芳區"
"224007","275-VK","2018/05/05 18:59:43","新北市瑞芳區大埔路270號","121.759488333333","25.10144","6501200","瑞芳區"
"224009","273-VK","2018/05/05 18:59:48","新北市瑞芳區五號路137號","121.855281666667","25.1124433333333","6501200","瑞芳區"
"224005","271-BY","2018/05/05 18:59:49","新北市瑞芳區瑞芳街32-10號","121.822205","25.1209383333333","6501200","瑞芳區"
"227010","642-TC","2018/05/05 18:59:30","新北市雙溪區牡丹里中正路58巷23號","121.866418333333","25.0415166666667","6502500","雙溪區"
"227002","400-TW","2018/05/05 18:59:46","新北市雙溪區平林里康福家園10號","121.858775","25.0373283333333","6502500","雙溪區"
"253006","295-VK","2018/05/05 18:59:37","新北市石門區下員坑30-7號","121.51906","25.2809983333333","6502200","石門區"
"253001","4710-YM","2018/05/05 18:59:40","新北市石門區中央路30號","121.567903333333","25.29227","6502200","石門區"
"222001","KEA-2212","2018/05/05 18:59:47","新北市深坑區北深路一段199號","121.630915","25.0097866666667","6501800","深坑區"
"208002","KEA-2872","2018/05/05 18:59:48","新北市金山區信義路72號","121.635176666667","25.21962","6502700","金山區"
"208003","665-BX","2018/05/05 18:59:40","新北市金山區中正路20號","121.636016666667","25.2222766666667","6502700","金山區"
"208001","761-BX","2018/05/05 18:59:45","新北市金山區中山路69號","121.641186666667","25.2177983333333","6502700","金山區"
"251009","008-UM","2018/05/05 18:59:43","新北市淡水區重建街63號","121.439828333333","25.1718783333333","6501000","淡水區"
"251001","011-UM","2018/05/05 18:59:45","新北市淡水區自強路58-1號","121.463273333333","25.1276233333333","6501000","淡水區"
"251002","012-UM","2018/05/05 18:59:46","新北市淡水區中正東路37號","121.446041666667","25.1683083333333","6501000","淡水區"
"251013","KEA-2871","2018/05/05 18:59:33","新北市淡水區頂田寮路953號","121.486665","25.2135633333333","6501000","淡水區"
"251014","180-VK","2018/05/05 18:59:46","新北市淡水區小中寮32-1號","121.491286666667","25.226115","6501000","淡水區"
"251015","182-VK","2018/05/05 18:59:00","新北市淡水區糞箕湖113巷15號","121.488728333333","25.1717816666667","6501000","淡水區"
"251010","413-VK","2018/05/05 18:59:51","新北市淡水區沙崙路129號","121.422363333333","25.1823516666667","6501000","淡水區"
"251007","442-VK","2018/05/05 18:59:41","新北市淡水區民生路113巷1弄46號","121.462795","25.1386616666667","6501000","淡水區"
"251016","575-R6","2018/05/05 18:59:27","新北市淡水區淡金路三段329號","121.448928333333","25.206285","6501000","淡水區"
"251003","673-BX","2018/05/05 18:59:51","新北市淡水區中山北路一段149巷33號","121.443121666667","25.1779783333333","6501000","淡水區"
"207003","550-UM","2018/05/05 18:59:47","新北市萬里區大鵬里頂社14號","121.656023333333","25.20954","6502800","萬里區"
"207004","225-TW","2018/05/05 18:59:35","新北市萬里區萬里里獅頭路23號","121.69323","25.178275","6502800","萬里區"
"252002","178-VK","2018/05/05 18:59:49","新北市三芝區民生街2號","121.50385","25.2575266666667","6502100","三芝區"
"252003","249-BX","2018/05/05 18:59:33","新北市三芝區後厝里北勢子42-3號","121.472281666667","25.2525933333333","6502100","三芝區"
"252001","292-VK","2018/05/05 18:59:38","新北市三芝區中興街二段260號","121.501746666667","25.2530516666667","6502100","三芝區"
"237007","153-BY","2018/05/05 18:59:49","新北市三峽區大埔路87號","121.366456666667","24.90737","6500900","三峽區"
"237011","572-TV","2018/05/05 18:59:50","新北市三峽區介壽路二段153-1號","121.393481666667","24.9358","6500900","三峽區"
"237013","252-BX","2018/05/05 18:59:44","新北市三峽區光明路69巷27號","121.3768","24.9292916666667","6500900","三峽區"
"237012","275-BY","2018/05/05 18:59:48","新北市三峽區三樹路222巷192-9號","121.388326666667","24.9419016666667","6500900","三峽區"
"237008","302-VK","2018/05/05 18:59:32","新北市三峽區大同路103號","121.374521666667","24.9269433333333","6500900","三峽區"
"237014","433-BY","2018/05/05 18:59:33","新北市三峽區隆恩街222號","121.358716666667","24.9415283333333","6500900","三峽區"
"237006","5529-G3","2018/05/05 18:59:33","新北市三峽區溪東路205巷9號","121.40472","24.933765","6500900","三峽區"
"237010","706-TV","2018/05/05 18:59:43","新北市三峽區復興路30-1號","121.374323333333","24.9361716666667","6500900","三峽區"
"237005","AKY-6261","2018/05/05 18:59:33","新北市三峽區中山路459巷163-3號","121.34867","24.93294","6500900","三峽區"
"236070","105-UM","2018/05/05 18:59:50","新北市土城區清水路1號","121.45263","24.9802283333333","6501300","土城區"
"236042","107-UM","2018/05/05 18:59:46","新北市土城區裕民路214巷18弄10號","121.452288333333","24.98408","6501300","土城區"
"236079","166-UM","2018/05/05 18:59:46","新北市土城區中央路四段466號","121.409966666667","24.95061","6501300","土城區"
"236030","253-BX","2018/05/05 18:59:45","新北市土城區中華路二段183號","121.438475","24.9748166666667","6501300","土城區"
"236026","269-VK","2018/05/05 18:59:41","新北市土城區中央路二段236號","121.44194","24.9750533333333","6501300","土城區"
"236014","270-VK","2018/05/05 18:59:44","新北市土城區立德路105號","121.463571666667","24.98753","6501300","土城區"
"236038","271-VK","2018/05/05 18:59:32","新北市土城區明德路一段240巷50號","121.45987","24.9783733333333","6501300","土城區"
"236021","401-BY","2018/05/05 18:59:42","新北市土城區明峰街55號","121.467663333333","24.9866","6501300","土城區"
"236059","912-UM","2018/05/05 18:59:47","新北市土城區金城路二段208號","121.455275","24.9820216666667","6501300","土城區"
"236049","913-UM","2018/05/05 18:59:44","新北市土城區明德路一段280號","121.457465","24.9774783333333","6501300","土城區"
"236063","915-UM","2018/05/05 18:59:43","新北市土城區延和路88巷1號","121.46662","24.9892416666667","6501300","土城區"
"236055","AAC-216","2018/05/05 18:59:44","新北市土城區學成路146號","121.44881","24.9895533333333","6501300","土城區"
"242051","441-UM","2018/05/05 18:59:44","新北市樹林區中山路三段210-2號","121.38079","24.96715","6500500","新莊區"
"242048","172-VK","2018/05/05 18:59:51","新北市新莊區新樹路168號","121.434758333333","25.022095","6500500","新莊區"
"238023","601-UM","2018/05/05 18:59:44","新北市樹林區工興街35巷1號","121.401358333333","25.013215","6500700","樹林區"
"238019","599-UM","2018/05/05 18:59:47","新北市樹林區東華街20號","121.414075","24.9823683333333","6500700","樹林區"
"238018","571-TV","2018/05/05 18:59:49","新北市樹林區太平路48號","121.419013333333","24.9825466666667","6500700","樹林區"
"238024","5061-A6","2018/05/05 18:57:37","新北市樹林區中山路三段214號","121.380026666667","24.9678566666667","6500700","樹林區"
"238022","KEA-2213","2018/05/05 18:59:45","新北市樹林區東順街90巷3弄1號","121.408016666667","24.9762983333333","6500700","樹林區"
"238021","KEA-2539","2018/05/05 18:59:35","新北市樹林區柑園街二段276巷8-2號","121.373115","24.9528283333333","6500700","樹林區"
"238025","303-VK","2018/05/05 18:59:50","新北市樹林區中山路三段341號","121.39031","24.971","6500700","樹林區"
"238017","283-BY","2018/05/05 18:59:44","新北市樹林區光興街120號","121.407206666667","25.003325","6500700","樹林區"
"238020","268-VK","2018/05/05 18:59:45","新北市樹林區俊英街195號","121.423561666667","25.0121966666667","6500700","樹林區"
"238026","172-UY","2018/05/05 18:59:38","新北市樹林區地政街8巷10弄2號","121.393671666667","24.9714","6500700","樹林區"
"238016","169-UY","2018/05/05 18:59:33","新北市樹林區復興路373巷7弄2號","121.417518333333","24.9865133333333","6500700","樹林區"
"239007","AAC-297","2018/05/05 18:29:17","新北市鶯歌區育英街55號","121.347118333333","24.9525866666667","6500800","鶯歌區"
"239006","891-R6","2018/05/05 18:59:43","新北市鶯歌區鶯桃路268巷2號","121.335753333333","24.960065","6500800","鶯歌區"
"239008","527-UM","2018/05/05 18:59:30","新北市鶯歌區國際二路18巷4號","121.337316666667","24.97502","6500800","鶯歌區"
"239005","526-UM","2018/05/05 18:59:45","新北市鶯歌區大湖路241號","121.345995","24.9728766666667","6500800","鶯歌區"
"239001","417-VK","2018/05/05 18:59:34","新北市鶯歌區鶯桃路84號","121.340033333333","24.9535516666667","6500800","鶯歌區"
"239003","360-BY","2018/05/05 18:59:48","新北市鶯歌區鶯桃路423號","121.332651666667","24.9648716666667","6500800","鶯歌區"
"239002","359-BY","2018/05/05 18:59:46","新北市鶯歌區中山路5號","121.353003333333","24.95703","6500800","鶯歌區"
"239004","193-VK","2018/05/05 18:59:41","新北市鶯歌區二甲路106巷2號","121.333883333333","24.9312366666667","6500800","鶯歌區"
"221036","130-UY","2018/05/05 18:59:37","新北市汐止區汐萬路一段157號","121.653091666667","25.07104","6501100","汐止區"
"221015","131-UY","2018/05/05 18:59:34","新北市汐止區水源路一段3號","121.657283333333","25.0671966666667","6501100","汐止區"
"221010","269-BY","2018/05/05 18:59:32","新北市汐止區康寧街901號","121.651605","25.0748183333333","6501100","汐止區"
"221012","278-VK","2018/05/05 18:59:44","新北市汐止區康寧街901號","121.650855","25.0752716666667","6501100","汐止區"
"221023","279-VK","2018/05/05 18:59:34","新北市汐止區康寧街901號","121.650995","25.0751516666667","6501100","汐止區"
"221032","280-BY","2018/05/05 18:59:42","新北市汐止區橫科路407巷81弄5號","121.62871","25.048045","6501100","汐止區"
"221027","281-BY","2018/05/05 18:59:49","新北市汐止區康寧街901號","121.651453333333","25.0749683333333","6501100","汐止區"
"221029","298-VK","2018/05/05 18:59:33","新北市汐止區樟樹一路254號","121.64253","25.06715","6501100","汐止區"
"221031","353-TW","2018/05/05 18:59:36","新北市汐止區中興路181巷23號","121.629676666667","25.065995","6501100","汐止區"
"221008","129-UY","2018/05/05 18:59:30","新北市汐止區汐萬路一段333巷23號","121.648618333333","25.0761266666667","6501100","汐止區"
"221035","622-UM","2018/05/05 18:59:41","新北市汐止區康寧街901號","121.651566666667","25.0748816666667","6501100","汐止區"
"221025","623-UM","2018/05/05 18:59:51","新北市汐止區汐萬路一段256巷3號","121.652458333333","25.074615","6501100","汐止區"
"221038","646-BX","2018/05/05 18:59:34","新北市汐止區汐萬路一段312號","121.650565","25.07529","6501100","汐止區"
"221033","647-BX","2018/05/05 18:59:34","新北市汐止區南勢街3號","121.627091666667","25.037295","6501100","汐止區"
"221002","707-TV","2018/05/05 18:59:34","新北市汐止區大同路一段2號","121.621036666667","25.0550983333333","6501100","汐止區"
"221018","753-BX","2018/05/05 18:59:36","新北市汐止區汐萬路一段256巷3號","121.653471666667","25.0745633333333","6501100","汐止區"
"220079","145-BY","2018/05/05 18:59:37","新北市板橋區民權路202巷14弄1號","121.460623333333","25.0159016666667","6500100","板橋區"
"220080","200-UY","2018/05/05 18:59:46","新北市板橋區大觀路二段力行3巷1-3號","121.442706666667","24.9972683333333","6500100","板橋區"
"220082","610-BX","2018/05/05 18:59:43","新北市板橋區滿平街111號","121.428386666667","24.988585","6500100","板橋區"
"220101","245-BX","2018/05/05 18:59:49","新北市板橋區文化路二段182巷7弄1號","121.471781666667","25.0268066666667","6500100","板橋區"
"220103","257-TC","2018/05/05 18:59:42","新北市板橋區民生路二段121號","121.470643333333","25.0184433333333","6500100","板橋區"
"220091","267-BY","2018/05/05 18:59:32","新北市板橋區雙十路二段47巷17號","121.475663333333","25.0257833333333","6500100","板橋區"
"220056","276-BY","2018/05/05 18:59:47","新北市板橋區信義路112號","121.458291666667","24.9925316666667","6500100","板橋區"
"220072","277-BY","2018/05/05 18:59:41","新北市板橋區篤行路一段33號","121.432005","24.994345","6500100","板橋區"
"220071","283-VK","2018/05/05 18:59:48","新北市板橋區忠孝路165號","121.463848333333","25.0024766666667","6500100","板橋區"
"220094","285-UM","2018/05/05 18:59:40","新北市板橋區莒光路4號","121.46945","25.0248666666667","6500100","板橋區"
"220053","285-VK","2018/05/05 18:59:46","新北市板橋區中山路二段89巷66號","121.473641666667","25.017575","6500100","板橋區"
"220083","286-VK","2018/05/05 18:59:38","新北市板橋區大觀路一段38巷180號","121.44158","25.00467","6500100","板橋區"
"220081","287-VK","2018/05/05 18:59:48","新北市板橋區光華街19巷17號","121.453076666667","25.0119166666667","6500100","板橋區"
"220090","288-VK","2018/05/05 18:59:46","新北市板橋區四維路179號","121.464303333333","25.0264283333333","6500100","板橋區"
"220061","293-UM","2018/05/05 18:59:33","新北市板橋區富山街109巷68號","121.4754","25.0212566666667","6500100","板橋區"
"220084","296-UM","2018/05/05 18:59:38","新北市板橋區大觀路二段142-2號","121.442551666667","24.999045","6500100","板橋區"
"220075","303-R5","2018/05/05 18:59:44","新北市板橋區茶館街17號","121.456556666667","25.0105666666667","6500100","板橋區"
"220062","305-R5","2018/05/05 18:59:36","新北市板橋區三民路二段204-4號","121.478813333333","25.0124683333333","6500100","板橋區"
"220092","307-R5","2018/05/05 18:59:48","新北市板橋區文化路一段106號","121.46479","25.018175","6500100","板橋區"
"220098","317-R6","2018/05/05 18:59:35","新北市板橋區民有街22號","121.466238333333","25.025135","6500100","板橋區"
"220064","486-VK","2018/05/05 18:59:43","新北市板橋區中山路一段283巷2弄23號","121.470611666667","25.0152333333333","6500100","板橋區"
"220088","491-VK","2018/05/05 18:59:45","新北市板橋區民生路二段198號","121.469698333333","25.021","6500100","板橋區"
"220035","560-BX","2018/05/05 18:59:44","新北市板橋區中正路341巷36號","121.453908333333","25.0199283333333","6500100","板橋區"
"220063","609-BX","2018/05/05 18:59:48","新北市板橋區中山路二段146號","121.476588333333","25.0170416666667","6500100","板橋區"
"220057","686-BX","2018/05/05 18:59:40","新北市板橋區重慶路97號","121.462048333333","25.0056216666667","6500100","板橋區"
"220077","687-BX","2018/05/05 18:59:38","新北市板橋區大觀路二段295號","121.442193333333","24.9987783333333","6500100","板橋區"
"220093","689-BX","2018/05/05 18:59:39","新北市板橋區民生路三段66號","121.467023333333","25.025735","6500100","板橋區"
"220054","741-BX","2018/05/05 18:59:40","新北市板橋區重慶路139巷2號","121.462523333333","25.0044983333333","6500100","板橋區"
"220102","KEA-2699","2018/05/05 18:59:32","新北市板橋區雙十路一段44巷36號","121.477316666667","25.0248083333333","6500100","板橋區"
"220055","827-TW","2018/05/05 18:59:48","新北市板橋區中山路一段158巷33號","121.466713333333","25.0110883333333","6500100","板橋區"
"220067","829-TW","2018/05/05 18:59:43","新北市板橋區三民路二段正泰3巷18號","121.478023333333","25.014305","6500100","板橋區"
"220096","830-TW","2018/05/05 18:59:50","新北市板橋區莒光路76號","121.471525","25.0240983333333","6500100","板橋區"
"220089","833-TW","2018/05/05 18:59:49","新北市板橋區仁化街6號","121.474263333333","25.03154","6500100","板橋區"
"220074","895-R6","2018/05/05 18:59:39","新北市板橋區林園街27號","121.453863333333","25.00966","6500100","板橋區"
"220073","985-R7","2018/05/05 18:59:47","新北市板橋區民權路219號","121.457686666667","25.01525","6500100","板橋區"
"220097","AAC-210","2018/05/05 18:59:41","新北市板橋區文化路一段88號","121.464336666667","25.017445","6500100","板橋區"
"220070","AAC-253","2018/05/05 18:59:33","新北市板橋區四川路一段265號","121.459656666667","25.0022733333333","6500100","板橋區"
