"lineid","car","time","location","longitude","latitude","cityid","cityname"
"234046","148-BY","2018/05/05 19:19:50","新北市永和區永元路33號","121.52218","25.0010016666667","6500400","永和區"
"234007","207-UY","2018/05/05 19:19:32","新北市永和區中山路一段227號","121.50796","25.0078266666667","6500400","永和區"
"234078","298-R6","2018/05/05 19:19:33","新北市永和區福和路7巷14弄2號","121.525455","25.00724","6500400","永和區"
"234038","336-UY","2018/05/05 19:19:33","新北市永和區民樂街70號","121.527403333333","24.9984083333333","6500400","永和區"
"234064","337-UY","2018/05/05 19:19:50","新北市永和區永元路17巷15號","121.521285","25.0007883333333","6500400","永和區"
"234086","338-UY","2018/05/05 19:19:42","新北市永和區永利路80號","121.520496666667","25.0040916666667","6500400","永和區"
"234070","552-UM","2018/05/05 19:19:39","新北市永和區中正路696-1號","121.516658333333","25.0098516666667","6500400","永和區"
"234017","745-BX","2018/05/05 19:19:38","新北市永和區文化路144巷19弄12號","121.51229","25.0166866666667","6500400","永和區"
"234030","746-BX","2018/05/05 19:19:50","新北市永和區厚德街85號","121.52417","24.9988133333333","6500400","永和區"
"234054","KEA-2590","2018/05/05 19:19:47","新北市永和區中興街20號","121.516053333333","25.011775","6500400","永和區"
"234013","KEA-2591","2018/05/05 19:19:43","新北市永和區仁愛路102號","121.512021666667","25.013165","6500400","永和區"
"234061","AAD-866","2018/05/05 19:19:39","新北市永和區秀朗路一段175號","121.517026666667","25.0036583333333","6500400","永和區"
"234042","862-TW","2018/05/05 19:19:42","新北市永和區水源街45巷1號","121.509645","25.0041466666667","6500400","永和區"
"234050","863-TW","2018/05/05 19:19:34","新北市永和區保福路二段88巷27號","121.51189","25.013685","6500400","永和區"
"234026","9371-KE","2018/05/05 19:19:39","新北市永和區安樂路144巷24號","121.515096666667","24.99967","6500400","永和區"
"234011","9373-KE","2018/05/05 19:19:30","新北市永和區永平路218巷23號","121.510015","25.0111516666667","6500400","永和區"
"249001","173-UM","2018/05/05 19:19:32","新北市八里區中山路二段229-1號","121.410773333333","25.157595","6502300","八里區"
"249003","593-UM","2018/05/05 19:19:39","新北市八里區中山路二段500巷10號","121.39851","25.14734","6502300","八里區"
"248020","225-UY","2018/05/05 19:19:41","新北市五股區凌雲路三段57號","121.425221666667","25.1250016666667","6501500","五股區"
"248012","247-BX","2018/05/05 19:19:46","新北市五股區中興路四段48巷16號","121.438688333333","25.08346","6501500","五股區"
"248010","272-BY","2018/05/05 19:19:44","新北市五股區水碓一路23號","121.430678333333","25.071295","6501500","五股區"
"248004","677-BX","2018/05/05 19:19:37","新北市五股區五福路47號","121.433105","25.0896016666667","6501500","五股區"
"248002","678-BX","2018/05/05 19:19:48","新北市五股區凌雲路一段158巷14號","121.447776666667","25.103355","6501500","五股區"
"234023","9380-KE","2018/05/05 19:19:40","新北市永和區竹林路117-1號","121.519958333333","25.0115366666667","6500400","永和區"
"234077","969-R7","2018/05/05 19:19:34","新北市永和區民治街72巷10號","121.518091666667","24.9984483333333","6500400","永和區"
"234074","AAC-211","2018/05/05 19:19:44","新北市永和區竹林路90號","121.519525","25.01233","6500400","永和區"
"234067","AAC-212","2018/05/05 19:19:42","新北市永和區保平路30巷7號","121.511648333333","25.0076133333333","6500400","永和區"
"234003","AAC-295","2018/05/05 19:19:36","新北市永和區永平路179號","121.51035","25.0092416666667","6500400","永和區"
"244013","069-UM","2018/05/05 19:19:42","新北市林口區麗園一街5號","121.376096666667","25.0720683333333","6501700","林口區"
"244019","403-UM","2018/05/05 19:19:43","新北市林口區麗園二街3巷4-3號","121.378946666667","25.0698366666667","6501700","林口區"
"244023","483-VK","2018/05/05 19:19:33","新北市林口區民富街95號","121.370188333333","25.0749716666667","6501700","林口區"
"243013","AAD-798","2018/05/05 19:19:44","新北市泰山區明志路三段145巷7號","121.42543","25.039945","6501600","泰山區"
"243009","297-R6","2018/05/05 19:19:35","新北市泰山區和平街9-2號","121.43414","25.064555","6501600","泰山區"
"243016","380-SR","2018/05/05 19:19:28","新北市泰山區明志路三段153號","121.424963333333","25.0398","6501600","泰山區"
"243015","421-VK","2018/05/05 19:19:46","新北市泰山區公園路19號","121.429451666667","25.0541316666667","6501600","泰山區"
"243011","KEA-2215","2018/05/05 19:19:49","新北市泰山區中央路36巷3號","121.426136666667","25.0426766666667","6501600","泰山區"
"243010","KEA-2216","2018/05/05 19:19:40","新北市泰山區明志路一段482號","121.430578333333","25.0547966666667","6501600","泰山區"
"243012","646-TV","2018/05/05 19:19:36","新北市泰山區仁愛路96號","121.433178333333","25.05522","6501600","泰山區"
"243014","680-BX","2018/05/05 19:19:39","新北市泰山區泰林路二段197號","121.433243333333","25.0612833333333","6501600","泰山區"
"222003","436-BY","2018/05/05 19:19:50","新北市深坑區深南路204號","121.626586666667","25.0160433333333","6501800","深坑區"
"222002","659-BX","2018/05/05 19:19:44","新北市深坑區北深路一段177號","121.632566666667","25.0108866666667","6501800","深坑區"
"231044","001-UM","2018/05/05 19:19:40","新北市新店區中興路三段311號","121.541826666667","24.986045","6500600","新店區"
"231059","046-UY","2018/05/05 19:19:42","新北市新店區安和路二段211號","121.517726666667","24.975425","6500600","新店區"
"231040","047-UY","2018/05/05 19:19:44","新北市新店區三民路31-10號","121.537771666667","24.9704783333333","6500600","新店區"
"231046","107-UY","2018/05/05 19:19:35","新北市新店區華城路18號","121.529168333333","24.95737","6500600","新店區"
"231052","108-UY","2018/05/05 19:19:33","新北市新店區屈尺路23號","121.547395","24.9223016666667","6500600","新店區"
"231048","187-VK","2018/05/05 19:19:35","新北市新店區中興路二段57巷17號","121.545646666667","24.9707533333333","6500600","新店區"
"231054","KEA-2219","2018/05/05 19:19:51","新北市新店區國校路47號","121.537963333333","24.954875","6500600","新店區"
"231042","268-BY","2018/05/05 19:19:34","新北市新店區中興路一段92號","121.539973333333","24.9605166666667","6500600","新店區"
"231051","278-BY","2018/05/05 19:19:38","新北市新店區中央路133巷16號","121.530908333333","24.9733916666667","6500600","新店區"
"231050","AAD-862","2018/05/05 19:19:31","新北市新店區竹林路30巷1號","121.552238333333","24.95132","6500600","新店區"
"231058","3713-VJ","2018/05/05 19:19:43","新北市新店區北新路一段40號","121.540928333333","24.9661183333333","6500600","新店區"
"231066","4716-K9","2018/05/05 19:19:46","新北市新店區安康路三段207巷15號","121.488396666667","24.95083","6500600","新店區"
"231056","4715-K9","2018/05/05 19:19:39","新北市新店區薏仁坑路自強巷6號","121.496643333333","24.9583933333333","6500600","新店區"
"231067","4772-VM","2018/05/05 19:19:45","新北市新店區薏仁坑路自強巷1號","121.496835","24.9580433333333","6500600","新店區"
"231065","512-UM","2018/05/05 19:19:40","新北市新店區安祥路110巷23號","121.473671666667","24.9562933333333","6500600","新店區"
"231049","513-UM","2018/05/05 19:19:47","新北市新店區明德路119號","121.541238333333","24.9798316666667","6500600","新店區"
"231063","616-UM","2018/05/05 19:19:49","新北市新店區達觀路14巷2號","121.50341","24.9414633333333","6500600","新店區"
"231045","617-UM","2018/05/05 19:19:36","新北市新店區北宜路一段308號","121.54727","24.9521833333333","6500600","新店區"
"231041","618-UM","2018/05/05 19:19:28","新北市新店區溪園路245-6號","121.52539","24.9832866666667","6500600","新店區"
"231061","619-UM","2018/05/05 19:19:49","新北市新店區秀山路68號","121.530915","24.961025","6500600","新店區"
"231064","719-UM","2018/05/05 19:19:41","新北市新店區安忠路57巷1-3號","121.51353","24.959625","6500600","新店區"
"231062","720-UM","2018/05/05 19:19:45","新北市新店區莒光路30號","121.52348","24.9591166666667","6500600","新店區"
"231060","897-TW","2018/05/05 19:19:47","新北市新店區安康路二段130-1號","121.512591666667","24.9623433333333","6500600","新店區"
"231043","899-TW","2018/05/05 19:19:30","新北市新店區北新路二段156號","121.542936666667","24.9754933333333","6500600","新店區"
"231055","AKT-0513","2018/05/05 19:19:36","新北市新店區安德街60巷17號","121.51027","24.963095","6500600","新店區"
"241009","060-VK","2018/05/05 19:19:38","新北市三重區溪尾街230巷42-2號","121.486103333333","25.0811466666667","6500200","三重區"
"241031","061-VK","2018/05/05 19:19:39","新北市三重區重新路四段226號","121.485916666667","25.054085","6500200","三重區"
"241017","063-VK","2018/05/05 19:19:49","新北市三重區長壽西街214號","121.492086666667","25.0661","6500200","三重區"
"241026","066-VK","2018/05/05 19:19:41","新北市三重區中正南路216號","121.493853333333","25.0551466666667","6500200","三重區"
"241022","267-UM","2018/05/05 19:19:48","新北市三重區重陽路二段72號","121.487458333333","25.06385","6500200","三重區"
"241007","398-BY","2018/05/05 19:19:41","新北市三重區慈愛街47號","121.485958333333","25.0790816666667","6500200","三重區"
"241035","KEA-2210","2018/05/05 19:19:32","新北市三重區信義西街138號","121.495511666667","25.06436","6500200","三重區"
"241020","478-VK","2018/05/05 19:19:49","新北市三重區大智街234號","121.48973","25.0724883333333","6500200","三重區"
"241030","480-VK","2018/05/05 19:19:43","新北市三重區成功路41巷72號","121.49134","25.0531516666667","6500200","三重區"
"241006","AAD-863","2018/05/05 19:19:44","新北市三重區車路頭街182號","121.483601666667","25.077235","6500200","三重區"
"241025","887-TS","2018/05/05 19:19:45","新北市三重區中正北路406號","121.475331666667","25.0704016666667","6500200","三重區"
"241029","942-UM","2018/05/05 19:19:45","新北市三重區重安街33號","121.491173333333","25.0569383333333","6500200","三重區"
"235064","005-UY","2018/05/05 19:19:50","新北市中和區連城路45號","121.498191666667","25.0017283333333","6500300","中和區"
"235063","006-UY","2018/05/05 19:19:40","新北市中和區連勝街121巷18弄7號","121.494985","24.99434","6500300","中和區"
"235047","031-BX","2018/05/05 19:19:41","新北市中和區和平街54巷8弄1號","121.508948333333","24.99138","6500300","中和區"
"235056","096-UM","2018/05/05 19:19:51","新北市中和區員山路531號","121.479681666667","25.00701","6500300","中和區"
"235040","150-BY","2018/05/05 19:19:33","新北市中和區宜安路119巷16號","121.509785","24.9976583333333","6500300","中和區"
"235058","151-BY","2018/05/05 19:19:48","新北市中和區連城路523巷13弄11號","121.481943333333","24.9938433333333","6500300","中和區"
"235055","183-VK","2018/05/05 19:19:49","新北市中和區德光路32號","121.470576666667","25.0042816666667","6500300","中和區"
"235038","185-VK","2018/05/05 19:19:39","新北市中和區景平路126巷2弄15號","121.519825","24.9923666666667","6500300","中和區"
"235049","186-VK","2018/05/05 19:19:43","新北市中和區景新街243號","121.508293333333","24.9943483333333","6500300","中和區"
"235067","255-BX","2018/05/05 19:19:47","新北市中和區連城路467-3號","121.483855","24.9962066666667","6500300","中和區"
"235044","293-VK","2018/05/05 19:19:50","新北市中和區復興路288號","121.501871666667","24.9902833333333","6500300","中和區"
"235072","301-VK","2018/05/05 19:19:38","新北市中和區景平路668號","121.497243333333","25.0009416666667","6500300","中和區"
"235043","352-BY","2018/05/05 19:19:39","新北市中和區景平路426號","121.507398333333","24.993255","6500300","中和區"
"235068","377-QA","2018/05/05 19:19:35","新北市中和區景平路545巷8號","121.498106666667","24.9991666666667","6500300","中和區"
"235061","378-QA","2018/05/05 19:19:51","新北市中和區員山路220號","121.481231666667","25.000995","6500300","中和區"
"235050","4979-A6","2018/05/05 19:19:31","新北市中和區復興路280巷18弄20號","121.501761666667","24.992275","6500300","中和區"
"235069","4980-A6","2018/05/05 19:19:42","新北市中和區中山路二段136巷35弄1號","121.500966666667","25.0042616666667","6500300","中和區"
"235042","551-UM","2018/05/05 19:19:41","新北市中和區大勇街60巷8號","121.518678333333","24.994655","6500300","中和區"
"235070","558-UM","2018/05/05 19:19:46","新北市中和區連城路72號","121.497433333333","25.0013033333333","6500300","中和區"
"235045","565-BX","2018/05/05 19:19:34","新北市中和區景新街423巷35弄11號","121.513985","24.9901766666667","6500300","中和區"
"235054","640-BX","2018/05/05 19:19:35","新北市中和區國光街107巷2弄25號","121.469685","24.99927","6500300","中和區"
"235060","647-TV","2018/05/05 19:19:44","新北市中和區民有街19號","121.475663333333","25.0053716666667","6500300","中和區"
"235046","733-UM","2018/05/05 19:19:46","新北市中和區忠孝街2巷14弄10號","121.510663333333","24.98136","6500300","中和區"
"235035","783-BX","2018/05/05 19:19:41","新北市中和區中正路637巷52弄3號","121.485258333333","24.9937533333333","6500300","中和區"
"235057","801-TS","2018/05/05 19:19:37","新北市中和區員山路423巷2弄2號","121.480715","25.0033433333333","6500300","中和區"
"235041","802-TS","2018/05/05 19:19:37","新北市中和區中和路302-1號","121.508788333333","24.9999033333333","6500300","中和區"
"235052","805-TS","2018/05/05 19:19:47","新北市中和區華新街143巷15號","121.50675","24.98105","6500300","中和區"
"235048","896-TW","2018/05/05 19:19:39","新北市中和區忠孝街118號","121.512156666667","24.9856566666667","6500300","中和區"
"235053","900-TW","2018/05/05 19:19:46","新北市中和區民德路212號","121.46822","24.998235","6500300","中和區"
"235066","911-UM","2018/05/05 19:19:51","新北市中和區中和路102號","121.50266","24.99971","6500300","中和區"
"235051","157-BY","2018/05/05 19:19:31","新北市中和區和平街9號","121.508988333333","24.9903433333333","6500300","中和區"
"235037","AAC-213","2018/05/05 19:19:42","新北市中和區自立路15巷8號","121.522871666667","24.9959066666667","6500300","中和區"
"235059","AAC-215","2018/05/05 19:19:39","新北市中和區錦和路201號","121.490771666667","24.9905483333333","6500300","中和區"
"220068","013-TV","2018/05/05 19:19:50","新北市板橋區三民路一段1巷53號","121.481015","25.0249016666667","6500100","板橋區"
"220065","072-UY","2018/05/05 19:19:38","新北市板橋區民族路170巷1號","121.467458333333","25.00758","6500100","板橋區"
"220086","073-UY","2018/05/05 19:19:37","新北市板橋區中正路216巷52號","121.457416666667","25.0188683333333","6500100","板橋區"
"220106","075-UY","2018/05/05 19:19:47","新北市板橋區雙十路三段68巷2號","121.470478333333","25.031955","6500100","板橋區"
"220069","AAD-861","2018/05/05 19:19:43","新北市板橋區貴興路49-1號","121.457391666667","25.00314","6500100","板橋區"
"235065","251-BX","2018/05/05 19:19:44","新北市中和區中山路二段2巷3弄1號","121.50489","25.0061783333333","6500300","中和區"
"228003","097-TW","2018/05/05 19:19:38","新北市貢寮區和美里和美街19-2號","121.912776666667","25.082615","6502600","貢寮區"
"228001","212-TW","2018/05/05 19:19:30","新北市貢寮區真理里新港街10號","121.925481666667","25.05436","6502600","貢寮區"
"228002","585-TW","2018/05/05 19:19:40","新北市貢寮區雙玉里田寮洋街21號","121.926363333333","25.02482","6502600","貢寮區"
"224010","AGQ-8101","2018/05/05 19:16:15","新北市瑞芳區金光路372號","121.848853333333","25.1107583333333","6501200","瑞芳區"
"224006","676-BX","2018/05/05 19:19:41","新北市瑞芳區中山路157號","121.802211666667","25.1064216666667","6501200","瑞芳區"
"224008","285-BY","2018/05/05 19:19:38","新北市瑞芳區一坑路70-10號","121.803398333333","25.10817","6501200","瑞芳區"
"224009","273-VK","2018/05/05 19:19:32","新北市瑞芳區洞頂路153號","121.861656666667","25.121435","6501200","瑞芳區"
"224005","271-BY","2018/05/05 19:19:49","新北市瑞芳區員山子路23號","121.821346666667","25.10296","6501200","瑞芳區"
"227010","642-TC","2018/05/05 19:19:30","新北市雙溪區新基里新基北街40號","121.868525","25.03804","6502500","雙溪區"
"227002","400-TW","2018/05/05 19:19:46","新北市雙溪區平林里梅竹蹊66-1號","121.860181666667","25.035825","6502500","雙溪區"
"253006","295-VK","2018/05/05 19:19:37","新北市石門區崁子腳46-1號","121.534146666667","25.288605","6502200","石門區"
"253001","4710-YM","2018/05/05 19:19:40","新北市石門區中山路64-1號","121.567466666667","25.2904183333333","6502200","石門區"
"222001","KEA-2212","2018/05/05 19:19:47","新北市深坑區北深路二段84號","121.6175","25.00349","6501800","深坑區"
"208002","KEA-2872","2018/05/05 19:19:48","新北市金山區環金路376巷2號","121.632013333333","25.22218","6502700","金山區"
"208003","665-BX","2018/05/05 19:19:41","新北市金山區中山路141號","121.639026666667","25.2200466666667","6502700","金山區"
"208001","761-BX","2018/05/05 19:19:45","新北市金山區慈護街31號","121.639513333333","25.2199066666667","6502700","金山區"
"251009","008-UM","2018/05/05 19:19:43","新北市淡水區鼻頭街18-1號","121.446776666667","25.166625","6501000","淡水區"
"251005","010-UM","2018/05/05 19:19:24","新北市淡水區水源街一段31號","121.443313333333","25.1725833333333","6501000","淡水區"
"251001","011-UM","2018/05/05 19:19:52","新北市淡水區民權路92巷35-1號","121.462033333333","25.1268133333333","6501000","淡水區"
"251013","KEA-2871","2018/05/05 19:19:33","新北市淡水區安子內12號","121.481553333333","25.2190533333333","6501000","淡水區"
"251014","180-VK","2018/05/05 19:19:46","新北市淡水區小中寮19-7號","121.484771666667","25.229625","6501000","淡水區"
"251015","182-VK","2018/05/05 19:19:40","新北市淡水區南勢埔32-1號","121.48395","25.1803083333333","6501000","淡水區"
"251010","413-VK","2018/05/05 19:19:50","新北市淡水區沙崙路30號","121.421498333333","25.1815216666667","6501000","淡水區"
"251007","442-VK","2018/05/05 19:19:41","新北市淡水區民生路117巷10號","121.464958333333","25.1391016666667","6501000","淡水區"
"251006","561-UM","2018/05/05 19:19:30","新北市淡水區大信街38號","121.44213","25.177425","6501000","淡水區"
"251016","575-R6","2018/05/05 19:19:47","新北市淡水區淡金路三段350巷18號","121.450626666667","25.2083016666667","6501000","淡水區"
"251003","673-BX","2018/05/05 19:19:31","新北市淡水區中山路151號","121.4405","25.1725716666667","6501000","淡水區"
"207003","550-UM","2018/05/05 19:19:47","新北市萬里區大鵬里萬里加投79-3號","121.647325","25.212355","6502800","萬里區"
"207004","225-TW","2018/05/05 19:19:35","新北市萬里區萬里里瑪鋉路2-1號","121.687603333333","25.1749533333333","6502800","萬里區"
"252002","178-VK","2018/05/05 19:19:49","新北市三芝區淡金路二段18-1號","121.50259","25.2595033333333","6502100","三芝區"
"252001","292-VK","2018/05/05 19:19:38","新北市三芝區長勤街9巷11弄1號","121.501785","25.2546633333333","6502100","三芝區"
"237007","153-BY","2018/05/05 19:19:46","新北市三峽區麻園14-1號","121.362873333333","24.9147083333333","6500900","三峽區"
"237011","572-TV","2018/05/05 19:19:50","新北市三峽區中正路一段344號","121.371203333333","24.9244933333333","6500900","三峽區"
"237009","210-TH","2018/05/05 19:19:37","新北市三峽區信義街2號","121.370806666667","24.936105","6500900","三峽區"
"237013","252-BX","2018/05/05 19:19:44","新北市三峽區光明路75巷23號","121.377468333333","24.928205","6500900","三峽區"
"237012","275-BY","2018/05/05 19:19:28","新北市三峽區三樹路222巷192-1號","121.388628333333","24.942665","6500900","三峽區"
"237008","302-VK","2018/05/05 19:19:32","新北市三峽區永安街87號","121.374831666667","24.9290816666667","6500900","三峽區"
"237014","433-BY","2018/05/05 19:19:33","新北市三峽區中山路277巷15號","121.361713333333","24.9368883333333","6500900","三峽區"
"237006","5529-G3","2018/05/05 19:19:33","新北市三峽區中正路一段336巷15弄2號","121.369968333333","24.9249483333333","6500900","三峽區"
"237005","AKY-6261","2018/05/05 19:19:33","新北市三峽區中山路459巷50-2號","121.356118333333","24.9375883333333","6500900","三峽區"
"236070","105-UM","2018/05/05 19:19:50","新北市土城區學成路76巷6號","121.45152","24.9885566666667","6501300","土城區"
"236079","166-UM","2018/05/05 19:19:46","新北市土城區中央路四段321巷32-1號","121.411696666667","24.9514016666667","6501300","土城區"
"236026","269-VK","2018/05/05 19:19:41","新北市土城區中正路67巷26號","121.444381666667","24.9765883333333","6501300","土城區"
"236014","270-VK","2018/05/05 19:19:44","新北市土城區廣福街5號","121.4573","24.9887466666667","6501300","土城區"
"236021","401-BY","2018/05/05 19:19:42","新北市土城區峰廷街3號","121.46904","24.9873583333333","6501300","土城區"
"236059","912-UM","2018/05/05 19:19:47","新北市土城區中央路二段237號","121.440285","24.972285","6501300","土城區"
"236049","913-UM","2018/05/05 19:19:36","新北市土城區明德路一段398-1號","121.45365","24.9790966666667","6501300","土城區"
"242051","441-UM","2018/05/05 19:19:43","新北市新莊區環河路636-7號","121.437385","25.0114483333333","6500500","新莊區"
"238015","755-BX","2018/05/05 19:19:41","新北市樹林區備內街1巷39-7號","121.412148333333","24.9858466666667","6500700","樹林區"
"238023","601-UM","2018/05/05 19:19:44","新北市樹林區三興路64號","121.393765","25.0146","6500700","樹林區"
"238019","599-UM","2018/05/05 19:19:36","新北市樹林區東榮街28號","121.417588333333","24.9835466666667","6500700","樹林區"
"238018","571-TV","2018/05/05 19:19:49","新北市樹林區中華路106號","121.418486666667","24.9809216666667","6500700","樹林區"
"238024","5061-A6","2018/05/05 19:19:37","新北市樹林區福德街48-12號","121.398766666667","24.9748083333333","6500700","樹林區"
"238022","KEA-2213","2018/05/05 19:19:45","新北市樹林區國凱街66號","121.420736666667","24.97906","6500700","樹林區"
"238021","KEA-2539","2018/05/05 19:19:35","新北市樹林區柑園街二段203巷16號","121.376773333333","24.9511283333333","6500700","樹林區"
"238025","303-VK","2018/05/05 19:19:50","新北市樹林區中山路三段67-5號","121.400573333333","24.97499","6500700","樹林區"
"238017","283-BY","2018/05/05 19:19:44","新北市樹林區光華街12號","121.413381666667","25.0033133333333","6500700","樹林區"
"238014","282-BY","2018/05/05 19:19:33","新北市樹林區千歲街6巷6號","121.425236666667","24.995375","6500700","樹林區"
"238020","268-VK","2018/05/05 19:19:37","新北市樹林區俊英街111巷1-3號","121.424348333333","25.0096533333333","6500700","樹林區"
"238026","172-UY","2018/05/05 19:19:38","新北市樹林區柑園街一段359號","121.388871666667","24.9559916666667","6500700","樹林區"
"238016","169-UY","2018/05/05 19:19:33","新北市樹林區復興路468號","121.413456666667","24.98357","6500700","樹林區"
"239007","AAC-297","2018/05/05 19:18:57","新北市鶯歌區中山路138巷19-1號","121.35173","24.96017","6500800","鶯歌區"
"239006","891-R6","2018/05/05 19:19:43","新北市鶯歌區鶯桃路16號","121.342211666667","24.9516433333333","6500800","鶯歌區"
"239008","527-UM","2018/05/05 19:19:50","新北市鶯歌區大湖路466號","121.33962","24.9722016666667","6500800","鶯歌區"
"239005","526-UM","2018/05/05 19:19:45","新北市鶯歌區中湖街41號","121.349303333333","24.9732","6500800","鶯歌區"
"239001","417-VK","2018/05/05 19:19:34","新北市鶯歌區永智街77號","121.336958333333","24.9534966666667","6500800","鶯歌區"
"239003","360-BY","2018/05/05 19:19:48","新北市鶯歌區建國路218號","121.348816666667","24.953485","6500800","鶯歌區"
"239002","359-BY","2018/05/05 19:19:46","新北市鶯歌區湖山路64巷2號","121.339705","24.976635","6500800","鶯歌區"
"239004","193-VK","2018/05/05 19:19:41","新北市鶯歌區二甲路61號","121.335228333333","24.9332616666667","6500800","鶯歌區"
"221036","130-UY","2018/05/05 19:19:37","新北市汐止區康寧街901號","121.651035","25.0751666666667","6501100","汐止區"
"221010","269-BY","2018/05/05 19:19:32","新北市汐止區康寧街901號","121.651528333333","25.0749616666667","6501100","汐止區"
"221012","278-VK","2018/05/05 19:19:44","新北市汐止區汐萬路一段266號","121.650951666667","25.0738716666667","6501100","汐止區"
"221023","279-VK","2018/05/05 19:19:34","新北市汐止區康寧街901號","121.65101","25.07516","6501100","汐止區"
"221027","281-BY","2018/05/05 19:19:49","新北市汐止區汐萬路一段310號","121.650338333333","25.0748633333333","6501100","汐止區"
"221029","298-VK","2018/05/05 19:19:33","新北市汐止區康寧街901號","121.651788333333","25.0750166666667","6501100","汐止區"
"221031","353-TW","2018/05/05 19:19:36","新北市汐止區康寧街901號","121.650828333333","25.0752433333333","6501100","汐止區"
"221008","129-UY","2018/05/05 19:19:50","新北市汐止區康寧街328號","121.627423333333","25.0674183333333","6501100","汐止區"
"221035","622-UM","2018/05/05 19:19:41","新北市汐止區康寧街901號","121.651518333333","25.0749266666667","6501100","汐止區"
"221025","623-UM","2018/05/05 19:19:51","新北市汐止區康寧街901號","121.651573333333","25.07494","6501100","汐止區"
"221038","646-BX","2018/05/05 19:19:34","新北市汐止區康寧街901號","121.650708333333","25.0752666666667","6501100","汐止區"
"221033","647-BX","2018/05/05 19:19:34","新北市汐止區南勢街2號","121.627153333333","25.0372383333333","6501100","汐止區"
"221002","707-TV","2018/05/05 19:19:34","新北市汐止區大同路一段349-1號","121.639316666667","25.0597666666667","6501100","汐止區"
"220079","145-BY","2018/05/05 19:19:36","新北市板橋區光正街45巷6弄18號","121.460968333333","25.017165","6500100","板橋區"
"220080","200-UY","2018/05/05 19:19:46","新北市板橋區大觀路二段5-1號","121.447153333333","25.0038583333333","6500100","板橋區"
"220082","610-BX","2018/05/05 19:19:43","新北市樹林區中華路1-8號","121.426008333333","24.9845733333333","6500100","板橋區"
"220101","245-BX","2018/05/05 19:19:49","新北市板橋區莊敬路25巷23號","121.474345","25.0269683333333","6500100","板橋區"
"220103","257-TC","2018/05/05 19:19:43","新北市板橋區介壽街20號","121.467615","25.020045","6500100","板橋區"
"220091","267-BY","2018/05/05 19:19:49","新北市板橋區文聖街144號","121.478536666667","25.0278633333333","6500100","板橋區"
"220056","276-BY","2018/05/05 19:19:47","新北市板橋區信義路160號","121.459253333333","24.9915166666667","6500100","板橋區"
"220072","277-BY","2018/05/05 19:19:41","新北市板橋區金門街339-2號","121.429191666667","24.9855933333333","6500100","板橋區"
"220071","283-VK","2018/05/05 19:19:35","新北市板橋區仁愛路73巷12號","121.460995","25.0003283333333","6500100","板橋區"
"220094","285-UM","2018/05/05 19:19:40","新北市板橋區吳鳳路21巷2號","121.466875","25.0312633333333","6500100","板橋區"
"220053","285-VK","2018/05/05 19:19:46","新北市板橋區富山街65號","121.47715","25.021855","6500100","板橋區"
"220083","286-VK","2018/05/05 19:19:48","新北市板橋區龍興街73巷2號","121.443908333333","25.002245","6500100","板橋區"
"220081","287-VK","2018/05/05 19:19:51","新北市板橋區南雅西路一段116號","121.452758333333","25.00648","6500100","板橋區"
"220090","288-VK","2018/05/05 19:19:43","新北市板橋區長江路一段106巷13弄35號","121.461335","25.02984","6500100","板橋區"
"220061","293-UM","2018/05/05 19:19:34","新北市板橋區中山路二段318巷20弄19號","121.480908333333","25.0188583333333","6500100","板橋區"
"220084","296-UM","2018/05/05 19:19:38","新北市板橋區滿平街136巷10弄2號","121.42763","24.9870466666667","6500100","板橋區"
"220075","303-R5","2018/05/05 19:19:44","新北市板橋區僑中一街124巷70-5號","121.449915","25.0165233333333","6500100","板橋區"
"220062","305-R5","2018/05/05 19:19:36","新北市板橋區三民路二段153巷28號","121.480831666667","25.0150683333333","6500100","板橋區"
"220092","307-R5","2018/05/05 19:19:48","新北市板橋區光武街48巷7號","121.467265","25.0267233333333","6500100","板橋區"
"220098","317-R6","2018/05/05 19:19:43","新北市板橋區民有街89巷4號","121.464488333333","25.02752","6500100","板橋區"
"220064","486-VK","2018/05/05 19:19:43","新北市板橋區中山路一段50-5號","121.461058333333","25.0093433333333","6500100","板橋區"
"220088","491-VK","2018/05/05 19:19:36","新北市板橋區雙十路二段4號","121.477163333333","25.025415","6500100","板橋區"
"220035","560-BX","2018/05/05 19:19:41","新北市板橋區中正路433巷11號","121.453665","25.023455","6500100","板橋區"
"220063","609-BX","2018/05/05 19:19:36","新北市板橋區中山路二段268號","121.479231666667","25.0183966666667","6500100","板橋區"
"220057","686-BX","2018/05/05 19:19:40","新北市中和區壽德街9號","121.464966666667","24.995685","6500100","板橋區"
"220077","687-BX","2018/05/05 19:19:44","新北市板橋區僑中二街12巷2號","121.4468","25.0106766666667","6500100","板橋區"
"220093","689-BX","2018/05/05 19:19:39","新北市板橋區文化路一段247號","121.464418333333","25.0179616666667","6500100","板橋區"
"220054","741-BX","2018/05/05 19:19:49","新北市板橋區校前街82號","121.462226666667","25.0034416666667","6500100","板橋區"
"220102","KEA-2699","2018/05/05 19:19:32","新北市板橋區懷德街201巷30號","121.482253333333","25.02957","6500100","板橋區"
"220055","827-TW","2018/05/05 19:19:43","新北市板橋區館前東路156巷28號","121.464231666667","25.006855","6500100","板橋區"
"220067","829-TW","2018/05/05 19:19:29","新北市板橋區長安街138巷3弄37號","121.473986666667","25.0096483333333","6500100","板橋區"
"220096","830-TW","2018/05/05 19:19:50","新北市板橋區大同街53號","121.478621666667","25.0274683333333","6500100","板橋區"
"220089","833-TW","2018/05/05 19:19:49","新北市板橋區文化路一段268號","121.46698","25.020925","6500100","板橋區"
"220074","895-R6","2018/05/05 19:19:40","新北市板橋區中正路自強新村78號","121.45475","25.0127683333333","6500100","板橋區"
"220073","985-R7","2018/05/05 19:19:47","新北市板橋區新生街16號","121.455565","25.02109","6500100","板橋區"
"220097","AAC-210","2018/05/05 19:19:41","新北市板橋區幸福路32巷3弄11號","121.460918333333","25.0205566666667","6500100","板橋區"
"220070","AAC-253","2018/05/05 19:19:33","新北市板橋區實踐路132號","121.46438","25.002575","6500100","板橋區"
