"lineid","car","time","location","longitude","latitude","cityid","cityname"
"234046","148-BY","2018/05/05 19:39:45","新北市永和區永利路125號","121.524103333333","25.0030183333333","6500400","永和區"
"234007","207-UY","2018/05/05 19:39:32","新北市中和區中和路472號","121.512353333333","25.0040983333333","6500400","永和區"
"234078","298-R6","2018/05/05 19:39:49","新北市永和區林森路44巷6弄8號","121.52561","25.00505","6500400","永和區"
"234038","336-UY","2018/05/05 19:39:33","新北市永和區民樂街29號","121.52769","25.0015133333333","6500400","永和區"
"234064","337-UY","2018/05/05 19:39:29","新北市永和區秀朗路二段24巷28弄1號","121.519761666667","25.001595","6500400","永和區"
"234086","338-UY","2018/05/05 19:39:30","新北市永和區永亨路127號","121.524535","25.0041383333333","6500400","永和區"
"234070","552-UM","2018/05/05 19:39:35","新北市永和區永和路二段218號","121.51569","25.0142066666667","6500400","永和區"
"234017","745-BX","2018/05/05 19:39:38","新北市永和區永和路二段425巷64號","121.51363","25.01721","6500400","永和區"
"234030","746-BX","2018/05/05 19:39:48","新北市永和區四維街103巷4號","121.523823333333","24.9977133333333","6500400","永和區"
"234054","KEA-2590","2018/05/05 19:39:47","新北市永和區竹林路39巷3號","121.518111666667","25.0143316666667","6500400","永和區"
"234013","KEA-2591","2018/05/05 19:39:43","新北市永和區永平路220號","121.509085","25.01057","6500400","永和區"
"234061","AAD-866","2018/05/05 19:39:39","新北市永和區中正路456號","121.517425","25.0029183333333","6500400","永和區"
"234042","862-TW","2018/05/05 19:39:42","新北市永和區永貞路261號","121.51201","25.0046883333333","6500400","永和區"
"234050","863-TW","2018/05/05 19:39:34","新北市永和區保安路33號","121.50986","25.0162716666667","6500400","永和區"
"234026","9371-KE","2018/05/05 19:39:39","新北市永和區中和路501巷10號","121.51051","25.0026816666667","6500400","永和區"
"234011","9373-KE","2018/05/05 19:39:30","新北市永和區保生路55-1號","121.50453","25.0108716666667","6500400","永和區"
"249004","303-UY","2018/05/05 19:39:35","新北市八里區中山路一段268巷5弄11號","121.414248333333","25.1603183333333","6502300","八里區"
"249003","593-UM","2018/05/05 19:39:39","新北市八里區中華路二段341-10號","121.399351666667","25.14491","6502300","八里區"
"248016","026-BX","2018/05/05 19:39:34","新北市五股區成泰路四段22巷23號","121.454631666667","25.1079533333333","6501500","五股區"
"248008","095-VK","2018/05/05 19:39:42","新北市五股區四維路118巷12號","121.469148333333","25.0742316666667","6501500","五股區"
"248020","225-UY","2018/05/05 19:39:41","新北市五股區中直路39號","121.419555","25.1143866666667","6501500","五股區"
"248012","247-BX","2018/05/05 19:39:47","新北市五股區成泰路一段241巷2號","121.436563333333","25.0808816666667","6501500","五股區"
"248014","261-SL","2018/05/05 19:39:33","新北市五股區五福路52巷3弄10號","121.433341666667","25.0901766666667","6501500","五股區"
"248010","272-BY","2018/05/05 19:39:44","新北市五股區自強路148號","121.432233333333","25.0705166666667","6501500","五股區"
"248004","677-BX","2018/05/05 19:39:47","新北市五股區工商路87號","121.437783333333","25.0852566666667","6501500","五股區"
"248002","678-BX","2018/05/05 19:39:48","新北市五股區成泰路三段577巷49號","121.450648333333","25.1031966666667","6501500","五股區"
"234077","969-R7","2018/05/05 19:39:40","新北市永和區民權路56號","121.520005","24.99825","6500400","永和區"
"234074","AAC-211","2018/05/05 19:39:44","新北市永和區竹林路222號","121.52081","25.008055","6500400","永和區"
"234067","AAC-212","2018/05/05 19:39:42","新北市永和區永貞路361巷2號","121.508886666667","25.0077816666667","6500400","永和區"
"234003","AAC-295","2018/05/05 19:39:36","新北市永和區福和路346號","121.514925","25.0073133333333","6500400","永和區"
"244023","483-VK","2018/05/05 19:39:33","新北市林口區文化北路二段495號","121.371643333333","25.0839133333333","6501700","林口區"
"243013","AAD-798","2018/05/05 19:36:16","新北市泰山區應化街13號","121.423833333333","25.04371","6501600","泰山區"
"243009","297-R6","2018/05/05 19:39:35","新北市泰山區美寧街60號","121.431006666667","25.064675","6501600","泰山區"
"243016","380-SR","2018/05/05 19:39:48","新北市新莊區新北大道七段36號","121.41969","25.0323566666667","6501600","泰山區"
"243015","421-VK","2018/05/05 19:39:46","新北市泰山區文程路25號","121.42876","25.0493433333333","6501600","泰山區"
"243011","KEA-2215","2018/05/05 19:39:51","新北市泰山區貴子路67巷5號","121.430695","25.0398783333333","6501600","泰山區"
"243010","KEA-2216","2018/05/05 19:39:40","新北市泰山區明志路二段51號","121.42935","25.0528516666667","6501600","泰山區"
"243012","646-TV","2018/05/05 19:39:46","新北市泰山區全興路243號","121.435706666667","25.0533616666667","6501600","泰山區"
"243014","680-BX","2018/05/05 19:39:39","新北市泰山區仁愛路66號","121.432306666667","25.055045","6501600","泰山區"
"222003","436-BY","2018/05/05 19:32:23","新北市深坑區深南路51-1號","121.621121666667","25.0098866666667","6501800","深坑區"
"222002","659-BX","2018/05/05 19:39:44","新北市深坑區北深路一段177號","121.632513333333","25.0108683333333","6501800","深坑區"
"231044","001-UM","2018/05/05 19:39:40","新北市新店區北新路三段115號","121.541341666667","24.9823633333333","6500600","新店區"
"231059","046-UY","2018/05/05 19:39:35","新北市新店區安和路三段83號","121.517821666667","24.9838116666667","6500600","新店區"
"231040","047-UY","2018/05/05 19:39:44","新北市新店區北新路一段96巷23號","121.542943333333","24.9688583333333","6500600","新店區"
"231046","107-UY","2018/05/05 19:39:35","新北市新店區平等街48巷38號","121.534725","24.9734","6500600","新店區"
"231052","108-UY","2018/05/05 19:39:37","新北市新店區新烏路三段86號","121.55367","24.9039","6500600","新店區"
"231048","187-VK","2018/05/05 19:39:35","新北市新店區五峰路63巷36號","121.546746666667","24.9697133333333","6500600","新店區"
"231054","KEA-2219","2018/05/05 19:39:51","新北市新店區文中路45號","121.539595","24.956595","6500600","新店區"
"231057","256-BX","2018/05/05 19:39:44","新北市新店區橘園一路11號","121.548006666667","24.9340183333333","6500600","新店區"
"231042","268-BY","2018/05/05 19:39:34","新北市新店區中興路一段216號","121.543946666667","24.9657383333333","6500600","新店區"
"231051","278-BY","2018/05/05 19:39:38","新北市新店區中央五街20號","121.529326666667","24.9743766666667","6500600","新店區"
"231050","AAD-862","2018/05/05 19:39:31","新北市新店區秀水路50號","121.555481666667","24.9565216666667","6500600","新店區"
"231058","3713-VJ","2018/05/05 19:39:43","新北市新店區中正路104號","121.543221666667","24.970505","6500600","新店區"
"231066","4716-K9","2018/05/05 19:39:46","新北市新店區安康路二段380號","121.500475","24.9575916666667","6500600","新店區"
"231056","4715-K9","2018/05/05 19:39:39","新北市新店區中正路470號","121.533896666667","24.9807366666667","6500600","新店區"
"231067","4772-VM","2018/05/05 19:39:45","新北市新店區精忠路10-1號","121.532703333333","24.95903","6500600","新店區"
"231065","512-UM","2018/05/05 19:39:40","新北市新店區安祥路109巷61號","121.477246666667","24.9599933333333","6500600","新店區"
"231049","513-UM","2018/05/05 19:39:47","新北市新店區大豐路73號","121.539056666667","24.9794466666667","6500600","新店區"
"231063","616-UM","2018/05/05 19:39:37","新北市新店區達觀路6號","121.505523333333","24.9423466666667","6500600","新店區"
"231045","617-UM","2018/05/05 19:39:36","新北市新店區北宜路二段291號","121.55555","24.95366","6500600","新店區"
"231041","618-UM","2018/05/05 19:39:48","新北市新店區中正路500號","121.534193333333","24.9820766666667","6500600","新店區"
"231061","619-UM","2018/05/05 19:39:30","新北市新店區安民街40號","121.515865","24.9653","6500600","新店區"
"231064","719-UM","2018/05/05 19:39:34","新北市新店區安和路一段53號","121.517566666667","24.9659716666667","6500600","新店區"
"231062","720-UM","2018/05/05 19:39:40","新北市新店區太平路8號","121.53433","24.9579616666667","6500600","新店區"
"231060","897-TW","2018/05/05 19:39:47","新北市新店區安康路二段208號","121.510133333333","24.9595416666667","6500600","新店區"
"231043","899-TW","2018/05/05 19:39:50","新北市新店區北新路二段4號","121.542813333333","24.9710016666667","6500600","新店區"
"231055","AKT-0513","2018/05/05 19:39:36","新北市新店區中華路83巷67號","121.538276666667","24.9671316666667","6500600","新店區"
"241011","013-R5","2018/05/05 19:39:35","新北市三重區秀江街213號","121.497435","25.0716133333333","6500200","三重區"
"241028","022-UY","2018/05/05 19:39:39","新北市三重區中正南路196號","121.493893333333","25.0560466666667","6500200","三重區"
"241008","059-VK","2018/05/05 19:39:42","新北市三重區永福街125巷2號","121.478866666667","25.0770666666667","6500200","三重區"
"241009","060-VK","2018/05/05 19:39:38","新北市三重區三和路四段404號","121.48094","25.079595","6500200","三重區"
"241031","061-VK","2018/05/05 19:39:39","新北市三重區重新路四段248號","121.48608","25.0533833333333","6500200","三重區"
"241015","062-VK","2018/05/05 19:39:43","新北市三重區福德北路34號","121.502083333333","25.06524","6500200","三重區"
"241017","063-VK","2018/05/05 19:39:49","新北市三重區大同北路182號","121.491446666667","25.0657716666667","6500200","三重區"
"241026","066-VK","2018/05/05 19:39:41","新北市三重區光興街43號","121.49945","25.060275","6500200","三重區"
"241022","267-UM","2018/05/05 19:39:38","新北市三重區重陽路二段72號","121.48721","25.0642","6500200","三重區"
"241013","270-UM","2018/05/05 19:39:46","新北市三重區仁賢街7號","121.495901666667","25.074635","6500200","三重區"
"241007","398-BY","2018/05/05 19:39:41","新北市三重區三和路四段125巷74號","121.487258333333","25.07855","6500200","三重區"
"241035","KEA-2210","2018/05/05 19:39:32","新北市三重區正義北路68號","121.497191666667","25.0644983333333","6500200","三重區"
"241020","478-VK","2018/05/05 19:39:49","新北市三重區自強路三段43巷6號","121.487188333333","25.0728433333333","6500200","三重區"
"241030","480-VK","2018/05/05 19:39:43","新北市三重區新興路7號","121.492683333333","25.0531466666667","6500200","三重區"
"241014","543-UM","2018/05/05 19:39:36","新北市三重區河邊北街82號","121.504171666667","25.068955","6500200","三重區"
"241023","545-UM","2018/05/05 19:39:42","新北市三重區忠孝路三段99巷15號","121.479586666667","25.0642783333333","6500200","三重區"
"241001","547-UM","2018/05/05 19:39:49","新北市三重區仁愛街315巷27號","121.493843333333","25.0799883333333","6500200","三重區"
"241019","KEA-2593","2018/05/05 19:39:33","新北市三重區六張街194巷1弄18號","121.488155","25.0681516666667","6500200","三重區"
"241006","AAD-863","2018/05/05 19:39:44","新北市三重區永福街297號","121.48381","25.0745733333333","6500200","三重區"
"241025","887-TS","2018/05/05 19:39:44","新北市三重區頂崁街141號","121.477866666667","25.064985","6500200","三重區"
"241012","941-UM","2018/05/05 19:39:47","新北市三重區河邊北街256巷27號","121.500706666667","25.0760133333333","6500200","三重區"
"241029","942-UM","2018/05/05 19:39:45","新北市三重區重安街102號","121.492991666667","25.055935","6500200","三重區"
"235064","005-UY","2018/05/05 19:39:30","新北市中和區南山路127巷32弄1號","121.504108333333","24.9977","6500300","中和區"
"235063","006-UY","2018/05/05 19:39:37","新北市中和區連城路176號","121.493155","24.9969866666667","6500300","中和區"
"235047","031-BX","2018/05/05 19:39:41","新北市中和區南山路283巷12號","121.504608333333","24.9925733333333","6500300","中和區"
"235056","096-UM","2018/05/05 19:39:51","新北市中和區員山路581巷31弄22號","121.476666666667","25.0103983333333","6500300","中和區"
"235040","150-BY","2018/05/05 19:39:33","新北市中和區安和路43號","121.509628333333","24.99478","6500300","中和區"
"235058","151-BY","2018/05/05 19:39:48","新北市中和區連城路328號","121.483273333333","24.9959","6500300","中和區"
"235055","183-VK","2018/05/05 19:39:29","新北市中和區中山路三段209號","121.471948333333","25.0063033333333","6500300","中和區"
"235038","185-VK","2018/05/05 19:39:39","新北市中和區大智街55巷30弄7號","121.521105","24.9931183333333","6500300","中和區"
"235049","186-VK","2018/05/05 19:39:43","新北市中和區景新街212號","121.506986666667","24.9952283333333","6500300","中和區"
"235067","255-BX","2018/05/05 19:39:47","新北市中和區連城路340巷14弄2號","121.483358333333","24.9972616666667","6500300","中和區"
"235044","293-VK","2018/05/05 19:39:50","新北市中和區南山路290號","121.507873333333","24.9874116666667","6500300","中和區"
"235072","301-VK","2018/05/05 19:39:38","新北市中和區連城路265巷12弄2號","121.491711666667","24.9952166666667","6500300","中和區"
"235043","352-BY","2018/05/05 19:39:39","新北市中和區興南路一段25號","121.511308333333","24.990715","6500300","中和區"
"235068","377-QA","2018/05/05 19:39:35","新北市中和區廟美街8號","121.501031666667","25.00152","6500300","中和區"
"235061","378-QA","2018/05/05 19:39:31","新北市中和區民安街2巷35弄1號","121.479851666667","25.0015183333333","6500300","中和區"
"235050","4979-A6","2018/05/05 19:39:31","新北市中和區員山路36巷16-3號","121.485011666667","24.9915183333333","6500300","中和區"
"235042","551-UM","2018/05/05 19:39:41","新北市中和區中和路262巷33號","121.509536666667","24.9994466666667","6500300","中和區"
"235070","558-UM","2018/05/05 19:39:46","新北市中和區景平路579號","121.497731666667","25.000225","6500300","中和區"
"235045","565-BX","2018/05/05 19:39:34","新北市中和區景新街561號","121.515588333333","24.9863833333333","6500300","中和區"
"235054","640-BX","2018/05/05 19:39:35","新北市中和區國光街107巷2弄32號","121.469245","24.999015","6500300","中和區"
"235060","647-TV","2018/05/05 19:39:44","新北市中和區中山路二段523巷41號","121.482195","25.0032166666667","6500300","中和區"
"235046","733-UM","2018/05/05 19:39:46","新北市中和區景新街496巷11號","121.513488333333","24.9867066666667","6500300","中和區"
"235035","783-BX","2018/05/05 19:39:41","新北市中和區新生街114巷1號","121.483383333333","25.0023666666667","6500300","中和區"
"235057","801-TS","2018/05/05 19:39:33","新北市中和區員山路295號","121.48122","24.9999733333333","6500300","中和區"
"235041","802-TS","2018/05/05 19:39:37","新北市永和區中和路603號","121.512518333333","25.0043716666667","6500300","中和區"
"235052","805-TS","2018/05/05 19:39:47","新北市中和區華新街206巷20號","121.506173333333","24.9827833333333","6500300","中和區"
"235048","896-TW","2018/05/05 19:39:39","新北市中和區忠孝街1巷2-1號","121.509106666667","24.9830216666667","6500300","中和區"
"235053","900-TW","2018/05/05 19:39:46","新北市中和區國光街215巷6弄2號","121.466373333333","25.0016783333333","6500300","中和區"
"235066","911-UM","2018/05/05 19:39:51","新北市中和區景新街117號","121.505638333333","24.9975633333333","6500300","中和區"
"235051","157-BY","2018/05/05 19:39:31","新北市中和區板南路132號","121.502403333333","24.99255","6500300","中和區"
"235037","AAC-213","2018/05/05 19:39:42","新北市中和區成功路9號","121.526343333333","24.9939983333333","6500300","中和區"
"235059","AAC-215","2018/05/05 19:39:39","新北市中和區圓通路282號","121.491536666667","24.99061","6500300","中和區"
"220068","013-TV","2018/05/05 19:39:44","新北市板橋區中山路二段505巷9號","121.482523333333","25.0213816666667","6500100","板橋區"
"220065","072-UY","2018/05/05 19:39:38","新北市板橋區國泰街39巷3弄4號","121.468603333333","25.0063283333333","6500100","板橋區"
"220086","073-UY","2018/05/05 19:39:37","新北市板橋區中正路166號","121.45657","25.0170133333333","6500100","板橋區"
"220106","075-UY","2018/05/05 19:39:47","新北市板橋區文化路二段446號","121.474585","25.032325","6500100","板橋區"
"220069","AAD-861","2018/05/05 19:39:48","新北市板橋區南雅南路二段96號","121.453726666667","25.0011966666667","6500100","板橋區"
"247004","337-TH","2018/05/05 19:39:37","新北市蘆洲區長安街98巷20號","121.463033333333","25.081755","6501400","蘆洲區"
"247008","056-VK","2018/05/05 19:39:50","新北市蘆洲區中山一路135巷6弄28號","121.474881666667","25.0814383333333","6501400","蘆洲區"
"226004","312-R5","2018/05/05 19:38:47","新北市平溪區十分里十分街84號","121.77669","25.0421366666667","6502400","平溪區"
"235065","251-BX","2018/05/05 19:39:44","新北市中和區永和路1-5號","121.499525","25.0033333333333","6500300","中和區"
"228003","097-TW","2018/05/05 19:38:38","新北市貢寮區真理里美艷山街53-2號","121.923226666667","25.0692016666667","6502600","貢寮區"
"228001","212-TW","2018/05/05 19:39:50","新北市貢寮區真理里延平街61號","121.924555","25.05567","6502600","貢寮區"
"224010","AGQ-8101","2018/05/05 19:39:35","新北市瑞芳區基山街167號","121.843375","25.1081283333333","6501200","瑞芳區"
"224002","639-TC","2018/05/05 19:39:38","新北市瑞芳區三爪子坑路13巷211號","121.815938333333","25.105955","6501200","瑞芳區"
"227010","642-TC","2018/05/05 19:39:50","新北市雙溪區新基里新基北街19巷14號","121.867166666667","25.038455","6502500","雙溪區"
"227002","400-TW","2018/05/05 19:39:46","新北市雙溪區雙溪里內挖路47號","121.863233333333","25.0367783333333","6502500","雙溪區"
"222001","KEA-2212","2018/05/05 19:39:47","新北市深坑區北深路二段204號","121.61287","25.0015166666667","6501800","深坑區"
"208002","KEA-2872","2018/05/05 19:39:48","新北市金山區中正路39號","121.635008333333","25.2220483333333","6502700","金山區"
"208003","665-BX","2018/05/05 19:39:40","新北市金山區中山路217號","121.637681666667","25.2215683333333","6502700","金山區"
"208001","761-BX","2018/05/05 19:39:45","新北市金山區六股里下六股35-1號","121.61979","25.22151","6502700","金山區"
"251009","008-UM","2018/05/05 19:39:43","新北市淡水區中山北路一段186巷10號","121.445366666667","25.1788583333333","6501000","淡水區"
"251005","010-UM","2018/05/05 19:39:44","新北市淡水區原德路116巷1號","121.443731666667","25.1741716666667","6501000","淡水區"
"251001","011-UM","2018/05/05 19:39:51","新北市淡水區民權路59號","121.459726666667","25.1388233333333","6501000","淡水區"
"251013","KEA-2871","2018/05/05 19:39:33","新北市淡水區店子後9號","121.460325","25.2182633333333","6501000","淡水區"
"251014","180-VK","2018/05/05 19:39:45","新北市淡水區北勢子14號","121.476203333333","25.2306716666667","6501000","淡水區"
"251008","181-VK","2018/05/05 19:39:38","新北市淡水區中正路一段8巷1弄11號","121.428118333333","25.1757016666667","6501000","淡水區"
"251015","182-VK","2018/05/05 19:39:40","新北市淡水區北新路三段82號","121.485596666667","25.1879233333333","6501000","淡水區"
"251010","413-VK","2018/05/05 19:39:30","新北市淡水區新市五路二段75號","121.431575","25.198805","6501000","淡水區"
"251012","441-VK","2018/05/05 19:39:48","新北市淡水區埤島6-10號","121.446033333333","25.1939433333333","6501000","淡水區"
"251007","442-VK","2018/05/05 19:39:41","新北市淡水區中正東路一段111巷7號","121.454311666667","25.160365","6501000","淡水區"
"251006","561-UM","2018/05/05 19:39:50","新北市淡水區中山北路一段205號","121.4443","25.1788266666667","6501000","淡水區"
"251016","575-R6","2018/05/05 19:39:47","新北市淡水區下圭柔山119-51號","121.45088","25.2084516666667","6501000","淡水區"
"251011","650-BX","2018/05/05 19:39:47","新北市淡水區淡金路16巷60弄31號","121.459551666667","25.1596566666667","6501000","淡水區"
"207003","550-UM","2018/05/05 19:39:47","新北市萬里區大鵬里下社9-3號","121.647336666667","25.2172166666667","6502800","萬里區"
"207004","225-TW","2018/05/05 19:39:35","新北市萬里區萬里里瑪鋉路21號","121.68725","25.1753833333333","6502800","萬里區"
"252002","178-VK","2018/05/05 19:39:29","新北市三芝區中正路一段18巷22號","121.50375","25.2591683333333","6502100","三芝區"
"252001","292-VK","2018/05/05 19:39:38","新北市三芝區公正街9號","121.499725","25.2575733333333","6502100","三芝區"
"237007","153-BY","2018/05/05 19:39:46","新北市三峽區二鬮路136巷20弄9號","121.356545","24.9098766666667","6500900","三峽區"
"237009","210-TH","2018/05/05 19:39:39","新北市三峽區中園街117號","121.367618333333","24.9241766666667","6500900","三峽區"
"237013","252-BX","2018/05/05 19:39:44","新北市三峽區介壽路一段422號","121.38486","24.9314166666667","6500900","三峽區"
"237012","275-BY","2018/05/05 19:39:48","新北市三峽區光明路39號","121.373845","24.93066","6500900","三峽區"
"237008","302-VK","2018/05/05 19:39:52","新北市三峽區中華路43巷5號","121.373035","24.93087","6500900","三峽區"
"237014","433-BY","2018/05/05 19:39:33","新北市三峽區嘉添8號","121.368286666667","24.9117766666667","6500900","三峽區"
"237006","5529-G3","2018/05/05 19:39:33","新北市三峽區中正路一段330-10號","121.369918333333","24.92488","6500900","三峽區"
"237005","AKY-6261","2018/05/05 19:39:33","新北市三峽區中山路126號","121.365468333333","24.9359816666667","6500900","三峽區"
"236070","105-UM","2018/05/05 19:39:30","新北市土城區金城路一段189號","121.445983333333","24.9748166666667","6501300","土城區"
"236042","107-UM","2018/05/05 19:39:46","新北市土城區學士路12巷2號","121.453675","24.9830783333333","6501300","土城區"
"236079","166-UM","2018/05/05 19:39:46","新北市土城區中州路52巷2弄22號","121.412543333333","24.957985","6501300","土城區"
"236030","253-BX","2018/05/05 19:39:45","新北市土城區福祥街97號","121.441388333333","24.981445","6501300","土城區"
"236026","269-VK","2018/05/05 19:39:41","新北市土城區中央路二段61巷26號","121.443311666667","24.9787833333333","6501300","土城區"
"236038","271-VK","2018/05/05 19:39:32","新北市土城區青雲路259號","121.459248333333","24.9808166666667","6501300","土城區"
"236021","401-BY","2018/05/05 19:39:42","新北市土城區峰廷街3號","121.469083333333","24.9873416666667","6501300","土城區"
"236049","913-UM","2018/05/05 19:39:47","新北市土城區延吉街331號","121.465236666667","24.9840633333333","6501300","土城區"
"236063","915-UM","2018/05/05 19:39:43","新北市土城區延平街67號","121.467663333333","24.9928333333333","6501300","土城區"
"236055","AAC-216","2018/05/05 19:39:44","新北市土城區學府路一段122-2號","121.455431666667","24.987485","6501300","土城區"
"242029","612-BX","2018/05/05 19:39:46","新北市新莊區新泰路357巷3弄57號","121.442231666667","25.0393166666667","6500500","新莊區"
"242007","413-TV","2018/05/05 19:39:49","新北市泰山區磚雅厝3號","121.442195","25.0417016666667","6500500","新莊區"
"242023","362-BY","2018/05/05 19:39:49","新北市新莊區中港路264號","121.45353","25.043765","6500500","新莊區"
"242031","135-UY","2018/05/05 19:39:46","新北市新莊區新泰路208號","121.446795","25.0386416666667","6500500","新莊區"
"242048","172-VK","2018/05/05 19:39:31","新北市新莊區民安路37巷6號","121.423978333333","25.0267766666667","6500500","新莊區"
"242011","173-VK","2018/05/05 19:39:50","新北市新莊區新泰路255巷83號","121.442065","25.03887","6500500","新莊區"
"242004","176-VK","2018/05/05 19:39:41","新北市新莊區化成路29巷84號","121.46203","25.04407","6500500","新莊區"
"242019","350-TH","2018/05/05 19:39:43","新北市新莊區三和路12-21號","121.442023333333","25.03865","6500500","新莊區"
"242013","351-TH","2018/05/05 19:39:29","新北市新莊區中誠街121巷4號","121.449353333333","25.047295","6500500","新莊區"
"238015","755-BX","2018/05/05 19:39:41","新北市樹林區日新街83號","121.421723333333","24.9903916666667","6500700","樹林區"
"238023","601-UM","2018/05/05 19:39:44","新北市樹林區三福街114號","121.406485","25.0163416666667","6500700","樹林區"
"238019","599-UM","2018/05/05 19:39:36","新北市樹林區八德街35號","121.41853","24.98364","6500700","樹林區"
"238024","5061-A6","2018/05/05 19:39:42","新北市樹林區育德街40號","121.390095","24.969075","6500700","樹林區"
"238022","KEA-2213","2018/05/05 19:39:45","新北市樹林區國凱街72巷4號","121.420943333333","24.97884","6500700","樹林區"
"238021","KEA-2539","2018/05/05 19:39:35","新北市樹林區佳園路三段147號","121.385751666667","24.9493683333333","6500700","樹林區"
"238025","303-VK","2018/05/05 19:39:50","新北市樹林區中山路一段139號","121.422513333333","24.989575","6500700","樹林區"
"238014","282-BY","2018/05/05 19:39:47","新北市樹林區千歲街70巷1弄2號","121.426821666667","24.997085","6500700","樹林區"
"239007","AAC-297","2018/05/05 19:37:37","新北市鶯歌區大湖路127號","121.342673333333","24.9643366666667","6500800","鶯歌區"
"239006","891-R6","2018/05/05 19:39:45","新北市鶯歌區重慶街6-1號","121.351976666667","24.9526916666667","6500800","鶯歌區"
"239001","417-VK","2018/05/05 19:39:34","新北市鶯歌區鶯桃路21號","121.343671666667","24.9503816666667","6500800","鶯歌區"
"239002","359-BY","2018/05/05 19:39:46","新北市鶯歌區大湖路93號","121.342461666667","24.9633066666667","6500800","鶯歌區"
"221036","130-UY","2018/05/05 19:39:36","新北市汐止區康寧街901號","121.651041666667","25.0751766666667","6501100","汐止區"
"221010","269-BY","2018/05/05 19:39:32","新北市汐止區汐萬路一段355-1號","121.649996666667","25.0774233333333","6501100","汐止區"
"221012","278-VK","2018/05/05 19:39:44","新北市汐止區大同路三段394號","121.68161","25.0716833333333","6501100","汐止區"
"221023","279-VK","2018/05/05 19:39:34","新北市汐止區中興路201號","121.629245","25.0684183333333","6501100","汐止區"
"221032","280-BY","2018/05/05 19:39:42","新北市汐止區汐萬路一段266號","121.651135","25.0736883333333","6501100","汐止區"
"221027","281-BY","2018/05/05 19:39:49","新北市汐止區忠孝東路9號","121.658206666667","25.0660016666667","6501100","汐止區"
"221029","298-VK","2018/05/05 19:39:33","新北市汐止區康寧街901號","121.651448333333","25.075045","6501100","汐止區"
"221021","299-VK","2018/05/05 19:39:44","新北市汐止區南興路6巷2號","121.651696666667","25.063295","6501100","汐止區"
"221031","353-TW","2018/05/05 19:39:36","新北市汐止區康寧街901號","121.650818333333","25.0752416666667","6501100","汐止區"
"221008","129-UY","2018/05/05 19:39:50","新北市汐止區康寧街61巷33號","121.619626666667","25.06757","6501100","汐止區"
"221035","622-UM","2018/05/05 19:39:41","新北市汐止區康寧街901號","121.651463333333","25.0748733333333","6501100","汐止區"
"221025","623-UM","2018/05/05 19:39:35","新北市汐止區福安街20巷8號","121.662348333333","25.06486","6501100","汐止區"
"221038","646-BX","2018/05/05 19:39:46","新北市汐止區忠孝東路239號","121.66272","25.0673216666667","6501100","汐止區"
"221033","647-BX","2018/05/05 19:39:34","新北市汐止區南勢街1巷4號","121.62691","25.03758","6501100","汐止區"
"221002","707-TV","2018/05/05 19:39:34","新北市汐止區大同路一段219巷14號","121.633403333333","25.0582483333333","6501100","汐止區"
"220079","145-BY","2018/05/05 19:39:36","新北市板橋區建國街77號","121.45932","25.017345","6500100","板橋區"
"220080","200-UY","2018/05/05 19:39:46","新北市板橋區大觀路二段153巷46弄16號","121.449226666667","24.999835","6500100","板橋區"
"220082","610-BX","2018/05/05 19:39:43","新北市板橋區大觀路三段160巷36號","121.429993333333","24.9940016666667","6500100","板橋區"
"220101","245-BX","2018/05/05 19:39:49","新北市板橋區萬板路38號","121.472155","25.0226583333333","6500100","板橋區"
"220103","257-TC","2018/05/05 19:39:42","新北市板橋區文化路一段286巷10-2號","121.467878333333","25.0213733333333","6500100","板橋區"
"220091","267-BY","2018/05/05 19:39:33","新北市板橋區懷德街133號","121.479243333333","25.030475","6500100","板橋區"
"220056","276-BY","2018/05/05 19:39:47","新北市板橋區四川路二段47巷3弄1號","121.454218333333","24.9947516666667","6500100","板橋區"
"220072","277-BY","2018/05/05 19:39:41","新北市板橋區金門街237號","121.432253333333","24.989395","6500100","板橋區"
"220071","283-VK","2018/05/05 19:39:35","新北市板橋區信義路165號","121.458738333333","24.9922366666667","6500100","板橋區"
"220094","285-UM","2018/05/05 19:39:52","新北市板橋區銘傳街41-6號","121.469335","25.03152","6500100","板橋區"
"220053","285-VK","2018/05/05 19:39:46","新北市板橋區民享街89號","121.476901666667","25.0158733333333","6500100","板橋區"
"220083","286-VK","2018/05/05 19:39:38","新北市板橋區龍興街63巷28號","121.442448333333","25.001605","6500100","板橋區"
"220081","287-VK","2018/05/05 19:39:42","新北市板橋區大觀路一段75巷8號","121.447481666667","25.0044283333333","6500100","板橋區"
"220090","288-VK","2018/05/05 19:39:43","新北市板橋區長江路一段48巷4弄1號","121.459113333333","25.0284616666667","6500100","板橋區"
"220061","293-UM","2018/05/05 19:39:53","新北市板橋區中山路一段265巷13號","121.468673333333","25.0147166666667","6500100","板橋區"
"220084","296-UM","2018/05/05 19:39:38","新北市板橋區滿平街84巷80號","121.426043333333","24.9872283333333","6500100","板橋區"
"220075","303-R5","2018/05/05 19:39:44","新北市板橋區大勇街8巷1號","121.45395","25.0170933333333","6500100","板橋區"
"220062","305-R5","2018/05/05 19:39:36","新北市板橋區三民路二段29巷2號","121.481406666667","25.0180283333333","6500100","板橋區"
"220092","307-R5","2018/05/05 19:39:48","新北市板橋區文化路一段387巷13號","121.46635","25.02208","6500100","板橋區"
"220098","317-R6","2018/05/05 19:39:36","新北市板橋區四維路269巷53號","121.460991666667","25.0272883333333","6500100","板橋區"
"220064","486-VK","2018/05/05 19:39:43","新北市板橋區重慶路37號","121.461605","25.0077016666667","6500100","板橋區"
"220088","491-VK","2018/05/05 19:39:36","新北市板橋區仁化街164號","121.478158333333","25.0336766666667","6500100","板橋區"
"220035","560-BX","2018/05/05 19:39:41","新北市板橋區新生街98巷24號","121.458961666667","25.0212966666667","6500100","板橋區"
"220063","609-BX","2018/05/05 19:39:36","新北市板橋區中山路二段553巷4弄16號","121.483873333333","25.0227233333333","6500100","板橋區"
"220057","686-BX","2018/05/05 19:39:40","新北市板橋區和平路63巷5弄3號","121.460855","24.99486","6500100","板橋區"
"220077","687-BX","2018/05/05 19:39:40","新北市板橋區僑中一街100號","121.446728333333","25.011615","6500100","板橋區"
"220093","689-BX","2018/05/05 19:39:39","新北市板橋區長江路一段94號","121.459101666667","25.02936","6500100","板橋區"
"220054","741-BX","2018/05/05 19:39:49","新北市板橋區忠孝路192號","121.465181666667","25.0026416666667","6500100","板橋區"
"220102","KEA-2699","2018/05/05 19:39:47","新北市板橋區文化路二段410巷30號","121.47428","25.0305933333333","6500100","板橋區"
"220055","827-TW","2018/05/05 19:39:43","新北市板橋區國慶路149巷13弄2號","121.460943333333","24.9971633333333","6500100","板橋區"
"220067","829-TW","2018/05/05 19:39:49","新北市板橋區長安街251巷2號","121.472505","25.01032","6500100","板橋區"
"220096","830-TW","2018/05/05 19:39:50","新北市板橋區民生路二段240巷45號","121.469641666667","25.0230566666667","6500100","板橋區"
"220089","833-TW","2018/05/05 19:39:29","新北市板橋區英士路38號","121.46143","25.0249916666667","6500100","板橋區"
"220074","895-R6","2018/05/05 19:39:39","新北市板橋區府中路56號","121.457053333333","25.0095816666667","6500100","板橋區"
"220073","985-R7","2018/05/05 19:39:47","新北市板橋區國光路31巷16號","121.457978333333","25.01804","6500100","板橋區"
"220097","AAC-210","2018/05/05 19:39:41","新北市板橋區幸福路32巷11號","121.46136","25.0208583333333","6500100","板橋區"
"220070","AAC-253","2018/05/05 19:39:39","新北市板橋區民族路269號","121.470626666667","25.0068283333333","6500100","板橋區"
