"lineid","car","time","location","longitude","latitude","cityid","cityname"
"234046","148-BY","2018/05/05 19:49:45","新北市永和區永利路123號","121.524101666667","25.0027866666667","6500400","永和區"
"234007","207-UY","2018/05/05 19:49:39","新北市中和區中和路232號","121.506748333333","24.9994566666667","6500400","永和區"
"234078","298-R6","2018/05/05 19:49:33","新北市永和區永利路81巷21號","121.522296666667","25.0038433333333","6500400","永和區"
"234038","336-UY","2018/05/05 19:49:43","新北市永和區成功路二段100號","121.526361666667","24.998205","6500400","永和區"
"234064","337-UY","2018/05/05 19:49:49","新北市永和區秀朗路一段192巷6弄14號","121.519168333333","25.0023","6500400","永和區"
"234086","338-UY","2018/05/05 19:49:30","新北市永和區中正路606號","121.517021666667","25.0070666666667","6500400","永和區"
"234070","552-UM","2018/05/05 19:49:35","新北市永和區竹林路81號","121.519481666667","25.0125683333333","6500400","永和區"
"234017","745-BX","2018/05/05 19:49:37","新北市永和區永和路二段299號","121.51597","25.0161","6500400","永和區"
"234030","746-BX","2018/05/05 19:49:48","新北市永和區民生路67巷51號","121.525411666667","24.9975516666667","6500400","永和區"
"234054","KEA-2590","2018/05/05 19:49:47","新北市永和區竹林路75巷25弄5號","121.520101666667","25.014395","6500400","永和區"
"234013","KEA-2591","2018/05/05 19:49:51","新北市永和區仁愛路239號","121.508931666667","25.0119766666667","6500400","永和區"
"234061","AAD-866","2018/05/05 19:49:43","新北市永和區中正路102號","121.514315","24.9957933333333","6500400","永和區"
"234042","862-TW","2018/05/05 19:49:42","新北市永和區中和路305巷18弄1號","121.507665","25.00171","6500400","永和區"
"234050","863-TW","2018/05/05 19:49:34","新北市永和區保安路144號","121.508621666667","25.01498","6500400","永和區"
"234026","9371-KE","2018/05/05 19:49:39","新北市永和區雙和街23號","121.509113333333","25.002075","6500400","永和區"
"234011","9373-KE","2018/05/05 19:49:30","新北市永和區仁愛路301號","121.503888333333","25.0080133333333","6500400","永和區"
"249001","173-UM","2018/05/05 19:49:39","新北市八里區中華路二段252號","121.40534","25.14968","6502300","八里區"
"249004","303-UY","2018/05/05 19:49:44","新北市八里區仁愛路21號","121.413176666667","25.1608966666667","6502300","八里區"
"249003","593-UM","2018/05/05 19:49:39","新北市八里區中華路二段560巷3號","121.398505","25.1451","6502300","八里區"
"248016","026-BX","2018/05/05 19:49:34","新北市五股區成泰路三段601巷21號","121.451726666667","25.1033066666667","6501500","五股區"
"248008","095-VK","2018/05/05 19:49:42","新北市五股區四維路173號","121.467868333333","25.075075","6501500","五股區"
"248020","225-UY","2018/05/05 19:49:41","新北市五股區中直路27號","121.421168333333","25.1139833333333","6501500","五股區"
"248012","247-BX","2018/05/05 19:49:46","新北市五股區蓬萊路24號","121.433873333333","25.0799016666667","6501500","五股區"
"248014","261-SL","2018/05/05 19:49:33","新北市五股區五福路32巷26號","121.434976666667","25.0896666666667","6501500","五股區"
"248010","272-BY","2018/05/05 19:49:44","新北市五股區登林路76-6號","121.430291666667","25.0694083333333","6501500","五股區"
"248004","677-BX","2018/05/05 19:49:36","新北市五股區成泰路一段205號","121.435203333333","25.07705","6501500","五股區"
"248002","678-BX","2018/05/05 19:49:48","新北市五股區成泰路四段14號","121.453296666667","25.106825","6501500","五股區"
"234077","969-R7","2018/05/05 19:49:34","新北市永和區民治街79巷8號","121.517355","24.997835","6500400","永和區"
"234074","AAC-211","2018/05/05 19:49:44","新北市永和區豫溪街136巷5號","121.521371666667","25.0100416666667","6500400","永和區"
"234067","AAC-212","2018/05/05 19:49:45","新北市永和區永平路173巷6號","121.510351666667","25.0086883333333","6500400","永和區"
"234003","AAC-295","2018/05/05 19:49:36","新北市永和區福和路346號","121.514998333333","25.00729","6500400","永和區"
"243013","AAD-798","2018/05/05 19:49:07","新北市泰山區應化街7號","121.423966666667","25.0437166666667","6501600","泰山區"
"243009","297-R6","2018/05/05 19:49:35","新北市泰山區美寧街68號","121.431021666667","25.0647066666667","6501600","泰山區"
"243016","380-SR","2018/05/05 19:49:48","新北市泰山區中山路三段114號","121.41786","25.0321466666667","6501600","泰山區"
"243015","421-VK","2018/05/05 19:49:46","新北市泰山區明志路二段214巷11號","121.426678333333","25.0488166666667","6501600","泰山區"
"243011","KEA-2215","2018/05/05 19:49:49","新北市泰山區明志路三段196巷21弄24號","121.422638333333","25.03859","6501600","泰山區"
"243010","KEA-2216","2018/05/05 19:49:40","新北市泰山區民生路33號","121.430745","25.0521483333333","6501600","泰山區"
"243012","646-TV","2018/05/05 19:49:36","新北市泰山區全興路13號","121.432293333333","25.0589716666667","6501600","泰山區"
"243014","680-BX","2018/05/05 19:49:39","新北市泰山區泰林路二段33-8號","121.435195","25.0566183333333","6501600","泰山區"
"222003","436-BY","2018/05/05 19:32:23","新北市深坑區深南路51-1號","121.621121666667","25.0098866666667","6501800","深坑區"
"222002","659-BX","2018/05/05 19:49:44","新北市深坑區北深路二段2巷1號","121.621351666667","25.0045966666667","6501800","深坑區"
"231044","001-UM","2018/05/05 19:49:40","新北市新店區復興路44-5號","121.538333333333","24.9865516666667","6500600","新店區"
"231059","046-UY","2018/05/05 19:49:35","新北市新店區安和路二段185號","121.518191666667","24.974825","6500600","新店區"
"231040","047-UY","2018/05/05 19:49:44","新北市新店區中正路75巷71號","121.543163333333","24.9688833333333","6500600","新店區"
"231046","107-UY","2018/05/05 19:49:35","新北市新店區三民路159巷19弄48號","121.532173333333","24.9731966666667","6500600","新店區"
"231052","108-UY","2018/05/05 19:49:33","新北市新店區新烏路三段328號","121.547063333333","24.896605","6500600","新店區"
"231048","187-VK","2018/05/05 19:49:35","新北市新店區寶興路61巷1號","121.550796666667","24.97199","6500600","新店區"
"231054","KEA-2219","2018/05/05 19:49:31","新北市新店區光明街71號","121.538841666667","24.96057","6500600","新店區"
"231057","256-BX","2018/05/05 19:49:44","新北市新店區花園二路二段14-2號","121.554881666667","24.9316816666667","6500600","新店區"
"231042","268-BY","2018/05/05 19:49:34","新北市新店區中興路一段268-3號","121.545236666667","24.9679366666667","6500600","新店區"
"231051","278-BY","2018/05/05 19:49:38","新北市新店區中央三街19號","121.528923333333","24.9737933333333","6500600","新店區"
"231050","AAD-862","2018/05/05 19:49:51","新北市新店區郵政路91號","121.55477","24.9514516666667","6500600","新店區"
"231058","3713-VJ","2018/05/05 19:49:43","新北市新店區安民街133巷26號","121.515461666667","24.969655","6500600","新店區"
"231056","4715-K9","2018/05/05 19:49:39","新北市新店區民權路72號","121.538111666667","24.9831433333333","6500600","新店區"
"231067","4772-VM","2018/05/05 19:49:45","新北市新店區精忠路10-1號","121.532723333333","24.9590516666667","6500600","新店區"
"231065","512-UM","2018/05/05 19:49:40","新北市新店區安祥路109巷114號","121.476915","24.9585416666667","6500600","新店區"
"231049","513-UM","2018/05/05 19:49:47","新北市新店區民權路111-3號","121.535421666667","24.9823416666667","6500600","新店區"
"231063","616-UM","2018/05/05 19:49:36","新北市新店區車子路11號","121.503058333333","24.95205","6500600","新店區"
"231045","617-UM","2018/05/05 19:49:35","新北市新店區中生路60號","121.564545","24.9526933333333","6500600","新店區"
"231041","618-UM","2018/05/05 19:49:48","新北市新店區中央路131號","121.530345","24.97387","6500600","新店區"
"231061","619-UM","2018/05/05 19:49:49","新北市新店區安民街169號","121.51671","24.9702516666667","6500600","新店區"
"231039","718-UY","2018/05/05 19:49:45","新北市新店區安華路28-1號","121.519311666667","24.96105","6500600","新店區"
"231064","719-UM","2018/05/05 19:49:34","新北市新店區安和路一段53號","121.517498333333","24.96602","6500600","新店區"
"231062","720-UM","2018/05/05 19:49:36","新北市新店區永業路46號","121.531773333333","24.9532833333333","6500600","新店區"
"231060","897-TW","2018/05/05 19:49:48","新北市新店區安康路二段245號","121.507981666667","24.9584733333333","6500600","新店區"
"231043","899-TW","2018/05/05 19:49:30","新北市新店區中正路263-2號","121.538455","24.9737366666667","6500600","新店區"
"231055","AKT-0513","2018/05/05 19:49:36","新北市新店區北新路一段235號","121.540493333333","24.9658116666667","6500600","新店區"
"241011","013-R5","2018/05/05 19:49:35","新北市三重區介壽路39巷6號","121.499045","25.070165","6500200","三重區"
"241028","022-UY","2018/05/05 19:49:39","新北市三重區中正南路157號","121.493841666667","25.0561316666667","6500200","三重區"
"241008","059-VK","2018/05/05 19:49:43","新北市三重區永福街98巷7號","121.47933","25.07597","6500200","三重區"
"241009","060-VK","2018/05/05 19:49:38","新北市三重區三和路四段396巷2-1號","121.481436666667","25.0791","6500200","三重區"
"241031","061-VK","2018/05/05 19:49:39","新北市三重區重新路四段250-1號","121.48599","25.0534083333333","6500200","三重區"
"241015","062-VK","2018/05/05 19:49:43","新北市三重區重新路一段1號","121.503823333333","25.064295","6500200","三重區"
"241017","063-VK","2018/05/05 19:49:29","新北市三重區重陽路三段5巷8弄29號","121.489586666667","25.0665716666667","6500200","三重區"
"241024","065-VK","2018/05/05 19:49:45","新北市三重區中正北路392-1號","121.475936666667","25.0701916666667","6500200","三重區"
"241026","066-VK","2018/05/05 19:49:41","新北市三重區文化南路42號","121.500396666667","25.0602516666667","6500200","三重區"
"241016","266-UM","2018/05/05 19:49:32","新北市三重區正德街50號","121.49565","25.0630783333333","6500200","三重區"
"241022","267-UM","2018/05/05 19:49:38","新北市三重區過圳街31巷2號","121.489168333333","25.060585","6500200","三重區"
"241018","268-UM","2018/05/05 19:49:50","新北市三重區雙園街57巷24-1號","121.494545","25.068285","6500200","三重區"
"241013","270-UM","2018/05/05 19:49:46","新北市三重區仁愛街112巷16號","121.494648333333","25.0739516666667","6500200","三重區"
"241007","398-BY","2018/05/05 19:49:41","新北市三重區慈愛街1號","121.48462","25.07844","6500200","三重區"
"241035","KEA-2210","2018/05/05 19:49:32","新北市三重區文化北路12號","121.499486666667","25.0637033333333","6500200","三重區"
"241004","475-VK","2018/05/05 19:49:37","新北市三重區仁愛街377巷132號","121.493535","25.0819","6500200","三重區"
"241020","478-VK","2018/05/05 19:49:49","新北市三重區三和路四段6號","121.491465","25.0737533333333","6500200","三重區"
"241030","480-VK","2018/05/05 19:49:43","新北市三重區集成路11號","121.48875","25.0519233333333","6500200","三重區"
"241014","543-UM","2018/05/05 19:49:36","新北市三重區長安街82-1號","121.501441666667","25.0677066666667","6500200","三重區"
"241023","545-UM","2018/05/05 19:49:33","新北市三重區頂崁街168號","121.477538333333","25.0658866666667","6500200","三重區"
"241001","547-UM","2018/05/05 19:49:49","新北市三重區仁愛街327巷10號","121.492625","25.079745","6500200","三重區"
"241033","557-UM","2018/05/05 19:45:50","新北市三重區中興南街80巷3號","121.471458333333","25.043525","6500200","三重區"
"241019","KEA-2593","2018/05/05 19:49:33","新北市三重區自強路二段74巷25號","121.487721666667","25.069625","6500200","三重區"
"241006","AAD-863","2018/05/05 19:49:44","新北市三重區力行路二段76巷29號","121.480458333333","25.0736333333333","6500200","三重區"
"241025","887-TS","2018/05/05 19:49:44","新北市三重區忠孝路三段52號","121.480688333333","25.0655933333333","6500200","三重區"
"241012","941-UM","2018/05/05 19:49:48","新北市三重區仁福街64巷17號","121.497775","25.0753016666667","6500200","三重區"
"241029","942-UM","2018/05/05 19:49:45","新北市三重區光明路21號","121.491038333333","25.0585383333333","6500200","三重區"
"235047","031-BX","2018/05/05 19:49:41","新北市中和區捷運路57號","121.509266666667","24.9895983333333","6500300","中和區"
"235056","096-UM","2018/05/05 19:49:51","新北市中和區員山路581巷31弄22號","121.476636666667","25.0103866666667","6500300","中和區"
"235040","150-BY","2018/05/05 19:49:33","新北市中和區安和路127號","121.507016666667","24.995915","6500300","中和區"
"235058","151-BY","2018/05/05 19:49:48","新北市中和區員山路132巷26號","121.482516666667","24.9962233333333","6500300","中和區"
"235055","183-VK","2018/05/05 19:49:49","新北市中和區莒光路2號","121.471618333333","25.004655","6500300","中和區"
"235038","185-VK","2018/05/05 19:49:52","新北市中和區自強路50號","121.520076666667","24.9949233333333","6500300","中和區"
"235049","186-VK","2018/05/05 19:49:43","新北市中和區中正路70巷5號","121.50087","24.9938816666667","6500300","中和區"
"235067","255-BX","2018/05/05 19:49:47","新北市中和區中正路751巷3弄12號","121.484313333333","24.999345","6500300","中和區"
"235044","293-VK","2018/05/05 19:49:50","新北市中和區板南路100號","121.503915","24.992525","6500300","中和區"
"235072","301-VK","2018/05/05 19:49:38","新北市中和區錦和路91-1號","121.490085","24.9956883333333","6500300","中和區"
"235043","352-BY","2018/05/05 19:49:39","新北市中和區興南路二段159巷1號","121.505158333333","24.98329","6500300","中和區"
"235068","377-QA","2018/05/05 19:49:35","新北市中和區莊敬路7號","121.499793333333","25.0044416666667","6500300","中和區"
"235061","378-QA","2018/05/05 19:49:50","新北市中和區員山路226巷3弄5號","121.48171","25.0011516666667","6500300","中和區"
"235050","4979-A6","2018/05/05 19:43:51","新北市中和區中正路305號","121.492373333333","24.9937033333333","6500300","中和區"
"235069","4980-A6","2018/05/05 19:49:42","新北市中和區中正路637巷60弄61號","121.485446666667","24.9929016666667","6500300","中和區"
"235042","551-UM","2018/05/05 19:49:41","新北市中和區保健路2巷23號","121.507143333333","24.9974566666667","6500300","中和區"
"235070","558-UM","2018/05/05 19:49:46","新北市中和區景平路495-4號","121.499911666667","24.998195","6500300","中和區"
"235045","565-BX","2018/05/05 19:49:34","新北市中和區景平路322號","121.512135","24.9927033333333","6500300","中和區"
"235054","640-BX","2018/05/05 19:49:35","新北市中和區莒光路92號","121.472373333333","25.0025266666667","6500300","中和區"
"235060","647-TV","2018/05/05 19:49:44","新北市中和區新生街16巷11號","121.482598333333","25.0042716666667","6500300","中和區"
"235046","733-UM","2018/05/05 19:49:46","新北市中和區仁愛街22號","121.510703333333","24.98877","6500300","中和區"
"235035","783-BX","2018/05/05 19:49:41","新北市中和區立德街200巷36號","121.485443333333","25.010115","6500300","中和區"
"235057","801-TS","2018/05/05 19:49:33","新北市中和區員山路115號","121.480898333333","24.9952533333333","6500300","中和區"
"235041","802-TS","2018/05/05 19:49:37","新北市中和區永貞路237號","121.513073333333","25.0037083333333","6500300","中和區"
"235052","805-TS","2018/05/05 19:49:47","新北市中和區興南路二段60號","121.506426666667","24.9849966666667","6500300","中和區"
"235048","896-TW","2018/05/05 19:49:39","新北市中和區興南路一段129號","121.508915","24.987765","6500300","中和區"
"235053","900-TW","2018/05/05 19:49:46","新北市中和區國光街181號","121.467675","25.0015916666667","6500300","中和區"
"235066","911-UM","2018/05/05 19:49:51","新北市中和區南工路26號","121.505655","25.000865","6500300","中和區"
"235051","157-BY","2018/05/05 19:49:31","新北市中和區中興街180巷52弄6號","121.49866","24.9885633333333","6500300","中和區"
"235037","AAC-213","2018/05/05 19:49:42","新北市中和區自立路54號","121.523166666667","24.9920266666667","6500300","中和區"
"235059","AAC-215","2018/05/05 19:49:39","新北市中和區圓通路305巷18號","121.49501","24.9890816666667","6500300","中和區"
"220068","013-TV","2018/05/05 19:49:44","新北市板橋區中山路二段416巷47弄18號","121.483496666667","25.0194333333333","6500100","板橋區"
"220065","072-UY","2018/05/05 19:49:38","新北市板橋區海山路45號","121.466915","25.0099483333333","6500100","板橋區"
"220086","073-UY","2018/05/05 19:49:37","新北市板橋區南雅西路二段95巷18號","121.451788333333","25.0101583333333","6500100","板橋區"
"220106","075-UY","2018/05/05 19:49:47","新北市板橋區文化路二段608巷64號","121.48012","25.0340616666667","6500100","板橋區"
"220069","AAD-861","2018/05/05 19:49:43","新北市板橋區大明街13號","121.45893","25.0025183333333","6500100","板橋區"
"247014","546-UM","2018/05/05 19:49:45","新北市蘆洲區中央路99號","121.47246","25.08414","6501400","蘆洲區"
"247004","337-TH","2018/05/05 19:49:37","新北市蘆洲區長安街223號","121.459661666667","25.0824033333333","6501400","蘆洲區"
"247008","056-VK","2018/05/05 19:49:50","新北市蘆洲區信義路129號","121.478851666667","25.080125","6501400","蘆洲區"
"247002","002-UY","2018/05/05 19:49:45","新北市蘆洲區長榮路655號","121.460095","25.0912366666667","6501400","蘆洲區"
"226004","312-R5","2018/05/05 19:49:06","新北市平溪區十分里十分街58巷20號","121.774641666667","25.0436783333333","6502400","平溪區"
"235065","251-BX","2018/05/05 19:49:44","新北市中和區福祥路90巷5號","121.499571666667","25.00595","6500300","中和區"
"228003","097-TW","2018/05/05 19:49:38","新北市貢寮區真理里美艷山街3-1號","121.925755","25.05962","6502600","貢寮區"
"228001","212-TW","2018/05/05 19:49:30","新北市貢寮區仁理村仁愛路95-1號","121.927621666667","25.05552","6502600","貢寮區"
"224010","AGQ-8101","2018/05/05 19:48:35","新北市瑞芳區烏勢巷145號","121.847413333333","25.1084633333333","6501200","瑞芳區"
"224002","639-TC","2018/05/05 19:49:38","新北市瑞芳區員山子路員山巷24-1號","121.816898333333","25.1045833333333","6501200","瑞芳區"
"227010","642-TC","2018/05/05 19:49:30","新北市雙溪區新基里中華路79號","121.865773333333","25.0383433333333","6502500","雙溪區"
"227002","400-TW","2018/05/05 19:49:46","新北市雙溪區雙溪里內挖路47號","121.863275","25.036625","6502500","雙溪區"
"222001","KEA-2212","2018/05/05 19:49:47","新北市深坑區北深路三段108號","121.606825","25.0015533333333","6501800","深坑區"
"208002","KEA-2872","2018/05/05 19:49:48","新北市金山區中華路366-1號","121.633246666667","25.22455","6502700","金山區"
"208003","665-BX","2018/05/05 19:49:48","新北市金山區海興路190號","121.633296666667","25.240735","6502700","金山區"
"208001","761-BX","2018/05/05 19:49:45","新北市金山區重和里六股林口13-1號","121.602821666667","25.2180983333333","6502700","金山區"
"251009","008-UM","2018/05/05 19:49:43","新北市淡水區鼻頭街18-5號","121.446003333333","25.1672816666667","6501000","淡水區"
"251005","010-UM","2018/05/05 19:49:44","新北市淡水區中正東路6號","121.447108333333","25.1671583333333","6501000","淡水區"
"251001","011-UM","2018/05/05 19:49:31","新北市淡水區中正東路二段87-3號","121.459456666667","25.152835","6501000","淡水區"
"251013","KEA-2871","2018/05/05 19:49:33","新北市淡水區頂田寮2-1號","121.460361666667","25.21323","6501000","淡水區"
"251014","180-VK","2018/05/05 19:49:45","新北市淡水區番社前1-7號","121.468205","25.23606","6501000","淡水區"
"251008","181-VK","2018/05/05 19:49:38","新北市淡水區中正路一段24巷7號","121.426708333333","25.1769766666667","6501000","淡水區"
"251015","182-VK","2018/05/05 19:49:40","新北市淡水區大埤頭1-3號","121.492455","25.1949266666667","6501000","淡水區"
"251010","413-VK","2018/05/05 19:49:30","新北市淡水區下圭柔山91-3號","121.430901666667","25.2096683333333","6501000","淡水區"
"251012","441-VK","2018/05/05 19:49:48","新北市淡水區淡金路三段70巷3號","121.448408333333","25.2014916666667","6501000","淡水區"
"251007","442-VK","2018/05/05 19:49:41","新北市淡水區竿蓁一街123號","121.455565","25.16596","6501000","淡水區"
"251006","561-UM","2018/05/05 19:49:50","新北市淡水區水碓街15號","121.443435","25.17699","6501000","淡水區"
"251016","575-R6","2018/05/05 19:49:47","新北市淡水區三塊厝3-3號","121.456355","25.2094983333333","6501000","淡水區"
"251011","650-BX","2018/05/05 19:49:47","新北市淡水區淡金路二段600號","121.44664","25.1924133333333","6501000","淡水區"
"207003","550-UM","2018/05/05 19:49:47","新北市萬里區大鵬里萬里加投46號","121.641965","25.211585","6502800","萬里區"
"207004","225-TW","2018/05/05 19:49:35","新北市萬里區萬里里瑪鋉路261號","121.689813333333","25.17974","6502800","萬里區"
"252002","178-VK","2018/05/05 19:49:49","新北市三芝區三民街31號","121.504586666667","25.2585683333333","6502100","三芝區"
"252001","292-VK","2018/05/05 19:49:38","新北市三芝區公正街9號","121.499733333333","25.2575133333333","6502100","三芝區"
"237007","153-BY","2018/05/05 19:49:46","新北市三峽區二鬮路136巷22弄51號","121.3576","24.9102466666667","6500900","三峽區"
"237009","210-TH","2018/05/05 19:49:37","新北市三峽區民權街193號","121.367681666667","24.929115","6500900","三峽區"
"237013","252-BX","2018/05/05 19:49:44","新北市三峽區橫溪路53號","121.39701","24.9352183333333","6500900","三峽區"
"237012","275-BY","2018/05/05 19:49:48","新北市三峽區中華路30-2號","121.373356666667","24.9318683333333","6500900","三峽區"
"237008","302-VK","2018/05/05 19:49:32","新北市三峽區中正路一段174巷16號","121.37184","24.9288783333333","6500900","三峽區"
"237014","433-BY","2018/05/05 19:49:53","新北市三峽區添福141-13號","121.374596666667","24.9010366666667","6500900","三峽區"
"237006","5529-G3","2018/05/05 19:49:33","新北市三峽區中正路一段336巷15弄2號","121.37029","24.9249166666667","6500900","三峽區"
"237005","AKY-6261","2018/05/05 19:49:33","新北市三峽區長泰街73號","121.376436666667","24.933135","6500900","三峽區"
"236070","105-UM","2018/05/05 19:49:50","新北市土城區水源街15號","121.441233333333","24.9751566666667","6501300","土城區"
"236042","107-UM","2018/05/05 19:49:45","新北市土城區金城路二段245巷42號","121.455413333333","24.9832383333333","6501300","土城區"
"236079","166-UM","2018/05/05 19:49:46","新北市土城區溪頭路86號","121.409563333333","24.9511033333333","6501300","土城區"
"236030","253-BX","2018/05/05 19:49:45","新北市土城區中央路一段318巷4弄12號","121.443163333333","24.9824166666667","6501300","土城區"
"236026","269-VK","2018/05/05 19:49:47","新北市土城區中央路二段61巷46號","121.44419","24.9784716666667","6501300","土城區"
"236038","271-VK","2018/05/05 19:49:32","新北市土城區國際路158巷47號","121.468258333333","24.97536","6501300","土城區"
"236021","401-BY","2018/05/05 19:49:42","新北市土城區延吉街165巷20號","121.470095","24.9854","6501300","土城區"
"236059","912-UM","2018/05/05 19:49:47","新北市土城區中央路一段245-1號","121.445271666667","24.985965","6501300","土城區"
"236049","913-UM","2018/05/05 19:49:46","新北市土城區青雲路250-1號","121.459033333333","24.9799733333333","6501300","土城區"
"236063","915-UM","2018/05/05 19:49:43","新北市土城區金城路三段149巷4弄12號","121.468561666667","24.9890566666667","6501300","土城區"
"236055","AAC-216","2018/05/05 19:49:44","新北市土城區延和路78號","121.466116666667","24.9893416666667","6501300","土城區"
"242034","AAC-296","2018/05/05 19:49:34","新北市新莊區仁愛街73號","121.444141666667","25.03787","6500500","新莊區"
"242058","986-R7","2018/05/05 19:49:49","新北市新莊區中正路473-1號","121.441958333333","25.03312","6500500","新莊區"
"242029","612-BX","2018/05/05 19:49:46","新北市新莊區中平路301號","121.444728333333","25.05124","6500500","新莊區"
"242046","497-BY","2018/05/05 19:49:34","新北市新莊區裕民街19巷4號","121.419751666667","25.0251983333333","6500500","新莊區"
"242039","442-UM","2018/05/05 19:49:39","新北市新莊區民安路299巷24號","121.429348333333","25.023185","6500500","新莊區"
"242056","440-UM","2018/05/05 19:49:53","新北市新莊區新豐街18號","121.448495","25.0344383333333","6500500","新莊區"
"242007","413-TV","2018/05/05 19:49:49","新北市新莊區思源路593巷6弄14號","121.45891","25.05991","6500500","新莊區"
"242023","362-BY","2018/05/05 19:49:49","新北市新莊區化成路69號","121.465545","25.04616","6500500","新莊區"
"242031","135-UY","2018/05/05 19:49:46","新北市新莊區忠孝街63號","121.443818333333","25.036315","6500500","新莊區"
"242048","172-VK","2018/05/05 19:49:53","新北市新莊區建安街76巷1弄14號","121.426058333333","25.0243716666667","6500500","新莊區"
"242011","173-VK","2018/05/05 19:49:50","新北市新莊區中原路200號","121.447675","25.0545366666667","6500500","新莊區"
"242004","176-VK","2018/05/05 19:49:41","新北市新莊區化成路63巷105號","121.461578333333","25.04592","6500500","新莊區"
"242036","349-TH","2018/05/05 19:49:41","新北市新莊區民安路207巷26號","121.427358333333","25.02357","6500500","新莊區"
"242019","350-TH","2018/05/05 19:49:43","新北市新莊區明智街19號","121.454176666667","25.041375","6500500","新莊區"
"242013","351-TH","2018/05/05 19:49:42","新北市新莊區中泰街29號","121.450885","25.0469116666667","6500500","新莊區"
"238015","755-BX","2018/05/05 19:49:41","新北市樹林區中山路二段2號","121.417843333333","24.9851616666667","6500700","樹林區"
"238023","601-UM","2018/05/05 19:49:44","新北市樹林區三寶街7號","121.406606666667","25.0155533333333","6500700","樹林區"
"238024","5061-A6","2018/05/05 19:46:17","新北市樹林區中山路三段210-2號","121.380695","24.966665","6500700","樹林區"
"238021","KEA-2539","2018/05/05 19:49:35","新北市樹林區佳園路三段181巷81號","121.39073","24.94847","6500700","樹林區"
"238025","303-VK","2018/05/05 19:49:30","新北市樹林區鎮前街415號","121.414138333333","24.9832316666667","6500700","樹林區"
"239007","AAC-297","2018/05/05 19:49:37","新北市鶯歌區大湖路338巷15號","121.346788333333","24.969015","6500800","鶯歌區"
"239006","891-R6","2018/05/05 19:49:43","新北市鶯歌區文化路145巷1號","121.35665","24.9540716666667","6500800","鶯歌區"
"239001","417-VK","2018/05/05 19:49:34","新北市鶯歌區中正一路193號","121.353135","24.9572133333333","6500800","鶯歌區"
"239002","359-BY","2018/05/05 19:49:46","新北市鶯歌區中正一路阿南巷501號","121.378808333333","24.9634933333333","6500800","鶯歌區"
"221036","130-UY","2018/05/05 19:49:36","新北市汐止區汐萬路一段37號","121.655423333333","25.0685016666667","6501100","汐止區"
"221015","131-UY","2018/05/05 19:49:34","新北市汐止區大同路二段537號","121.662008333333","25.0692116666667","6501100","汐止區"
"221010","269-BY","2018/05/05 19:49:43","新北市汐止區連峰街244號","121.645058333333","25.0808166666667","6501100","汐止區"
"221012","278-VK","2018/05/05 19:49:43","新北市汐止區汐平路一段7號","121.680861666667","25.07113","6501100","汐止區"
"221023","279-VK","2018/05/05 19:49:44","新北市汐止區明峰街164號","121.629113333333","25.0704916666667","6501100","汐止區"
"221032","280-BY","2018/05/05 19:49:42","新北市汐止區橫科路403巷13號","121.624855","25.0476366666667","6501100","汐止區"
"221027","281-BY","2018/05/05 19:49:49","新北市汐止區中正路12號","121.662941666667","25.0701916666667","6501100","汐止區"
"221029","298-VK","2018/05/05 19:49:33","新北市汐止區康寧街901號","121.651561666667","25.0751083333333","6501100","汐止區"
"221021","299-VK","2018/05/05 19:49:44","新北市汐止區莊敬街1號","121.657876666667","25.0616233333333","6501100","汐止區"
"221031","353-TW","2018/05/05 19:49:36","新北市汐止區福德二路54巷2弄5號","121.633961666667","25.0676816666667","6501100","汐止區"
"221008","129-UY","2018/05/05 19:49:50","新北市汐止區康寧街39號","121.618531666667","25.0667766666667","6501100","汐止區"
"221035","622-UM","2018/05/05 19:49:41","新北市汐止區長江街13巷9號","121.6546","25.0718966666667","6501100","汐止區"
"221025","623-UM","2018/05/05 19:49:51","新北市汐止區秀峰路81巷38號","121.661383333333","25.0646633333333","6501100","汐止區"
"221038","646-BX","2018/05/05 19:49:34","新北市汐止區忠孝東路417號","121.665721666667","25.07143","6501100","汐止區"
"221033","647-BX","2018/05/05 19:49:43","新北市汐止區東勢街76巷95號","121.636033333333","25.0389016666667","6501100","汐止區"
"221018","753-BX","2018/05/05 19:49:36","新北市汐止區大同路二段527號","121.661681666667","25.0691116666667","6501100","汐止區"
"220079","145-BY","2018/05/05 19:49:36","新北市板橋區中正路183巷15號","121.455501666667","25.01606","6500100","板橋區"
"220080","200-UY","2018/05/05 19:49:46","新北市板橋區大觀路二段69巷16號","121.447115","25.0021366666667","6500100","板橋區"
"220082","610-BX","2018/05/05 19:49:49","新北市板橋區存德街13號","121.430066666667","24.99182","6500100","板橋區"
"220101","245-BX","2018/05/05 19:49:48","新北市板橋區縣民大道三段79巷13號","121.475158333333","25.021995","6500100","板橋區"
"220103","257-TC","2018/05/05 19:49:42","新北市板橋區陽明街46-1號","121.465696666667","25.0219316666667","6500100","板橋區"
"220091","267-BY","2018/05/05 19:49:33","新北市板橋區文聖街149巷29號","121.47967","25.0287033333333","6500100","板橋區"
"220056","276-BY","2018/05/05 19:49:48","新北市板橋區四川路二段85號","121.452925","24.994965","6500100","板橋區"
"220072","277-BY","2018/05/05 19:49:41","新北市板橋區金門街141號","121.432833333333","24.9910316666667","6500100","板橋區"
"220071","283-VK","2018/05/05 19:49:35","新北市板橋區五權街69號","121.464958333333","24.9932583333333","6500100","板橋區"
"220094","285-UM","2018/05/05 19:49:40","新北市板橋區長江路一段113號","121.459828333333","25.0297616666667","6500100","板橋區"
"220053","285-VK","2018/05/05 19:49:46","新北市板橋區中山路二段60巷1弄27號","121.47521","25.01582","6500100","板橋區"
"220083","286-VK","2018/05/05 19:49:38","新北市板橋區僑中二街10巷36號","121.445543333333","25.01119","6500100","板橋區"
"220081","287-VK","2018/05/05 19:49:31","新北市板橋區大觀路一段29巷131弄10號","121.450595","25.0051566666667","6500100","板橋區"
"220090","288-VK","2018/05/05 19:49:43","新北市板橋區龍泉街54巷7弄2號","121.456811666667","25.02662","6500100","板橋區"
"220061","293-UM","2018/05/05 19:49:47","新北市板橋區中山路一段283巷2弄16號","121.470473333333","25.0148233333333","6500100","板橋區"
"220084","296-UM","2018/05/05 19:49:38","新北市板橋區溪崑二街103巷15號","121.427223333333","24.9887133333333","6500100","板橋區"
"220075","303-R5","2018/05/05 19:49:24","新北市板橋區金華街10巷5號","121.455998333333","25.0201483333333","6500100","板橋區"
"220062","305-R5","2018/05/05 19:49:48","新北市板橋區光復街33巷25號","121.482298333333","25.019","6500100","板橋區"
"220092","307-R5","2018/05/05 19:49:47","新北市板橋區四維路249號","121.4636","25.0276","6500100","板橋區"
"220098","317-R6","2018/05/05 19:49:34","新北市板橋區新海路407號","121.458486666667","25.0269933333333","6500100","板橋區"
"220064","486-VK","2018/05/05 19:49:03","新北市板橋區實踐路79號","121.463938333333","25.006115","6500100","板橋區"
"220088","491-VK","2018/05/05 19:49:36","新北市板橋區文聖街131號","121.478005","25.0285216666667","6500100","板橋區"
"220035","560-BX","2018/05/05 19:49:41","新北市板橋區金華街12號","121.455841666667","25.02034","6500100","板橋區"
"220063","609-BX","2018/05/05 19:49:36","新北市板橋區三民路一段7號","121.479071666667","25.02326","6500100","板橋區"
"220057","686-BX","2018/05/05 19:49:40","新北市板橋區信義路243號","121.460356666667","24.9910183333333","6500100","板橋區"
"220077","687-BX","2018/05/05 19:49:38","新北市板橋區僑中一街102巷7弄20號","121.446003333333","25.0129866666667","6500100","板橋區"
"220093","689-BX","2018/05/05 19:49:39","新北市板橋區長江路二段233號","121.468528333333","25.032585","6500100","板橋區"
"220054","741-BX","2018/05/05 19:49:49","新北市板橋區國泰街75巷28弄66號","121.467105","25.0045833333333","6500100","板橋區"
"220102","KEA-2699","2018/05/05 19:49:52","新北市板橋區雙十路二段70巷31號","121.475928333333","25.0286666666667","6500100","板橋區"
"220055","827-TW","2018/05/05 19:49:43","新北市板橋區國慶路149巷4弄18-3號","121.46194","24.9970916666667","6500100","板橋區"
"220067","829-TW","2018/05/05 19:49:51","新北市板橋區長安街289號","121.47437","25.01183","6500100","板橋區"
"220096","830-TW","2018/05/05 19:49:30","新北市板橋區文化路二段124巷34弄8號","121.47109","25.0253833333333","6500100","板橋區"
"220089","833-TW","2018/05/05 19:49:51","新北市板橋區龍泉街98-4號","121.456653333333","25.0249516666667","6500100","板橋區"
"220074","895-R6","2018/05/05 19:49:39","新北市板橋區府中路56號","121.45703","25.009555","6500100","板橋區"
"220073","985-R7","2018/05/05 19:49:47","新北市板橋區南雅西路二段267號","121.451821666667","25.0150233333333","6500100","板橋區"
"220097","AAC-210","2018/05/05 19:49:41","新北市板橋區文化路一段285巷59號","121.46316","25.0198283333333","6500100","板橋區"
"220070","AAC-253","2018/05/05 19:49:33","新北市板橋區館前東路120號","121.463755","25.0078166666667","6500100","板橋區"
