"lineid","car","time","location","longitude","latitude","cityid","cityname"
"234070","552-UM","2018/05/05 20:59:15","新北市八里區中山路三段409號","121.368705","25.1355283333333","6500400","永和區"
"234077","969-R7","2018/05/05 20:59:13","新北市八里區中山路三段409號","121.368885","25.1349866666667","6500400","永和區"
"243012","646-TV","2018/05/05 20:59:16","新北市泰山區黎明路25號","121.422121666667","25.060615","6501600","泰山區"
"231044","001-UM","2018/05/05 20:59:20","新北市新店區安民街133巷26號","121.515471666667","24.96963","6500600","新店區"
"231059","046-UY","2018/05/05 20:59:15","新北市新店區僑信路128號","121.500621666667","24.9460883333333","6500600","新店區"
"231040","047-UY","2018/05/05 20:59:17","新北市新店區中正路114號","121.542401666667","24.9711133333333","6500600","新店區"
"231052","108-UY","2018/05/05 20:59:13","新北市新店區新烏路一段58-3號","121.546173333333","24.9499966666667","6500600","新店區"
"231048","187-VK","2018/05/05 20:59:15","新北市新店區寶元路二段1巷2號","121.550738333333","24.984065","6500600","新店區"
"231054","KEA-2219","2018/05/05 20:59:11","新北市新店區中正路75巷65號","121.543225","24.96917","6500600","新店區"
"231042","268-BY","2018/05/05 20:59:14","新北市新店區中興路二段231-2號","121.547776666667","24.97491","6500600","新店區"
"231051","278-BY","2018/05/05 20:59:18","新北市新店區中正路663巷7弄15號","121.532948333333","24.9900916666667","6500600","新店區"
"231050","AAD-862","2018/05/05 20:59:11","新北市新店區三民路75巷3弄2號","121.535656666667","24.9709383333333","6500600","新店區"
"231058","3713-VJ","2018/05/05 20:59:14","新北市新店區薏仁坑路23號","121.497808333333","24.9589","6500600","新店區"
"231066","4716-K9","2018/05/05 20:59:07","新北市新店區安民街48-1號","121.516068333333","24.9656316666667","6500600","新店區"
"231065","512-UM","2018/05/05 20:59:20","新北市新店區安祥路69巷104號","121.483133333333","24.958935","6500600","新店區"
"231063","616-UM","2018/05/05 20:59:16","新北市新店區富貴街8巷1號","121.494216666667","24.9497883333333","6500600","新店區"
"231061","619-UM","2018/05/05 20:59:10","新北市新店區永安街109巷11號","121.521411666667","24.98593","6500600","新店區"
"231039","718-UY","2018/05/05 20:59:05","新北市新店區寶中路47號","121.545408333333","24.9792466666667","6500600","新店區"
"231064","719-UM","2018/05/05 20:59:14","新北市新店區安民街303巷9弄2號","121.516963333333","24.9734333333333","6500600","新店區"
"231062","720-UM","2018/05/05 20:59:16","新北市新店區裕合街179號","121.490243333333","24.9489716666667","6500600","新店區"
"231060","897-TW","2018/05/05 20:59:08","新北市新店區安康路三段177號","121.48844","24.9517816666667","6500600","新店區"
"231043","899-TW","2018/05/05 20:59:10","新北市新店區中正路358號","121.535631666667","24.9757716666667","6500600","新店區"
"241011","013-R5","2018/05/05 20:59:15","新北市三重區秀江街117號","121.499745","25.0721783333333","6500200","三重區"
"241028","022-UY","2018/05/05 20:59:20","新北市三重區新北大道一段7號","121.489631666667","25.0614183333333","6500200","三重區"
"241008","059-VK","2018/05/05 20:59:02","新北市三重區車路頭街135-1號","121.484286666667","25.075955","6500200","三重區"
"241009","060-VK","2018/05/05 20:59:18","新北市三重區三和路四段324號","121.483763333333","25.0778716666667","6500200","三重區"
"241031","061-VK","2018/05/05 20:59:19","新北市三重區重陽路一段113巷2弄1號","121.487656666667","25.0599683333333","6500200","三重區"
"241015","062-VK","2018/05/05 20:59:23","新北市三重區福德北路65號","121.502196666667","25.0656266666667","6500200","三重區"
"241017","063-VK","2018/05/05 20:59:08","新北市三重區大仁街33號","121.492881666667","25.0652633333333","6500200","三重區"
"241024","065-VK","2018/05/05 20:59:05","新北市三重區國道路一段58巷15號","121.481385","25.0720566666667","6500200","三重區"
"241026","066-VK","2018/05/05 20:59:21","新北市三重區文化南路32號","121.500265","25.0614483333333","6500200","三重區"
"241002","090-VK","2018/05/05 20:59:09","新北市三重區環河北路二段304號","121.498981666667","25.08231","6500200","三重區"
"241003","091-VK","2018/05/05 20:59:11","新北市三重區五華街141巷58號","121.493558333333","25.0867433333333","6500200","三重區"
"241005","262-UM","2018/05/05 20:59:04","新北市三重區五華街141巷23號","121.49191","25.0853183333333","6500200","三重區"
"241016","266-UM","2018/05/05 20:59:12","新北市三重區自強路一段107號","121.495485","25.066425","6500200","三重區"
"241022","267-UM","2018/05/05 20:59:17","新北市三重區中正北路20巷12號","121.488088333333","25.0625466666667","6500200","三重區"
"241018","268-UM","2018/05/05 20:59:11","新北市三重區雙園街97號","121.493835","25.0673033333333","6500200","三重區"
"241013","270-UM","2018/05/05 20:59:06","新北市三重區仁賢街12-1號","121.495736666667","25.07487","6500200","三重區"
"241007","398-BY","2018/05/05 20:59:21","新北市三重區三和路四段145巷9號","121.484566666667","25.0783033333333","6500200","三重區"
"241004","475-VK","2018/05/05 20:59:17","新北市三重區仁愛街420號","121.49039","25.0814316666667","6500200","三重區"
"241020","478-VK","2018/05/05 20:59:08","新北市三重區忠孝路二段34號","121.485878333333","25.071045","6500200","三重區"
"241014","543-UM","2018/05/05 20:59:15","新北市三重區長榮路75號","121.502635","25.0691266666667","6500200","三重區"
"241023","545-UM","2018/05/05 20:59:13","新北市三重區忠孝路三段50巷41弄64號","121.482341666667","25.0637316666667","6500200","三重區"
"241001","547-UM","2018/05/05 20:59:09","新北市三重區三和路四段118巷2號","121.488955","25.074805","6500200","三重區"
"241033","557-UM","2018/05/05 20:39:10","新北市三重區光復路二段47-1號","121.474118333333","25.05622","6500200","三重區"
"241019","KEA-2593","2018/05/05 20:59:13","新北市三重區自強路二段74巷21號","121.487996666667","25.0698116666667","6500200","三重區"
"241006","AAD-863","2018/05/05 20:59:24","新北市三重區永福街50號","121.481813333333","25.0780116666667","6500200","三重區"
"241025","887-TS","2018/05/05 20:59:04","新北市三重區貴陽街14號","121.484196666667","25.0618583333333","6500200","三重區"
"241012","941-UM","2018/05/05 20:59:07","新北市三重區龍門路274巷45號","121.501238333333","25.07552","6500200","三重區"
"241029","942-UM","2018/05/05 20:59:05","新北市三重區正義南路107號","121.498238333333","25.0585416666667","6500200","三重區"
"235069","4980-A6","2018/05/05 20:59:01","新北市中和區中正路637巷32號","121.484931666667","24.9945883333333","6500300","中和區"
"247024","893-R6","2018/05/05 20:59:18","新北市蘆洲區光明路20號","121.46125","25.0863966666667","6501400","蘆洲區"
"247014","546-UM","2018/05/05 20:59:05","新北市蘆洲區中山二路36巷14號","121.474411666667","25.08274","6501400","蘆洲區"
"247022","500-BY","2018/05/05 20:59:14","新北市蘆洲區三民路226號","121.468678333333","25.0894566666667","6501400","蘆洲區"
"247010","341-TH","2018/05/05 20:59:01","新北市蘆洲區鷺江街89巷2號","121.47666","25.0837416666667","6501400","蘆洲區"
"247012","339-TH","2018/05/05 20:59:20","新北市蘆洲區民權路5號","121.476675","25.0856666666667","6501400","蘆洲區"
"247004","337-TH","2018/05/05 20:59:17","新北市蘆洲區永安南路二段268號","121.458671666667","25.08073","6501400","蘆洲區"
"247006","336-TH","2018/05/05 20:59:03","新北市蘆洲區永安南路二段16巷8號","121.467738333333","25.0772566666667","6501400","蘆洲區"
"247018","057-VK","2018/05/05 20:59:20","新北市蘆洲區民權路144號","121.47292","25.0892333333333","6501400","蘆洲區"
"247016","007-UY","2018/05/05 20:59:20","新北市蘆洲區正和街80號","121.468418333333","25.0809216666667","6501400","蘆洲區"
"247020","001-UY","2018/05/05 20:59:14","新北市蘆洲區民族路492號","121.469871666667","25.0906","6501400","蘆洲區"
"222001","KEA-2212","2018/05/05 20:59:07","新北市深坑區北深路三段25巷14號","121.608603333333","25.0001416666667","6501800","深坑區"
"251009","008-UM","2018/05/05 20:59:22","新北市淡水區民族路176號","121.461888333333","25.133865","6501000","淡水區"
"251001","011-UM","2018/05/05 20:59:11","新北市淡水區淡金路二段38號","121.451265","25.1819083333333","6501000","淡水區"
"251002","012-UM","2018/05/05 20:59:05","新北市淡水區水源街一段129號","121.446865","25.172005","6501000","淡水區"
"251013","KEA-2871","2018/05/05 20:59:13","新北市淡水區行忠路521號","121.465178333333","25.199195","6501000","淡水區"
"251014","180-VK","2018/05/05 20:59:06","新北市淡水區溪口16號","121.45569","25.23655","6501000","淡水區"
"251008","181-VK","2018/05/05 20:59:18","新北市淡水區中山北路一段239號","121.444593333333","25.1797966666667","6501000","淡水區"
"251015","182-VK","2018/05/05 20:59:20","新北市淡水區淡金路四段542巷17號","121.45272","25.2270666666667","6501000","淡水區"
"251010","413-VK","2018/05/05 20:59:10","新北市淡水區淡海路23號","121.423728333333","25.1790733333333","6501000","淡水區"
"251012","441-VK","2018/05/05 20:59:08","新北市淡水區淡金路五段72號","121.454803333333","25.2337166666667","6501000","淡水區"
"251007","442-VK","2018/05/05 20:59:21","新北市淡水區學府路88號","121.448991666667","25.171075","6501000","淡水區"
"251016","575-R6","2018/05/05 20:59:07","新北市淡水區牛埔子11-1號","121.450176666667","25.2184066666667","6501000","淡水區"
"251011","650-BX","2018/05/05 20:59:07","新北市淡水區新春街2號","121.436195","25.18093","6501000","淡水區"
"251003","673-BX","2018/05/05 20:59:20","新北市淡水區新春街146-5號","121.44195","25.1814183333333","6501000","淡水區"
"236055","AAC-216","2018/05/05 20:55:16","新北市土城區城林路6巷80號","121.43872","24.979645","6501300","土城區"
"242061","705-TV","2018/05/05 20:59:11","新北市五股區新五路三段38號","121.444406666667","25.0877283333333","6500500","新莊區"
"242051","441-UM","2018/05/05 20:59:03","新北市新莊區中正路487號","121.441115","25.0335","6500500","新莊區"
"242023","362-BY","2018/05/05 20:59:09","新北市八里區商港路82號","121.395328333333","25.1463666666667","6500500","新莊區"
"242009","132-UY","2018/05/05 20:59:10","新北市新莊區環河路116-1號","121.460676666667","25.0377933333333","6500500","新莊區"
"242031","135-UY","2018/05/05 20:59:06","新北市新莊區中正路508巷18-6號","121.438178333333","25.0350983333333","6500500","新莊區"
"242048","172-VK","2018/05/05 20:58:11","新北市五股區中直路17-3號","121.421946666667","25.111655","6500500","新莊區"
"221029","298-VK","2018/05/05 20:59:13","新北市汐止區汐萬路一段256巷1號","121.651738333333","25.074845","6501100","汐止區"
"220035","560-BX","2018/05/05 20:59:21","新北市五股區成泰路一段8巷9-9號","121.43751","25.06874","6500100","板橋區"
