"lineid","car","time","location","longitude","latitude","cityid","cityname"
"248004","653-BX","2018/11/01 08:36:37","新北市五股區明德路12巷8號","121.433401666667","25.071975","6501500","五股區"
"232001","290-BY","2018/11/01 08:37:47","新北市坪林區虎寮潭1號","121.740951666667","24.9505316666667","6502000","坪林區"
"244022","069-UM","2018/11/01 08:37:51","新北市林口區東明一街121巷11號","121.390133333333","25.070185","6501700","林口區"
"244006","080-UY","2018/11/01 08:37:37","新北市林口區林口路186號","121.387505","25.08279","6501700","林口區"
"244003","248-BX","2018/11/01 08:37:35","新北市林口區下福里14鄰80號","121.308476666667","25.1156266666667","6501700","林口區"
"244018","403-UM","2018/11/01 08:37:43","新北市林口區公園路201號","121.37237","25.0725433333333","6501700","林口區"
"244008","410-SL","2018/11/01 08:37:51","新北市林口區寶林路40-1號","121.38548","25.084415","6501700","林口區"
"244016","485-VK","2018/11/01 08:37:46","新北市林口區文化二路一段260巷1-1號","121.371273333333","25.073235","6501700","林口區"
"244010","701-TV","2018/11/01 08:37:36","新北市林口區中正路125號","121.39339","25.0771883333333","6501700","林口區"
"244024","837-TS","2018/11/01 08:37:48","新北市林口區文化三路一段39巷98號","121.359186666667","25.0671033333333","6501700","林口區"
"244020","838-TS","2018/11/01 08:37:35","新北市林口區自強一街68號","121.399816666667","25.0770316666667","6501700","林口區"
"222006","289-BY","2018/11/01 08:37:36","新北市深坑區深南路125號","121.623961666667","25.016795","6501800","深坑區"
"231069","189-VK","2018/11/01 08:37:49","新北市新店區平廣路二段235號","121.497781666667","24.9012566666667","6500600","新店區"
"231008","192-VK","2018/11/01 08:37:47","新北市新店區新烏路三段366-1號","121.546621666667","24.8929733333333","6500600","新店區"
"235001","611-BX","2018/11/01 08:37:40","新北市中和區員山路220號","121.481303333333","25.0009733333333","6500300","中和區"
"226005","5620-A6","2018/11/01 08:37:40","新北市平溪區南山里乾坑10號","121.78888","25.047135","6502400","平溪區"
"226007","7418-A5","2018/11/01 08:37:31","新北市平溪區東勢里芊蓁坑29號","121.730033333333","24.980035","6502400","平溪區"
"226003","AGD-0702","2018/11/01 08:37:32","新北市平溪區新寮里月桃寮路3-7號","121.785815","25.0527216666667","6502400","平溪區"
"223006","022-BY","2018/11/01 08:37:38","新北市石碇區八分寮47-1號","121.643281666667","25.013675","6501900","石碇區"
"223002","KEA-2673","2018/11/01 08:21:48","新北市石碇區北宜路五段80號","121.6462","24.9517783333333","6501900","石碇區"
"223003","205-TH","2018/11/01 08:37:50","新北市石碇區北宜路六段柑腳巷2號","121.659616666667","24.93801","6501900","石碇區"
"223008","406-TH","2018/11/01 08:37:49","新北市石碇區碇南路二段松柏崎巷8號","121.674716666667","25.0198016666667","6501900","石碇區"
"223001","592-UM","2018/11/01 08:37:39","新北市石碇區北宜路六段柑腳巷2號","121.659611666667","24.938115","6501900","石碇區"
"223004","660-BX","2018/11/01 08:37:49","新北市石碇區崩山15號","121.674945","24.970625","6501900","石碇區"
"223007","661-BX","2018/11/01 08:37:34","新北市石碇區碇南路二段松柏崎巷10號","121.674723333333","25.0180683333333","6501900","石碇區"
"223005","677-TV","2018/11/01 08:37:47","新北市石碇區崩山26號","121.676733333333","24.9670683333333","6501900","石碇區"
"252004","249-BX","2018/11/01 08:37:38","新北市三芝區興華里田心子10-5號","121.49647","25.2056633333333","6502100","三芝區"
"252007","AAC-283","2018/11/01 08:37:47","新北市三芝區後厝里番子崙26號","121.480188333333","25.2458566666667","6502100","三芝區"
"237001","159-UY","2018/11/01 08:37:45","新北市三峽區大觀路62號","121.374735","24.9453466666667","6500900","三峽區"
"242035","AAC-296","2018/11/01 08:37:42","新北市新莊區後港一路49巷3弄1號","121.425645","25.0267466666667","6500500","新莊區"
"242057","986-R7","2018/11/01 08:37:35","新北市新莊區新北大道七段766號","121.412778333333","25.02526","6500500","新莊區"
"242055","751-BX","2018/11/01 08:37:49","新北市新莊區豐年街豐2巷23號","121.447465","25.03087","6500500","新莊區"
"242026","615-BX","2018/11/01 08:37:53","新北市新莊區幸福路818號","121.44552","25.04908","6500500","新莊區"
"242024","613-BX","2018/11/01 08:37:49","新北市新莊區五工三路94巷32號","121.459303333333","25.0664316666667","6500500","新莊區"
"242028","612-BX","2018/11/01 08:37:43","新北市新莊區中平路379號","121.444588333333","25.0526083333333","6500500","新莊區"
"242043","566-BX","2018/11/01 08:37:37","新北市新莊區中正路力行巷1弄2號","121.416941666667","25.0263266666667","6500500","新莊區"
"242047","497-BY","2018/11/01 08:37:41","新北市新莊區民安路49號","121.423901666667","25.0262816666667","6500500","新莊區"
"242010","442-UM","2018/11/01 08:37:32","新北市新莊區中港路591巷8號","121.450968333333","25.05238","6500500","新莊區"
"242052","441-UM","2018/11/01 08:37:49","新北市新莊區光華街41號","121.428798333333","25.01134","6500500","新莊區"
"242038","415-TV","2018/11/01 08:37:40","新北市新莊區民安路346號","121.429401666667","25.0223866666667","6500500","新莊區"
"242008","413-TV","2018/11/01 08:37:52","新北市新莊區昌平街71巷14號","121.453863333333","25.05372","6500500","新莊區"
"242045","400-BY","2018/11/01 08:37:44","新北市新莊區福營路313號","121.426505","25.0288666666667","6500500","新莊區"
"242022","362-BY","2018/11/01 08:37:50","新北市新莊區化成路308號","121.465736666667","25.0481716666667","6500500","新莊區"
"242059","353-BY","2018/11/01 08:37:40","新北市新莊區新樹路72-5號","121.436578333333","25.0251816666667","6500500","新莊區"
"242040","133-UY","2018/11/01 08:37:34","新北市新莊區天祥街121巷20號","121.41409","25.02911","6500500","新莊區"
"242033","135-UY","2018/11/01 08:37:36","新北市新莊區景德路223號","121.448998333333","25.0337166666667","6500500","新莊區"
"242049","172-VK","2018/11/01 08:37:29","新北市新莊區西盛街141號","121.428253333333","25.0183816666667","6500500","新莊區"
"242012","173-VK","2018/11/01 08:37:42","新北市新莊區中誠街53巷38號","121.45134","25.0470266666667","6500500","新莊區"
"242018","175-VK","2018/11/01 08:37:40","新北市新莊區中港路132巷2號","121.455525","25.040515","6500500","新莊區"
"242006","176-VK","2018/11/01 08:37:51","新北市新莊區思源路593巷5弄27號","121.457985","25.059345","6500500","新莊區"
"242001","233-RS","2018/11/01 08:37:49","新北市樹林區中山路三段210-2號","121.380738333333","24.9664066666667","6500500","新莊區"
"242016","346-TH","2018/11/01 08:37:35","新北市新莊區中華路二段71巷14號","121.452341666667","25.047335","6500500","新莊區"
"242030","348-TH","2018/11/01 08:37:33","新北市新莊區新泰路249號","121.446008333333","25.0397116666667","6500500","新莊區"
"242003","349-TH","2018/11/01 08:37:48","新北市新莊區自立街184號","121.456186666667","25.0453983333333","6500500","新莊區"
"242020","350-TH","2018/11/01 08:37:31","新北市新莊區新興街36巷4號","121.450836666667","25.03695","6500500","新莊區"
"242001","281-VK","2018/11/01 08:37:39","新北市新莊區環漢路二段385號","121.451255","25.0326583333333","6500500","新莊區"
"242014","280-VK","2018/11/01 08:37:45","新北市新莊區中平路152巷11號","121.445433333333","25.047455","6500500","新莊區"
