"lineid","car","time","location","longitude","latitude","cityid","cityname"
"248004","653-BX","2018/11/01 09:27:36","新北市五股區水碓九路1號","121.427831666667","25.07077","6501500","五股區"
"244022","069-UM","2018/11/01 09:27:51","新北市林口區仁愛路二段62巷10號","121.383708333333","25.0760816666667","6501700","林口區"
"244006","080-UY","2018/11/01 09:27:37","新北市林口區中湖62號","121.384735","25.1008133333333","6501700","林口區"
"244003","248-BX","2018/11/01 09:27:35","新北市林口區粉寮路1號","121.398003333333","25.0801966666667","6501700","林口區"
"244018","403-UM","2018/11/01 09:27:43","新北市林口區忠孝路646巷70號","121.379573333333","25.0670666666667","6501700","林口區"
"244012","KEA-2802","2018/11/01 09:27:36","新北市林口區麗園一街6巷4-2號","121.375475","25.06988","6501700","林口區"
"244008","410-SL","2018/11/01 09:27:49","新北市林口區竹林路346巷18號","121.392731666667","25.0833283333333","6501700","林口區"
"244016","485-VK","2018/11/01 09:27:46","新北市林口區文化二路一段68巷12號","121.366161666667","25.0679416666667","6501700","林口區"
"244010","701-TV","2018/11/01 09:27:36","新北市林口區中正路345巷1弄1號","121.387951666667","25.07728","6501700","林口區"
"244024","837-TS","2018/11/01 09:27:47","新北市林口區文化三路一段555巷88-1號","121.368571666667","25.0764733333333","6501700","林口區"
"222006","289-BY","2018/11/01 09:27:36","新北市深坑區昇高坑路30號","121.627241666667","25.0001683333333","6501800","深坑區"
"231069","189-VK","2018/11/01 09:27:29","新北市新店區新潭路三段215巷25號","121.5081","24.9040616666667","6500600","新店區"
"231008","192-VK","2018/11/01 09:27:47","新北市新店區平廣路一段201巷1號","121.514761666667","24.88924","6500600","新店區"
"226003","AGD-0702","2018/11/01 09:27:52","新北市平溪區平溪里三坑路1-2號","121.741371666667","25.0288516666667","6502400","平溪區"
"223006","022-BY","2018/11/01 09:27:34","新北市石碇區摸乳巷5號","121.659506666667","24.98565","6501900","石碇區"
"223002","KEA-2673","2018/11/01 09:27:38","新北市石碇區碇坪路一段125號","121.666076666667","24.9865216666667","6501900","石碇區"
"223008","406-TH","2018/11/01 09:27:49","新北市石碇區頭7號","121.707611666667","24.9977216666667","6501900","石碇區"
"223001","592-UM","2018/11/01 09:27:19","新北市石碇區北宜路四段3-1號","121.61241","24.9582533333333","6501900","石碇區"
"223007","661-BX","2018/11/01 09:27:54","新北市石碇區頭6號","121.707466666667","24.9960933333333","6501900","石碇區"
"223005","677-TV","2018/11/01 09:27:27","新北市石碇區小粗坑(潭邊里)9-2號","121.678826666667","24.9862833333333","6501900","石碇區"
"252004","249-BX","2018/11/01 09:27:38","新北市三芝區店子里店子112-4號","121.510531666667","25.209635","6502100","三芝區"
"252007","AAC-283","2018/11/01 09:27:47","新北市三芝區埔坪里埔頭坑61號","121.507175","25.2645466666667","6502100","三芝區"
"242035","AAC-296","2018/11/01 09:27:42","新北市新莊區後港一路94巷9號","121.428135","25.0260816666667","6500500","新莊區"
"242057","986-R7","2018/11/01 09:27:51","新北市新莊區龍安路278巷19號","121.422005","25.018495","6500500","新莊區"
"242055","751-BX","2018/11/01 09:27:49","新北市新莊區瓊泰路152號","121.443201666667","25.0323683333333","6500500","新莊區"
"242024","613-BX","2018/11/01 09:27:49","新北市三重區重新路五段283號","121.479246666667","25.0494166666667","6500500","新莊區"
"242043","566-BX","2018/11/01 09:27:34","新北市新莊區中正路新建巷28弄69號","121.413835","25.0209","6500500","新莊區"
"242047","497-BY","2018/11/01 09:27:41","新北市新莊區中正路853-1號","121.420046666667","25.0280816666667","6500500","新莊區"
"242010","442-UM","2018/11/01 09:27:52","新北市新莊區新北大道四段209號","121.444626666667","25.0561966666667","6500500","新莊區"
"242052","441-UM","2018/11/01 09:27:49","新北市新莊區龍安路497號","121.425975","25.0180833333333","6500500","新莊區"
"242038","415-TV","2018/11/01 09:27:40","新北市新莊區民安路377號","121.431706666667","25.0230933333333","6500500","新莊區"
"242008","413-TV","2018/11/01 09:27:46","新北市三重區疏洪西路400號","121.468821666667","25.0640583333333","6500500","新莊區"
"242045","400-BY","2018/11/01 09:27:39","新北市新莊區富國路22巷17號","121.418428333333","25.02583","6500500","新莊區"
"242022","362-BY","2018/11/01 09:27:50","新北市新莊區思源路65號","121.459858333333","25.040475","6500500","新莊區"
"242059","353-BY","2018/11/01 09:27:40","新北市新莊區新樹路172-13號","121.434625","25.0217433333333","6500500","新莊區"
"242040","133-UY","2018/11/01 09:27:54","新北市新莊區天祥街47巷29號","121.41617","25.0278866666667","6500500","新莊區"
"242001","233-RS","2018/11/01 09:27:49","新北市新莊區環河路636-7號","121.437551666667","25.0116566666667","6500500","新莊區"
"242030","348-TH","2018/11/01 09:27:53","新北市新莊區義豐街29號","121.441151666667","25.035325","6500500","新莊區"
"242003","349-TH","2018/11/01 09:27:48","新北市三重區中興北街54-15號","121.467976666667","25.0512483333333","6500500","新莊區"
"242001","281-VK","2018/11/01 09:27:39","新北市新莊區中港路五守新村37巷1號","121.454581666667","25.03886","6500500","新莊區"
