"lineid","car","time","location","longitude","latitude","cityid","cityname"
"248004","653-BX","2018/11/01 09:47:36","新北市五股區成泰路一段9號","121.433585","25.0666183333333","6501500","五股區"
"244022","069-UM","2018/11/01 09:47:51","新北市林口區文化三路二段213號","121.376295","25.0832066666667","6501700","林口區"
"244018","403-UM","2018/11/01 09:47:43","新北市林口區麗園二街12巷3-2號","121.379053333333","25.0696166666667","6501700","林口區"
"244012","KEA-2802","2018/11/01 09:47:36","新北市林口區麗園一街1號","121.375815","25.0725216666667","6501700","林口區"
"244016","485-VK","2018/11/01 09:47:50","新北市林口區公園路52號","121.368813333333","25.069735","6501700","林口區"
"222006","289-BY","2018/11/01 09:47:36","新北市深坑區昇高坑路12號","121.625701666667","24.9988283333333","6501800","深坑區"
"231069","189-VK","2018/11/01 09:47:49","新北市新店區新潭路三段215巷25號","121.508123333333","24.9040633333333","6500600","新店區"
"231008","192-VK","2018/11/01 09:46:47","新北市新店區平廣路一段151號","121.521788333333","24.89105","6500600","新店區"
"223008","406-TH","2018/11/01 09:47:49","新北市石碇區小粗坑(潭邊里)14-9號","121.68298","24.98206","6501900","石碇區"
"252004","249-BX","2018/11/01 09:47:38","新北市三芝區福德里大水堀21號","121.51237","25.220085","6502100","三芝區"
"252007","AAC-283","2018/11/01 09:47:47","新北市三芝區新庄里新庄子92號","121.51066","25.26858","6502100","三芝區"
"237001","159-UY","2018/11/01 09:47:45","新北市三峽區大學路125號","121.374866666667","24.943385","6500900","三峽區"
"242057","986-R7","2018/11/01 09:47:51","新北市新莊區民安路138號","121.42414","25.0253583333333","6500500","新莊區"
"242024","613-BX","2018/11/01 09:47:49","新北市新莊區瓊泰路77巷16號","121.442546666667","25.0292383333333","6500500","新莊區"
"242043","566-BX","2018/11/01 09:47:54","新北市新莊區龍安路90號","121.417665","25.0207983333333","6500500","新莊區"
"242022","362-BY","2018/11/01 09:47:51","新北市新莊區瓊林路13-3號","121.448955","25.0306683333333","6500500","新莊區"
"242059","353-BY","2018/11/01 09:47:50","新北市新莊區新樹路258巷3號","121.4322","25.0155816666667","6500500","新莊區"
"242040","133-UY","2018/11/01 09:47:34","新北市新莊區三和路10號","121.442168333333","25.03606","6500500","新莊區"
"242001","233-RS","2018/11/01 09:34:47","新北市新莊區環河路636-7號","121.43754","25.0116683333333","6500500","新莊區"
"242030","348-TH","2018/11/01 09:47:53","新北市新莊區中正路508巷5弄2號","121.435025","25.0339133333333","6500500","新莊區"
"242003","349-TH","2018/11/01 09:47:48","新北市新莊區化成路363巷55號","121.463328333333","25.0567066666667","6500500","新莊區"
