"lineid","car","time","location","longitude","latitude","cityid","cityname"
"244022","069-UM","2018/11/01 09:57:51","新北市林口區文化三路二段77巷39號","121.373065","25.0802416666667","6501700","林口區"
"244018","403-UM","2018/11/01 09:57:43","新北市林口區麗園一街9巷1號","121.376523333333","25.071375","6501700","林口區"
"244012","KEA-2802","2018/11/01 09:57:36","新北市林口區中山路276號","121.382536666667","25.081045","6501700","林口區"
"244016","485-VK","2018/11/01 09:57:46","新北市林口區民族路302-99號","121.370695","25.0794433333333","6501700","林口區"
"222006","289-BY","2018/11/01 09:57:36","新北市深坑區大崙腳8-1號","121.617731666667","24.99357","6501800","深坑區"
"231069","189-VK","2018/11/01 09:57:49","新北市新店區新潭路三段215巷25號","121.508111666667","24.9040816666667","6500600","新店區"
"231008","192-VK","2018/11/01 09:57:47","新北市新店區小坑一路21-1號","121.532068333333","24.9125166666667","6500600","新店區"
"223008","406-TH","2018/11/01 09:57:49","新北市石碇區小粗坑(潭邊里)9-2號","121.678726666667","24.9858866666667","6501900","石碇區"
"252004","249-BX","2018/11/01 09:56:58","新北市三芝區福德里土地公埔46-6號","121.512096666667","25.230685","6502100","三芝區"
"252007","AAC-283","2018/11/01 09:57:47","新北市三芝區新庄里新庄子51-16號","121.507328333333","25.2778766666667","6502100","三芝區"
"237001","159-UY","2018/11/01 09:57:45","新北市三峽區國際二街77號","121.370723333333","24.9421716666667","6500900","三峽區"
"242057","986-R7","2018/11/01 09:57:50","新北市新莊區福營路84號","121.438068333333","25.0327766666667","6500500","新莊區"
"242022","362-BY","2018/11/01 09:47:51","新北市新莊區瓊林路13-3號","121.448955","25.0306683333333","6500500","新莊區"
"242040","133-UY","2018/11/01 09:57:34","新北市五股區新五路三段181號","121.448103333333","25.0924383333333","6500500","新莊區"
"242001","233-RS","2018/11/01 09:34:47","新北市新莊區環河路636-7號","121.43754","25.0116683333333","6500500","新莊區"
"242003","349-TH","2018/11/01 09:57:48","新北市三重區光復路二段168-2號","121.471638333333","25.0613583333333","6500500","新莊區"
