"lineid","car","time","location","longitude","latitude","cityid","cityname"
"248004","653-BX","2018/11/01 10:27:46","新北市五股區中興路二段83巷26-6號","121.460168333333","25.07526","6501500","五股區"
"244022","069-UM","2018/11/01 10:27:51","新北市林口區文化北路二段8-1號","121.369926666667","25.0818083333333","6501700","林口區"
"222006","289-BY","2018/11/01 10:27:36","新北市深坑區王軍寮3-3號","121.617433333333","24.983285","6501800","深坑區"
"231069","189-VK","2018/11/01 10:27:49","新北市新店區新潭路三段130-1號","121.510576666667","24.9099183333333","6500600","新店區"
"231008","192-VK","2018/11/01 10:27:27","新北市新店區成功路50巷1號","121.543855","24.903885","6500600","新店區"
"252007","AAC-283","2018/11/01 10:27:47","新北市三芝區新庄里番社后1-1號","121.50141","25.2645","6502100","三芝區"
"242057","986-R7","2018/11/01 10:27:50","新北市林口區太平里180號","121.368221666667","25.1338516666667","6500500","新莊區"
