"lineid","car","time","location","longitude","latitude","cityid","cityname"
"234078","298-R6","2018/11/01 12:28:02","新北市永和區福和路1號","121.526296666667","25.0095116666667","6500400","永和區"
"234084","338-UY","2018/11/01 12:29:50","新北市永和區福和路1號","121.526356666667","25.0096733333333","6500400","永和區"
"234015","745-BX","2018/11/01 12:29:52","新北市永和區福和路1號","121.526261666667","25.0095733333333","6500400","永和區"
"234012","KEA-2591","2018/11/01 12:26:37","新北市永和區環河東路二段50號","121.523256666667","25.0119483333333","6500400","永和區"
"234010","9373-KE","2018/11/01 12:28:45","新北市永和區福和路1號","121.525566666667","25.00937","6500400","永和區"
"234076","969-R7","2018/11/01 12:29:54","新北市永和區福和路1號","121.52663","25.00982","6500400","永和區"
"234001","AAC-295","2018/11/01 12:29:52","新北市永和區福和路1號","121.526525","25.0099216666667","6500400","永和區"
"243008","KEA-2801","2018/11/01 12:08:06","新北市泰山區黎明路25號","121.422163333333","25.0607016666667","6501600","泰山區"
"235029","098-UM","2018/11/01 12:29:39","新北市中和區員山路36巷16-3號","121.485016666667","24.9912683333333","6500300","中和區"
"235005","802-TS","2018/11/01 12:29:55","新北市中和區員山路36巷16-2號","121.485335","24.9916633333333","6500300","中和區"
"228005","097-TW","2018/11/01 12:26:41","新北市貢寮區福連里蓬萊街9-1號","121.99671","25.003985","6502600","貢寮區"
"228004","212-TW","2018/11/01 12:27:25","新北市貢寮區貢寮里長泰路1號","121.90634","25.0190133333333","6502600","貢寮區"
"207002","749-BX","2018/11/01 12:27:17","新北市萬里區雙興里太和路7-2號","121.658531666667","25.1741033333333","6502800","萬里區"
"242022","362-BY","2018/11/01 12:01:05","新北市新莊區瓊林路13-3號","121.44932","25.0305266666667","6500500","新莊區"
"235025","KEA-2875","2018/11/01 12:20:02","新北市中和區員山路36巷16-2號","121.485228333333","24.9916566666667","6500300","中和區"
