"lineid","car","time","location","longitude","latitude","cityid","cityname"
"234044","148-BY","2018/11/01 12:39:55","新北市永和區永元路52巷3號","121.522676666667","25.0011283333333","6500400","永和區"
"234078","298-R6","2018/11/01 12:39:42","新北市永和區林森路81號","121.523823333333","25.0039","6500400","永和區"
"234036","336-UY","2018/11/01 12:39:54","新北市永和區福和路1號","121.526535","25.0100283333333","6500400","永和區"
"234062","337-UY","2018/11/01 12:39:41","新北市永和區福和路1號","121.52658","25.0100816666667","6500400","永和區"
"234084","338-UY","2018/11/01 12:39:50","新北市永和區中正路156號","121.514873333333","24.9964683333333","6500400","永和區"
"234068","552-UM","2018/11/01 12:39:57","新北市永和區福和路1號","121.525428333333","25.0095933333333","6500400","永和區"
"234015","745-BX","2018/11/01 12:39:52","新北市永和區福和路1號","121.526285","25.0095616666667","6500400","永和區"
"234012","KEA-2591","2018/11/01 12:39:57","新北市永和區保福路二段102號","121.51006","25.01348","6500400","永和區"
"234025","9371-KE","2018/11/01 12:39:40","新北市永和區福和路1號","121.526663333333","25.0099833333333","6500400","永和區"
"234010","9373-KE","2018/11/01 12:39:26","新北市永和區福和路1號","121.52563","25.00926","6500400","永和區"
"234022","9380-KE","2018/11/01 12:39:43","新北市永和區豫溪街217巷1號","121.5253","25.0096633333333","6500400","永和區"
"234076","969-R7","2018/11/01 12:39:55","新北市永和區民有街1號","121.515801666667","24.9973216666667","6500400","永和區"
"234072","AAC-211","2018/11/01 12:39:53","新北市永和區福和路1號","121.526606666667","25.0099466666667","6500400","永和區"
"234066","AAC-212","2018/11/01 12:39:46","新北市永和區豫溪街217巷29號","121.52459","25.0104366666667","6500400","永和區"
"234001","AAC-295","2018/11/01 12:39:51","新北市永和區福和路1號","121.526536666667","25.0099233333333","6500400","永和區"
"231003","268-BY","2018/11/01 12:39:54","新北市新店區安一路一段1-1號","121.519348333333","24.961","6500600","新店區"
"231017","AAD-862","2018/11/01 12:39:38","新北市新店區安一路一段1-1號","121.519883333333","24.9612316666667","6500600","新店區"
"231036","512-UM","2018/11/01 12:39:53","新北市新店區安一路一段1-1號","121.51904","24.9609566666667","6500600","新店區"
"235029","098-UM","2018/11/01 12:39:39","新北市中和區員山路36巷16-3號","121.484898333333","24.9912016666667","6500300","中和區"
"235031","255-BX","2018/11/01 12:39:42","新北市中和區新生街287號","121.483775","24.9974616666667","6500300","中和區"
"235001","611-BX","2018/11/01 12:39:45","新北市中和區員山路72號","121.480823333333","24.9935583333333","6500300","中和區"
"235005","802-TS","2018/11/01 12:39:55","新北市中和區員山路36巷16-2號","121.48536","24.9917333333333","6500300","中和區"
"228005","097-TW","2018/11/01 12:39:41","新北市貢寮區福連里蓬萊街9號","121.9971","25.003985","6502600","貢寮區"
"228004","212-TW","2018/11/01 12:39:50","新北市貢寮區吉林里枋腳街6-1號","121.887235","25.00478","6502600","貢寮區"
"207002","749-BX","2018/11/01 12:39:37","新北市萬里區雙興里太和路7-2號","121.658516666667","25.1740966666667","6502800","萬里區"
"235025","KEA-2875","2018/11/01 12:20:02","新北市中和區員山路36巷16-2號","121.485228333333","24.9916566666667","6500300","中和區"
