"lineid","car","time","location","longitude","latitude","cityid","cityname"
"234044","148-BY","2018/11/01 12:49:50","新北市永和區秀朗路二段148巷12弄16號","121.524775","25.0011133333333","6500400","永和區"
"234005","207-UY","2018/11/01 12:49:52","新北市永和區永和路二段245號","121.515715","25.0149666666667","6500400","永和區"
"234078","298-R6","2018/11/01 12:49:42","新北市永和區永利路132號","121.521745","25.0029183333333","6500400","永和區"
"234036","336-UY","2018/11/01 12:49:54","新北市永和區成功路一段82號","121.526803333333","25.0030183333333","6500400","永和區"
"234062","337-UY","2018/11/01 12:49:41","新北市永和區豫溪街217巷7號","121.52516","25.0098783333333","6500400","永和區"
"234084","338-UY","2018/11/01 12:49:50","新北市永和區中正路1號","121.513611666667","24.9952983333333","6500400","永和區"
"234068","552-UM","2018/11/01 12:49:57","新北市永和區竹林路137號","121.520251666667","25.01069","6500400","永和區"
"234015","745-BX","2018/11/01 12:49:52","新北市永和區忠孝街26巷8號","121.515285","25.0168533333333","6500400","永和區"
"234028","746-BX","2018/11/01 12:49:44","新北市永和區得和路317號","121.523288333333","24.99968","6500400","永和區"
"234052","KEA-2590","2018/11/01 12:49:44","新北市永和區環河東路一段162號","121.521415","25.0145716666667","6500400","永和區"
"234012","KEA-2591","2018/11/01 12:49:57","新北市永和區保福路二段70號","121.510611666667","25.0130116666667","6500400","永和區"
"234060","AAD-866","2018/11/01 12:49:42","新北市永和區福和路26號","121.523968333333","25.0083666666667","6500400","永和區"
"234048","863-TW","2018/11/01 12:49:55","新北市永和區福和路1號","121.525971666667","25.0098666666667","6500400","永和區"
"234025","9371-KE","2018/11/01 12:49:40","新北市永和區永和路一段149-2號","121.51423","25.0092116666667","6500400","永和區"
"234010","9373-KE","2018/11/01 12:49:45","新北市永和區保福路二段158巷1號","121.509143333333","25.0150133333333","6500400","永和區"
"248015","026-BX","2018/11/01 12:46:48","新北市五股區中興路二段83巷26-6號","121.459983333333","25.07532","6501500","五股區"
"234022","9380-KE","2018/11/01 12:49:43","新北市永和區竹林路119巷35號","121.521796666667","25.01187","6500400","永和區"
"234076","969-R7","2018/11/01 12:49:55","新北市中和區安樂路60巷11號","121.51295","24.9930466666667","6500400","永和區"
"234072","AAC-211","2018/11/01 12:49:53","新北市永和區福和路1號","121.526581666667","25.0099483333333","6500400","永和區"
"234066","AAC-212","2018/11/01 12:49:46","新北市永和區中和路625號","121.51297","25.004915","6500400","永和區"
"234001","AAC-295","2018/11/01 12:49:51","新北市永和區永和路二段35號","121.514318333333","25.010325","6500400","永和區"
"231001","047-UY","2018/11/01 12:49:52","新北市新店區安一路一段1-1號","121.518965","24.9611683333333","6500600","新店區"
"231010","107-UY","2018/11/01 12:49:42","新北市新店區安一路一段1-1號","121.519303333333","24.9611866666667","6500600","新店區"
"231011","187-VK","2018/11/01 12:49:43","新北市新店區安一路一段1-1號","121.519538333333","24.961115","6500600","新店區"
"231023","KEA-2219","2018/11/01 12:49:49","新北市新店區安華路28-1號","121.520048333333","24.9610633333333","6500600","新店區"
"231003","268-BY","2018/11/01 12:49:54","新北市新店區安華路28-1號","121.519366666667","24.96059","6500600","新店區"
"231017","AAD-862","2018/11/01 12:49:58","新北市新店區安一路一段1-1號","121.519616666667","24.9612233333333","6500600","新店區"
"231036","512-UM","2018/11/01 12:49:53","新北市新店區安華路28-1號","121.519395","24.9608933333333","6500600","新店區"
"231013","513-UM","2018/11/01 12:49:53","新北市新店區安一路一段1-1號","121.519615","24.9610933333333","6500600","新店區"
"231030","619-UM","2018/11/01 12:50:00","新北市新店區安華路1-1號","121.519428333333","24.9605116666667","6500600","新店區"
"231034","641-BX","2018/11/01 12:49:55","新北市新店區安華路1-1號","121.519591666667","24.9605033333333","6500600","新店區"
"231035","719-UM","2018/11/01 12:49:55","新北市新店區安一路一段1-1號","121.519413333333","24.9614216666667","6500600","新店區"
"231029","897-TW","2018/11/01 12:49:50","新北市新店區安華路28-1號","121.519513333333","24.9606316666667","6500600","新店區"
"231024","AKT-0513","2018/11/01 12:49:42","新北市新店區安華路28-1號","121.51954","24.9608283333333","6500600","新店區"
"235029","098-UM","2018/11/01 12:49:39","新北市中和區員山路36巷16-3號","121.485106666667","24.99119","6500300","中和區"
"235002","185-VK","2018/11/01 12:49:48","新北市中和區錦和路216號","121.490133333333","24.9938533333333","6500300","中和區"
"235031","255-BX","2018/11/01 12:49:42","新北市中和區中山路二段568巷38號","121.482301666667","25.0067766666667","6500300","中和區"
"235001","611-BX","2018/11/01 12:49:45","新北市中和區員山路324號","121.481243333333","25.0030766666667","6500300","中和區"
"235005","802-TS","2018/11/01 12:49:55","新北市中和區和城路一段271巷1號","121.485435","24.9917433333333","6500300","中和區"
"228005","097-TW","2018/11/01 12:49:41","新北市貢寮區福連里福連街37號","121.988723333333","25.0111083333333","6502600","貢寮區"
"228004","212-TW","2018/11/01 12:49:45","新北市貢寮區吉林里內寮街20-1號","121.889816666667","24.9947633333333","6502600","貢寮區"
"207002","749-BX","2018/11/01 12:49:57","新北市萬里區雙興里二坪路28-1號","121.644651666667","25.1687266666667","6502800","萬里區"
"207001","662-BX","2018/11/01 12:49:51","新北市萬里區萬里里瑪鋉路201號","121.690461666667","25.1792266666667","6502800","萬里區"
"242001","233-RS","2018/11/01 12:49:48","新北市新莊區環河路636-7號","121.43749","25.0117266666667","6500500","新莊區"
"221010","269-BY","2018/11/01 12:49:45","新北市汐止區康寧街753巷1-1號","121.639008333333","25.0737066666667","6501100","汐止區"
"221032","280-BY","2018/11/01 12:49:50","新北市汐止區大同路二段533號","121.661831666667","25.0691116666667","6501100","汐止區"
"235025","KEA-2875","2018/11/01 12:20:02","新北市中和區員山路36巷16-2號","121.485228333333","24.9916566666667","6500300","中和區"
