"lineid","car","time","location","longitude","latitude","cityid","cityname"
"234044","148-BY","2018/11/01 13:39:50","新北市永和區秀朗路二段66巷7弄1號","121.522826666667","25.0015016666667","6500400","永和區"
"234005","207-UY","2018/11/01 13:39:50","新北市永和區永和路一段176-1號","121.514185","25.0088216666667","6500400","永和區"
"234078","298-R6","2018/11/01 13:39:42","新北市永和區國中路104巷8弄19號","121.525405","25.0064383333333","6500400","永和區"
"234036","336-UY","2018/11/01 13:39:54","新北市永和區環河東路四段10號","121.528396666667","25.0000766666667","6500400","永和區"
"234062","337-UY","2018/11/01 13:39:41","新北市永和區秀朗路一段192巷6弄14號","121.519105","25.0022683333333","6500400","永和區"
"234084","338-UY","2018/11/01 13:39:57","新北市永和區林森路39巷2-1號","121.525301666667","25.00474","6500400","永和區"
"234068","552-UM","2018/11/01 13:39:37","新北市永和區永和路二段233號","121.515446666667","25.0141366666667","6500400","永和區"
"234015","745-BX","2018/11/01 13:39:52","新北市永和區忠孝街26巷8號","121.515441666667","25.0166416666667","6500400","永和區"
"234028","746-BX","2018/11/01 13:39:51","新北市永和區民權路1巷8號","121.520641666667","24.9984583333333","6500400","永和區"
"234052","KEA-2590","2018/11/01 13:39:47","新北市永和區竹林路39巷14號","121.51849","25.0145916666667","6500400","永和區"
"234012","KEA-2591","2018/11/01 13:39:57","新北市永和區仁愛路203號","121.509915","25.0125533333333","6500400","永和區"
"234060","AAD-866","2018/11/01 13:39:42","新北市永和區秀朗路一段185號","121.517391666667","25.0036883333333","6500400","永和區"
"234040","862-TW","2018/11/01 13:39:40","新北市永和區永貞路267號","121.511783333333","25.0047483333333","6500400","永和區"
"234048","863-TW","2018/11/01 13:39:55","新北市永和區保福路二段162巷2號","121.508985","25.0152333333333","6500400","永和區"
"234025","9371-KE","2018/11/01 13:40:00","新北市永和區和平街109巷6號","121.51077","25.00964","6500400","永和區"
"234010","9373-KE","2018/11/01 13:39:52","新北市永和區保福路二段133巷2號","121.509481666667","25.0138216666667","6500400","永和區"
"248013","025-BX","2018/11/01 13:36:12","新北市五股區蓬萊路2巷3號","121.435868333333","25.0795083333333","6501500","五股區"
"248015","026-BX","2018/11/01 13:39:49","新北市五股區凌雲路一段133巷27-3號","121.448651666667","25.100875","6501500","五股區"
"248005","077-UY","2018/11/01 13:39:51","新北市五股區中興路一段48號","121.468155","25.07259","6501500","五股區"
"248007","095-VK","2018/11/01 13:39:41","新北市五股區中興路一段148號","121.464693333333","25.0738983333333","6501500","五股區"
"248017","225-UY","2018/11/01 13:39:54","新北市五股區民義路二段78號","121.405943333333","25.1089933333333","6501500","五股區"
"248011","247-BX","2018/11/01 13:39:46","新北市五股區成泰路三段6號","121.440986666667","25.087515","6501500","五股區"
"248009","272-BY","2018/11/01 13:39:43","新北市五股區水碓五路117號","121.430918333333","25.07279","6501500","五股區"
"248003","655-BX","2018/11/01 13:39:46","新北市五股區民義路一段255-29號","121.427765","25.090995","6501500","五股區"
"248001","678-BX","2018/11/01 13:39:52","新北市五股區西雲路221號","121.448828333333","25.096995","6501500","五股區"
"234022","9380-KE","2018/11/01 13:39:43","新北市永和區中正路700號","121.516373333333","25.0099133333333","6500400","永和區"
"234076","969-R7","2018/11/01 13:39:54","新北市永和區民權路48號","121.520161666667","24.9985466666667","6500400","永和區"
"234072","AAC-211","2018/11/01 13:39:53","新北市永和區竹林路213巷27號","121.522493333333","25.0090666666667","6500400","永和區"
"234066","AAC-212","2018/11/01 13:39:46","新北市永和區永平路173巷14弄2號","121.510193333333","25.0084816666667","6500400","永和區"
"234001","AAC-295","2018/11/01 13:39:52","新北市永和區永和路一段114號","121.513845","25.0073066666667","6500400","永和區"
"243005","AAD-798","2018/11/01 13:25:45","新北市泰山區明志路三段206巷3號","121.4233","25.037915","6501600","泰山區"
"243008","KEA-2801","2018/11/01 13:39:44","新北市泰山區泰林路二段262號","121.43169","25.06236","6501600","泰山區"
"243007","421-VK","2018/11/01 13:39:46","新北市泰山區黎明路25號","121.422146666667","25.0606383333333","6501600","泰山區"
"243004","539-UM","2018/11/01 13:39:59","新北市泰山區黎明路23-1號","121.421368333333","25.0612716666667","6501600","泰山區"
"231002","002-UM","2018/11/01 13:39:47","新北市新店區中央二街77號","121.525885","24.9749616666667","6500600","新店區"
"231027","0293-UT","2018/11/01 13:40:00","新北市新店區國校路68號","121.538628333333","24.9531283333333","6500600","新店區"
"231028","046-UY","2018/11/01 13:39:57","新北市新店區安和路一段39號","121.517193333333","24.9652716666667","6500600","新店區"
"231001","047-UY","2018/11/01 13:39:52","新北市新店區中央路3號","121.533546666667","24.9787716666667","6500600","新店區"
"231010","107-UY","2018/11/01 13:39:42","新北市新店區中正路307巷20號","121.53623","24.9742683333333","6500600","新店區"
"231021","108-UY","2018/11/01 13:39:56","新北市新店區永興路88-1號","121.543878333333","24.9336366666667","6500600","新店區"
"231011","187-VK","2018/11/01 13:39:43","新北市新店區德正街23巷12-1號","121.544678333333","24.9721716666667","6500600","新店區"
"231023","KEA-2219","2018/11/01 13:39:49","新北市新店區新店路93號","121.537306666667","24.9536783333333","6500600","新店區"
"231026","256-BX","2018/11/01 13:39:45","新北市新店區中正路160號","121.541445","24.9718233333333","6500600","新店區"
"231003","268-BY","2018/11/01 13:39:54","新北市新店區中正路30號","121.545123333333","24.96975","6500600","新店區"
"231018","278-BY","2018/11/01 13:39:45","新北市新店區百忍街14號","121.534598333333","24.9756683333333","6500600","新店區"
"231017","AAD-862","2018/11/01 13:39:58","新北市新店區竹林路63號","121.552946666667","24.95126","6500600","新店區"
"231005","355-BY","2018/11/01 13:39:40","新北市新店區中興路三段88號","121.545448333333","24.9788416666667","6500600","新店區"
"231038","3712-VJ","2018/11/01 13:39:50","新北市新店區安華路28-1號","121.519136666667","24.960645","6500600","新店區"
"231037","4716-K9","2018/11/01 13:39:54","新北市新店區薏仁坑路36號","121.493361666667","24.963375","6500600","新店區"
"231025","4715-K9","2018/11/01 13:39:59","新北市新店區中央六街58號","121.527838333333","24.9757366666667","6500600","新店區"
"231036","512-UM","2018/11/01 13:39:53","新北市新店區安祥路147巷55號","121.476133333333","24.9559683333333","6500600","新店區"
"231013","513-UM","2018/11/01 13:39:53","新北市新店區中正路454-5號","121.534448333333","24.97909","6500600","新店區"
"231006","617-UM","2018/11/01 13:40:01","新北市新店區北宜路一段20號","121.53817","24.9571466666667","6500600","新店區"
"231030","619-UM","2018/11/01 13:39:40","新北市新店區安康路一段231號","121.525443333333","24.9631266666667","6500600","新店區"
"231034","641-BX","2018/11/01 13:39:55","新北市新店區黎明路57巷50號","121.50427","24.9477066666667","6500600","新店區"
"231035","719-UM","2018/11/01 13:39:55","新北市新店區安康路二段85巷44號","121.514201666667","24.9609733333333","6500600","新店區"
"231031","720-UM","2018/11/01 13:39:41","新北市新店區安一路一段1-1號","121.51974","24.9622216666667","6500600","新店區"
"231029","897-TW","2018/11/01 13:39:50","新北市新店區安康路二段241號","121.508103333333","24.958545","6500600","新店區"
"231004","899-TW","2018/11/01 13:39:45","新北市新店區北新路二段3號","121.542583333333","24.9712883333333","6500600","新店區"
"231024","AKT-0513","2018/11/01 13:39:42","新北市新店區中央路185-2號","121.536948333333","24.96905","6500600","新店區"
"235030","003-UY","2018/11/01 13:39:53","新北市中和區水源路34巷1號","121.504935","25.0035533333333","6500300","中和區"
"235028","005-UY","2018/11/01 13:39:42","新北市中和區連城路109巷22號","121.496778333333","24.998675","6500300","中和區"
"235027","006-UY","2018/11/01 13:39:53","新北市中和區連城路403巷1號","121.486271666667","24.9958716666667","6500300","中和區"
"235020","096-UM","2018/11/01 13:39:48","新北市中和區員山路466巷17弄23號","121.480478333333","25.0072433333333","6500300","中和區"
"235003","097-UM","2018/11/01 13:39:46","新北市中和區景平路262號","121.514906666667","24.9930266666667","6500300","中和區"
"235029","098-UM","2018/11/01 13:39:39","新北市中和區莊敬路33巷48號","121.500531666667","25.007075","6500300","中和區"
"235004","150-BY","2018/11/01 13:39:43","新北市中和區保健路46巷37弄12號","121.50898","24.9953966666667","6500300","中和區"
"235022","151-BY","2018/11/01 13:39:51","新北市中和區員山路59號","121.481045","24.9930233333333","6500300","中和區"
"235019","183-VK","2018/11/01 13:39:59","新北市中和區國光街102巷2號","121.470291666667","25.0004033333333","6500300","中和區"
"235002","185-VK","2018/11/01 13:39:48","新北市中和區大勇街88號","121.517905","24.9953066666667","6500300","中和區"
"235013","186-VK","2018/11/01 13:39:56","新北市中和區景安路161號","121.505318333333","24.9946733333333","6500300","中和區"
"235031","255-BX","2018/11/01 13:39:42","新北市中和區新生街186巷5弄27號","121.48291","24.9986666666667","6500300","中和區"
"235008","293-VK","2018/11/01 13:39:55","新北市中和區復興路280巷5號","121.502228333333","24.99095","6500300","中和區"
"235036","301-VK","2018/11/01 13:39:49","新北市中和區連城路67號","121.49757","25.00129","6500300","中和區"
"235007","352-BY","2018/11/01 13:39:41","新北市中和區景平路105號","121.516885","24.9919133333333","6500300","中和區"
"235014","4979-A6","2018/11/01 13:39:45","新北市中和區景新街496巷30弄33號","121.51258","24.9855816666667","6500300","中和區"
"235033","4980-A6","2018/11/01 13:39:46","新北市中和區連城路89巷10號","121.496981666667","24.999355","6500300","中和區"
"235006","551-UM","2018/11/01 13:39:43","新北市中和區自立路76號","121.524108333333","24.9912683333333","6500300","中和區"
"235034","558-UM","2018/11/01 13:39:41","新北市中和區景平路572號","121.501713333333","24.9954316666667","6500300","中和區"
"235009","565-BX","2018/11/01 13:39:49","新北市中和區復興路2號","121.506388333333","24.989815","6500300","中和區"
"235018","640-BX","2018/11/01 13:39:48","新北市中和區民享街32巷15號","121.472956666667","25.0031483333333","6500300","中和區"
"235024","647-TV","2018/11/01 13:39:50","新北市中和區中山路二段537號","121.481396666667","25.00543","6500300","中和區"
"235011","732-UM","2018/11/01 13:39:56","新北市中和區興南路一段164號","121.50799","24.9866633333333","6500300","中和區"
"235035","783-BX","2018/11/01 13:39:46","新北市中和區永和路356巷51號","121.487193333333","25.0142033333333","6500300","中和區"
"235026","800-TS","2018/11/01 13:39:46","新北市中和區中山路二段312巷10弄2號","121.4956","25.00303","6500300","中和區"
"235021","801-TS","2018/11/01 13:39:57","新北市中和區民安街1號","121.480798333333","25.00092","6500300","中和區"
"235005","802-TS","2018/11/01 13:39:55","新北市中和區中安街78號","121.512051666667","25.00197","6500300","中和區"
"235016","805-TS","2018/11/01 13:39:56","新北市中和區興南路三段46號","121.495623333333","24.9768083333333","6500300","中和區"
"235012","896-TW","2018/11/01 13:39:57","新北市中和區中正路76號","121.500708333333","24.993595","6500300","中和區"
"235017","900-TW","2018/11/01 13:39:50","新北市中和區莒光路222-8號","121.468963333333","24.994815","6500300","中和區"
"235015","157-BY","2018/11/01 13:39:48","新北市中和區興南路二段159巷1-1號","121.505113333333","24.9834433333333","6500300","中和區"
"235001","AAC-213","2018/11/01 13:39:43","新北市中和區景德街52號","121.51752","24.9915233333333","6500300","中和區"
"235023","AAC-215","2018/11/01 13:39:43","新北市中和區錦和路350-1號","121.490496666667","24.9935866666667","6500300","中和區"
"220013","072-UY","2018/11/01 13:39:57","新北市板橋區漢生東路280號","121.470415","25.009895","6500100","板橋區"
"220034","073-UY","2018/11/01 13:39:49","新北市板橋區南雅西路二段145巷4號","121.451643333333","25.0116716666667","6500100","板橋區"
"220017","AAD-861","2018/11/01 13:39:46","新北市板橋區華東街1-9號","121.447831666667","24.9954633333333","6500100","板橋區"
"247009","056-VK","2018/11/01 13:39:48","新北市五股區中興路三段2巷10號","121.449106666667","25.0809516666667","6501400","蘆洲區"
"247021","001-UY","2018/11/01 13:39:54","新北市五股區中興路三段2巷10號","121.449261666667","25.08084","6501400","蘆洲區"
"228005","097-TW","2018/11/01 13:39:41","新北市貢寮區美豐里文秀坑5-1號","121.903001666667","25.0510133333333","6502600","貢寮區"
"228004","212-TW","2018/11/01 13:39:45","新北市貢寮區龍崗里嵩陽街41號","121.906286666667","25.0122366666667","6502600","貢寮區"
"253003","6232-TK","2018/11/01 13:39:45","新北市石門區中山路64-1號","121.567515","25.290395","6502200","石門區"
"253004","6251-TK","2018/11/01 13:39:47","新北市石門區阿里荖50號","121.607311666667","25.2750133333333","6502200","石門區"
"253002","637-UY","2018/11/01 13:39:47","新北市石門區九芎林51號","121.56602","25.2503583333333","6502200","石門區"
"253001","KEC-0718","2018/11/01 13:39:56","新北市三芝區新庄里新庄子48-11號","121.506775","25.2790533333333","6502200","石門區"
"207002","749-BX","2018/11/01 13:39:57","新北市萬里區崁腳里崁腳路166號","121.645078333333","25.1558733333333","6502800","萬里區"
"252005","073-UM","2018/11/01 13:39:45","新北市三芝區圓山里內柑宅19號","121.537691666667","25.2164583333333","6502100","三芝區"
"207001","662-BX","2018/11/01 13:39:52","新北市萬里區大鵬里萬里加投46-1號","121.641861666667","25.2111316666667","6502800","萬里區"
"236068","105-UM","2018/11/01 13:39:50","新北市土城區城林路6巷80號","121.438638333333","24.9797183333333","6501300","土城區"
"236074","166-UM","2018/11/01 13:39:48","新北市土城區中華路二段62號","121.439025","24.9768183333333","6501300","土城區"
"236012","270-VK","2018/11/01 13:40:00","新北市土城區城林路6巷80號","121.438746666667","24.9797816666667","6501300","土城區"
"236032","271-VK","2018/11/01 13:39:47","新北市土城區城林路6巷80號","121.438465","24.9797916666667","6501300","土城區"
"236057","912-UM","2018/11/01 13:39:40","新北市土城區城林路6巷80號","121.438505","24.9796766666667","6501300","土城區"
"236045","913-UM","2018/11/01 13:39:52","新北市土城區城林路6巷80號","121.43843","24.9797716666667","6501300","土城區"
"236060","915-UM","2018/11/01 13:39:50","新北市土城區城林路6巷80號","121.438596666667","24.9796233333333","6501300","土城區"
"236054","AAC-216","2018/11/01 13:39:50","新北市土城區城林路6巷80號","121.43861","24.97977","6501300","土城區"
"242001","233-RS","2018/11/01 13:39:48","新北市新莊區自重街37號","121.45423","25.0477266666667","6500500","新莊區"
"239004","292-BY","2018/11/01 13:39:58","新北市鶯歌區大湖路351號","121.338325","24.9716566666667","6500800","鶯歌區"
"221010","269-BY","2018/11/01 13:39:45","新北市汐止區康寧街505號","121.632785","25.0685783333333","6501100","汐止區"
"221033","647-BX","2018/11/01 13:39:59","新北市新店區安忠路205巷8號","121.509538333333","24.9550233333333","6501100","汐止區"
"220027","145-BY","2018/11/01 13:39:55","新北市板橋區南雅西路二段192巷1弄13號","121.452146666667","25.0148083333333","6500100","板橋區"
"220028","200-UY","2018/11/01 13:38:04","新北市板橋區大觀路二段443-2號","121.44084","24.9954866666667","6500100","板橋區"
"220030","610-BX","2018/11/01 13:40:00","新北市板橋區篤行路一段33號","121.432016666667","24.9943333333333","6500100","板橋區"
"220004","276-BY","2018/11/01 13:39:45","新北市板橋區四川路二段247號","121.450098333333","24.9930966666667","6500100","板橋區"
"220020","277-BY","2018/11/01 13:39:47","新北市板橋區大觀路三段52號","121.432358333333","24.9959683333333","6500100","板橋區"
"220005","282-UM","2018/11/01 13:39:50","新北市板橋區板城路407號","121.447546666667","24.995315","6500100","板橋區"
"220019","283-VK","2018/11/01 13:39:48","新北市板橋區四川路二段14號","121.456046666667","24.9962716666667","6500100","板橋區"
"220043","285-UM","2018/11/01 13:40:00","新北市板橋區民生路二段161巷3號","121.470031666667","25.0197533333333","6500100","板橋區"
"220031","286-VK","2018/11/01 13:39:57","新北市板橋區大觀路二段5號","121.446961666667","25.0038566666667","6500100","板橋區"
"220029","287-VK","2018/11/01 13:39:53","新北市板橋區大觀路二段101巷2號","121.446766666667","25.0014516666667","6500100","板橋區"
"220023","303-R5","2018/11/01 13:39:57","新北市板橋區大觀路一段51號","121.447585","25.0064116666667","6500100","板橋區"
"220012","486-VK","2018/11/01 13:39:48","新北市板橋區縣民大道二段82號","121.465136666667","25.01426","6500100","板橋區"
"220104","560-BX","2018/11/01 13:39:54","新北市板橋區南雅西路二段175巷2號","121.451753333333","25.012565","6500100","板橋區"
"220052","561-BX","2018/11/01 13:39:55","新北市板橋區民生路二段161巷1號","121.47006","25.0199666666667","6500100","板橋區"
"220032","568-UM","2018/11/01 13:39:41","新北市板橋區大觀路二段力行2巷65號","121.445761666667","24.99898","6500100","板橋區"
"220025","687-BX","2018/11/01 13:39:49","新北市板橋區大觀路三段180巷30號","121.429831666667","24.9936383333333","6500100","板橋區"
"220002","741-BX","2018/11/01 13:39:57","新北市板橋區華東街11號","121.451375","24.9984383333333","6500100","板橋區"
"220003","827-TW","2018/11/01 13:39:58","新北市板橋區華東街11號","121.451065","24.9980516666667","6500100","板橋區"
"220014","829-TW","2018/11/01 13:39:50","新北市板橋區民生路二段161巷1號","121.470203333333","25.0200766666667","6500100","板橋區"
"220022","895-R6","2018/11/01 13:39:42","新北市板橋區南雅東路1-1號","121.455368333333","25.005725","6500100","板橋區"
"220021","985-R7","2018/11/01 13:39:46","新北市板橋區南雅南路二段4巷2號","121.454228333333","25.00377","6500100","板橋區"
"220018","AAC-253","2018/11/01 13:39:55","新北市板橋區南雅南路二段144巷60號","121.450243333333","24.997395","6500100","板橋區"
"235032","KEA-2873","2018/11/01 13:39:57","新北市中和區中正路167巷13號","121.498298333333","24.9930583333333","6500300","中和區"
"235025","KEA-2875","2018/11/01 13:39:53","新北市中和區民享街112號","121.474483333333","24.9992083333333","6500300","中和區"
