"lineid","car","time","location","longitude","latitude","cityid","cityname"
"234044","148-BY","2018/11/01 13:59:50","新北市永和區林森路109號","121.522968333333","25.0032333333333","6500400","永和區"
"234005","207-UY","2018/11/01 13:59:50","新北市中和區中和路328號","121.509755","25.0011316666667","6500400","永和區"
"234078","298-R6","2018/11/01 13:59:46","新北市永和區永亨路100號","121.523218333333","25.0048383333333","6500400","永和區"
"234036","336-UY","2018/11/01 13:59:54","新北市永和區成功路二段152-2號","121.5264","24.9966633333333","6500400","永和區"
"234062","337-UY","2018/11/01 13:59:41","新北市永和區中正路412巷20弄22號","121.518921666667","25.0013966666667","6500400","永和區"
"234084","338-UY","2018/11/01 13:59:50","新北市永和區中正路499號","121.516938333333","25.006835","6500400","永和區"
"234068","552-UM","2018/11/01 13:59:57","新北市永和區國光路39-1號","121.51905","25.0082533333333","6500400","永和區"
"234015","745-BX","2018/11/01 13:59:52","新北市永和區文化路78號","121.514113333333","25.0151983333333","6500400","永和區"
"234028","746-BX","2018/11/01 13:59:51","新北市永和區民生路67巷7號","121.523038333333","24.9972933333333","6500400","永和區"
"234052","KEA-2590","2018/11/01 13:59:53","新北市永和區竹林路39巷34號","121.519576666667","25.01509","6500400","永和區"
"234012","KEA-2591","2018/11/01 13:59:57","新北市永和區保生路55號","121.504708333333","25.01061","6500400","永和區"
"234060","AAD-866","2018/11/01 13:59:57","新北市永和區中正路283巷57號","121.515573333333","24.998995","6500400","永和區"
"234040","862-TW","2018/11/01 13:59:40","新北市永和區中和路335巷18弄14號","121.507908333333","25.0003816666667","6500400","永和區"
"234048","863-TW","2018/11/01 13:59:55","新北市永和區保安路214號","121.507431666667","25.0137033333333","6500400","永和區"
"234025","9371-KE","2018/11/01 13:59:59","新北市永和區安樂路473巷6號","121.514063333333","25.005745","6500400","永和區"
"234010","9373-KE","2018/11/01 13:59:45","新北市永和區仁愛路352巷112弄12號","121.501166666667","25.0085816666667","6500400","永和區"
"248015","026-BX","2018/11/01 13:59:52","新北市五股區成泰路三段543巷12弄6號","121.451233333333","25.102135","6501500","五股區"
"248007","095-VK","2018/11/01 13:59:41","新北市五股區中興路一段128巷43號","121.465685","25.075095","6501500","五股區"
"248017","225-UY","2018/11/01 13:59:54","新北市五股區民義路一段287巷2-1號","121.424065","25.091295","6501500","五股區"
"248011","247-BX","2018/11/01 13:59:46","新北市五股區成泰路二段195巷1號","121.44029","25.0873483333333","6501500","五股區"
"248009","272-BY","2018/11/01 13:59:43","新北市五股區水碓二路1號","121.430601666667","25.0712466666667","6501500","五股區"
"248003","655-BX","2018/11/01 13:59:45","新北市五股區民義路三段1號","121.402686666667","25.1145216666667","6501500","五股區"
"248001","678-BX","2018/11/01 13:59:52","新北市五股區凌雲路一段158巷6號","121.447908333333","25.10281","6501500","五股區"
"234022","9380-KE","2018/11/01 13:59:43","新北市永和區永和路二段235號","121.515565","25.0143133333333","6500400","永和區"
"234076","969-R7","2018/11/01 13:59:55","新北市永和區民治街59巷10號","121.518275","24.9973866666667","6500400","永和區"
"234072","AAC-211","2018/11/01 13:59:53","新北市永和區豫溪街185號","121.5225","25.0103483333333","6500400","永和區"
"234066","AAC-212","2018/11/01 13:59:46","新北市永和區永貞路313號","121.51004","25.0065966666667","6500400","永和區"
"234001","AAC-295","2018/11/01 14:00:00","新北市永和區福和路316-1號","121.516028333333","25.0073016666667","6500400","永和區"
"243005","AAD-798","2018/11/01 13:59:47","新北市泰山區明志路三段259號","121.42333","25.0372533333333","6501600","泰山區"
"243008","KEA-2801","2018/11/01 13:59:44","新北市泰山區明志路二段137號","121.427615","25.05065","6501600","泰山區"
"243007","421-VK","2018/11/01 13:59:46","新北市泰山區泰林路二段236號","121.432261666667","25.062085","6501600","泰山區"
"243004","539-UM","2018/11/01 13:59:59","新北市泰山區福興三街170號","121.432335","25.0568866666667","6501600","泰山區"
"243003","KEA-2215","2018/11/01 13:59:28","新北市泰山區明志路二段274-1號","121.426645","25.0468633333333","6501600","泰山區"
"243002","KEA-2216","2018/11/01 13:59:57","新北市泰山區辭修路26巷14號","121.429228333333","25.058575","6501600","泰山區"
"243006","680-BX","2018/11/01 13:59:56","新北市泰山區泰林路二段593號","121.421735","25.0634866666667","6501600","泰山區"
"231002","002-UM","2018/11/01 13:59:47","新北市新店區溪園路55號","121.529526666667","24.9875316666667","6500600","新店區"
"231027","0293-UT","2018/11/01 13:59:40","新北市新店區北宜路一段39巷20號","121.538736666667","24.9584616666667","6500600","新店區"
"231028","046-UY","2018/11/01 13:59:56","新北市新店區安和路三段4號","121.517931666667","24.9809","6500600","新店區"
"231001","047-UY","2018/11/01 13:59:52","新北市新店區三民路24號","121.537158333333","24.9710083333333","6500600","新店區"
"231010","107-UY","2018/11/01 14:00:02","新北市新店區環河路42號","121.53685","24.9621116666667","6500600","新店區"
"231021","108-UY","2018/11/01 13:59:56","新北市新店區新烏路二段38-1號","121.54417","24.92894","6500600","新店區"
"231011","187-VK","2018/11/01 13:59:43","新北市新店區中興路二段57巷8號","121.546068333333","24.970655","6500600","新店區"
"231023","KEA-2219","2018/11/01 13:59:49","新北市新店區文中路54號","121.540143333333","24.9564933333333","6500600","新店區"
"231026","256-BX","2018/11/01 13:59:45","新北市新店區安康路一段140號","121.526535","24.9628316666667","6500600","新店區"
"231003","268-BY","2018/11/01 13:59:54","新北市新店區中興路一段110-1號","121.541211666667","24.9623633333333","6500600","新店區"
"231018","278-BY","2018/11/01 13:59:45","新北市新店區中央路133巷27弄1號","121.531698333333","24.9732166666667","6500600","新店區"
"231017","AAD-862","2018/11/01 13:59:58","新北市新店區郵政路1巷6號","121.557355","24.95208","6500600","新店區"
"231005","355-BY","2018/11/01 14:00:00","新北市新店區寶中路45-2號","121.544878333333","24.97942","6500600","新店區"
"231038","3712-VJ","2018/11/01 13:59:50","新北市新店區安華路30巷3號","121.519585","24.9592316666667","6500600","新店區"
"231037","4716-K9","2018/11/01 13:59:54","新北市新店區安康路三段355巷45號","121.485078333333","24.9493366666667","6500600","新店區"
"231025","4715-K9","2018/11/01 13:59:39","新北市新店區中正路328巷42弄4號","121.538313333333","24.9761866666667","6500600","新店區"
"231036","512-UM","2018/11/01 13:59:53","新北市新店區安祥路108巷33號","121.475376666667","24.9571283333333","6500600","新店區"
"231013","513-UM","2018/11/01 13:59:53","新北市新店區明德路111號","121.541443333333","24.979425","6500600","新店區"
"231006","617-UM","2018/11/01 13:59:40","新北市新店區北宜路二段213號","121.553258333333","24.9533383333333","6500600","新店區"
"231030","619-UM","2018/11/01 13:59:40","新北市新店區安康路一段302-3號","121.517858333333","24.96407","6500600","新店區"
"231034","641-BX","2018/11/01 13:59:55","新北市新店區達觀路6號","121.505228333333","24.9423083333333","6500600","新店區"
"231035","719-UM","2018/11/01 13:59:55","新北市新店區安康路二段85巷44號","121.514391666667","24.9613416666667","6500600","新店區"
"231031","720-UM","2018/11/01 13:59:41","新北市新店區莒光路44巷21弄11-3號","121.51848","24.9522016666667","6500600","新店區"
"231029","897-TW","2018/11/01 13:59:50","新北市新店區安康路二段51號","121.514338333333","24.963455","6500600","新店區"
"231004","899-TW","2018/11/01 13:59:45","新北市新店區北新路二段137號","121.542856666667","24.97556","6500600","新店區"
"231024","AKT-0513","2018/11/01 13:59:59","新北市新店區力行路14巷10號","121.539253333333","24.9650333333333","6500600","新店區"
"235030","003-UY","2018/11/01 13:59:53","新北市中和區中山路二段131巷5弄4號","121.502928333333","25.0028683333333","6500300","中和區"
"235028","005-UY","2018/11/01 13:59:42","新北市中和區泰和街30巷23號","121.498898333333","25.0011833333333","6500300","中和區"
"235027","006-UY","2018/11/01 13:59:53","新北市中和區中正路544號","121.487341666667","24.99455","6500300","中和區"
"235020","096-UM","2018/11/01 13:59:48","新北市中和區中正路1222號","121.479705","25.01089","6500300","中和區"
"235003","097-UM","2018/11/01 13:59:46","新北市中和區秀朗路三段177號","121.524393333333","24.990995","6500300","中和區"
"235029","098-UM","2018/11/01 13:59:59","新北市中和區中山路二段2巷91號","121.500638333333","25.0077966666667","6500300","中和區"
"235004","150-BY","2018/11/01 14:00:00","新北市中和區保健路46巷20弄2號","121.508915","24.9961433333333","6500300","中和區"
"235022","151-BY","2018/11/01 13:59:51","新北市中和區員山路77巷17號","121.479905","24.9940833333333","6500300","中和區"
"235019","183-VK","2018/11/01 13:59:59","新北市中和區德光路47號","121.470206666667","25.004075","6500300","中和區"
"235002","185-VK","2018/11/01 13:59:48","新北市中和區大勇街60巷25號","121.51883","24.9947733333333","6500300","中和區"
"235013","186-VK","2018/11/01 13:59:53","新北市中和區景安路167巷27號","121.506741666667","24.994935","6500300","中和區"
"235031","255-BX","2018/11/01 13:59:41","新北市中和區新生街166巷20號","121.482735","25.0002783333333","6500300","中和區"
"235008","293-VK","2018/11/01 13:59:55","新北市中和區中興街161巷9弄1號","121.501251666667","24.9909616666667","6500300","中和區"
"235036","301-VK","2018/11/01 13:59:49","新北市中和區中山路二段152號","121.501626666667","25.0029033333333","6500300","中和區"
"235007","352-BY","2018/11/01 13:59:41","新北市中和區秀朗路三段175巷23號","121.525876666667","24.9909616666667","6500300","中和區"
"247011","KEA-2869","2018/11/01 13:59:56","新北市蘆洲區民族路180號","121.479935","25.0868583333333","6501400","蘆洲區"
"235014","4979-A6","2018/11/01 13:59:45","新北市中和區華新街50巷8號","121.507668333333","24.9839383333333","6500300","中和區"
"235033","4980-A6","2018/11/01 13:59:46","新北市中和區圓通路109巷1弄2號","121.499885","24.9963783333333","6500300","中和區"
"235006","551-UM","2018/11/01 13:59:56","新北市中和區秀朗路三段50巷2弄7號","121.525901666667","24.9959216666667","6500300","中和區"
"235034","558-UM","2018/11/01 13:59:41","新北市中和區中和路180號","121.504923333333","24.99965","6500300","中和區"
"235009","565-BX","2018/11/01 13:59:49","新北市中和區景新街467巷20弄23號","121.515108333333","24.98749","6500300","中和區"
"235018","640-BX","2018/11/01 13:59:47","新北市中和區民享街86巷2號","121.474391666667","25.001065","6500300","中和區"
"235024","647-TV","2018/11/01 13:59:50","新北市中和區民治街16號","121.47508","25.0045716666667","6500300","中和區"
"235011","732-UM","2018/11/01 13:59:56","新北市中和區興南路二段74巷1號","121.505233333333","24.9850516666667","6500300","中和區"
"235010","733-UM","2018/11/01 13:59:49","新北市中和區興南路二段3巷17號","121.508751666667","24.9863933333333","6500300","中和區"
"235035","783-BX","2018/11/01 13:59:46","新北市中和區立德街32號","121.488973333333","25.0071166666667","6500300","中和區"
"235026","800-TS","2018/11/01 13:59:46","新北市中和區中山路二段340巷36號","121.493395","25.0038416666667","6500300","中和區"
"235021","801-TS","2018/11/01 13:59:57","新北市中和區民利街100巷6弄1號","121.477008333333","24.9984983333333","6500300","中和區"
"235005","802-TS","2018/11/01 13:59:55","新北市中和區中安街54號","121.512863333333","25.00237","6500300","中和區"
"235016","805-TS","2018/11/01 13:59:57","新北市中和區興南路二段131-15號","121.504276666667","24.98033","6500300","中和區"
"235012","896-TW","2018/11/01 13:59:57","新北市中和區華新街47號","121.507831666667","24.9845166666667","6500300","中和區"
"235017","900-TW","2018/11/01 13:59:50","新北市中和區壽德街26-1號","121.466495","24.9943966666667","6500300","中和區"
"235015","157-BY","2018/11/01 13:59:48","新北市中和區忠孝街11巷1號","121.509883333333","24.9831583333333","6500300","中和區"
"235001","AAC-213","2018/11/01 13:59:43","新北市中和區秀朗路三段10巷14弄94號","121.523531666667","24.9966133333333","6500300","中和區"
"235023","AAC-215","2018/11/01 13:59:43","新北市中和區圓通路369巷33弄7號","121.491241666667","24.9880933333333","6500300","中和區"
"220013","072-UY","2018/11/01 13:59:57","新北市板橋區漢生東路324號","121.471801666667","25.0079316666667","6500100","板橋區"
"220034","073-UY","2018/11/01 13:59:49","新北市板橋區中正路236巷43-1號","121.45766","25.0193683333333","6500100","板橋區"
"220105","075-UY","2018/11/01 13:59:54","新北市板橋區莒光路33號","121.470368333333","25.0245683333333","6500100","板橋區"
"220017","AAD-861","2018/11/01 13:59:46","新北市板橋區縣民大道一段108號","121.45702","25.00569","6500100","板橋區"
"247015","546-UM","2018/11/01 14:00:01","新北市蘆洲區光華路28號","121.469411666667","25.0832783333333","6501400","蘆洲區"
"247013","339-TH","2018/11/01 13:59:50","新北市蘆洲區中正路102號","121.469815","25.0842916666667","6501400","蘆洲區"
"247005","337-TH","2018/11/01 13:59:37","新北市蘆洲區九芎街144號","121.464428333333","25.0785233333333","6501400","蘆洲區"
"247007","336-TH","2018/11/01 13:59:53","新北市蘆洲區永安南路一段164號","121.474705","25.0748433333333","6501400","蘆洲區"
"247019","057-VK","2018/11/01 13:59:56","新北市蘆洲區民族路422巷50號","121.4736","25.0930916666667","6501400","蘆洲區"
"247009","056-VK","2018/11/01 13:59:48","新北市蘆洲區中興街50號","121.481566666667","25.0872883333333","6501400","蘆洲區"
"247017","007-UY","2018/11/01 14:00:00","新北市蘆洲區民族路255巷12號","121.476238333333","25.0897116666667","6501400","蘆洲區"
"247003","002-UY","2018/11/01 13:59:56","新北市蘆洲區長安街98巷22號","121.463193333333","25.0818433333333","6501400","蘆洲區"
"247021","001-UY","2018/11/01 13:59:54","新北市蘆洲區中正路263巷2號","121.467295","25.08741","6501400","蘆洲區"
"228005","097-TW","2018/11/01 13:58:41","新北市貢寮區美豐里雞母嶺街52-1號","121.888645","25.0681933333333","6502600","貢寮區"
"228004","212-TW","2018/11/01 13:59:45","新北市貢寮區龍崗里泮宮路43號","121.908001666667","25.0173583333333","6502600","貢寮區"
"253003","6232-TK","2018/11/01 13:59:44","新北市石門區尖子鹿53-2號","121.580886666667","25.27117","6502200","石門區"
"253004","6251-TK","2018/11/01 13:59:40","新北市石門區小坑38號","121.596235","25.2638783333333","6502200","石門區"
"253002","637-UY","2018/11/01 13:59:47","新北市石門區七股30號","121.551788333333","25.2639083333333","6502200","石門區"
"253001","KEC-0718","2018/11/01 13:59:56","新北市石門區下員坑58號","121.524971666667","25.2656983333333","6502200","石門區"
"207002","749-BX","2018/11/01 13:59:17","新北市萬里區溪底里烏塗炭12號","121.635673333333","25.1505766666667","6502800","萬里區"
"252005","073-UM","2018/11/01 13:59:45","新北市三芝區圓山里二坪頂47號","121.537086666667","25.2454516666667","6502100","三芝區"
"207001","662-BX","2018/11/01 13:59:51","新北市萬里區磺潭里清水2-2號","121.641386666667","25.2025816666667","6502800","萬里區"
"236068","105-UM","2018/11/01 13:59:50","新北市土城區金城路一段80號","121.444676666667","24.97327","6501300","土城區"
"236040","KED-0685","2018/11/01 13:59:55","新北市土城區城林路6巷80號","121.438446666667","24.9796966666667","6501300","土城區"
"236074","166-UM","2018/11/01 13:59:48","新北市土城區永寧路32巷10弄21號","121.428955","24.96104","6501300","土城區"
"236029","253-BX","2018/11/01 13:59:39","新北市土城區城林路6巷80號","121.438501666667","24.9797883333333","6501300","土城區"
"236024","269-VK","2018/11/01 13:59:44","新北市土城區承天路41號","121.438426666667","24.9640033333333","6501300","土城區"
"236012","270-VK","2018/11/01 13:59:40","新北市土城區城林路6巷80號","121.438611666667","24.979775","6501300","土城區"
"236032","271-VK","2018/11/01 13:59:47","新北市土城區城林路6巷80號","121.438461666667","24.9798233333333","6501300","土城區"
"236017","401-BY","2018/11/01 13:59:55","新北市土城區城林路6巷80號","121.438601666667","24.97975","6501300","土城區"
"236057","912-UM","2018/11/01 13:59:40","新北市土城區中央路四段45-1號","121.422325","24.96184","6501300","土城區"
"236045","913-UM","2018/11/01 13:59:52","新北市土城區城林路6巷80號","121.438451666667","24.9798133333333","6501300","土城區"
"236060","915-UM","2018/11/01 13:59:50","新北市土城區城林路6巷80號","121.438475","24.9797516666667","6501300","土城區"
"236054","AAC-216","2018/11/01 13:59:50","新北市土城區城林路6巷80號","121.438615","24.9798066666667","6501300","土城區"
"242001","233-RS","2018/11/01 13:59:48","新北市新莊區自強街37巷14弄1號","121.453991666667","25.04658","6500500","新莊區"
"239004","292-BY","2018/11/01 13:59:54","新北市鶯歌區西湖街191號","121.338415","24.9633883333333","6500800","鶯歌區"
"221010","269-BY","2018/11/01 13:59:45","新北市汐止區康寧街901號","121.651038333333","25.0751483333333","6501100","汐止區"
"221033","647-BX","2018/11/01 13:59:59","新北市新店區薏仁坑路6號","121.500241666667","24.9580083333333","6501100","汐止區"
"220027","145-BY","2018/11/01 13:59:55","新北市板橋區民權路202巷7弄40號","121.458481666667","25.0150483333333","6500100","板橋區"
"220028","200-UY","2018/11/01 13:45:47","新北市板橋區大觀路二段265巷66弄6號","121.442338333333","24.9970583333333","6500100","板橋區"
"220030","610-BX","2018/11/01 13:59:45","新北市板橋區溪崑一街126號","121.429213333333","24.9882966666667","6500100","板橋區"
"220050","245-BX","2018/11/01 13:59:42","新北市板橋區莊敬路113號","121.472116666667","25.0257983333333","6500100","板橋區"
"220040","267-BY","2018/11/01 13:58:53","新北市板橋區萬板路161號","121.473938333333","25.02362","6500100","板橋區"
"220004","276-BY","2018/11/01 13:59:45","新北市板橋區信義路78號","121.457621666667","24.9933466666667","6500100","板橋區"
"220020","277-BY","2018/11/01 13:59:48","新北市板橋區溪北路142號","121.43007","24.9886316666667","6500100","板橋區"
"220005","282-UM","2018/11/01 13:59:50","新北市板橋區重慶路182號","121.462483333333","25.0035216666667","6500100","板橋區"
"220019","283-VK","2018/11/01 13:59:58","新北市板橋區忠孝路154巷1號","121.464065","25.0021816666667","6500100","板橋區"
"220043","285-UM","2018/11/01 14:00:00","新北市板橋區文化路二段31號","121.46879","25.0247366666667","6500100","板橋區"
"220001","285-VK","2018/11/01 13:59:54","新北市板橋區中山路二段89巷39號","121.473605","25.0170983333333","6500100","板橋區"
"220031","286-VK","2018/11/01 13:59:57","新北市板橋區大觀路二段20巷22號","121.444723333333","25.0040183333333","6500100","板橋區"
"220029","287-VK","2018/11/01 13:59:53","新北市板橋區光華街28巷1號","121.453905","25.0124716666667","6500100","板橋區"
"220039","288-VK","2018/11/01 13:59:58","新北市板橋區互助街25巷9號","121.463196666667","25.0269983333333","6500100","板橋區"
"220009","293-UM","2018/11/01 13:59:52","新北市板橋區富山街109巷16號","121.475891666667","25.0217533333333","6500100","板橋區"
"220010","295-UM","2018/11/01 13:59:51","新北市板橋區三民路二段245巷57號","121.480758333333","25.0126166666667","6500100","板橋區"
"220023","303-R5","2018/11/01 13:59:57","新北市板橋區館前西路269號","121.45366","25.008685","6500100","板橋區"
"220047","317-R6","2018/11/01 13:59:40","新北市板橋區民有街47號","121.465573333333","25.0259866666667","6500100","板橋區"
"220012","486-VK","2018/11/01 13:59:48","新北市板橋區板新路153號","121.46985","25.0156116666667","6500100","板橋區"
"220038","487-VK","2018/11/01 13:59:42","新北市板橋區文化路二段294號","121.471976666667","25.0295916666667","6500100","板橋區"
"220037","491-VK","2018/11/01 13:59:46","新北市板橋區民生路二段208號","121.469661666667","25.0212033333333","6500100","板橋區"
"220104","560-BX","2018/11/01 13:59:54","新北市板橋區中正路375巷27號","121.453798333333","25.020155","6500100","板橋區"
"220052","561-BX","2018/11/01 13:59:55","新北市板橋區介壽街120號","121.469766666667","25.0177766666667","6500100","板橋區"
"220032","568-UM","2018/11/01 13:59:41","新北市板橋區大觀路二段152號","121.441596666667","24.9986483333333","6500100","板橋區"
"220011","609-BX","2018/11/01 13:59:44","新北市板橋區中山路二段92號","121.475226666667","25.0164083333333","6500100","板橋區"
"220025","687-BX","2018/11/01 13:59:45","新北市板橋區大觀路二段174巷149號","121.441481666667","25.002625","6500100","板橋區"
"220042","689-BX","2018/11/01 13:59:58","新北市板橋區民生路三段138號","121.466245","25.0270516666667","6500100","板橋區"
"220002","741-BX","2018/11/01 13:59:58","新北市板橋區實踐路89號","121.463986666667","25.0055133333333","6500100","板橋區"
"220051","KEA-2699","2018/11/01 13:59:51","新北市板橋區田單街1-3號","121.481511666667","25.02902","6500100","板橋區"
"220003","827-TW","2018/11/01 13:59:58","新北市板橋區中山路一段158巷14號","121.46608","25.0113733333333","6500100","板橋區"
"220014","829-TW","2018/11/01 13:59:51","新北市板橋區三民路二段正隆巷12弄1號","121.478111666667","25.01296","6500100","板橋區"
"220016","830-TW","2018/11/01 13:59:41","新北市板橋區中山路二段465巷52號","121.481228333333","25.021685","6500100","板橋區"
"220045","831-TW","2018/11/01 13:59:56","新北市板橋區莒光路137號","121.473343333333","25.0240333333333","6500100","板橋區"
"220022","895-R6","2018/11/01 13:59:41","新北市板橋區南雅南路一段81號","121.455625","25.0055433333333","6500100","板橋區"
"220021","985-R7","2018/11/01 13:59:46","新北市板橋區南雅東路120號","121.453525","25.0085483333333","6500100","板橋區"
"220046","AAC-210","2018/11/01 13:59:59","新北市板橋區國光路196號","121.4615","25.01831","6500100","板橋區"
"220018","AAC-253","2018/11/01 13:59:55","新北市板橋區四川路一段281號","121.459483333333","25.00208","6500100","板橋區"
"235032","KEA-2873","2018/11/01 13:59:57","新北市中和區連勝街38巷16號","121.497833333333","24.99791","6500300","中和區"
"235025","KEA-2875","2018/11/01 13:59:53","新北市中和區中山路三段63巷9號","121.477155","25.0042516666667","6500300","中和區"
