"lineid","car","time","location","longitude","latitude","cityid","cityname"
"234028","746-BX","2018/11/01 14:49:44","新北市永和區民權路84號","121.51986","24.99697","6500400","永和區"
"234025","9371-KE","2018/11/01 14:49:59","新北市永和區雙和街52巷1號","121.509063333333","25.003195","6500400","永和區"
"248013","025-BX","2018/11/01 14:49:31","新北市五股區五福路14巷18號","121.435125","25.0888066666667","6501500","五股區"
"248015","026-BX","2018/11/01 14:49:48","新北市五股區成泰路三段577巷80弄72號","121.448901666667","25.10482","6501500","五股區"
"248007","095-VK","2018/11/01 14:50:01","新北市五股區國道路三段1號","121.469865","25.0750516666667","6501500","五股區"
"248017","225-UY","2018/11/01 14:41:54","新北市五股區外寮路13-1號","121.424833333333","25.0812466666667","6501500","五股區"
"248011","247-BX","2018/11/01 14:49:48","新北市五股區六合街118號","121.430306666667","25.0908266666667","6501500","五股區"
"248009","272-BY","2018/11/01 14:49:42","新北市五股區成泰路一段2號","121.433816666667","25.0666966666667","6501500","五股區"
"248003","655-BX","2018/11/01 14:49:45","新北市五股區成泰路一段32巷60號","121.435008333333","25.0670416666667","6501500","五股區"
"248001","678-BX","2018/11/01 14:49:52","新北市五股區成泰路三段165號","121.445215","25.091855","6501500","五股區"
"234072","AAC-211","2018/11/01 14:49:53","新北市永和區環河東路二段92號","121.524118333333","25.0105166666667","6500400","永和區"
"244003","248-BX","2018/11/01 14:49:41","新北市林口區竹林路266號","121.389655","25.0808933333333","6501700","林口區"
"243005","AAD-798","2018/11/01 14:49:48","新北市泰山區新民路10號","121.426311666667","25.044855","6501600","泰山區"
"243001","297-R6","2018/11/01 14:49:52","新北市泰山區泰林路二段118號","121.434625","25.0593233333333","6501600","泰山區"
"243008","KEA-2801","2018/11/01 14:49:46","新北市泰山區中山路二段841號","121.425551666667","25.0353516666667","6501600","泰山區"
"243007","421-VK","2018/11/01 14:49:46","新北市泰山區明志路一段320號","121.431431666667","25.0592366666667","6501600","泰山區"
"243004","539-UM","2018/11/01 14:49:59","新北市泰山區楓江路86巷16-1號","121.437351666667","25.0625216666667","6501600","泰山區"
"243003","KEA-2215","2018/11/01 14:49:48","新北市新莊區丹鳳街36號","121.421653333333","25.029585","6501600","泰山區"
"243002","KEA-2216","2018/11/01 14:49:57","新北市泰山區明志路二段273巷16弄12號","121.427806666667","25.0467683333333","6501600","泰山區"
"243006","680-BX","2018/11/01 14:50:00","新北市泰山區泰林路二段395號","121.42719","25.064235","6501600","泰山區"
"231002","002-UM","2018/11/01 14:49:47","新北市新店區民權路178號","121.534813333333","24.982805","6500600","新店區"
"231027","0293-UT","2018/11/01 14:49:40","新北市新店區中正路334巷7號","121.536936666667","24.9753966666667","6500600","新店區"
"231028","046-UY","2018/11/01 14:49:56","新北市新店區安德街62號","121.510665","24.9619766666667","6500600","新店區"
"231001","047-UY","2018/11/01 14:49:52","新北市新店區三民路125號","121.534586666667","24.9723133333333","6500600","新店區"
"231021","108-UY","2018/11/01 14:49:56","新北市新店區屈尺路2號","121.54936","24.9224033333333","6500600","新店區"
"231011","187-VK","2018/11/01 14:50:02","新北市新店區寶橋路97號","121.547483333333","24.97642","6500600","新店區"
"231023","KEA-2219","2018/11/01 14:49:49","新北市新店區檳榔路109號","121.544451666667","24.9616933333333","6500600","新店區"
"231026","256-BX","2018/11/01 14:49:44","新北市新店區安康路一段229號","121.525528333333","24.9631416666667","6500600","新店區"
"231003","268-BY","2018/11/01 14:49:54","新北市新店區中興路二段199號","121.54827","24.9739516666667","6500600","新店區"
"231018","278-BY","2018/11/01 14:49:45","新北市新店區中央五街3-2號","121.530308333333","24.9743866666667","6500600","新店區"
"231017","AAD-862","2018/11/01 14:49:58","新北市新店區北宜路三段53號","121.571615","24.95057","6500600","新店區"
"231005","355-BY","2018/11/01 14:50:00","新北市新店區復興路2號","121.532536666667","24.9882516666667","6500600","新店區"
"231038","3712-VJ","2018/11/01 14:49:50","新北市新店區安華路28-1號","121.51964","24.9608866666667","6500600","新店區"
"231037","4716-K9","2018/11/01 14:49:53","新北市新店區安德街60巷26號","121.51124","24.96408","6500600","新店區"
"231025","4715-K9","2018/11/01 14:50:00","新北市新店區大豐路68巷40號","121.538206666667","24.9803","6500600","新店區"
"231036","512-UM","2018/11/01 14:49:53","新北市新店區安祥路104巷6弄36號","121.483066666667","24.96304","6500600","新店區"
"231013","513-UM","2018/11/01 14:49:53","新北市新店區北新路二段97巷9弄10號","121.54217","24.9738183333333","6500600","新店區"
"231006","617-UM","2018/11/01 14:50:00","新北市新店區北宜路一段140巷13號","121.53997","24.9544016666667","6500600","新店區"
"231030","619-UM","2018/11/01 14:49:40","新北市新店區安民街333號","121.517258333333","24.974765","6500600","新店區"
"231034","641-BX","2018/11/01 14:49:55","新北市新店區安康路二段387-1號","121.494645","24.9543533333333","6500600","新店區"
"231039","718-UY","2018/11/01 14:49:56","新北市新店區安康路一段355號","121.519838333333","24.9633583333333","6500600","新店區"
"231035","719-UM","2018/11/01 14:48:34","新北市新店區安和路二段160號","121.519788333333","24.9735766666667","6500600","新店區"
"231029","897-TW","2018/11/01 14:49:50","新北市新店區錦秀路1-2號","121.47906","24.9455416666667","6500600","新店區"
"231004","899-TW","2018/11/01 14:49:45","新北市新店區建國路131號","121.539408333333","24.9781766666667","6500600","新店區"
"231024","AKT-0513","2018/11/01 14:50:02","新北市新店區力行路14巷10號","121.539258333333","24.9650466666667","6500600","新店區"
"235030","003-UY","2018/11/01 14:49:53","新北市中和區南工路40號","121.50584","25.0011883333333","6500300","中和區"
"235020","096-UM","2018/11/01 14:49:47","新北市中和區中山路三段114巷46號","121.475738333333","25.0072833333333","6500300","中和區"
"235003","097-UM","2018/11/01 14:49:46","新北市永和區中正路99號","121.515018333333","24.9976883333333","6500300","中和區"
"235029","098-UM","2018/11/01 14:49:59","新北市中和區永和路90巷2弄12號","121.4977","25.005505","6500300","中和區"
"235004","150-BY","2018/11/01 14:49:46","新北市中和區景安路77號","121.506383333333","24.9973233333333","6500300","中和區"
"235022","151-BY","2018/11/01 14:49:50","新北市中和區員山路152-3號","121.481386666667","24.9984883333333","6500300","中和區"
"235019","183-VK","2018/11/01 14:49:58","新北市中和區莒光路11號","121.471988333333","25.00577","6500300","中和區"
"235002","185-VK","2018/11/01 14:49:47","新北市永和區民權路53-1號","121.52042","24.9965783333333","6500300","中和區"
"235013","186-VK","2018/11/01 14:49:53","新北市中和區景平路385巷10號","121.50221","24.994525","6500300","中和區"
"235031","255-BX","2018/11/01 14:49:41","新北市中和區中正路751巷3弄3號","121.484383333333","24.99955","6500300","中和區"
"235008","293-VK","2018/11/01 14:49:55","新北市中和區中正路91號","121.500388333333","24.9933933333333","6500300","中和區"
"235036","301-VK","2018/11/01 14:49:49","新北市中和區連城路144巷4弄11號","121.49559","24.9988333333333","6500300","中和區"
"235007","352-BY","2018/11/01 14:49:41","新北市中和區景平路336號","121.511745","24.99276","6500300","中和區"
"247011","KEA-2869","2018/11/01 14:49:56","新北市蘆洲區中山一路124號","121.47668","25.0816166666667","6501400","蘆洲區"
"235014","4979-A6","2018/11/01 14:49:45","新北市中和區景平路241巷82弄40號","121.506181666667","24.99268","6500300","中和區"
"235034","558-UM","2018/11/01 14:49:41","新北市中和區連勝街34號","121.498185","24.99777","6500300","中和區"
"235018","640-BX","2018/11/01 14:49:47","新北市中和區莒光路258號","121.468093333333","24.9939866666667","6500300","中和區"
"235024","647-TV","2018/11/01 14:49:50","新北市中和區員山路356號","121.481063333333","25.003685","6500300","中和區"
"235011","732-UM","2018/11/01 14:49:55","新北市中和區和平街110號","121.507071666667","24.9914116666667","6500300","中和區"
"235010","733-UM","2018/11/01 14:49:48","新北市中和區仁愛街32號","121.510946666667","24.9884816666667","6500300","中和區"
"235035","783-BX","2018/11/01 14:49:46","新北市中和區建康路8號","121.486416666667","25.0001516666667","6500300","中和區"
"235026","800-TS","2018/11/01 14:49:46","新北市中和區中山路二段417號","121.486078333333","25.004875","6500300","中和區"
"235021","801-TS","2018/11/01 14:49:57","新北市中和區中正路899號","121.484283333333","25.0049016666667","6500300","中和區"
"235016","805-TS","2018/11/01 14:49:56","新北市中和區華新街144巷9號","121.507546666667","24.9831583333333","6500300","中和區"
"235012","896-TW","2018/11/01 14:49:57","新北市中和區忠孝街7號","121.509873333333","24.982795","6500300","中和區"
"235017","900-TW","2018/11/01 14:49:50","新北市中和區國光街215巷10弄12號","121.4669","25.000455","6500300","中和區"
"235015","157-BY","2018/11/01 14:49:48","新北市中和區景安路196號","121.50432","24.99151","6500300","中和區"
"235001","AAC-213","2018/11/01 14:49:43","新北市中和區秀朗路三段167號","121.52456","24.9917716666667","6500300","中和區"
"235023","AAC-215","2018/11/01 14:49:43","","121.494473333333","24.9902433333333","6500300","中和區"
"220013","072-UY","2018/11/01 14:49:57","新北市板橋區民族路276號","121.469921666667","25.0067183333333","6500100","板橋區"
"220034","073-UY","2018/11/01 14:49:49","新北市板橋區大觀路二段98號","121.444686666667","24.9999633333333","6500100","板橋區"
"220105","075-UY","2018/11/01 14:49:54","新北市板橋區民治街57巷24弄6號","121.480376666667","25.03371","6500100","板橋區"
"220017","AAD-861","2018/11/01 14:49:46","新北市板橋區貴興路119巷4號","121.455626666667","25.002125","6500100","板橋區"
"247001","893-R6","2018/11/01 14:49:41","新北市蘆洲區長安街246巷35號","121.458556666667","25.08645","6501400","蘆洲區"
"247015","546-UM","2018/11/01 14:49:53","新北市蘆洲區和平路200號","121.465895","25.0818266666667","6501400","蘆洲區"
"247013","339-TH","2018/11/01 14:49:50","新北市蘆洲區中央路30號","121.473503333333","25.0829433333333","6501400","蘆洲區"
"247019","057-VK","2018/11/01 14:49:56","新北市蘆洲區民義街71巷5號","121.472906666667","25.0903316666667","6501400","蘆洲區"
"247021","001-UY","2018/11/01 14:49:54","新北市蘆洲區中正路491號","121.461938333333","25.0963683333333","6501400","蘆洲區"
"228005","097-TW","2018/11/01 14:50:01","新北市貢寮區美豐里丹裡街67號","121.906681666667","25.0578783333333","6502600","貢寮區"
"228004","212-TW","2018/11/01 14:49:45","新北市貢寮區福隆里裕隆街2號","121.946656666667","25.01551","6502600","貢寮區"
"253003","6232-TK","2018/11/01 14:49:44","新北市石門區尖子鹿91-1號","121.577701666667","25.2861783333333","6502200","石門區"
"253004","6251-TK","2018/11/01 14:49:52","新北市石門區茂林社區67號","121.592736666667","25.2700483333333","6502200","石門區"
"253002","637-UY","2018/11/01 14:49:47","新北市石門區楓林37-3號","121.540006666667","25.2876633333333","6502200","石門區"
"253001","KEC-0718","2018/11/01 14:49:56","新北市石門區崁子腳47號","121.53443","25.2836966666667","6502200","石門區"
"207002","749-BX","2018/11/01 14:49:57","新北市萬里區崁腳里崁腳路73號","121.647573333333","25.1595533333333","6502800","萬里區"
"207001","662-BX","2018/11/01 14:49:51","新北市萬里區雙興里豐稟路31-2號","121.642825","25.181715","6502800","萬里區"
"236068","105-UM","2018/11/01 14:49:50","新北市土城區明德路二段65號","121.451646666667","24.9809283333333","6501300","土城區"
"236040","KED-0685","2018/11/01 14:49:55","新北市土城區裕民路114巷11號","121.450585","24.9859883333333","6501300","土城區"
"236074","166-UM","2018/11/01 14:49:48","新北市土城區中央路四段125巷9弄20號","121.417203333333","24.95778","6501300","土城區"
"236029","253-BX","2018/11/01 14:49:59","新北市土城區忠義路36巷16號","121.439925","24.969665","6501300","土城區"
"236024","269-VK","2018/11/01 14:49:44","新北市土城區慶安街58號","121.44094","24.9731283333333","6501300","土城區"
"236012","270-VK","2018/11/01 14:50:00","新北市土城區金城路二段354巷4號","121.46071","24.9849266666667","6501300","土城區"
"236032","271-VK","2018/11/01 14:49:46","新北市土城區明德路一段193號","121.46379","24.978935","6501300","土城區"
"236017","401-BY","2018/11/01 14:49:54","新北市土城區延安街15號","121.467585","24.9857666666667","6501300","土城區"
"236057","912-UM","2018/11/01 14:49:40","新北市土城區和平路51-1號","121.443445","24.9719666666667","6501300","土城區"
"236045","913-UM","2018/11/01 14:49:52","新北市板橋區信義路208號","121.460026666667","24.990655","6501300","土城區"
"236060","915-UM","2018/11/01 14:49:55","新北市土城區金城路三段207巷8弄9號","121.470135","24.9904133333333","6501300","土城區"
"236054","AAC-216","2018/11/01 14:49:50","新北市土城區裕民路222號","121.453543333333","24.9843083333333","6501300","土城區"
"242001","233-RS","2018/11/01 14:49:48","新北市泰山區新五路一段18號","121.441001666667","25.0601616666667","6500500","新莊區"
"238004","283-BY","2018/11/01 14:49:42","新北市樹林區育德街78號","121.387445","24.9684916666667","6500700","樹林區"
"221010","269-BY","2018/11/01 14:49:45","新北市汐止區長青路210巷85-3號","121.620113333333","25.11589","6501100","汐止區"
"221033","647-BX","2018/11/01 14:49:59","新北市汐止區中興路179-3號","121.630565","25.0668983333333","6501100","汐止區"
"220027","145-BY","2018/11/01 14:49:55","新北市板橋區建國街60號","121.458925","25.0171183333333","6500100","板橋區"
"220028","200-UY","2018/11/01 14:49:25","新北市板橋區大觀路二段19巷89號","121.44946","25.00293","6500100","板橋區"
"220030","610-BX","2018/11/01 14:50:00","新北市板橋區篤行路一段46號","121.431865","24.993785","6500100","板橋區"
"220050","245-BX","2018/11/01 14:50:02","新北市板橋區莒光路229巷2號","121.474258333333","25.022165","6500100","板橋區"
"220040","267-BY","2018/11/01 14:49:54","新北市板橋區民治街81巷7號","121.479893333333","25.0322616666667","6500100","板橋區"
"220004","276-BY","2018/11/01 14:49:49","新北市板橋區德興街37巷6號","121.453755","24.9937866666667","6500100","板橋區"
"220020","277-BY","2018/11/01 14:49:47","新北市板橋區金門街127巷14號","121.433646666667","24.9910916666667","6500100","板橋區"
"220005","282-UM","2018/11/01 14:49:53","新北市板橋區廣和街136號","121.462563333333","24.9919816666667","6500100","板橋區"
"220019","283-VK","2018/11/01 14:49:48","新北市板橋區五權街30巷24弄21號","121.463796666667","24.993575","6500100","板橋區"
"220043","285-UM","2018/11/01 14:50:00","新北市板橋區溪頭街76號","121.458521666667","25.0296266666667","6500100","板橋區"
"220001","285-VK","2018/11/01 14:49:54","新北市板橋區民享街83號","121.476856666667","25.0156983333333","6500100","板橋區"
"220031","286-VK","2018/11/01 14:49:57","新北市板橋區僑中二街10巷15-3號","121.446313333333","25.0109933333333","6500100","板橋區"
"220029","287-VK","2018/11/01 14:49:53","新北市板橋區大觀路一段28巷116號","121.44971","25.0126433333333","6500100","板橋區"
"220039","288-VK","2018/11/01 14:49:57","新北市板橋區綠堤街27號","121.45578","25.026485","6500100","板橋區"
"220009","293-UM","2018/11/01 14:49:41","新北市板橋區中山路一段283巷2弄1號","121.470098333333","25.01456","6500100","板橋區"
"220010","295-UM","2018/11/01 14:49:51","新北市板橋區三民路二段29巷31弄5-3號","121.481556666667","25.01764","6500100","板橋區"
"220023","303-R5","2018/11/01 14:49:57","新北市板橋區大勇街10號","121.45529","25.0176533333333","6500100","板橋區"
"220041","307-R5","2018/11/01 14:49:49","新北市板橋區四維路259巷21號","121.462266666667","25.0274583333333","6500100","板橋區"
"220047","317-R6","2018/11/01 14:50:01","新北市板橋區新海路198號","121.460986666667","25.02346","6500100","板橋區"
"220012","486-VK","2018/11/01 14:49:48","新北市板橋區實踐路116號","121.464161666667","25.0042883333333","6500100","板橋區"
"220038","487-VK","2018/11/01 14:49:42","新北市板橋區龍泉街139號","121.457833333333","25.0240883333333","6500100","板橋區"
"220037","491-VK","2018/11/01 14:50:01","新北市板橋區文化路二段331號","121.472511666667","25.0303683333333","6500100","板橋區"
"220104","560-BX","2018/11/01 14:49:54","新北市板橋區新生街87巷15號","121.457073333333","25.0218766666667","6500100","板橋區"
"220052","561-BX","2018/11/01 14:50:01","新北市板橋區陽明街29巷29號","121.464036666667","25.022485","6500100","板橋區"
"220032","568-UM","2018/11/01 14:49:50","新北市板橋區溪崑二街103巷16號","121.427085","24.988705","6500100","板橋區"
"220011","609-BX","2018/11/01 14:49:44","新北市板橋區三民路一段3巷33號","121.480171666667","25.023905","6500100","板橋區"
"220025","687-BX","2018/11/01 14:49:44","新北市板橋區僑中二街120巷2號","121.445466666667","25.005755","6500100","板橋區"
"220042","689-BX","2018/11/01 14:49:58","新北市板橋區長江路一段127號","121.460301666667","25.0300983333333","6500100","板橋區"
"220002","741-BX","2018/11/01 14:49:58","新北市板橋區實踐路93巷74號","121.466715","25.0048816666667","6500100","板橋區"
"220051","KEA-2699","2018/11/01 14:49:51","新北市板橋區松柏街35號","121.475215","25.030325","6500100","板橋區"
"220003","827-TW","2018/11/01 14:49:58","新北市板橋區仁愛路62巷15弄1號","121.459963333333","24.9985466666667","6500100","板橋區"
"220014","829-TW","2018/11/01 14:49:51","新北市板橋區長安街138巷1弄83號","121.474781666667","25.0111916666667","6500100","板橋區"
"220016","830-TW","2018/11/01 14:50:00","新北市板橋區中山路二段光榮巷30弄8號","121.484615","25.02063","6500100","板橋區"
"220045","831-TW","2018/11/01 14:49:56","新北市板橋區莊敬路133號","121.471893333333","25.025245","6500100","板橋區"
"220022","895-R6","2018/11/01 14:50:01","新北市板橋區縣民大道一段297號","121.46109","25.0106416666667","6500100","板橋區"
"220021","985-R7","2018/11/01 14:49:46","新北市板橋區大仁街62-1號","121.454596666667","25.016525","6500100","板橋區"
"220046","AAC-210","2018/11/01 14:49:58","新北市板橋區文化路一段285巷2號","121.464525","25.0190083333333","6500100","板橋區"
"220018","AAC-253","2018/11/01 14:49:55","新北市板橋區民族路302號","121.470583333333","25.0067183333333","6500100","板橋區"
"235032","KEA-2873","2018/11/01 14:49:56","新北市中和區福祥路85巷5號","121.498693333333","25.00572","6500300","中和區"
