"lineid","car","time","location","longitude","latitude","cityid","cityname"
"234005","207-UY","2018/11/01 15:29:50","新北市八里區下罟子5-6號","121.38713","25.1458216666667","6500400","永和區"
"248017","225-UY","2018/11/01 15:29:54","新北市五股區中興路二段37巷26號","121.46057","25.0750566666667","6501500","五股區"
"244003","248-BX","2018/11/01 15:29:41","新北市林口區粉寮路二段160巷28號","121.405196666667","25.0908633333333","6501700","林口區"
"243002","KEA-2216","2018/11/01 15:29:57","新北市泰山區泰林路三段778號","121.400756666667","25.0724483333333","6501600","泰山區"
"231028","046-UY","2018/11/01 15:29:56","新北市新店區僑信路80號","121.499641666667","24.948385","6500600","新店區"
"231021","108-UY","2018/11/01 15:29:55","新北市新店區湖興路109號","121.560441666667","24.9356666666667","6500600","新店區"
"231011","187-VK","2018/11/01 15:29:42","新北市新店區寶元路一段109號","121.545756666667","24.9831483333333","6500600","新店區"
"231023","KEA-2219","2018/11/01 15:29:49","新北市新店區北新路一段339號","121.541835","24.9687166666667","6500600","新店區"
"231026","256-BX","2018/11/01 15:29:44","新北市新店區三民路117巷5弄1號","121.53437","24.9712483333333","6500600","新店區"
"231003","268-BY","2018/11/01 15:29:54","新北市新店區寶高路120巷1號","121.554621666667","24.97611","6500600","新店區"
"231018","278-BY","2018/11/01 15:29:45","新北市新店區民生路156巷4號","121.528705","24.9810233333333","6500600","新店區"
"231017","AAD-862","2018/11/01 15:29:58","新北市新店區明山路45號","121.563811666667","24.95584","6500600","新店區"
"231005","355-BY","2018/11/01 15:30:00","新北市新店區建國路268號","121.537511666667","24.9831333333333","6500600","新店區"
"231038","3712-VJ","2018/11/01 15:29:50","新北市新店區安華路28-1號","121.519576666667","24.9609283333333","6500600","新店區"
"231037","4716-K9","2018/11/01 15:29:53","新北市新店區安興路85-63號","121.514825","24.9756233333333","6500600","新店區"
"231025","4715-K9","2018/11/01 15:29:59","新北市新店區安和路一段7號","121.51692","24.963945","6500600","新店區"
"231036","512-UM","2018/11/01 15:29:53","新北市新店區安祥路69巷89弄33號","121.482533333333","24.9609466666667","6500600","新店區"
"231030","619-UM","2018/11/01 15:30:00","新北市新店區安和路三段61號","121.517908333333","24.98337","6500600","新店區"
"231034","641-BX","2018/11/01 15:29:55","新北市新店區玫瑰路28號","121.49529","24.9502033333333","6500600","新店區"
"231039","718-UY","2018/11/01 15:29:56","新北市新店區寶元路一段85巷2號","121.543121666667","24.9855666666667","6500600","新店區"
"231035","719-UM","2018/11/01 15:29:54","新北市新店區安興路83-3號","121.515375","24.9756083333333","6500600","新店區"
"231031","720-UM","2018/11/01 15:30:01","新北市新店區和成街12巷5號","121.488638333333","24.947855","6500600","新店區"
"231029","897-TW","2018/11/01 15:29:50","新北市新店區安康路三段552號","121.481828333333","24.9485716666667","6500600","新店區"
"231004","899-TW","2018/11/01 15:29:57","新北市新店區民族路105號","121.538133333333","24.9772866666667","6500600","新店區"
"241011","013-R5","2018/11/01 15:29:43","新北市三重區重新路一段12號","121.504108333333","25.0639166666667","6500200","三重區"
"241017","063-VK","2018/11/01 15:29:59","新北市三重區大仁街4號","121.49146","25.063035","6500200","三重區"
"241013","270-UM","2018/11/01 15:29:59","新北市三重區忠孝路一段1號","121.492483333333","25.07176","6500200","三重區"
"241007","398-BY","2018/11/01 15:29:57","新北市三重區重新路四段254號","121.485013333333","25.052935","6500200","三重區"
"241020","478-VK","2018/11/01 15:29:54","新北市三重區重新路四段121號","121.484945","25.0524266666667","6500200","三重區"
"241004","887-TS","2018/11/01 15:29:48","新北市三重區重新路四段121號","121.485113333333","25.052415","6500200","三重區"
"241033","AAC-255","2018/11/01 15:30:00","新北市三重區重新路五段283號","121.479413333333","25.0494033333333","6500200","三重區"
"235030","003-UY","2018/11/01 15:29:53","新北市中和區光華街69號","121.506591666667","25.002865","6500300","中和區"
"247011","KEA-2869","2018/11/01 15:29:56","新北市林口區太平里180號","121.367808333333","25.1339233333333","6501400","蘆洲區"
"235014","4979-A6","2018/11/01 15:29:45","新北市中和區南華路76號","121.505348333333","24.9973","6500300","中和區"
"235033","4980-A6","2018/11/01 15:29:46","新北市中和區中正路446號","121.490938333333","24.9942783333333","6500300","中和區"
"235018","640-BX","2018/11/01 15:29:07","新北市五股區中直路13-7號","121.423865","25.11085","6500300","中和區"
"235023","AAC-215","2018/11/01 15:29:43","新北市中和區員山路30-1號","121.483276666667","24.9879066666667","6500300","中和區"
"220034","073-UY","2018/11/01 15:29:49","新北市板橋區板城路407號","121.44725","24.9951066666667","6500100","板橋區"
"228003","097-TW","2018/11/01 15:29:25","新北市貢寮區貢寮里朝陽街1-2號","121.912331666667","25.0212733333333","6502600","貢寮區"
"253003","6232-TK","2018/11/01 15:29:44","新北市石門區小坑9號","121.59437","25.288455","6502200","石門區"
"253004","6251-TK","2018/11/01 15:29:52","新北市石門區小坑9號","121.594318333333","25.28839","6502200","石門區"
"253002","637-UY","2018/11/01 15:29:47","新北市石門區小坑9號","121.594336666667","25.2884066666667","6502200","石門區"
"253001","KEC-0718","2018/11/01 15:29:56","新北市石門區小坑9號","121.594193333333","25.2886983333333","6502200","石門區"
"207001","662-BX","2018/11/01 15:29:51","新北市萬里區龜吼里石角路12號","121.683756666667","25.1914883333333","6502800","萬里區"
"252001","702-TV","2018/11/01 15:24:12","新北市三芝區埔坪里埔頭坑41號","121.504236666667","25.2643833333333","6502100","三芝區"
"236068","105-UM","2018/11/01 15:29:50","新北市土城區中正路1號","121.442148333333","24.9750166666667","6501300","土城區"
"236040","KED-0685","2018/11/01 15:29:55","新北市土城區學府路一段164巷21號","121.453451666667","24.9875233333333","6501300","土城區"
"236074","166-UM","2018/11/01 15:29:48","新北市土城區龍泉路10-1號","121.409651666667","24.9491933333333","6501300","土城區"
"236029","253-BX","2018/11/01 15:29:58","新北市土城區中央路一段242巷2弄1號","121.44413","24.9851433333333","6501300","土城區"
"236024","269-VK","2018/11/01 15:29:44","新北市土城區裕生路104巷20號","121.445715","24.9847633333333","6501300","土城區"
"236012","270-VK","2018/11/01 15:30:00","新北市土城區廣明街10號","121.455961666667","24.9920233333333","6501300","土城區"
"236032","271-VK","2018/11/01 15:29:46","新北市土城區明德路一段44號","121.465318333333","24.98403","6501300","土城區"
"236017","401-BY","2018/11/01 15:29:54","新北市土城區延吉街137巷11號","121.470953333333","24.9858433333333","6501300","土城區"
"236057","912-UM","2018/11/01 15:30:00","新北市土城區中華路二段2號","121.438945","24.97989","6501300","土城區"
"236045","913-UM","2018/11/01 15:29:52","新北市土城區清水路144號","121.458986666667","24.9814033333333","6501300","土城區"
"236060","915-UM","2018/11/01 15:29:53","新北市土城區延和路62巷15號","121.46619","24.9884983333333","6501300","土城區"
"236054","AAC-216","2018/11/01 15:29:50","新北市土城區金城路三段157號","121.46877","24.9884616666667","6501300","土城區"
"242001","233-RS","2018/11/01 15:29:48","新北市新莊區中正路400號","121.441848333333","25.0342","6500500","新莊區"
"238002","755-BX","2018/11/01 15:29:57","新北市樹林區復興路197號","121.420543333333","24.9916866666667","6500700","樹林區"
"238010","601-UM","2018/11/01 15:29:55","新北市樹林區三福街4-1號","121.408873333333","25.0168616666667","6500700","樹林區"
"238006","599-UM","2018/11/01 15:29:50","新北市樹林區太平路88-1號","121.418911666667","24.9801166666667","6500700","樹林區"
"238005","571-TV","2018/11/01 15:30:03","新北市樹林區鎮前街160號","121.42436","24.9901883333333","6500700","樹林區"
"238011","5061-A6","2018/11/01 15:29:49","新北市樹林區八德街212巷26號","121.41515","24.97398","6500700","樹林區"
"238009","KEA-2213","2018/11/01 15:29:53","新北市樹林區仁愛街61號","121.422635","24.98232","6500700","樹林區"
"238008","KEA-2539","2018/11/01 15:29:47","新北市樹林區柑園街一段56號","121.40317","24.9602766666667","6500700","樹林區"
"238012","303-VK","2018/11/01 15:29:50","新北市樹林區中山路一段414號","121.41789","24.9852066666667","6500700","樹林區"
"238004","283-BY","2018/11/01 15:29:42","新北市樹林區保安街二段333巷2號","121.412308333333","25.007475","6500700","樹林區"
"238001","282-BY","2018/11/01 15:29:54","新北市樹林區中正路45巷9號","121.426675","24.99919","6500700","樹林區"
"238013","172-UY","2018/11/01 15:29:53","新北市樹林區新興街17號","121.400298333333","24.972845","6500700","樹林區"
"238003","169-UY","2018/11/01 15:29:56","新北市樹林區長壽街28巷4弄6號","121.423341666667","24.9942516666667","6500700","樹林區"
"221010","269-BY","2018/11/01 15:13:07","新北市汐止區汐萬路一段256巷3號","121.652061666667","25.0747016666667","6501100","汐止區"
"220050","245-BX","2018/11/01 15:29:42","新北市板橋區漢生東路83巷1號","121.466475","25.01602","6500100","板橋區"
"220031","286-VK","2018/11/01 15:29:57","新北市板橋區僑中二街108巷1號","121.445823333333","25.0072916666667","6500100","板橋區"
"220038","487-VK","2018/11/01 15:29:42","新北市板橋區四維路156號","121.46483","25.02588","6500100","板橋區"
"220037","491-VK","2018/11/01 15:29:46","新北市板橋區民治街88號","121.479238333333","25.03196","6500100","板橋區"
"220052","561-BX","2018/11/01 15:29:54","新北市板橋區漢生東路43巷4號","121.465915","25.0170316666667","6500100","板橋區"
"220042","689-BX","2018/11/01 15:29:58","新北市板橋區溪頭街2號","121.457281666667","25.02908","6500100","板橋區"
"220018","AAC-253","2018/11/01 15:29:55","新北市板橋區四川路二段245巷50號","121.451908333333","24.992335","6500100","板橋區"
