"lineid","car","time","location","longitude","latitude","cityid","cityname"
"249005","172-UM","2018/11/01 17:19:54","新北市五股區中直路崩山巷9-2號","121.41788","25.1248383333333","6502300","八里區"
"249001","173-UM","2018/11/01 17:19:56","新北市八里區中華路二段165巷2-1號","121.40761","25.1509016666667","6502300","八里區"
"249004","303-UY","2018/11/01 17:19:43","新北市八里區賢三街18號","121.418748333333","25.15894","6502300","八里區"
"249003","593-UM","2018/11/01 17:19:50","新北市八里區中山路二段460號","121.399083333333","25.147255","6502300","八里區"
"244023","069-UM","2018/11/01 17:19:55","新北市林口區興林路2號","121.38951","25.0765733333333","6501700","林口區"
"244007","080-UY","2018/11/01 17:19:56","新北市林口區中湖43-18號","121.382401666667","25.091745","6501700","林口區"
"244019","403-UM","2018/11/01 17:19:39","新北市林口區文化二路一段346號","121.37293","25.075245","6501700","林口區"
"244009","410-SL","2018/11/01 17:19:52","新北市林口區文林街29號","121.380753333333","25.0892383333333","6501700","林口區"
"244017","485-VK","2018/11/01 17:19:36","新北市林口區粉寮路15-3號","121.398298333333","25.0806066666667","6501700","林口區"
"244011","701-TV","2018/11/01 17:19:40","新北市林口區粉寮路一段77-1號","121.396981666667","25.078985","6501700","林口區"
"244025","837-TS","2018/11/01 17:19:41","新北市林口區仁愛二路96號","121.36854","25.0754733333333","6501700","林口區"
"244021","838-TS","2018/11/01 17:19:53","新北市林口區粉寮路二段358-6號","121.406341666667","25.09776","6501700","林口區"
"231046","107-UY","2018/11/01 17:19:38","新北市新店區直潭路92號","121.530913333333","24.9376116666667","6500600","新店區"
"241011","013-R5","2018/11/01 17:19:51","新北市三重區河邊北街100巷8號","121.50351","25.0703316666667","6500200","三重區"
"241028","022-UY","2018/11/01 17:19:44","新北市三重區中正南路108號","121.494315","25.0585183333333","6500200","三重區"
"241008","059-VK","2018/11/01 17:19:48","新北市三重區下竹圍街6號","121.480831666667","25.076025","6500200","三重區"
"241022","060-VK","2018/11/01 17:19:51","新北市三重區中正北路64巷5號","121.486401666667","25.0642083333333","6500200","三重區"
"241015","062-VK","2018/11/01 17:19:42","新北市三重區福德北路82號","121.501763333333","25.0662716666667","6500200","三重區"
"241017","063-VK","2018/11/01 17:19:38","新北市三重區大同北路52號","121.49511","25.0630733333333","6500200","三重區"
"241024","065-VK","2018/11/01 17:19:51","新北市三重區中正北路193巷11弄14號","121.477428333333","25.070355","6500200","三重區"
"241026","066-VK","2018/11/01 17:19:45","新北市三重區福裕街51號","121.49873","25.0615333333333","6500200","三重區"
"241002","090-VK","2018/11/01 17:19:51","新北市三重區自強路五段19-1號","121.492985","25.0806683333333","6500200","三重區"
"241003","091-VK","2018/11/01 17:19:52","新北市三重區五華街146號","121.491198333333","25.0839833333333","6500200","三重區"
"251014","742-BX","2018/11/01 17:19:57","新北市淡水區公埔子45號","121.463875","25.2302016666667","6501000","淡水區"
"241005","262-UM","2018/11/01 17:19:45","新北市三重區永安北路二段25巷60號","121.483508333333","25.0822116666667","6500200","三重區"
"241016","266-UM","2018/11/01 17:19:46","新北市三重區中正北路25巷22號","121.493676666667","25.0632133333333","6500200","三重區"
"241009","267-UM","2018/11/01 17:19:41","新北市三重區仁愛街650號","121.482838333333","25.0804533333333","6500200","三重區"
"241018","268-UM","2018/11/01 17:19:38","新北市三重區安慶街155號","121.494226666667","25.06882","6500200","三重區"
"241032","269-UM","2018/11/01 17:19:45","新北市三重區興華街135號","121.483093333333","25.0599083333333","6500200","三重區"
"241013","270-UM","2018/11/01 17:19:38","新北市三重區三和路三段107巷11號","121.494715","25.0729783333333","6500200","三重區"
"241007","398-BY","2018/11/01 17:19:37","新北市三重區三和路四段155巷5號","121.48424","25.0785933333333","6500200","三重區"
"241020","478-VK","2018/11/01 17:19:54","新北市三重區自強路三段7巷46號","121.48851","25.0723583333333","6500200","三重區"
"241014","543-UM","2018/11/01 17:19:40","新北市三重區長榮路3號","121.500171666667","25.0684366666667","6500200","三重區"
"241023","545-UM","2018/11/01 17:19:55","新北市三重區三民街148號","121.482505","25.0654133333333","6500200","三重區"
"241001","547-UM","2018/11/01 17:19:51","新北市三重區仁愛街316號","121.491815","25.0797833333333","6500200","三重區"
"241019","KEA-2593","2018/11/01 17:19:49","新北市三重區忠孝路二段6號","121.486405","25.0712333333333","6500200","三重區"
"241030","743-BX","2018/11/01 17:19:48","新北市三重區成功路73巷9號","121.489408333333","25.05179","6500200","三重區"
"241004","887-TS","2018/11/01 17:19:48","新北市三重區集賢路87-1號","121.49366","25.0868716666667","6500200","三重區"
"241029","942-UM","2018/11/01 17:19:49","新北市三重區重新路三段107-1號","121.49107","25.0595383333333","6500200","三重區"
"241033","AAC-255","2018/11/01 17:19:40","新北市三重區中興北街199號","121.469018333333","25.0575266666667","6500200","三重區"
"235065","098-UM","2018/11/01 17:19:39","新北市中和區員山路36巷16-3號","121.485123333333","24.9911816666667","6500300","中和區"
"247012","KEA-2869","2018/11/01 17:19:42","新北市蘆洲區信義路319巷12號","121.477725","25.0862383333333","6501400","蘆洲區"
"247002","893-R6","2018/11/01 17:19:50","新北市蘆洲區永樂街38巷37號","121.45815","25.089515","6501400","蘆洲區"
"247016","546-UM","2018/11/01 17:19:41","新北市蘆洲區正和街96巷7號","121.46762","25.0811016666667","6501400","蘆洲區"
"247024","500-BY","2018/11/01 17:19:38","新北市蘆洲區長榮路211巷2號","121.460833333333","25.0850983333333","6501400","蘆洲區"
"247014","339-TH","2018/11/01 17:19:37","新北市蘆洲區得勝街108號","121.471176666667","25.0828883333333","6501400","蘆洲區"
"247006","337-TH","2018/11/01 17:19:53","新北市蘆洲區永安南路二段156號","121.461725","25.078895","6501400","蘆洲區"
"247008","336-TH","2018/11/01 17:19:42","新北市三重區永安北路一段47號","121.47678","25.0763833333333","6501400","蘆洲區"
"247020","057-VK","2018/11/01 17:19:36","新北市蘆洲區仁愛街35巷6號","121.4719","25.0927583333333","6501400","蘆洲區"
"247010","056-VK","2018/11/01 17:19:39","新北市蘆洲區中山一路120巷7弄42-1號","121.47706","25.082505","6501400","蘆洲區"
"247018","007-UY","2018/11/01 17:19:54","新北市蘆洲區民權路82巷5弄5號","121.474876666667","25.0882316666667","6501400","蘆洲區"
"247004","002-UY","2018/11/01 17:19:36","新北市蘆洲區永安南路二段286號","121.457685","25.0813133333333","6501400","蘆洲區"
"247022","001-UY","2018/11/01 17:19:41","新北市蘆洲區三民路128巷34號","121.471161666667","25.08849","6501400","蘆洲區"
"228003","097-TW","2018/11/01 17:19:41","新北市貢寮區福隆里興隆街24-1號","121.944391666667","25.016705","6502600","貢寮區"
"228001","212-TW","2018/11/01 17:19:52","新北市貢寮區仁理村尖山腳街18-3號","121.925513333333","25.04839","6502600","貢寮區"
"228002","585-TW","2018/11/01 17:19:49","新北市貢寮區雙玉里田寮洋街38-1號","121.92683","25.014505","6502600","貢寮區"
"224006","676-BX","2018/11/01 17:19:52","新北市瑞芳區傑魚坑路309號","121.786288333333","25.104575","6501200","瑞芳區"
"224008","285-BY","2018/11/01 17:19:49","新北市瑞芳區侯硐路152-1號","121.826493333333","25.0841266666667","6501200","瑞芳區"
"224009","273-VK","2018/11/01 17:19:56","新北市瑞芳區汽車路87號","121.843363333333","25.1098483333333","6501200","瑞芳區"
"224005","271-BY","2018/11/01 17:19:54","新北市瑞芳區鼻頭路245-1號","121.913248333333","25.1241733333333","6501200","瑞芳區"
"227010","642-TC","2018/11/01 17:19:51","新北市雙溪區三貂里定福路1-6號","121.849501666667","25.0634066666667","6502500","雙溪區"
"227004","400-TW","2018/11/01 17:19:44","新北市雙溪區上林里內平林90號","121.827545","25.0275","6502500","雙溪區"
"251009","008-UM","2018/11/01 17:19:53","新北市淡水區建設街2-1號","121.43906","25.1721066666667","6501000","淡水區"
"251005","010-UM","2018/11/01 17:19:41","新北市淡水區鄧公路29巷2號","121.451653333333","25.169955","6501000","淡水區"
"251013","KEA-2871","2018/11/01 17:19:37","新北市淡水區大竹圍1號","121.470001666667","25.1955516666667","6501000","淡水區"
"251016","179-VK","2018/11/01 17:19:52","新北市淡水區鄒厝崙14號","121.461671666667","25.190465","6501000","淡水區"
"251008","181-VK","2018/11/01 17:19:46","新北市淡水區大同路263號","121.466786666667","25.14214","6501000","淡水區"
"251015","182-VK","2018/11/01 17:19:55","新北市淡水區三空泉17-6號","121.473955","25.1658916666667","6501000","淡水區"
"251010","413-VK","2018/11/01 17:19:42","新北市淡水區新民街一段123號","121.428095","25.1881566666667","6501000","淡水區"
"251012","441-VK","2018/11/01 17:19:52","新北市淡水區北新路37號","121.445395","25.1778833333333","6501000","淡水區"
"251007","442-VK","2018/11/01 17:19:54","新北市淡水區民生路47-5號","121.462205","25.1380633333333","6501000","淡水區"
"251004","443-VK","2018/11/01 17:19:45","新北市淡水區中正東路二段88巷11號","121.459055","25.1508166666667","6501000","淡水區"
"251006","561-UM","2018/11/01 17:19:55","新北市淡水區中山路190號","121.441536666667","25.1745416666667","6501000","淡水區"
"251011","650-BX","2018/11/01 17:19:40","新北市淡水區坪頂路131號","121.46471","25.1615216666667","6501000","淡水區"
"251002","672-BX","2018/11/01 17:19:55","新北市淡水區中正路二段31號","121.419333333333","25.181635","6501000","淡水區"
"251003","766-UM","2018/11/01 17:19:54","新北市淡水區中正路二段38號","121.419461666667","25.182355","6501000","淡水區"
"207003","550-UM","2018/11/01 17:19:51","新北市萬里區萬里里獅頭路23號","121.693256666667","25.1783033333333","6502800","萬里區"
"252002","178-VK","2018/11/01 17:19:49","新北市三芝區忠孝街1-14號","121.505588333333","25.2540016666667","6502100","三芝區"
"252001","292-VK","2018/11/01 17:19:44","新北市三芝區長安街119號","121.498073333333","25.2596583333333","6502100","三芝區"
"237012","275-BY","2018/11/01 17:19:54","新北市三峽區中山路459巷137號","121.349956666667","24.933995","6500900","三峽區"
"237016","649-BX","2018/11/01 17:19:36","新北市三峽區中山路459巷163-3號","121.34862","24.9330133333333","6500900","三峽區"
"242058","986-R7","2018/11/01 17:19:54","新北市新莊區新泰路357巷3弄43號","121.441976666667","25.04025","6500500","新莊區"
"242056","751-BX","2018/11/01 17:19:45","新北市新莊區新莊路664-2號","121.442361666667","25.0328616666667","6500500","新莊區"
"242027","615-BX","2018/11/01 17:19:51","新北市新莊區中港一街161號","121.44708","25.0449683333333","6500500","新莊區"
"242029","612-BX","2018/11/01 17:19:37","新北市新莊區幸福路606號","121.451941666667","25.04933","6500500","新莊區"
"242044","566-BX","2018/11/01 17:17:13","新北市新莊區中正路486-1號","121.436796666667","25.0331033333333","6500500","新莊區"
"242048","497-BY","2018/11/01 17:19:39","新北市新莊區龍安路249巷1號","121.418978333333","25.0206016666667","6500500","新莊區"
"242011","442-UM","2018/11/01 17:19:56","新北市新莊區新泰路502巷12號","121.442786666667","25.04647","6500500","新莊區"
"242053","441-UM","2018/11/01 17:19:50","新北市新莊區環河路636-7號","121.43671","25.0108483333333","6500500","新莊區"
"242039","415-TV","2018/11/01 17:19:49","新北市新莊區民安路302號","121.428215","25.02189","6500500","新莊區"
"242009","413-TV","2018/11/01 17:19:47","新北市新莊區新泰路498號","121.442551666667","25.0462383333333","6500500","新莊區"
"242046","400-BY","2018/11/01 17:19:53","新北市新莊區新泰路357巷3弄45號","121.44201","25.04016","6500500","新莊區"
"242023","362-BY","2018/11/01 17:19:40","新北市新莊區中港一街142號","121.446646666667","25.0450083333333","6500500","新莊區"
"242061","353-BY","2018/11/01 17:19:38","新北市新莊區新泰路357巷3弄45號","121.441973333333","25.0401366666667","6500500","新莊區"
"242042","133-UY","2018/11/01 17:19:50","新北市新莊區新樹路9號","121.440883333333","25.0330533333333","6500500","新莊區"
"242034","135-UY","2018/11/01 17:19:51","新北市新莊區中正路473-1號","121.44204","25.0332116666667","6500500","新莊區"
"242051","172-VK","2018/11/01 17:19:47","新北市新莊區瓊林南路75-2號","121.434971666667","25.0143466666667","6500500","新莊區"
"242013","173-VK","2018/11/01 17:19:48","新北市新莊區三和路12-21號","121.442016666667","25.03877","6500500","新莊區"
"242019","175-VK","2018/11/01 17:19:31","新北市新莊區中平路82巷24號","121.445815","25.0449033333333","6500500","新莊區"
"242007","176-VK","2018/11/01 17:19:47","新北市新莊區中平路82巷29號","121.446225","25.04495","6500500","新莊區"
"242017","346-TH","2018/11/01 17:19:43","新北市新莊區新泰路500號","121.44251","25.0460533333333","6500500","新莊區"
"242031","348-TH","2018/11/01 17:19:52","新北市新莊區新泰路466號","121.443183333333","25.0449483333333","6500500","新莊區"
"242004","349-TH","2018/11/01 17:19:43","新北市新莊區復興路一段209號","121.452381666667","25.0436666666667","6500500","新莊區"
"242021","350-TH","2018/11/01 17:19:41","新北市新莊區中港路313號","121.452718333333","25.0447783333333","6500500","新莊區"
"238015","755-BX","2018/11/01 17:19:54","新北市樹林區大安路576號","121.411796666667","24.98375","6500700","樹林區"
"238019","599-UM","2018/11/01 17:19:49","新北市樹林區太平路235-1號","121.419081666667","24.9739816666667","6500700","樹林區"
"238018","571-TV","2018/11/01 17:19:55","新北市樹林區鎮前街261號","121.420226666667","24.9861383333333","6500700","樹林區"
"238024","5061-A6","2018/11/01 17:19:46","新北市樹林區保安街一段48巷27號","121.426535","24.99525","6500700","樹林區"
"238022","KEA-2213","2018/11/01 17:19:53","新北市樹林區仁愛街73巷1號","121.423555","24.9827683333333","6500700","樹林區"
"238021","KEA-2539","2018/11/01 17:19:50","新北市樹林區西圳街一段61-1號","121.400645","24.9625316666667","6500700","樹林區"
"238025","303-VK","2018/11/01 17:19:40","新北市樹林區保安二街69號","121.42461","24.994925","6500700","樹林區"
"238017","283-BY","2018/11/01 17:19:41","新北市樹林區光武街35號","121.416591666667","25.0066216666667","6500700","樹林區"
"238014","282-BY","2018/11/01 17:19:54","新北市樹林區長壽街70巷12弄2號","121.421978333333","24.994865","6500700","樹林區"
"238026","172-UY","2018/11/01 17:19:41","新北市樹林區東大街144號","121.410015","24.9759483333333","6500700","樹林區"
"238016","169-UY","2018/11/01 17:19:56","新北市樹林區中山路二段10號","121.417568333333","24.9850766666667","6500700","樹林區"
"239007","AAC-297","2018/11/01 17:19:51","新北市鶯歌區國慶街115巷18號","121.351206666667","24.9543366666667","6500800","鶯歌區"
"239006","891-R6","2018/11/01 17:19:58","新北市鶯歌區德昌二街71號","121.333358333333","24.9581783333333","6500800","鶯歌區"
"239008","527-UM","2018/11/01 17:19:50","新北市鶯歌區西湖街279巷15號","121.340471666667","24.96802","6500800","鶯歌區"
"239005","526-UM","2018/11/01 17:19:53","新北市鶯歌區福德三街16號","121.329578333333","24.9675266666667","6500800","鶯歌區"
"239001","417-VK","2018/11/01 17:19:49","新北市鶯歌區尖山路卓厝巷1號","121.342105","24.9457583333333","6500800","鶯歌區"
"239003","360-BY","2018/11/01 17:19:50","新北市鶯歌區德昌街50號","121.333248333333","24.959765","6500800","鶯歌區"
"239002","359-BY","2018/11/01 17:19:41","新北市鶯歌區建國路162號","121.350348333333","24.9536383333333","6500800","鶯歌區"
"239004","193-VK","2018/11/01 17:19:42","新北市鶯歌區文化路296號","121.352546666667","24.9468533333333","6500800","鶯歌區"
"221008","489-VK","2018/11/01 17:19:47","新北市汐止區康寧街901號","121.65139","25.075075","6501100","汐止區"
"221010","269-BY","2018/11/01 17:19:38","新北市汐止區汐萬路一段256巷3號","121.652151666667","25.074865","6501100","汐止區"
"242002","281-VK","2018/11/01 17:19:52","新北市新莊區瓊林路46-11號","121.446885","25.0290483333333","6500500","新莊區"
"242015","280-VK","2018/11/01 17:19:41","新北市新莊區新泰路357巷1弄2號","121.442718333333","25.041305","6500500","新莊區"
"235061","KEA-2875","2018/11/01 17:19:22","新北市中和區員山路36巷16-2號","121.485275","24.991695","6500300","中和區"
