"lineid","car","time","location","longitude","latitude","cityid","cityname"
"249005","172-UM","2018/11/01 17:29:54","新北市八里區荖阡坑路71號","121.407111666667","25.126295","6502300","八里區"
"249001","173-UM","2018/11/01 17:29:56","新北市八里區中華路一段5號","121.422698333333","25.1584","6502300","八里區"
"249004","303-UY","2018/11/01 17:29:43","新北市八里區賢三街189號","121.41363","25.1563216666667","6502300","八里區"
"249003","593-UM","2018/11/01 17:29:50","新北市八里區中山路二段378號","121.400671666667","25.1479533333333","6502300","八里區"
"232011","375-UM","2018/11/01 17:29:54","新北市坪林區北宜路八段477號","121.706601666667","24.9214283333333","6502000","坪林區"
"244023","069-UM","2018/11/01 17:29:50","新北市林口區東明一街35巷2號","121.392078333333","25.0719633333333","6501700","林口區"
"244007","080-UY","2018/11/01 17:29:56","新北市林口區湖子8號","121.392155","25.0921816666667","6501700","林口區"
"244019","403-UM","2018/11/01 17:29:39","新北市林口區文化一路一段135巷18號","121.373303333333","25.07231","6501700","林口區"
"244013","KEA-2802","2018/11/01 17:29:38","新北市林口區粉寮路二段14號","121.401851666667","25.0855466666667","6501700","林口區"
"244009","410-SL","2018/11/01 17:29:52","新北市林口區中華路283號","121.383875","25.0908316666667","6501700","林口區"
"244017","485-VK","2018/11/01 17:29:56","新北市林口區中山路303號","121.3838","25.0804183333333","6501700","林口區"
"244011","701-TV","2018/11/01 17:29:41","新北市林口區中正路345巷1弄1號","121.387958333333","25.077245","6501700","林口區"
"244025","837-TS","2018/11/01 17:29:41","新北市林口區南勢街120-1號","121.363203333333","25.07425","6501700","林口區"
"244021","838-TS","2018/11/01 17:29:53","新北市林口區粉寮路1號","121.397625","25.0801866666667","6501700","林口區"
"231046","107-UY","2018/11/01 17:29:38","新北市新店區直潭路92號","121.530908333333","24.93762","6500600","新店區"
"241011","013-R5","2018/11/01 17:29:43","新北市三重區河邊北街110巷25號","121.50333","25.070785","6500200","三重區"
"241015","062-VK","2018/11/01 17:29:51","新北市三重區開元街30號","121.503635","25.0658183333333","6500200","三重區"
"241017","063-VK","2018/11/01 17:29:41","新北市三重區重新路三段45-6號","121.493478333333","25.0618166666667","6500200","三重區"
"241024","065-VK","2018/11/01 17:29:51","新北市三重區中正北路193巷21弄6號","121.476385","25.070465","6500200","三重區"
"241002","090-VK","2018/11/01 17:29:51","新北市三重區五華街141巷60號","121.493571666667","25.0868183333333","6500200","三重區"
"251014","742-BX","2018/11/01 17:29:37","新北市淡水區公埔子20-6號","121.468616666667","25.2265666666667","6501000","淡水區"
"241005","262-UM","2018/11/01 17:29:45","新北市三重區永安北路二段5巷19號","121.482203333333","25.08107","6500200","三重區"
"241016","266-UM","2018/11/01 17:29:46","新北市三重區信義西街41號","121.495256666667","25.0639716666667","6500200","三重區"
"241018","268-UM","2018/11/01 17:29:38","新北市三重區新北大道一段3-1號","121.49023","25.0614633333333","6500200","三重區"
"241032","269-UM","2018/11/01 17:29:25","新北市三重區名源街33號","121.481905","25.0603233333333","6500200","三重區"
"241013","270-UM","2018/11/01 17:29:38","新北市三重區仁愛街141巷18號","121.496238333333","25.0757116666667","6500200","三重區"
"241007","398-BY","2018/11/01 17:29:37","新北市三重區三和路四段145巷102號","121.486913333333","25.0790483333333","6500200","三重區"
"241020","478-VK","2018/11/01 17:29:54","新北市三重區忠孝路二段34號","121.485756666667","25.0710216666667","6500200","三重區"
"241014","543-UM","2018/11/01 17:29:40","新北市三重區安和路17號","121.501403333333","25.0684533333333","6500200","三重區"
"241023","545-UM","2018/11/01 17:29:43","新北市三重區忠孝路三段84巷24號","121.481228333333","25.0643833333333","6500200","三重區"
"241019","KEA-2593","2018/11/01 17:29:49","新北市三重區自強路二段26巷33號","121.488423333333","25.0691166666667","6500200","三重區"
"241030","743-BX","2018/11/01 17:29:48","新北市三重區新興路49號","121.49155","25.0537433333333","6500200","三重區"
"241033","AAC-255","2018/11/01 17:29:40","新北市三重區中興北街153-17號","121.469033333333","25.0549133333333","6500200","三重區"
"235065","098-UM","2018/11/01 17:29:39","新北市中和區員山路36巷16-3號","121.485086666667","24.9911783333333","6500300","中和區"
"247012","KEA-2869","2018/11/01 17:29:42","新北市蘆洲區民族路31-12號","121.477931666667","25.0851133333333","6501400","蘆洲區"
"247002","893-R6","2018/11/01 17:29:44","新北市蘆洲區永樂街38巷67弄21號","121.45783","25.090725","6501400","蘆洲區"
"247016","546-UM","2018/11/01 17:29:41","新北市蘆洲區光華路22巷35號","121.468436666667","25.0845833333333","6501400","蘆洲區"
"247024","500-BY","2018/11/01 17:29:38","新北市蘆洲區長興路415號","121.461643333333","25.0930383333333","6501400","蘆洲區"
"247014","339-TH","2018/11/01 17:29:57","新北市蘆洲區三民路88號","121.473491666667","25.08533","6501400","蘆洲區"
"247006","337-TH","2018/11/01 17:29:53","新北市蘆洲區九芎街90巷21號","121.464763333333","25.081195","6501400","蘆洲區"
"247008","336-TH","2018/11/01 17:29:41","新北市蘆洲區民生街89號","121.473808333333","25.0780683333333","6501400","蘆洲區"
"247020","057-VK","2018/11/01 17:29:56","新北市蘆洲區水湳街102號","121.469516666667","25.0929116666667","6501400","蘆洲區"
"247010","056-VK","2018/11/01 17:29:39","新北市蘆洲區信義路118號","121.479833333333","25.08222","6501400","蘆洲區"
"247018","007-UY","2018/11/01 17:29:35","新北市蘆洲區民義街22巷24號","121.471855","25.08794","6501400","蘆洲區"
"247004","002-UY","2018/11/01 17:29:48","新北市蘆洲區中原路16號","121.461026666667","25.0832533333333","6501400","蘆洲區"
"247022","001-UY","2018/11/01 17:29:45","新北市蘆洲區三民路277號","121.467785","25.0898966666667","6501400","蘆洲區"
"228003","097-TW","2018/11/01 17:29:46","新北市貢寮區仁理村仁和路2-2號","121.923316666667","25.0484516666667","6502600","貢寮區"
"228001","212-TW","2018/11/01 17:29:52","新北市貢寮區仁理村仁愛路60號","121.925575","25.0533766666667","6502600","貢寮區"
"228002","585-TW","2018/11/01 17:29:49","新北市貢寮區福隆里興隆街20號","121.944746666667","25.0167066666667","6502600","貢寮區"
"224010","AGQ-8101","2018/11/01 17:29:43","新北市瑞芳區逢甲路88號","121.809366666667","25.1088716666667","6501200","瑞芳區"
"224006","676-BX","2018/11/01 17:29:52","新北市瑞芳區靜安路四段92號","121.793188333333","25.110055","6501200","瑞芳區"
"224008","285-BY","2018/11/01 17:29:49","新北市瑞芳區侯硐路314號","121.832571666667","25.0895216666667","6501200","瑞芳區"
"224009","273-VK","2018/11/01 17:29:48","新北市瑞芳區烏勢巷149號","121.847083333333","25.10802","6501200","瑞芳區"
"224005","271-BY","2018/11/01 17:29:32","新北市瑞芳區南雅路91號","121.883116666667","25.1232016666667","6501200","瑞芳區"
"227010","642-TC","2018/11/01 17:29:51","新北市雙溪區三貂里政光路6-2號","121.850833333333","25.0703633333333","6502500","雙溪區"
"227004","400-TW","2018/11/01 17:29:44","新北市雙溪區平林里外平林57號","121.8467","25.0348816666667","6502500","雙溪區"
"251009","008-UM","2018/11/01 17:29:54","新北市淡水區新生街30巷64號","121.43966","25.1732066666667","6501000","淡水區"
"251005","010-UM","2018/11/01 17:29:41","新北市淡水區鄧公路31巷13號","121.451896666667","25.1707416666667","6501000","淡水區"
"251013","KEA-2871","2018/11/01 17:29:37","新北市淡水區大竹圍5號","121.46657","25.1952583333333","6501000","淡水區"
"251016","179-VK","2018/11/01 17:29:52","新北市淡水區大竹圍10號","121.464791666667","25.1922933333333","6501000","淡水區"
"251008","181-VK","2018/11/01 17:29:46","新北市淡水區大同路124巷2號","121.46343","25.1405833333333","6501000","淡水區"
"251015","182-VK","2018/11/01 17:29:55","新北市淡水區三空泉15號","121.472798333333","25.1636016666667","6501000","淡水區"
"251010","413-VK","2018/11/01 17:29:42","新北市淡水區中正路二段211號","121.426208333333","25.1891333333333","6501000","淡水區"
"251012","441-VK","2018/11/01 17:29:52","新北市淡水區北新路117號","121.448908333333","25.17865","6501000","淡水區"
"251007","442-VK","2018/11/01 17:29:54","新北市淡水區民生路47-6號","121.462241666667","25.13821","6501000","淡水區"
"251004","443-VK","2018/11/01 17:21:01","新北市淡水區中正東路二段88巷15號","121.459065","25.150495","6501000","淡水區"
"251006","561-UM","2018/11/01 17:29:55","新北市淡水區大仁街19號","121.442435","25.1751733333333","6501000","淡水區"
"251011","650-BX","2018/11/01 17:29:40","新北市淡水區坪頂路718號","121.482548333333","25.1585016666667","6501000","淡水區"
"251002","672-BX","2018/11/01 17:29:55","新北市淡水區中正路259號","121.432868333333","25.1745383333333","6501000","淡水區"
"251003","766-UM","2018/11/01 17:29:54","新北市淡水區中山路159-1號","121.44075","25.1729333333333","6501000","淡水區"
"207003","550-UM","2018/11/01 17:29:51","新北市萬里區龜吼里翡翠路17號","121.683418333333","25.187295","6502800","萬里區"
"207004","225-TW","2018/11/01 17:29:53","新北市萬里區萬里里景美路11-2號","121.685318333333","25.1731366666667","6502800","萬里區"
"252002","178-VK","2018/11/01 17:29:50","新北市三芝區忠孝街1-14號","121.505496666667","25.253975","6502100","三芝區"
"252001","292-VK","2018/11/01 17:29:44","新北市三芝區淡金路一段3號","121.498091666667","25.2596183333333","6502100","三芝區"
"237012","275-BY","2018/11/01 17:29:54","新北市三峽區中山路459巷137號","121.349945","24.933975","6500900","三峽區"
"237016","649-BX","2018/11/01 17:29:56","新北市三峽區中山路323號","121.360758333333","24.93807","6500900","三峽區"
"242036","AAC-296","2018/11/01 17:29:55","新北市新莊區建國一路162號","121.434993333333","25.0251766666667","6500500","新莊區"
"242058","986-R7","2018/11/01 17:29:54","新北市新莊區中正路516-42號","121.432338333333","25.0320466666667","6500500","新莊區"
"242056","751-BX","2018/11/01 17:29:45","新北市新莊區新莊路362號","121.449623333333","25.0336116666667","6500500","新莊區"
"242027","615-BX","2018/11/01 17:29:51","新北市新莊區思源路38號","121.459971666667","25.04275","6500500","新莊區"
"242029","612-BX","2018/11/01 17:29:39","新北市新莊區復興路二段181號","121.458921666667","25.0444616666667","6500500","新莊區"
"242044","566-BX","2018/11/01 17:29:43","新北市新莊區民安路98巷3號","121.423676666667","25.0256983333333","6500500","新莊區"
"242048","497-BY","2018/11/01 17:29:39","新北市新莊區四維路212巷20號","121.421005","25.0203733333333","6500500","新莊區"
"242011","442-UM","2018/11/01 17:29:39","新北市新莊區中港路412號","121.452166666667","25.0502566666667","6500500","新莊區"
"242053","441-UM","2018/11/01 17:29:50","新北市新莊區瓊林南路305巷2號","121.43415","25.0060483333333","6500500","新莊區"
"242039","415-TV","2018/11/01 17:29:49","新北市新莊區民安東路2號","121.427831666667","25.0209866666667","6500500","新莊區"
"242009","413-TV","2018/11/01 17:29:47","新北市新莊區中原路189號","121.452678333333","25.0543316666667","6500500","新莊區"
"242046","400-BY","2018/11/01 17:29:53","新北市新莊區新樹路67巷44號","121.440926666667","25.0304716666667","6500500","新莊區"
"242023","362-BY","2018/11/01 17:29:40","新北市新莊區公園路152號","121.453205","25.0401333333333","6500500","新莊區"
"242061","353-BY","2018/11/01 17:29:44","新北市新莊區瓊林南路21-1號","121.43791","25.020315","6500500","新莊區"
"242042","133-UY","2018/11/01 17:29:50","新北市新莊區新樹路115號","121.437436666667","25.02664","6500500","新莊區"
"242034","135-UY","2018/11/01 17:29:51","新北市新莊區新莊路469號","121.449206666667","25.0333916666667","6500500","新莊區"
"242051","172-VK","2018/11/01 17:29:47","新北市新莊區新樹路443號","121.432671666667","25.0136366666667","6500500","新莊區"
"242013","173-VK","2018/11/01 17:29:48","新北市新莊區中誠街144號","121.448776666667","25.047505","6500500","新莊區"
"242019","175-VK","2018/11/01 17:29:51","新北市新莊區中港路86號","121.455465","25.0392566666667","6500500","新莊區"
"242007","176-VK","2018/11/01 17:29:47","新北市新莊區自強街28號","121.45478","25.0461483333333","6500500","新莊區"
"242017","346-TH","2018/11/01 17:29:43","新北市新莊區德豐街4號","121.451623333333","25.0439633333333","6500500","新莊區"
"242031","348-TH","2018/11/01 17:29:39","新北市新莊區新泰路401巷14號","121.442973333333","25.0441266666667","6500500","新莊區"
"242004","349-TH","2018/11/01 17:29:43","新北市新莊區中港路288巷22號","121.453691666667","25.0447066666667","6500500","新莊區"
"242021","350-TH","2018/11/01 17:29:41","新北市新莊區中華路一段18號","121.451973333333","25.0371583333333","6500500","新莊區"
"238015","755-BX","2018/11/01 17:29:58","新北市樹林區大安路203號","121.420555","24.995575","6500700","樹林區"
"238019","599-UM","2018/11/01 17:29:49","新北市樹林區八德街77號","121.419668333333","24.9819616666667","6500700","樹林區"
"238018","571-TV","2018/11/01 17:29:40","新北市樹林區育英街2巷1-1號","121.423143333333","24.9884183333333","6500700","樹林區"
"238024","5061-A6","2018/11/01 17:29:46","新北市樹林區水源街213號","121.423956666667","24.9872666666667","6500700","樹林區"
"238022","KEA-2213","2018/11/01 17:29:53","新北市樹林區仁愛街12巷2號","121.421848333333","24.9817516666667","6500700","樹林區"
"238021","KEA-2539","2018/11/01 17:29:49","新北市樹林區西圳街一段203巷13號","121.393276666667","24.9596833333333","6500700","樹林區"
"238025","303-VK","2018/11/01 17:29:40","新北市樹林區保安街一段402號","121.417021666667","24.99911","6500700","樹林區"
"238017","283-BY","2018/11/01 17:29:41","新北市樹林區三德街30巷16弄36號","121.413578333333","25.012385","6500700","樹林區"
"238014","282-BY","2018/11/01 17:29:54","新北市樹林區長壽街90號","121.419851666667","24.9962266666667","6500700","樹林區"
"238026","172-UY","2018/11/01 17:29:40","新北市樹林區中山路二段219號","121.402678333333","24.9763366666667","6500700","樹林區"
"238016","169-UY","2018/11/01 17:29:56","新北市樹林區長壽街28巷4弄10號","121.423538333333","24.994265","6500700","樹林區"
"239007","AAC-297","2018/11/01 17:29:51","新北市鶯歌區國華路2號","121.34287","24.95637","6500800","鶯歌區"
"239006","891-R6","2018/11/01 17:29:38","新北市鶯歌區福安街7巷24弄25號","121.334596666667","24.9658066666667","6500800","鶯歌區"
"239008","527-UM","2018/11/01 17:29:50","新北市鶯歌區大湖路642號","121.334096666667","24.97535","6500800","鶯歌區"
"239005","526-UM","2018/11/01 17:29:53","新北市鶯歌區福隆一街5號","121.325586666667","24.9718333333333","6500800","鶯歌區"
"239001","417-VK","2018/11/01 17:29:55","新北市鶯歌區高職西街101號","121.33598","24.9407216666667","6500800","鶯歌區"
"239003","360-BY","2018/11/01 17:29:50","新北市鶯歌區鶯桃路297-3號","121.334328333333","24.96059","6500800","鶯歌區"
"239002","359-BY","2018/11/01 17:29:41","新北市鶯歌區南昌街24號","121.349746666667","24.9543333333333","6500800","鶯歌區"
"239004","193-VK","2018/11/01 17:29:42","新北市鶯歌區三鶯路11號","121.356446666667","24.9412466666667","6500800","鶯歌區"
"221008","489-VK","2018/11/01 17:29:47","新北市汐止區康寧街901號","121.651341666667","25.0750033333333","6501100","汐止區"
"221010","269-BY","2018/11/01 17:29:38","新北市汐止區汐萬路一段256巷3號","121.65212","25.074845","6501100","汐止區"
"242002","281-VK","2018/11/01 17:29:52","新北市新莊區新莊路154號","121.455226666667","25.03547","6500500","新莊區"
"242015","280-VK","2018/11/01 17:29:41","新北市新莊區建中街90巷1弄23號","121.44578","25.0366366666667","6500500","新莊區"
"235061","KEA-2875","2018/11/01 17:19:22","新北市中和區員山路36巷16-2號","121.485275","24.991695","6500300","中和區"
