"lineid","car","time","location","longitude","latitude","cityid","cityname"
"234026","9371-KE","2018/11/01 17:39:45","新北市永和區中正路748號","121.514913333333","25.0102783333333","6500400","永和區"
"249005","172-UM","2018/11/01 17:39:54","新北市八里區荖阡坑路28-5號","121.403411666667","25.1300616666667","6502300","八里區"
"249001","173-UM","2018/11/01 17:39:36","新北市八里區龍米路二段152-2號","121.43552","25.1571366666667","6502300","八里區"
"249004","303-UY","2018/11/01 17:39:43","新北市八里區大崁腳35號","121.419435","25.1586966666667","6502300","八里區"
"249003","593-UM","2018/11/01 17:39:50","新北市八里區中山路二段171號","121.404921666667","25.1506483333333","6502300","八里區"
"234074","AAC-211","2018/11/01 17:36:53","新北市永和區福和路1號","121.526496666667","25.0098033333333","6500400","永和區"
"232011","375-UM","2018/11/01 17:39:54","新北市坪林區北宜路八段25號","121.70304","24.936195","6502000","坪林區"
"244023","069-UM","2018/11/01 17:39:35","新北市林口區興林路221巷27號","121.38973","25.0717466666667","6501700","林口區"
"244007","080-UY","2018/11/01 17:39:56","新北市林口區文化一路二段309號","121.38583","25.0859866666667","6501700","林口區"
"244019","403-UM","2018/11/01 17:39:39","新北市林口區忠孝路531巷21號","121.372276666667","25.0695633333333","6501700","林口區"
"244013","KEA-2802","2018/11/01 17:39:58","新北市林口區中山路319號","121.383528333333","25.0805883333333","6501700","林口區"
"244009","410-SL","2018/11/01 17:39:52","新北市林口區中北三街202號","121.382533333333","25.0819166666667","6501700","林口區"
"244017","485-VK","2018/11/01 17:39:36","新北市林口區忠孝路371-1號","121.369113333333","25.0718766666667","6501700","林口區"
"244011","701-TV","2018/11/01 17:39:40","新北市林口區佳林路154號","121.38416","25.0771083333333","6501700","林口區"
"244025","837-TS","2018/11/01 17:39:41","新北市林口區忠孝路308巷20號","121.36682","25.0725","6501700","林口區"
"244021","838-TS","2018/11/01 17:39:53","新北市林口區粉寮路一段40號","121.396393333333","25.0764083333333","6501700","林口區"
"222002","659-BX","2018/11/01 17:39:39","新北市深坑區深南路1號","121.62216","25.0052966666667","6501800","深坑區"
"231046","107-UY","2018/11/01 17:39:58","新北市新店區直潭路113號","121.531676666667","24.9361783333333","6500600","新店區"
"241024","065-VK","2018/11/01 17:39:51","新北市三重區大勇街82巷15弄23號","121.480798333333","25.07203","6500200","三重區"
"251014","742-BX","2018/11/01 17:39:21","新北市淡水區公埔子15-1號","121.479371666667","25.2267033333333","6501000","淡水區"
"241016","266-UM","2018/11/01 17:39:47","新北市三重區重新路二段23號","121.497763333333","25.06276","6500200","三重區"
"241007","398-BY","2018/11/01 17:39:57","新北市三重區車路頭街135-1號","121.484246666667","25.0760016666667","6500200","三重區"
"241014","543-UM","2018/11/01 17:39:40","新北市三重區河邊北街82號","121.504306666667","25.068965","6500200","三重區"
"241023","545-UM","2018/11/01 17:39:44","新北市三重區中華路95號","121.483566666667","25.0630666666667","6500200","三重區"
"241019","KEA-2593","2018/11/01 17:39:49","新北市三重區六張街212號","121.487995","25.06845","6500200","三重區"
"241033","AAC-255","2018/11/01 17:39:40","新北市三重區興德路141巷11號","121.469638333333","25.0533666666667","6500200","三重區"
"235065","098-UM","2018/11/01 17:39:59","新北市中和區員山路36巷16-3號","121.485136666667","24.991165","6500300","中和區"
"247012","KEA-2869","2018/11/01 17:39:42","新北市蘆洲區民權路21號","121.476258333333","25.0862533333333","6501400","蘆洲區"
"247002","893-R6","2018/11/01 17:39:44","新北市蘆洲區永平街32巷11弄19號","121.45821","25.0915666666667","6501400","蘆洲區"
"247016","546-UM","2018/11/01 17:39:44","新北市蘆洲區光華路68號","121.468053333333","25.0829783333333","6501400","蘆洲區"
"247024","500-BY","2018/11/01 17:39:38","新北市蘆洲區長樂路125-1號","121.462081666667","25.0880616666667","6501400","蘆洲區"
"247014","339-TH","2018/11/01 17:39:57","新北市蘆洲區中正路8號","121.47156","25.081975","6501400","蘆洲區"
"247006","337-TH","2018/11/01 17:39:53","新北市蘆洲區長安街52號","121.463213333333","25.0798366666667","6501400","蘆洲區"
"247008","336-TH","2018/11/01 17:39:41","新北市蘆洲區民生街131巷14號","121.472418333333","25.0785616666667","6501400","蘆洲區"
"247020","057-VK","2018/11/01 17:39:36","新北市蘆洲區民族路426號","121.473696666667","25.09181","6501400","蘆洲區"
"247010","056-VK","2018/11/01 17:39:39","新北市蘆洲區集賢路412號","121.479765","25.0814383333333","6501400","蘆洲區"
"247018","007-UY","2018/11/01 17:39:55","新北市蘆洲區三民路102號","121.471965","25.0867716666667","6501400","蘆洲區"
"247004","002-UY","2018/11/01 17:39:57","新北市蘆洲區長安街233巷44號","121.457685","25.0821216666667","6501400","蘆洲區"
"247022","001-UY","2018/11/01 17:39:50","新北市蘆洲區中正路262號","121.465501666667","25.0897616666667","6501400","蘆洲區"
"228003","097-TW","2018/11/01 17:39:41","新北市貢寮區仁理村仁和路35號","121.923945","25.0539066666667","6502600","貢寮區"
"228002","585-TW","2018/11/01 17:39:49","新北市貢寮區福隆里外隆林街14-1號","121.959173333333","25.0036783333333","6502600","貢寮區"
"224010","AGQ-8101","2018/11/01 17:39:43","新北市瑞芳區岳王路158號","121.808235","25.1112366666667","6501200","瑞芳區"
"224006","676-BX","2018/11/01 17:39:57","新北市瑞芳區中山路367號","121.79626","25.1101216666667","6501200","瑞芳區"
"224008","285-BY","2018/11/01 17:39:49","新北市瑞芳區瑞柑新村11號","121.829356666667","25.106535","6501200","瑞芳區"
"224009","273-VK","2018/11/01 17:39:48","新北市瑞芳區金光路376號","121.850558333333","25.1111033333333","6501200","瑞芳區"
"224005","271-BY","2018/11/01 17:39:32","新北市瑞芳區海濱路8-6號","121.830936666667","25.1258233333333","6501200","瑞芳區"
"227010","642-TC","2018/11/01 17:39:51","新北市雙溪區三貂里定福路1-2號","121.850711666667","25.0634116666667","6502500","雙溪區"
"227004","400-TW","2018/11/01 17:39:44","新北市雙溪區共和里東榮街42號","121.866166666667","25.033705","6502500","雙溪區"
"208002","KEA-2872","2018/11/01 17:39:38","新北市金山區磺清路135號","121.639305","25.227665","6502700","金山區"
"251009","008-UM","2018/11/01 17:39:34","新北市淡水區中正路34-1號","121.443813333333","25.1692433333333","6501000","淡水區"
"251005","010-UM","2018/11/01 17:39:41","新北市淡水區鄧公路33巷1號","121.451485","25.1711366666667","6501000","淡水區"
"251013","KEA-2871","2018/11/01 17:39:37","新北市淡水區演戲埔腳6號","121.471713333333","25.193885","6501000","淡水區"
"251016","179-VK","2018/11/01 17:39:52","新北市淡水區埤島39-15號","121.452761666667","25.19586","6501000","淡水區"
"251008","181-VK","2018/11/01 17:39:46","新北市淡水區八勢路一段110號","121.46694","25.1561433333333","6501000","淡水區"
"251015","182-VK","2018/11/01 17:39:55","新北市淡水區糞箕湖1-9號","121.483968333333","25.1709233333333","6501000","淡水區"
"251010","413-VK","2018/11/01 17:39:42","新北市淡水區淡海路289號","121.419823333333","25.1883666666667","6501000","淡水區"
"251012","441-VK","2018/11/01 17:39:52","新北市淡水區北新路213號","121.45171","25.18","6501000","淡水區"
"251007","442-VK","2018/11/01 17:39:54","新北市淡水區民生路124巷24號","121.46408","25.137655","6501000","淡水區"
"251004","443-VK","2018/11/01 17:39:47","新北市淡水區中正東路二段88巷37-22號","121.459318333333","25.143775","6501000","淡水區"
"251001","559-UM","2018/11/01 17:39:42","新北市淡水區民權路92巷35-1號","121.462276666667","25.1266783333333","6501000","淡水區"
"251006","561-UM","2018/11/01 17:39:55","新北市淡水區大信街32號","121.442058333333","25.177095","6501000","淡水區"
"251011","650-BX","2018/11/01 17:39:40","新北市淡水區小坪頂23-6號","121.485386666667","25.1558466666667","6501000","淡水區"
"251002","672-BX","2018/11/01 17:39:55","新北市淡水區清水街246號","121.44056","25.1721116666667","6501000","淡水區"
"251003","766-UM","2018/11/01 17:39:54","新北市淡水區中山北路一段71號","121.442026666667","25.1759533333333","6501000","淡水區"
"207003","550-UM","2018/11/01 17:39:55","新北市萬里區龜吼里漁澳路6號","121.686245","25.1945083333333","6502800","萬里區"
"207004","225-TW","2018/11/01 17:39:53","新北市萬里區中幅里中福路8-1號","121.68597","25.164705","6502800","萬里區"
"252002","178-VK","2018/11/01 17:39:49","新北市三芝區智成街80號","121.505013333333","25.25579","6502100","三芝區"
"252001","292-VK","2018/11/01 17:39:44","新北市三芝區淡金路一段83號","121.502058333333","25.2590166666667","6502100","三芝區"
"237013","252-BX","2018/11/01 17:39:39","新北市三峽區愛國路33-9號","121.37493","24.932975","6500900","三峽區"
"237012","275-BY","2018/11/01 17:39:54","新北市三峽區中山路459巷163-3號","121.348955","24.9331616666667","6500900","三峽區"
"237014","433-BY","2018/11/01 17:39:39","新北市三峽區中山路459巷163-3號","121.349","24.9328683333333","6500900","三峽區"
"237006","5529-G3","2018/11/01 17:39:56","新北市三峽區介壽路二段30號","121.390865","24.935215","6500900","三峽區"
"237011","KEA-2596","2018/11/01 17:39:47","新北市三峽區中山路60號","121.36822","24.9345033333333","6500900","三峽區"
"237016","649-BX","2018/11/01 17:39:36","新北市三峽區中園街237-1號","121.366815","24.9195433333333","6500900","三峽區"
"237010","706-TV","2018/11/01 17:39:56","新北市三峽區中山路156號","121.364795","24.9363866666667","6500900","三峽區"
"237005","AKY-6261","2018/11/01 17:39:40","新北市三峽區中山路459巷163-3號","121.348658333333","24.9329733333333","6500900","三峽區"
"236070","105-UM","2018/11/01 17:39:56","新北市土城區中華路一段247號","121.440805","24.98149","6501300","土城區"
"236014","270-VK","2018/11/01 17:39:43","新北市土城區城林路6巷80號","121.438481666667","24.9796733333333","6501300","土城區"
"236021","401-BY","2018/11/01 17:39:59","新北市土城區城林路6巷80號","121.438791666667","24.97965","6501300","土城區"
"236063","915-UM","2018/11/01 17:39:49","新北市土城區城林路6巷80號","121.438663333333","24.9797216666667","6501300","土城區"
"242036","AAC-296","2018/11/01 17:39:55","新北市新莊區建福路49巷38號","121.428363333333","25.0279333333333","6500500","新莊區"
"242058","986-R7","2018/11/01 17:39:54","新北市新莊區中正路654號","121.421291666667","25.0285966666667","6500500","新莊區"
"242056","751-BX","2018/11/01 17:39:55","新北市新莊區泰豐街18巷21號","121.449051666667","25.0317083333333","6500500","新莊區"
"242027","615-BX","2018/11/01 17:39:51","新北市新莊區福壽街87號","121.45814","25.050185","6500500","新莊區"
"242029","612-BX","2018/11/01 17:39:37","新北市新莊區復興路二段5號","121.453511666667","25.0439","6500500","新莊區"
"242044","566-BX","2018/11/01 17:39:43","新北市新莊區中正路871巷9弄2號","121.418718333333","25.02676","6500500","新莊區"
"242048","497-BY","2018/11/01 17:39:39","新北市新莊區萬安街115號","121.420746666667","25.0226666666667","6500500","新莊區"
"242011","442-UM","2018/11/01 17:39:37","新北市新莊區中港路635號","121.451021666667","25.0544016666667","6500500","新莊區"
"242053","441-UM","2018/11/01 17:39:50","新北市新莊區新樹路699巷9號","121.432621666667","25.0019066666667","6500500","新莊區"
"242039","415-TV","2018/11/01 17:39:49","新北市新莊區民安東路2號","121.427846666667","25.02096","6500500","新莊區"
"242009","413-TV","2018/11/01 17:39:47","新北市新莊區昌明街14巷5弄2號","121.45734","25.05324","6500500","新莊區"
"242046","400-BY","2018/11/01 17:39:53","新北市新莊區福營路100號","121.43656","25.0326066666667","6500500","新莊區"
"242023","362-BY","2018/11/01 17:39:40","新北市新莊區公園路129-11號","121.457708333333","25.0410483333333","6500500","新莊區"
"242061","353-BY","2018/11/01 17:39:38","新北市新莊區瓊林南路72號","121.434341666667","25.0128033333333","6500500","新莊區"
"242042","133-UY","2018/11/01 17:39:50","新北市新莊區中正路514巷103號","121.43084","25.03446","6500500","新莊區"
"242034","135-UY","2018/11/01 17:39:51","新北市新莊區新莊路546號","121.44518","25.0329016666667","6500500","新莊區"
"242051","172-VK","2018/11/01 17:39:49","新北市新莊區西盛街201巷13號","121.428941666667","25.01694","6500500","新莊區"
"242013","173-VK","2018/11/01 17:39:50","新北市新莊區中誠街88號","121.450171666667","25.0478233333333","6500500","新莊區"
"242019","175-VK","2018/11/01 17:39:51","新北市新莊區中港路186號","121.454828333333","25.0421516666667","6500500","新莊區"
"242007","176-VK","2018/11/01 17:39:47","新北市新莊區福樂街120號","121.457066666667","25.047805","6500500","新莊區"
"242017","346-TH","2018/11/01 17:39:43","新北市新莊區復興路一段151號","121.45044","25.0433383333333","6500500","新莊區"
"242031","348-TH","2018/11/01 17:39:39","新北市新莊區新泰路336號","121.444823333333","25.04206","6500500","新莊區"
"242004","349-TH","2018/11/01 17:39:43","新北市新莊區自立街202號","121.45678","25.04564","6500500","新莊區"
"242021","350-TH","2018/11/01 17:39:41","新北市新莊區中華路一段118號","121.452483333333","25.0406216666667","6500500","新莊區"
"238015","755-BX","2018/11/01 17:39:38","新北市樹林區樹德街114號","121.419608333333","24.9927216666667","6500700","樹林區"
"238019","599-UM","2018/11/01 17:39:49","新北市樹林區太平路109號","121.419198333333","24.98087","6500700","樹林區"
"238018","571-TV","2018/11/01 17:39:40","新北市樹林區鎮前街124號","121.424905","24.9909783333333","6500700","樹林區"
"238024","5061-A6","2018/11/01 17:39:46","新北市樹林區八德街395號","121.415415","24.9714066666667","6500700","樹林區"
"238022","KEA-2213","2018/11/01 17:39:53","新北市樹林區太元街34號","121.418128333333","24.9800933333333","6500700","樹林區"
"238021","KEA-2539","2018/11/01 17:39:49","新北市樹林區柑園街一段253巷35號","121.396723333333","24.9537366666667","6500700","樹林區"
"238025","303-VK","2018/11/01 17:39:40","新北市樹林區保安街三段55-1號","121.412565","25.011555","6500700","樹林區"
"238017","283-BY","2018/11/01 17:39:41","新北市樹林區三德街30巷30號","121.414678333333","25.0122166666667","6500700","樹林區"
"238014","282-BY","2018/11/01 17:39:56","新北市樹林區保安街一段346號","121.418065","24.9982716666667","6500700","樹林區"
"238026","172-UY","2018/11/01 17:39:41","新北市樹林區新興街19巷34弄25號","121.402333333333","24.972635","6500700","樹林區"
"238016","169-UY","2018/11/01 17:39:56","新北市樹林區育英街152號","121.418895","24.9895866666667","6500700","樹林區"
"239007","AAC-297","2018/11/01 17:39:54","新北市鶯歌區鶯桃路176號","121.337088333333","24.9553666666667","6500800","鶯歌區"
"239006","891-R6","2018/11/01 17:39:58","新北市鶯歌區鶯桃路518號","121.331621666667","24.9665866666667","6500800","鶯歌區"
"239008","527-UM","2018/11/01 17:39:50","新北市鶯歌區大湖路732巷15弄2號","121.332838333333","24.9778533333333","6500800","鶯歌區"
"239005","526-UM","2018/11/01 17:39:53","新北市鶯歌區鳳吉四街1號","121.326053333333","24.972455","6500800","鶯歌區"
"239001","417-VK","2018/11/01 17:39:49","新北市鶯歌區中正三路236號","121.330993333333","24.937295","6500800","鶯歌區"
"239003","360-BY","2018/11/01 17:39:50","新北市鶯歌區鶯桃路206巷9號","121.337538333333","24.9594333333333","6500800","鶯歌區"
"239002","359-BY","2018/11/01 17:39:41","新北市鶯歌區南雅路471號","121.346113333333","24.9540766666667","6500800","鶯歌區"
"239004","193-VK","2018/11/01 17:39:42","新北市鶯歌區三鶯路37號","121.35638","24.94171","6500800","鶯歌區"
"221008","489-VK","2018/11/01 17:39:26","新北市汐止區康寧街901號","121.651318333333","25.074955","6501100","汐止區"
"221010","269-BY","2018/11/01 17:39:58","新北市汐止區汐萬路一段418巷1弄24號","121.649921666667","25.0785316666667","6501100","汐止區"
"221023","279-VK","2018/11/01 17:39:40","新北市汐止區康寧街901號","121.651661666667","25.0748866666667","6501100","汐止區"
"221032","280-BY","2018/11/01 17:39:55","新北市汐止區汐萬路一段312號","121.650095","25.0756116666667","6501100","汐止區"
"221021","299-VK","2018/11/01 17:39:41","新北市汐止區康寧街901號","121.650778333333","25.0752933333333","6501100","汐止區"
"221031","353-TW","2018/11/01 17:39:42","新北市汐止區康寧街901號","121.651046666667","25.07512","6501100","汐止區"
"221018","753-BX","2018/11/01 17:39:55","新北市汐止區康寧街901號","121.65093","25.075225","6501100","汐止區"
"242002","281-VK","2018/11/01 17:39:52","新北市新莊區新莊路393號","121.451203333333","25.03371","6500500","新莊區"
"242015","280-VK","2018/11/01 17:39:41","新北市新莊區新泰路253號","121.446118333333","25.0397766666667","6500500","新莊區"
"235061","KEA-2875","2018/11/01 17:19:22","新北市中和區員山路36巷16-2號","121.485275","24.991695","6500300","中和區"
