"lineid","car","time","location","longitude","latitude","cityid","cityname"
"234042","862-TW","2018/11/01 17:59:44","新北市永和區福和路1號","121.526528333333","25.0097016666667","6500400","永和區"
"234026","9371-KE","2018/11/01 17:59:45","新北市永和區永和路一段45號","121.512821666667","25.0063433333333","6500400","永和區"
"249005","172-UM","2018/11/01 17:59:54","新北市八里區荖阡坑路16號","121.398025","25.1384083333333","6502300","八里區"
"249001","173-UM","2018/11/01 17:59:56","新北市八里區龍米路二段36號","121.448521666667","25.1401466666667","6502300","八里區"
"249004","303-UY","2018/11/01 17:59:43","新北市八里區龍米路二段176號","121.434205","25.1582716666667","6502300","八里區"
"249003","593-UM","2018/11/01 17:59:50","新北市八里區中華路二段203號","121.40553","25.14936","6502300","八里區"
"248014","025-BX","2018/11/01 17:58:42","新北市五股區中興路二段83巷26-3號","121.460165","25.075285","6501500","五股區"
"248016","026-BX","2018/11/01 17:59:44","新北市五股區中興路二段83巷26-6號","121.459528333333","25.0752566666667","6501500","五股區"
"248006","077-UY","2018/11/01 17:59:38","新北市五股區中興路二段161號","121.457895","25.0769933333333","6501500","五股區"
"248008","095-VK","2018/11/01 17:59:43","新北市五股區更洲路40號","121.457476666667","25.0794566666667","6501500","五股區"
"248020","225-UY","2018/11/01 17:59:42","新北市五股區中興路二段83巷26-6號","121.460036666667","25.07522","6501500","五股區"
"248010","272-BY","2018/11/01 17:59:36","新北市五股區中興路二段157巷11-1號","121.45795","25.0768716666667","6501500","五股區"
"248004","655-BX","2018/11/01 17:59:59","新北市五股區中興路二段83巷26-3號","121.460026666667","25.0755466666667","6501500","五股區"
"248002","678-BX","2018/11/01 17:59:45","新北市五股區中興路二段83巷26-6號","121.460015","25.075215","6501500","五股區"
"234074","AAC-211","2018/11/01 17:36:53","新北市永和區福和路1號","121.526496666667","25.0098033333333","6500400","永和區"
"232011","375-UM","2018/11/01 17:59:54","新北市坪林區水柳腳14號","121.711431666667","24.93546","6502000","坪林區"
"244023","069-UM","2018/11/01 17:59:55","新北市林口區東湖路55巷42號","121.385798333333","25.0726466666667","6501700","林口區"
"244007","080-UY","2018/11/01 17:59:56","新北市林口區竹林路279號","121.389873333333","25.08134","6501700","林口區"
"244019","403-UM","2018/11/01 17:59:39","新北市林口區文化一路一段126號","121.375335","25.0725416666667","6501700","林口區"
"244013","KEA-2802","2018/11/01 17:59:38","新北市林口區林口路31號","121.390795","25.07864","6501700","林口區"
"244009","410-SL","2018/11/01 17:59:58","新北市林口區佳林路39號","121.386411666667","25.0818483333333","6501700","林口區"
"244017","485-VK","2018/11/01 17:59:56","新北市林口區忠孝路488號","121.370375","25.07041","6501700","林口區"
"244011","701-TV","2018/11/01 17:59:40","新北市林口區中正路150號","121.392515","25.07737","6501700","林口區"
"244025","837-TS","2018/11/01 17:59:41","新北市林口區文化三路一段121號","121.361511666667","25.06846","6501700","林口區"
"244021","838-TS","2018/11/01 17:59:53","新北市林口區新寮45號","121.404228333333","25.0643033333333","6501700","林口區"
"222003","436-BY","2018/11/01 17:59:57","新北市深坑區炮子崙20號","121.606508333333","24.9893233333333","6501800","深坑區"
"222002","659-BX","2018/11/01 17:59:39","新北市深坑區深坑街35號","121.615955","25.00185","6501800","深坑區"
"231046","107-UY","2018/11/01 17:59:58","新北市新店區康雅崙路50-1號","121.534716666667","24.9267816666667","6500600","新店區"
"231058","3713-VJ","2018/11/01 17:59:53","新北市新店區安華路28-1號","121.519286666667","24.9606616666667","6500600","新店區"
"231056","4715-K9","2018/11/01 17:59:46","新北市新店區安華路28-1號","121.519288333333","24.9605983333333","6500600","新店區"
"251014","742-BX","2018/11/01 17:59:53","新北市淡水區南平4號","121.48186","25.2220933333333","6501000","淡水區"
"241016","266-UM","2018/11/01 17:59:46","新北市三重區疏洪西路246號","121.475895","25.06162","6500200","三重區"
"241024","KEA-2210","2018/11/01 17:59:52","新北市三重區力行路二段9巷8號","121.482793333333","25.0721666666667","6500200","三重區"
"241033","AAC-255","2018/11/01 17:59:40","新北市三重區重新路五段652號","121.468021666667","25.0440916666667","6500200","三重區"
"235064","005-UY","2018/11/01 17:59:51","新北市中和區員山路36巷16-3號","121.484983333333","24.9913666666667","6500300","中和區"
"235063","006-UY","2018/11/01 17:59:57","新北市中和區員山路36巷16-3號","121.484956666667","24.9913666666667","6500300","中和區"
"235065","098-UM","2018/11/01 17:59:39","新北市中和區新生街165號","121.483613333333","25.00101","6500300","中和區"
"235058","151-BY","2018/11/01 17:59:40","新北市中和區圓通路367巷20弄1號","121.492183333333","24.9880183333333","6500300","中和區"
"235038","185-VK","2018/11/01 17:59:44","新北市中和區錦和路350-1號","121.490423333333","24.9935933333333","6500300","中和區"
"247012","KEA-2869","2018/11/01 17:59:42","新北市蘆洲區復興路188號","121.478106666667","25.088825","6501400","蘆洲區"
"235050","4979-A6","2018/11/01 17:59:54","新北市中和區員山路36巷13號","121.483938333333","24.991535","6500300","中和區"
"235054","640-BX","2018/11/01 17:59:54","新北市中和區員山路36巷16-3號","121.48481","24.99179","6500300","中和區"
"235046","733-UM","2018/11/01 17:59:50","新北市中和區員山路36巷13號","121.484076666667","24.990775","6500300","中和區"
"235057","801-TS","2018/11/01 17:59:40","新北市中和區員山路36巷16-3號","121.485131666667","24.991275","6500300","中和區"
"235051","157-BY","2018/11/01 17:59:42","新北市中和區和城路一段271巷1號","121.485455","24.9920183333333","6500300","中和區"
"235037","AAC-213","2018/11/01 17:59:39","新北市中和區中正路637巷60弄61號","121.48531","24.992765","6500300","中和區"
"235059","AAC-215","2018/11/01 17:59:44","新北市中和區員山路36巷16-3號","121.484913333333","24.9913166666667","6500300","中和區"
"247016","546-UM","2018/11/01 17:59:41","新北市蘆洲區中正路185巷76號","121.466235","25.0844466666667","6501400","蘆洲區"
"247024","500-BY","2018/11/01 17:59:57","新北市蘆洲區長榮路46巷1號","121.463233333333","25.0834466666667","6501400","蘆洲區"
"247014","339-TH","2018/11/01 17:59:57","新北市蘆洲區忠孝路45號","121.471388333333","25.0862166666667","6501400","蘆洲區"
"226004","312-R5","2018/11/01 17:59:40","新北市平溪區石底里公園街18-3號","121.733393333333","25.0258116666667","6502400","平溪區"
"228003","097-TW","2018/11/01 17:59:41","新北市貢寮區真理里美艷山街6-2號","121.928836666667","25.0607466666667","6502600","貢寮區"
"228001","212-TW","2018/11/01 17:59:54","新北市貢寮區真理里新港街26巷52號","121.927865","25.0533283333333","6502600","貢寮區"
"228002","585-TW","2018/11/01 17:59:49","新北市貢寮區福連里香蘭街3-3號","121.971876666667","25.0245316666667","6502600","貢寮區"
"224006","676-BX","2018/11/01 17:59:52","新北市瑞芳區大寮路356-1號","121.784883333333","25.1032883333333","6501200","瑞芳區"
"224002","639-TC","2018/11/01 17:59:45","新北市瑞芳區三爪子坑路64-36號","121.809013333333","25.1060333333333","6501200","瑞芳區"
"224008","285-BY","2018/11/01 17:59:48","新北市瑞芳區明燈路一段45巷109號","121.821858333333","25.1036783333333","6501200","瑞芳區"
"224009","273-VK","2018/11/01 17:59:56","新北市瑞芳區金光路221號","121.852273333333","25.1067733333333","6501200","瑞芳區"
"224005","271-BY","2018/11/01 17:59:52","新北市瑞芳區深澳路199-1號","121.819576666667","25.13372","6501200","瑞芳區"
"227010","642-TC","2018/11/01 17:59:51","新北市雙溪區三貂里定福路1-2號","121.850771666667","25.0634583333333","6502500","雙溪區"
"227004","400-TW","2018/11/01 17:59:43","新北市雙溪區共和里東榮街42號","121.866251666667","25.0336666666667","6502500","雙溪區"
"253006","032-BX","2018/11/01 17:59:57","新北市石門區大丘田45-6號","121.549593333333","25.2767516666667","6502200","石門區"
"253005","295-VK","2018/11/01 17:59:41","新北市石門區中山路62-12號","121.567485","25.2896866666667","6502200","石門區"
"222001","KEA-2212","2018/11/01 17:59:41","新北市深坑區北深路二段185號","121.612316666667","25.00112","6501800","深坑區"
"208002","KEA-2872","2018/11/01 17:59:38","新北市金山區三界壇路101號","121.620925","25.23024","6502700","金山區"
"208003","665-BX","2018/11/01 17:59:56","新北市金山區磺港里磺港路202-1號","121.645108333333","25.227545","6502700","金山區"
"208001","761-BX","2018/11/01 17:59:42","新北市金山區磺港里社寮16-1號","121.638463333333","25.22638","6502700","金山區"
"251009","008-UM","2018/11/01 17:59:54","新北市淡水區中山路143-2號","121.440745","25.1719983333333","6501000","淡水區"
"251005","010-UM","2018/11/01 17:59:44","新北市淡水區英專路125-6號","121.44611","25.1727033333333","6501000","淡水區"
"251013","KEA-2871","2018/11/01 17:59:57","新北市淡水區泉洲厝31號","121.4796","25.191045","6501000","淡水區"
"251016","179-VK","2018/11/01 17:59:43","新北市淡水區埤島30-12號","121.447825","25.1982666666667","6501000","淡水區"
"251008","181-VK","2018/11/01 17:59:46","新北市淡水區八勢一街23號","121.461681666667","25.1563516666667","6501000","淡水區"
"251015","182-VK","2018/11/01 17:59:55","新北市淡水區興福寮88巷1號","121.48522","25.1649216666667","6501000","淡水區"
"251010","413-VK","2018/11/01 17:59:53","新北市淡水區中正路一段130-7號","121.422125","25.17941","6501000","淡水區"
"251012","441-VK","2018/11/01 17:59:52","新北市淡水區北新路三段38巷7號","121.48451","25.1870433333333","6501000","淡水區"
"251004","443-VK","2018/11/01 17:59:47","新北市淡水區民權路99-5號","121.459958333333","25.1378933333333","6501000","淡水區"
"251001","559-UM","2018/11/01 17:59:42","新北市淡水區民權路16號","121.463395","25.1242933333333","6501000","淡水區"
"251006","561-UM","2018/11/01 17:59:55","新北市淡水區真理街1-1號","121.43814","25.1730716666667","6501000","淡水區"
"251011","650-BX","2018/11/01 17:59:58","新北市淡水區三空泉6-3號","121.476985","25.1623366666667","6501000","淡水區"
"251002","672-BX","2018/11/01 17:59:55","新北市淡水區中正東路8-1號","121.447686666667","25.1668466666667","6501000","淡水區"
"251003","766-UM","2018/11/01 17:59:54","新北市淡水區大忠街47號","121.444736666667","25.1763516666667","6501000","淡水區"
"207003","550-UM","2018/11/01 17:59:51","新北市萬里區港東路野柳風景區攤販68號","121.691286666667","25.2058616666667","6502800","萬里區"
"207004","225-TW","2018/11/01 17:59:53","新北市萬里區中幅里中福路48號","121.683266666667","25.174115","6502800","萬里區"
"252002","178-VK","2018/11/01 17:59:49","新北市三芝區中山路二段29號","121.502785","25.2553966666667","6502100","三芝區"
"252003","249-BX","2018/11/01 17:59:48","新北市三芝區埔坪里埔頭坑41號","121.504575","25.2646133333333","6502100","三芝區"
"252001","292-VK","2018/11/01 17:59:44","新北市三芝區中興街二段2號","121.49846","25.2566766666667","6502100","三芝區"
"237007","153-BY","2018/11/01 17:59:46","新北市三峽區中園街108號","121.367036666667","24.9229916666667","6500900","三峽區"
"237009","210-TH","2018/11/01 17:59:43","新北市三峽區中山路106巷9號","121.366026666667","24.9361216666667","6500900","三峽區"
"237013","252-BX","2018/11/01 17:59:39","新北市三峽區介壽路一段22號","121.375555","24.93284","6500900","三峽區"
"237012","275-BY","2018/11/01 17:59:54","新北市三峽區民生街27巷1號","121.376056666667","24.9363083333333","6500900","三峽區"
"237014","433-BY","2018/11/01 17:59:38","新北市三峽區復興路141-1號","121.370955","24.9377666666667","6500900","三峽區"
"237006","5529-G3","2018/11/01 17:59:56","新北市三峽區介壽路二段138巷1弄106號","121.39772","24.9310633333333","6500900","三峽區"
"237011","KEA-2596","2018/11/01 17:59:47","新北市三峽區大同路50號","121.377061666667","24.9286033333333","6500900","三峽區"
"237016","649-BX","2018/11/01 17:59:56","新北市三峽區紫微路93號","121.410166666667","24.9148183333333","6500900","三峽區"
"237010","706-TV","2018/11/01 17:59:56","新北市三峽區仁愛街18號","121.36827","24.9324783333333","6500900","三峽區"
"237005","AKY-6261","2018/11/01 17:59:47","新北市三峽區復興路179號","121.369621666667","24.9387","6500900","三峽區"
"236070","105-UM","2018/11/01 17:59:56","新北市土城區青雲路460號","121.460153333333","24.9684133333333","6501300","土城區"
"236042","KED-0685","2018/11/01 17:59:44","新北市土城區城林路6巷80號","121.438475","24.979865","6501300","土城區"
"236078","166-UM","2018/11/01 17:59:38","新北市土城區永寧路32巷10弄23號","121.428875","24.9610466666667","6501300","土城區"
"236030","253-BX","2018/11/01 17:59:53","新北市土城區城林路6巷80號","121.438578333333","24.9796516666667","6501300","土城區"
"236026","269-VK","2018/11/01 17:59:44","新北市土城區承天路18號","121.439471666667","24.963515","6501300","土城區"
"236014","270-VK","2018/11/01 17:59:43","新北市土城區城林路6巷80號","121.43848","24.979645","6501300","土城區"
"236038","271-VK","2018/11/01 17:59:58","新北市土城區城林路6巷80號","121.438531666667","24.9797333333333","6501300","土城區"
"236021","401-BY","2018/11/01 17:59:38","新北市土城區城林路6巷80號","121.438491666667","24.9798016666667","6501300","土城區"
"236059","912-UM","2018/11/01 17:59:43","新北市土城區中央路三段250號","121.427593333333","24.9642066666667","6501300","土城區"
"236049","913-UM","2018/11/01 17:59:45","新北市土城區城林路6巷80號","121.438195","24.97952","6501300","土城區"
"236063","915-UM","2018/11/01 17:59:49","新北市土城區城林路6巷80號","121.438663333333","24.9796933333333","6501300","土城區"
"236055","AAC-216","2018/11/01 17:59:50","新北市土城區中央路二段278巷2-1號","121.440723333333","24.9744916666667","6501300","土城區"
"242036","AAC-296","2018/11/01 17:59:55","新北市新莊區建福路55號","121.42668","25.0274116666667","6500500","新莊區"
"242058","986-R7","2018/11/01 17:59:54","新北市新莊區雙鳳路134巷8號","121.412746666667","25.0281566666667","6500500","新莊區"
"242056","751-BX","2018/11/01 17:59:45","新北市新莊區豐年街126號","121.446493333333","25.0298083333333","6500500","新莊區"
"242027","615-BX","2018/11/01 17:59:51","新北市新莊區思源路351號","121.459833333333","25.0504366666667","6500500","新莊區"
"242025","613-BX","2018/11/01 17:59:42","新北市新莊區五工路52號","121.45939","25.062575","6500500","新莊區"
"242029","612-BX","2018/11/01 17:59:57","新北市新莊區中平路63號","121.444608333333","25.0446466666667","6500500","新莊區"
"242044","566-BX","2018/11/01 17:59:52","新北市新莊區雙鳳路75號","121.414868333333","25.0276","6500500","新莊區"
"242048","497-BY","2018/11/01 17:59:39","新北市新莊區萬安街67巷13號","121.422035","25.023835","6500500","新莊區"
"242011","442-UM","2018/11/01 17:59:56","新北市新莊區中港路中慶巷22號","121.450008333333","25.0537666666667","6500500","新莊區"
"242053","441-UM","2018/11/01 17:59:50","新北市新莊區西盛街395巷25弄13號","121.428356666667","25.0120416666667","6500500","新莊區"
"242039","415-TV","2018/11/01 17:59:48","新北市新莊區民安西路22號","121.426705","25.0213916666667","6500500","新莊區"
"242009","413-TV","2018/11/01 17:59:47","新北市新莊區中華路二段216號","121.45275","25.052735","6500500","新莊區"
"242046","400-BY","2018/11/01 17:59:53","新北市新莊區福營路182號","121.431376666667","25.0308666666667","6500500","新莊區"
"242023","362-BY","2018/11/01 17:59:40","新北市新莊區福壽街65號","121.458245","25.0492966666667","6500500","新莊區"
"242061","353-BY","2018/11/01 17:59:38","新北市新莊區新樹路533號","121.4328","25.0092933333333","6500500","新莊區"
"242042","133-UY","2018/11/01 17:59:50","新北市新莊區壽山路31號","121.420093333333","25.0290216666667","6500500","新莊區"
"242034","135-UY","2018/11/01 17:59:51","新北市新莊區福海街18號","121.445261666667","25.0337516666667","6500500","新莊區"
"242051","172-VK","2018/11/01 17:59:47","新北市新莊區民本街53巷13號","121.428696666667","25.018105","6500500","新莊區"
"242013","173-VK","2018/11/01 17:59:48","新北市新莊區中和街125巷5號","121.447","25.04848","6500500","新莊區"
"242019","175-VK","2018/11/01 17:59:51","新北市新莊區明中街49巷15號","121.456786666667","25.0389733333333","6500500","新莊區"
"242007","176-VK","2018/11/01 17:59:47","新北市新莊區自信街65巷7號","121.455468333333","25.048715","6500500","新莊區"
"242017","346-TH","2018/11/01 17:59:43","新北市新莊區永樂街195號","121.448268333333","25.0445766666667","6500500","新莊區"
"242031","348-TH","2018/11/01 17:59:58","新北市新莊區新泰路277巷40號","121.44391","25.0403","6500500","新莊區"
"242004","349-TH","2018/11/01 17:59:43","新北市新莊區自由街6號","121.455803333333","25.0478983333333","6500500","新莊區"
"242021","350-TH","2018/11/01 17:59:41","新北市新莊區建興街41巷2號","121.449995","25.03728","6500500","新莊區"
"238015","755-BX","2018/11/01 17:59:58","新北市樹林區大安路322巷1號","121.416943333333","24.991515","6500700","樹林區"
"238019","599-UM","2018/11/01 17:59:49","新北市樹林區八德街225號","121.421405","24.9792283333333","6500700","樹林區"
"238018","571-TV","2018/11/01 17:59:40","新北市樹林區中正路241號","121.430271666667","24.998605","6500700","樹林區"
"238022","KEA-2213","2018/11/01 17:59:53","新北市樹林區太平路150巷21號","121.41758","24.9775266666667","6500700","樹林區"
"238021","KEA-2539","2018/11/01 17:59:49","新北市樹林區柑園街一段127號","121.401043333333","24.9595533333333","6500700","樹林區"
"238025","303-VK","2018/11/01 17:59:40","新北市樹林區三俊街45號","121.412666666667","25.015645","6500700","樹林區"
"238017","283-BY","2018/11/01 17:59:41","新北市樹林區中正路837號","121.409176666667","25.0175066666667","6500700","樹林區"
"238014","282-BY","2018/11/01 17:59:54","新北市樹林區大安路125巷10號","121.42284","24.9970433333333","6500700","樹林區"
"238026","172-UY","2018/11/01 17:59:40","新北市樹林區八德街598巷1號","121.397228333333","24.9705833333333","6500700","樹林區"
"238016","169-UY","2018/11/01 17:59:56","新北市樹林區復興路323號","121.418303333333","24.9884166666667","6500700","樹林區"
"239007","AAC-297","2018/11/01 17:59:51","新北市鶯歌區鶯桃路7號","121.344011666667","24.9503366666667","6500800","鶯歌區"
"239006","891-R6","2018/11/01 17:59:38","新北市鶯歌區鶯桃路413巷70號","121.329918333333","24.963125","6500800","鶯歌區"
"239008","527-UM","2018/11/01 17:59:50","新北市鶯歌區香賓街2號","121.336826666667","24.978505","6500800","鶯歌區"
"239005","526-UM","2018/11/01 17:59:53","新北市鶯歌區鶯桃路668巷73號","121.329953333333","24.9718216666667","6500800","鶯歌區"
"239001","417-VK","2018/11/01 17:59:49","新北市鶯歌區中正三路121號","121.337751666667","24.940705","6500800","鶯歌區"
"239003","360-BY","2018/11/01 17:59:50","新北市鶯歌區永吉街18號","121.336035","24.957825","6500800","鶯歌區"
"239002","359-BY","2018/11/01 17:59:41","新北市鶯歌區育英街17巷1弄3號","121.347718333333","24.95527","6500800","鶯歌區"
"221008","489-VK","2018/11/01 17:59:47","新北市汐止區明峰街12-1號","121.634988333333","25.0715016666667","6501100","汐止區"
"221036","130-UY","2018/11/01 17:59:42","新北市汐止區大同路三段79號","121.667625","25.0771516666667","6501100","汐止區"
"221015","131-UY","2018/11/01 17:59:48","新北市汐止區長江街341號","121.667038333333","25.08192","6501100","汐止區"
"221010","269-BY","2018/11/01 17:59:58","新北市汐止區汐萬路二段245巷35號","121.64402","25.0876066666667","6501100","汐止區"
"221012","278-VK","2018/11/01 17:59:37","新北市汐止區長興街二段30號","121.673338333333","25.0813483333333","6501100","汐止區"
"221023","279-VK","2018/11/01 17:59:40","新北市汐止區明峰街154號","121.629536666667","25.07067","6501100","汐止區"
"221032","280-BY","2018/11/01 17:59:55","新北市汐止區橫科路73巷10號","121.619566666667","25.0509766666667","6501100","汐止區"
"221027","281-BY","2018/11/01 17:59:57","新北市汐止區大同路二段380號","121.658018333333","25.0670966666667","6501100","汐止區"
"221029","298-VK","2018/11/01 17:59:53","新北市汐止區樟樹二路331號","121.641418333333","25.0704666666667","6501100","汐止區"
"221021","299-VK","2018/11/01 17:59:41","新北市汐止區復興路23號","121.656153333333","25.0650483333333","6501100","汐止區"
"221031","353-TW","2018/11/01 17:59:42","新北市汐止區中興路155號","121.63115","25.066075","6501100","汐止區"
"221035","622-UM","2018/11/01 17:59:50","新北市汐止區汐萬路一段167號","121.652695","25.0708683333333","6501100","汐止區"
"221025","623-UM","2018/11/01 17:59:45","新北市汐止區仁愛路10號","121.65942","25.0635316666667","6501100","汐止區"
"221038","646-BX","2018/11/01 17:59:41","新北市汐止區連興街128巷7弄10號","121.653426666667","25.06129","6501100","汐止區"
"221033","647-BX","2018/11/01 17:59:54","新北市汐止區合順街18巷8弄5號","121.6203","25.0418733333333","6501100","汐止區"
"221002","707-TV","2018/11/01 17:59:53","新北市汐止區中興路62號","121.635431666667","25.0614466666667","6501100","汐止區"
"221018","753-BX","2018/11/01 17:59:55","新北市汐止區招商街11巷1號","121.666506666667","25.0688866666667","6501100","汐止區"
"242002","281-VK","2018/11/01 17:59:52","新北市新莊區中正路153-2號","121.455921666667","25.036745","6500500","新莊區"
"242015","280-VK","2018/11/01 17:59:43","新北市新莊區中平路119巷20號","121.44392","25.0467033333333","6500500","新莊區"
"235061","KEA-2875","2018/11/01 17:59:38","新北市中和區員山路36巷16-2號","121.4853","24.99174","6500300","中和區"
