"lineid","car","time","location","longitude","latitude","cityid","cityname"
"234081","298-R6","2018/11/01 20:29:29","新北市永和區福和路137號","121.521141666667","25.00765","6500400","永和區"
"234064","337-UY","2018/11/01 20:29:14","新北市永和區中正路433號","121.517073333333","25.0050383333333","6500400","永和區"
"234086","338-UY","2018/11/01 20:29:10","新北市永和區永和路二段239號","121.515748333333","25.0146483333333","6500400","永和區"
"234070","552-UM","2018/11/01 20:29:26","新北市永和區永利路74號","121.52039","25.00421","6500400","永和區"
"234030","746-BX","2018/11/01 20:29:13","新北市永和區民族街81巷3號","121.518755","24.9966166666667","6500400","永和區"
"234054","KEA-2590","2018/11/01 20:29:27","新北市永和區環河東路一段80號","121.519545","25.0164183333333","6500400","永和區"
"234061","AAD-866","2018/11/01 20:29:29","新北市永和區安樂路196號","121.51509","25.001485","6500400","永和區"
"234042","862-TW","2018/11/01 20:29:29","新北市永和區安樂路290號","121.51439","25.0045533333333","6500400","永和區"
"234050","863-TW","2018/11/01 20:29:26","新北市永和區新生路18號","121.50896","25.01644","6500400","永和區"
"249001","173-UM","2018/11/01 20:29:13","新北市八里區下罟子5-11號","121.386918333333","25.1422816666667","6502300","八里區"
"249004","303-UY","2018/11/01 20:29:28","新北市八里區中山路一段338號","121.412613333333","25.1589083333333","6502300","八里區"
"249002","305-UY","2018/11/01 20:29:26","新北市八里區龍米路二段125巷23號","121.445838333333","25.1455416666667","6502300","八里區"
"249003","593-UM","2018/11/01 20:29:20","新北市八里區中山路二段452號","121.39916","25.1478316666667","6502300","八里區"
"248002","678-BX","2018/11/01 20:29:25","新北市五股區成泰路三段43-5號","121.442451666667","25.0889933333333","6501500","五股區"
"234023","9380-KE","2018/11/01 20:29:21","新北市永和區博愛街32巷17-1號","121.518888333333","25.015295","6500400","永和區"
"234074","AAC-211","2018/11/01 20:29:17","新北市永和區竹林路179巷10號","121.521105","25.0098283333333","6500400","永和區"
"234067","AAC-212","2018/11/01 20:29:14","新北市中和區保平路231號","121.508026666667","25.00443","6500400","永和區"
"234003","AAC-295","2018/11/01 20:29:31","新北市永和區中正路638號","121.516913333333","25.008175","6500400","永和區"
"243013","AAD-798","2018/11/01 20:29:10","新北市泰山區貴子路7號","121.425451666667","25.042125","6501600","泰山區"
"243009","297-R6","2018/11/01 20:29:28","新北市泰山區忠孝街14-1號","121.427661666667","25.0649416666667","6501600","泰山區"
"243016","KEA-2801","2018/11/01 20:29:24","新北市泰山區明志路二段228號","121.427115","25.0482616666667","6501600","泰山區"
"243015","421-VK","2018/11/01 20:29:28","新北市泰山區泰林路二段455號","121.425708333333","25.0640766666667","6501600","泰山區"
"243012","539-UM","2018/11/01 20:29:09","新北市泰山區忠孝街19巷3-1號","121.427448333333","25.0658233333333","6501600","泰山區"
"243011","KEA-2215","2018/11/01 20:29:26","新北市泰山區明志路三段83號","121.424968333333","25.0416583333333","6501600","泰山區"
"243010","KEA-2216","2018/11/01 20:29:19","新北市泰山區明志路二段237巷21號","121.428008333333","25.048045","6501600","泰山區"
"243014","680-BX","2018/11/01 20:29:30","新北市泰山區泰林路三段301巷51號","121.413405","25.0683183333333","6501600","泰山區"
"222003","436-BY","2018/11/01 20:29:16","新北市深坑區深坑街32號","121.615228333333","25.0017883333333","6501800","深坑區"
"222002","659-BX","2018/11/01 20:29:19","新北市深坑區萬福路16巷45號","121.609743333333","25.00883","6501800","深坑區"
"231041","001-UM","2018/11/01 20:29:28","新北市新店區中正路508號","121.533768333333","24.9829533333333","6500600","新店區"
"231059","046-UY","2018/11/01 20:29:31","新北市新店區安德街173號","121.508695","24.9589066666667","6500600","新店區"
"231040","047-UY","2018/11/01 20:29:30","新北市新店區中正路327號","121.536255","24.975205","6500600","新店區"
"231052","108-UY","2018/11/01 20:29:15","新北市新店區松林路36號","121.54622","24.9102633333333","6500600","新店區"
"231047","187-VK","2018/11/01 20:29:26","新北市新店區寶慶街58巷21-1號","121.542015","24.987285","6500600","新店區"
"231054","KEA-2219","2018/11/01 20:29:24","新北市新店區檳榔路123號","121.54463","24.9614766666667","6500600","新店區"
"221035","KEA-2785","2018/11/01 20:29:10","新北市汐止區長江街101-5號","121.65866","25.0731616666667","6501100","汐止區"
"231057","256-BX","2018/11/01 20:29:21","新北市新店區花園五路二段1號","121.553555","24.9342116666667","6500600","新店區"
"231042","268-BY","2018/11/01 20:29:23","新北市新店區寶橋路98號","121.547281666667","24.975695","6500600","新店區"
"231051","278-BY","2018/11/01 20:29:19","新北市新店區中央七街39號","121.52905","24.97566","6500600","新店區"
"231050","AAD-862","2018/11/01 20:29:24","新北市新店區建國路47號","121.54058","24.975395","6500600","新店區"
"231044","355-BY","2018/11/01 20:29:29","新北市新店區建國路134號","121.539123333333","24.9789683333333","6500600","新店區"
"231058","3713-VJ","2018/11/01 20:29:13","新北市新店區自由街6號","121.535408333333","24.9749983333333","6500600","新店區"
"231056","4715-K9","2018/11/01 20:29:26","新北市新店區中央路23號","121.533076666667","24.978115","6500600","新店區"
"231067","4772-VM","2018/11/01 20:29:19","新北市新店區安華路28-1號","121.51963","24.96098","6500600","新店區"
"231065","512-UM","2018/11/01 20:29:19","新北市新店區安祥路102巷46弄89號","121.487278333333","24.963175","6500600","新店區"
"231049","513-UM","2018/11/01 20:29:31","新北市新店區永業路81巷5弄1號","121.53007","24.949035","6500600","新店區"
"231045","617-UM","2018/11/01 20:29:26","新北市新店區長春路21巷13號","121.549348333333","24.9588133333333","6500600","新店區"
"231061","619-UM","2018/11/01 20:29:23","新北市新店區新和街35號","121.519235","24.9849066666667","6500600","新店區"
"231063","641-BX","2018/11/01 20:29:14","新北市新店區玫瑰路4-1號","121.49304","24.9517516666667","6500600","新店區"
"231068","718-UY","2018/11/01 20:29:10","新北市新店區民權路8號","121.542475","24.98291","6500600","新店區"
"231064","719-UM","2018/11/01 20:29:29","新北市新店區永安街74巷2號","121.519701666667","24.9864316666667","6500600","新店區"
"231062","720-UM","2018/11/01 20:29:22","新北市新店區安康路三段355巷31號","121.485135","24.9498716666667","6500600","新店區"
"231060","897-TW","2018/11/01 20:29:26","新北市新店區錦秀路3號","121.479188333333","24.945205","6500600","新店區"
"231043","899-TW","2018/11/01 20:29:21","新北市新店區建國路88號","121.540456666667","24.977195","6500600","新店區"
"241011","013-R5","2018/11/01 20:29:22","新北市三重區龍門路42號","121.496015","25.07238","6500200","三重區"
"241028","022-UY","2018/11/01 20:29:30","新北市三重區光興街91號","121.497406666667","25.059885","6500200","三重區"
"241008","059-VK","2018/11/01 20:29:26","新北市三重區下竹圍街93巷1號","121.481073333333","25.07464","6500200","三重區"
"241022","060-VK","2018/11/01 20:29:23","新北市三重區中正北路20巷11號","121.487935","25.0630116666667","6500200","三重區"
"241031","061-VK","2018/11/01 20:29:14","新北市三重區三寧街18號","121.489386666667","25.0597883333333","6500200","三重區"
"241015","062-VK","2018/11/01 20:29:22","新北市三重區長元西街1號","121.498761666667","25.06571","6500200","三重區"
"241017","063-VK","2018/11/01 20:29:18","新北市三重區自強路一段207號","121.49155","25.06837","6500200","三重區"
"241024","065-VK","2018/11/01 20:29:31","新北市三重區中正北路276巷24號","121.480401666667","25.067415","6500200","三重區"
"241026","066-VK","2018/11/01 20:29:25","新北市三重區環河南路18號","121.503501666667","25.0627466666667","6500200","三重區"
"241002","090-VK","2018/11/01 20:29:11","新北市三重區五華街21巷56號","121.49602","25.0813333333333","6500200","三重區"
"241003","091-VK","2018/11/01 20:29:23","新北市三重區富華街169號","121.493443333333","25.0851416666667","6500200","三重區"
"251014","742-BX","2018/11/01 20:29:17","新北市淡水區石頭厝12-1號","121.461203333333","25.2360916666667","6501000","淡水區"
"241005","262-UM","2018/11/01 20:29:25","新北市三重區碧華街297號","121.490571666667","25.0839716666667","6500200","三重區"
"241016","266-UM","2018/11/01 20:29:26","新北市三重區正義北路110號","121.496996666667","25.0652783333333","6500200","三重區"
"241009","267-UM","2018/11/01 20:29:21","新北市三重區永福街23號","121.48167","25.0781566666667","6500200","三重區"
"241018","268-UM","2018/11/01 20:29:24","新北市三重區雙園街56號","121.495971666667","25.0677033333333","6500200","三重區"
"241032","269-UM","2018/11/01 20:29:10","新北市三重區重陽路一段120巷46號","121.48509","25.0601533333333","6500200","三重區"
"241013","270-UM","2018/11/01 20:29:17","新北市三重區溪尾街5巷31號","121.492911666667","25.0746333333333","6500200","三重區"
"241025","271-UM","2018/11/01 20:29:30","新北市三重區頂崁街210巷23弄1號","121.475811666667","25.068145","6500200","三重區"
"241007","398-BY","2018/11/01 20:29:16","新北市三重區自強路四段32-2號","121.489051666667","25.0769966666667","6500200","三重區"
"241035","KEA-2210","2018/11/01 20:29:30","新北市三重區重新路二段58號","121.498136666667","25.0620466666667","6500200","三重區"
"241020","478-VK","2018/11/01 20:29:14","新北市三重區忠孝路一段2號","121.49282","25.0717033333333","6500200","三重區"
"241014","543-UM","2018/11/01 20:29:20","新北市三重區長壽街120巷23號","121.502311666667","25.069255","6500200","三重區"
"241023","545-UM","2018/11/01 20:29:23","新北市三重區自由街17巷1號","121.479835","25.066575","6500200","三重區"
"241001","547-UM","2018/11/01 20:29:16","新北市三重區溪尾街56號","121.490575","25.077685","6500200","三重區"
"241019","KEA-2593","2018/11/01 20:29:29","新北市三重區重陽路四段124號","121.492413333333","25.070995","6500200","三重區"
"241006","AAD-863","2018/11/01 20:29:21","新北市三重區車路頭街139巷12號","121.484245","25.0761916666667","6500200","三重區"
"241030","743-BX","2018/11/01 20:29:28","新北市三重區成功路75號","121.488733333333","25.051005","6500200","三重區"
"241004","887-TS","2018/11/01 20:29:28","新北市三重區溪尾街229號","121.488241666667","25.081135","6500200","三重區"
"241012","941-UM","2018/11/01 20:22:25","新北市三重區龍門路300號","121.50252","25.0742883333333","6500200","三重區"
"241029","942-UM","2018/11/01 20:29:29","新北市三重區集美街225號","121.49198","25.0551166666667","6500200","三重區"
"241033","AAC-255","2018/11/01 20:29:20","新北市三重區五谷王北街139號","121.476128333333","25.052075","6500200","三重區"
"247012","KEA-2869","2018/11/01 20:29:19","新北市蘆洲區復興路233號","121.480186666667","25.089775","6501400","蘆洲區"
"235050","4979-A6","2018/11/01 20:29:21","新北市中和區景新街160巷20號","121.504816666667","24.9966183333333","6500300","中和區"
"235069","4980-A6","2018/11/01 20:29:30","新北市中和區中正路446號","121.491018333333","24.9943183333333","6500300","中和區"
"235054","640-BX","2018/11/01 20:29:14","新北市林口區汕頭32號","121.366325","25.1347133333333","6500300","中和區"
"235059","AAC-215","2018/11/01 20:29:23","新北市中和區員山路32號","121.481095","24.9876833333333","6500300","中和區"
"247002","893-R6","2018/11/01 20:29:21","新北市蘆洲區長安街361巷18號","121.456263333333","25.087505","6501400","蘆洲區"
"247016","546-UM","2018/11/01 20:29:21","新北市蘆洲區光華路71號","121.468046666667","25.08264","6501400","蘆洲區"
"247024","500-BY","2018/11/01 20:29:23","新北市蘆洲區光復路70巷25號","121.464826666667","25.0850116666667","6501400","蘆洲區"
"247014","339-TH","2018/11/01 20:29:17","新北市蘆洲區中山二路34號","121.474448333333","25.082015","6501400","蘆洲區"
"247006","337-TH","2018/11/01 20:29:28","新北市蘆洲區和平路121巷14弄29號","121.466056666667","25.0801283333333","6501400","蘆洲區"
"247008","336-TH","2018/11/01 20:29:28","新北市蘆洲區重陽二街22號","121.482278333333","25.0850766666667","6501400","蘆洲區"
"247020","057-VK","2018/11/01 20:29:22","新北市蘆洲區仁愛街136號","121.468923333333","25.0944283333333","6501400","蘆洲區"
"247010","056-VK","2018/11/01 20:29:21","新北市蘆洲區信義路222巷32弄1號","121.48048","25.0854483333333","6501400","蘆洲區"
"247004","002-UY","2018/11/01 20:29:16","新北市蘆洲區永康街63號","121.4563","25.0852016666667","6501400","蘆洲區"
"247022","001-UY","2018/11/01 20:29:27","新北市蘆洲區中正路198號","121.466746666667","25.0882133333333","6501400","蘆洲區"
"222001","KEA-2212","2018/11/01 20:29:21","新北市深坑區北深路三段345號","121.597161666667","25.005","6501800","深坑區"
"208001","761-BX","2018/11/01 20:29:22","新北市金山區磺清路121號","121.639601666667","25.2278633333333","6502700","金山區"
"251013","KEA-2871","2018/11/01 20:29:17","新北市淡水區後坑子7號","121.463995","25.205905","6501000","淡水區"
"251016","179-VK","2018/11/01 20:29:16","新北市淡水區新埔子11-7號","121.44743","25.2285316666667","6501000","淡水區"
"251008","181-VK","2018/11/01 20:29:25","新北市淡水區淡海路206巷21號","121.421346666667","25.1856783333333","6501000","淡水區"
"251015","182-VK","2018/11/01 20:29:14","新北市淡水區淡金路四段542巷17號","121.452741666667","25.2270766666667","6501000","淡水區"
"251010","413-VK","2018/11/01 20:29:21","新北市淡水區沙崙路181巷1號","121.424035","25.1843566666667","6501000","淡水區"
"251012","441-VK","2018/11/01 20:29:12","新北市淡水區興仁路108號","121.451693333333","25.2181833333333","6501000","淡水區"
"251001","559-UM","2018/11/01 20:29:25","新北市淡水區淡金路二段81號","121.451751666667","25.1812916666667","6501000","淡水區"
"251006","561-UM","2018/11/01 20:29:14","新北市淡水區商工路300號","121.461043333333","25.185895","6501000","淡水區"
"251002","672-BX","2018/11/01 20:29:15","新北市淡水區中正路25號","121.442603333333","25.169615","6501000","淡水區"
"251003","766-UM","2018/11/01 20:29:13","新北市淡水區新生街35號","121.440076666667","25.1748266666667","6501000","淡水區"
"207004","225-TW","2018/11/01 20:29:13","新北市萬里區北基里忠三街18號","121.684731666667","25.17571","6502800","萬里區"
"252002","178-VK","2018/11/01 20:29:29","新北市三芝區淡金路二段47-2號","121.503693333333","25.2605","6502100","三芝區"
"252001","292-VK","2018/11/01 20:29:24","新北市三芝區中山路一段14號","121.500681666667","25.258005","6502100","三芝區"
"236038","271-VK","2018/11/01 20:29:17","新北市土城區中興路17-1號","121.424016666667","24.9675016666667","6501300","土城區"
"242036","AAC-296","2018/11/01 20:29:32","新北市新莊區後港一路46巷6號","121.42624","25.0257783333333","6500500","新莊區"
"242058","986-R7","2018/11/01 20:29:14","新北市新莊區四維路186巷1號","121.422006666667","25.021065","6500500","新莊區"
"242056","751-BX","2018/11/01 20:29:25","新北市新莊區新莊路751巷83號","121.442825","25.0307866666667","6500500","新莊區"
"242027","615-BX","2018/11/01 20:29:30","新北市新莊區思源路301號","121.45996","25.0488416666667","6500500","新莊區"
"242025","613-BX","2018/11/01 20:29:17","新北市新莊區五工三路50巷23-1號","121.460761666667","25.06515","6500500","新莊區"
"242029","612-BX","2018/11/01 20:29:30","新北市新莊區昌隆街31號","121.454873333333","25.0511733333333","6500500","新莊區"
"242044","566-BX","2018/11/01 20:29:27","新北市新莊區中正路新建巷9號","121.414015","25.0225033333333","6500500","新莊區"
"242048","497-BY","2018/11/01 20:29:20","新北市新莊區富國路25號","121.418705","25.0263333333333","6500500","新莊區"
"242011","442-UM","2018/11/01 20:29:15","新北市新莊區中信街72號","121.448118333333","25.0522516666667","6500500","新莊區"
"242053","441-UM","2018/11/01 20:29:09","新北市新莊區西盛街344巷1號","121.427716666667","25.0140483333333","6500500","新莊區"
"242039","415-TV","2018/11/01 20:29:28","新北市新莊區成功街1號","121.425928333333","25.0219783333333","6500500","新莊區"
"242009","413-TV","2018/11/01 20:29:19","新北市新莊區昌隆街94號","121.456156666667","25.0507333333333","6500500","新莊區"
"242046","400-BY","2018/11/01 20:29:27","新北市新莊區中正路879-19號","121.418208333333","25.0256","6500500","新莊區"
"242023","362-BY","2018/11/01 20:29:22","新北市新莊區化成路610號","121.466183333333","25.0547616666667","6500500","新莊區"
"242061","353-BY","2018/11/01 20:29:29","新北市新莊區新樹路244巷66號","121.431103333333","25.01978","6500500","新莊區"
"242042","133-UY","2018/11/01 20:29:10","新北市新莊區天祥街21-1號","121.417435","25.0278166666667","6500500","新莊區"
"242034","135-UY","2018/11/01 20:29:17","新北市新莊區中正路334巷19號","121.445676666667","25.035715","6500500","新莊區"
"242051","172-VK","2018/11/01 20:29:27","新北市新莊區民安西路189巷38號","121.427366666667","25.0152183333333","6500500","新莊區"
"242013","173-VK","2018/11/01 20:29:31","新北市新莊區中榮街83號","121.445428333333","25.052675","6500500","新莊區"
"242019","175-VK","2018/11/01 20:29:26","新北市新莊區銘德街23號","121.458718333333","25.043675","6500500","新莊區"
"242007","176-VK","2018/11/01 20:29:26","新北市新莊區思源路287巷1弄33號","121.459513333333","25.0468916666667","6500500","新莊區"
"242017","346-TH","2018/11/01 20:29:26","新北市新莊區中港三街25號","121.450406666667","25.0463783333333","6500500","新莊區"
"242031","348-TH","2018/11/01 20:29:26","新北市新莊區三泰路24-8號","121.439261666667","25.034615","6500500","新莊區"
"242004","349-TH","2018/11/01 20:29:23","新北市新莊區化成路371巷27號","121.463551666667","25.056965","6500500","新莊區"
"242021","350-TH","2018/11/01 20:29:16","新北市新莊區公園路12號","121.447918333333","25.0388366666667","6500500","新莊區"
"221008","489-VK","2018/11/01 20:29:18","新北市汐止區康寧街397號","121.629468333333","25.0678733333333","6501100","汐止區"
"221036","130-UY","2018/11/01 20:29:21","新北市汐止區仁愛路215號","121.665098333333","25.0668083333333","6501100","汐止區"
"221015","131-UY","2018/11/01 20:29:28","新北市汐止區建成路142巷19弄11號","121.661983333333","25.07388","6501100","汐止區"
"221010","269-BY","2018/11/01 20:29:18","新北市汐止區八連路二段326號","121.629646666667","25.099935","6501100","汐止區"
"221012","278-VK","2018/11/01 20:29:17","新北市汐止區大同路三段211號","121.672556666667","25.0767616666667","6501100","汐止區"
"221023","279-VK","2018/11/01 20:29:19","新北市汐止區湖東街5巷31號","121.634795","25.0734816666667","6501100","汐止區"
"221032","280-BY","2018/11/01 20:29:15","新北市汐止區弘道街53巷11號","121.618635","25.0489866666667","6501100","汐止區"
"221027","281-BY","2018/11/01 20:29:13","新北市汐止區中正路195號","121.658688333333","25.068925","6501100","汐止區"
"221029","298-VK","2018/11/01 20:29:13","新北市汐止區樟樹一路129巷32號","121.640626666667","25.065215","6501100","汐止區"
"221021","299-VK","2018/11/01 20:29:20","新北市汐止區水源路一段293號","121.654456666667","25.058235","6501100","汐止區"
"221031","353-TW","2018/11/01 20:29:22","新北市汐止區中興路110巷15號","121.634","25.064435","6501100","汐止區"
"221025","623-UM","2018/11/01 20:29:09","新北市汐止區水源路二段88巷1弄1號","121.656291666667","25.0558966666667","6501100","汐止區"
"221038","646-BX","2018/11/01 20:29:21","新北市汐止區水源路一段56-1號","121.657183333333","25.065405","6501100","汐止區"
"221033","647-BX","2018/11/01 20:29:14","新北市汐止區林森街73巷5號","121.623516666667","25.04093","6501100","汐止區"
"221002","707-TV","2018/11/01 20:29:23","新北市汐止區福德二路51號","121.634251666667","25.06722","6501100","汐止區"
"221018","753-BX","2018/11/01 20:29:15","新北市汐止區茄苳路223號","121.670993333333","25.0688466666667","6501100","汐止區"
"220083","286-VK","2018/11/01 20:29:27","新北市板橋區僑中二街104巷13號","121.44539","25.007975","6500100","板橋區"
"220061","293-UM","2018/11/01 20:29:18","新北市板橋區四川路一段314號","121.458431666667","25.000255","6500100","板橋區"
"242002","281-VK","2018/11/01 20:29:19","新北市新莊區中正路147-7號","121.457598333333","25.03725","6500500","新莊區"
"220089","487-VK","2018/11/01 20:29:24","新北市板橋區四維路324號","121.462248333333","25.0301583333333","6500100","板橋區"
"242015","280-VK","2018/11/01 20:29:29","新北市新莊區中平路46巷14號","121.445398333333","25.04381","6500500","新莊區"
"220103","561-BX","2018/11/01 20:29:21","新北市板橋區漢生東路23巷53號","121.466065","25.0182866666667","6500100","板橋區"
"220093","689-BX","2018/11/01 20:29:21","新北市八里區荖阡坑路22-4號","121.399148333333","25.1338983333333","6500100","板橋區"
"220070","AAC-253","2018/11/01 20:29:10","新北市新莊區新五路一段6-2號","121.442515","25.0573016666667","6500100","板橋區"
