"lineid","car","time","location","longitude","latitude","cityid","cityname"
"234070","552-UM","2018/11/01 20:49:26","新北市新店區薏仁坑路自強巷1號","121.497718333333","24.9577766666667","6500400","永和區"
"234074","AAC-211","2018/11/01 20:49:17","新北市永和區環河東路一段122號","121.520548333333","25.015435","6500400","永和區"
"243015","421-VK","2018/11/01 20:49:28","新北市泰山區橫窠雅36號","121.402951666667","25.0716183333333","6501600","泰山區"
"222003","436-BY","2018/11/01 20:49:16","新北市深坑區文山路三段48-1號","121.609881666667","24.99854","6501800","深坑區"
"222002","659-BX","2018/11/01 20:49:19","新北市深坑區北深路三段93巷71號","121.60348","25.001125","6501800","深坑區"
"231059","046-UY","2018/11/01 20:49:11","新北市新店區僑愛三路18號","121.49934","24.9446783333333","6500600","新店區"
"231040","047-UY","2018/11/01 20:49:30","新北市新店區中正路255號","121.538921666667","24.9735216666667","6500600","新店區"
"231052","108-UY","2018/11/01 20:49:15","新北市新店區新烏路一段73-1號","121.546513333333","24.94232","6500600","新店區"
"231047","187-VK","2018/11/01 20:49:26","新北市新店區寶元路二段1巷2號","121.550736666667","24.9840566666667","6500600","新店區"
"231054","KEA-2219","2018/11/01 20:49:24","新北市新店區北新路一段96巷23號","121.543036666667","24.9686916666667","6500600","新店區"
"221035","KEA-2785","2018/11/01 20:49:10","新北市汐止區汐萬路一段300號","121.65054","25.0745233333333","6501100","汐止區"
"231057","256-BX","2018/11/01 20:49:21","新北市新店區新烏路一段51號","121.546191666667","24.9493183333333","6500600","新店區"
"231042","268-BY","2018/11/01 20:49:22","新北市新店區寶高路120巷1號","121.554583333333","24.9760316666667","6500600","新店區"
"231051","278-BY","2018/11/01 20:48:59","新北市新店區民生路156巷108號","121.527045","24.9823016666667","6500600","新店區"
"231050","AAD-862","2018/11/01 20:49:24","新北市新店區三民路42號","121.536123333333","24.9715116666667","6500600","新店區"
"231044","355-BY","2018/11/01 20:49:29","新北市新店區中正路384號","121.534741666667","24.9769883333333","6500600","新店區"
"231058","3713-VJ","2018/11/01 20:49:13","新北市新店區三民路60巷13號","121.535551666667","24.9727516666667","6500600","新店區"
"231066","4716-K9","2018/11/01 20:49:15","新北市新店區安興路112號","121.51464","24.9776783333333","6500600","新店區"
"231056","4715-K9","2018/11/01 20:49:26","新北市新店區薏仁坑路6號","121.500026666667","24.9582983333333","6500600","新店區"
"231067","4772-VM","2018/11/01 20:49:19","新北市新店區安華路28-1號","121.519608333333","24.961","6500600","新店區"
"231065","512-UM","2018/11/01 20:49:19","新北市新店區安祥路69巷19號","121.481888333333","24.96133","6500600","新店區"
"231049","513-UM","2018/11/01 20:49:26","新北市新店區華潭街52號","121.529315","24.9551666666667","6500600","新店區"
"231045","617-UM","2018/11/01 20:49:26","新北市新店區檳榔路2號","121.540901666667","24.9649583333333","6500600","新店區"
"231061","619-UM","2018/11/01 20:49:23","新北市新店區新和街93巷2號","121.52108","24.9865716666667","6500600","新店區"
"231063","641-BX","2018/11/01 20:49:14","新北市新店區如意街11-3號","121.494988333333","24.9482833333333","6500600","新店區"
"231068","718-UY","2018/11/01 20:49:30","新北市新店區寶元路一段84巷1號","121.544531666667","24.983715","6500600","新店區"
"231064","719-UM","2018/11/01 20:48:59","新北市新店區安民街365巷5號","121.516178333333","24.975635","6500600","新店區"
"231062","720-UM","2018/11/01 20:49:21","新北市新店區和成街17巷1號","121.487681666667","24.9468583333333","6500600","新店區"
"231060","897-TW","2018/11/01 20:49:26","新北市新店區安康路三段591號","121.472328333333","24.940915","6500600","新店區"
"231043","899-TW","2018/11/01 20:49:21","新北市新店區建國路99巷1號","121.540356666667","24.9771766666667","6500600","新店區"
"241011","013-R5","2018/11/01 20:49:22","新北市三重區龍濱路205巷3號","121.502281666667","25.0717316666667","6500200","三重區"
"241028","022-UY","2018/11/01 20:49:30","新北市三重區中正南路40號","121.493865","25.06018","6500200","三重區"
"241008","059-VK","2018/11/01 20:49:22","新北市三重區永福街72巷11號","121.479473333333","25.0767433333333","6500200","三重區"
"241022","060-VK","2018/11/01 20:49:20","新北市三重區過圳街27-5號","121.487968333333","25.06241","6500200","三重區"
"241031","061-VK","2018/11/01 20:49:13","新北市三重區重陽路一段113巷3號","121.487548333333","25.0598166666667","6500200","三重區"
"241015","062-VK","2018/11/01 20:49:22","新北市三重區自強路一段12號","121.498821666667","25.0681966666667","6500200","三重區"
"241017","063-VK","2018/11/01 20:49:18","新北市三重區民生街28號","121.491786666667","25.0671833333333","6500200","三重區"
"241024","065-VK","2018/11/01 20:49:31","新北市三重區忠孝路三段34號","121.481215","25.0666833333333","6500200","三重區"
"241026","066-VK","2018/11/01 20:49:25","新北市三重區和平街5號","121.50025","25.0624183333333","6500200","三重區"
"241002","090-VK","2018/11/01 20:49:11","新北市三重區仁義街159巷18號","121.497753333333","25.0815616666667","6500200","三重區"
"241003","091-VK","2018/11/01 20:49:23","新北市三重區五華街141巷60號","121.493545","25.08677","6500200","三重區"
"251014","742-BX","2018/11/01 20:49:17","新北市淡水區公埔子32-8號","121.461651666667","25.232365","6501000","淡水區"
"241005","262-UM","2018/11/01 20:48:45","新北市三重區五華街141巷49號","121.493085","25.0861616666667","6500200","三重區"
"241016","266-UM","2018/11/01 20:48:46","新北市三重區正義北路206號","121.496288333333","25.067335","6500200","三重區"
"241009","267-UM","2018/11/01 20:49:21","新北市三重區三和路四段388-2號","121.482108333333","25.0790766666667","6500200","三重區"
"241018","268-UM","2018/11/01 20:49:24","新北市三重區正義北路239號","121.495771666667","25.0693216666667","6500200","三重區"
"241032","269-UM","2018/11/01 20:49:30","新北市三重區重陽路一段120巷46號","121.485088333333","25.06016","6500200","三重區"
"241013","270-UM","2018/11/01 20:49:17","新北市三重區仁賢街6號","121.49562","25.0748466666667","6500200","三重區"
"241025","271-UM","2018/11/01 20:49:30","新北市三重區貴陽街14號","121.484221666667","25.0618333333333","6500200","三重區"
"241007","398-BY","2018/11/01 20:49:16","新北市三重區三和路四段145巷3號","121.484458333333","25.0782783333333","6500200","三重區"
"241035","KEA-2210","2018/11/01 20:49:10","新北市三重區三和路三段32號","121.496271666667","25.0706883333333","6500200","三重區"
"241020","478-VK","2018/11/01 20:49:14","新北市三重區忠孝路一段101號","121.489623333333","25.0721233333333","6500200","三重區"
"241014","543-UM","2018/11/01 20:49:20","新北市三重區安和路107號","121.500778333333","25.0700833333333","6500200","三重區"
"241023","545-UM","2018/11/01 20:49:23","新北市三重區三民街146巷14號","121.48174","25.0646216666667","6500200","三重區"
"241001","547-UM","2018/11/01 20:49:16","新北市三重區自強路三段76巷15號","121.486068333333","25.0742133333333","6500200","三重區"
"241019","KEA-2593","2018/11/01 20:49:29","新北市三重區三張街75號","121.490081666667","25.07062","6500200","三重區"
"241006","AAD-863","2018/11/01 20:49:28","新北市三重區車路頭街139巷2號","121.483855","25.0762683333333","6500200","三重區"
"241030","743-BX","2018/11/01 20:49:28","新北市三重區昌隆街26號","121.492006666667","25.052225","6500200","三重區"
"241004","887-TS","2018/11/01 20:49:27","新北市三重區分子尾街21號","121.489571666667","25.0810916666667","6500200","三重區"
"241012","941-UM","2018/11/01 20:43:44","新北市三重區仁信街29號","121.501243333333","25.0755483333333","6500200","三重區"
"241029","942-UM","2018/11/01 20:49:29","新北市三重區重安街18號","121.490316666667","25.0581483333333","6500200","三重區"
"241033","AAC-255","2018/11/01 20:49:20","新北市三重區光復路二段1號","121.472335","25.0532933333333","6500200","三重區"
"247012","KEA-2869","2018/11/01 20:49:19","新北市蘆洲區集賢路222-1號","121.482948333333","25.0869216666667","6501400","蘆洲區"
"235069","4980-A6","2018/11/01 20:49:30","新北市中和區新生街234號","121.483783333333","24.9980716666667","6500300","中和區"
"247002","893-R6","2018/11/01 20:49:21","新北市蘆洲區長安街240號","121.457681666667","25.0858633333333","6501400","蘆洲區"
"247016","546-UM","2018/11/01 20:49:21","新北市蘆洲區中正路69號","121.470435","25.0827116666667","6501400","蘆洲區"
"247024","500-BY","2018/11/01 20:49:23","新北市蘆洲區長樂路140號","121.462028333333","25.09014","6501400","蘆洲區"
"247014","339-TH","2018/11/01 20:49:17","新北市蘆洲區復興路48號","121.472673333333","25.0854366666667","6501400","蘆洲區"
"247006","337-TH","2018/11/01 20:49:28","新北市蘆洲區永安南路二段56-1號","121.465451666667","25.0777416666667","6501400","蘆洲區"
"247008","336-TH","2018/11/01 20:49:28","新北市三重區三和路四段237號","121.48086","25.0802416666667","6501400","蘆洲區"
"247020","057-VK","2018/11/01 20:49:22","新北市蘆洲區仁愛街66號","121.471515","25.093835","6501400","蘆洲區"
"247010","056-VK","2018/11/01 20:49:21","新北市蘆洲區民族路38號","121.476613333333","25.0843416666667","6501400","蘆洲區"
"247004","002-UY","2018/11/01 20:49:16","新北市蘆洲區長安街100號","121.461658333333","25.0809033333333","6501400","蘆洲區"
"247022","001-UY","2018/11/01 20:49:27","新北市蘆洲區民權路131巷10號","121.471371666667","25.0899916666667","6501400","蘆洲區"
"222001","KEA-2212","2018/11/01 20:49:24","新北市深坑區北深路三段129號","121.604053333333","25.0024666666667","6501800","深坑區"
"208001","761-BX","2018/11/01 20:49:22","新北市金山區磺清路135號","121.639391666667","25.2276933333333","6502700","金山區"
"251013","KEA-2871","2018/11/01 20:49:17","新北市淡水區行忠路136號","121.455101666667","25.1990166666667","6501000","淡水區"
"251016","179-VK","2018/11/01 20:49:16","新北市淡水區興仁路165號","121.451545","25.2200683333333","6501000","淡水區"
"251008","181-VK","2018/11/01 20:49:26","新北市淡水區下圭柔山90-8號","121.432116666667","25.21126","6501000","淡水區"
"251015","182-VK","2018/11/01 20:49:14","新北市淡水區淡金路四段542巷17號","121.452761666667","25.2271116666667","6501000","淡水區"
"251010","413-VK","2018/11/01 20:49:21","新北市淡水區沙崙路126號","121.423416666667","25.1829266666667","6501000","淡水區"
"251012","441-VK","2018/11/01 20:49:12","新北市淡水區淡金路四段493號","121.452026666667","25.22513","6501000","淡水區"
"251007","442-VK","2018/11/01 20:49:17","新北市淡水區鄧公路29巷16號","121.452335","25.170115","6501000","淡水區"
"251001","559-UM","2018/11/01 20:49:22","新北市淡水區淡金路218號","121.460536666667","25.1672283333333","6501000","淡水區"
"251011","650-BX","2018/11/01 20:49:14","新北市淡水區新民街一段13-1號","121.433043333333","25.184535","6501000","淡水區"
"251002","672-BX","2018/11/01 20:49:15","新北市淡水區中正東路6號","121.447135","25.16699","6501000","淡水區"
"251003","766-UM","2018/11/01 20:49:30","新北市淡水區中山北路一段247巷68號","121.44301","25.179485","6501000","淡水區"
"252001","702-TV","2018/11/01 20:49:09","新北市三芝區埔坪里埔頭坑41號","121.504156666667","25.2644083333333","6502100","三芝區"
"242036","AAC-296","2018/11/01 20:49:32","新北市新莊區中正路455-2號","121.442623333333","25.0339583333333","6500500","新莊區"
"242027","615-BX","2018/11/01 20:49:10","新北市五股區新五路二段372巷20號","121.447853333333","25.0853516666667","6500500","新莊區"
"242029","612-BX","2018/11/01 20:49:30","新北市三重區光復路二段153號","121.472131666667","25.059925","6500500","新莊區"
"242044","566-BX","2018/11/01 20:49:27","新北市新莊區福營路407號","121.422068333333","25.0269683333333","6500500","新莊區"
"242039","415-TV","2018/11/01 20:49:28","新北市新莊區瓊林路118-1號","121.441868333333","25.024815","6500500","新莊區"
"242009","413-TV","2018/11/01 20:49:19","新北市新莊區幸福路10號","121.459171666667","25.0494733333333","6500500","新莊區"
"242046","400-BY","2018/11/01 20:49:33","新北市新莊區景德路642號","121.440978333333","25.0328683333333","6500500","新莊區"
"242023","362-BY","2018/11/01 20:49:11","新北市三重區光復路二段170號","121.472193333333","25.0611983333333","6500500","新莊區"
"242042","133-UY","2018/11/01 20:49:30","新北市新莊區新樹路6號","121.440508333333","25.0328033333333","6500500","新莊區"
"242004","349-TH","2018/11/01 20:49:23","新北市八里區商港路120號","121.392863333333","25.15004","6500500","新莊區"
"221036","130-UY","2018/11/01 20:49:21","新北市汐止區連興街121號","121.653828333333","25.062365","6501100","汐止區"
"221027","281-BY","2018/11/01 20:49:13","新北市汐止區汐萬路一段37號","121.655431666667","25.0684466666667","6501100","汐止區"
"221029","298-VK","2018/11/01 20:49:13","新北市汐止區樟樹二路291號","121.641156666667","25.0697116666667","6501100","汐止區"
"221021","299-VK","2018/11/01 20:49:20","新北市汐止區新台五路一段210-1號","121.655691666667","25.0629333333333","6501100","汐止區"
"221038","646-BX","2018/11/01 20:49:21","新北市汐止區汐萬路一段256巷1號","121.652013333333","25.074745","6501100","汐止區"
"221033","647-BX","2018/11/01 20:49:14","新北市汐止區合順街18巷8弄5號","121.620316666667","25.0419266666667","6501100","汐止區"
"221002","707-TV","2018/11/01 20:49:23","新北市汐止區福德二路138號","121.630756666667","25.0651733333333","6501100","汐止區"
"221018","753-BX","2018/11/01 20:49:14","新北市汐止區茄苳路18號","121.664963333333","25.0707533333333","6501100","汐止區"
"242002","281-VK","2018/11/01 20:49:24","新北市新莊區中港路五守新村12號","121.454875","25.03861","6500500","新莊區"
"220070","AAC-253","2018/11/01 20:49:30","新北市林口區太平里180號","121.367131666667","25.135135","6500100","板橋區"
