"lineid","car","time","location","longitude","latitude","cityid","cityname"
"231059","046-UY","2018/11/01 21:09:31","新北市新店區僑信路58號","121.499325","24.9497166666667","6500600","新店區"
"231040","047-UY","2018/11/01 21:09:10","新北市新店區北新路一段100號","121.542098333333","24.9693416666667","6500600","新店區"
"231047","187-VK","2018/11/01 21:09:26","新北市新店區中興路三段160號","121.544421666667","24.9805766666667","6500600","新店區"
"231054","KEA-2219","2018/11/01 21:09:24","新北市新店區大新街7巷1號","121.543468333333","24.9684283333333","6500600","新店區"
"231042","268-BY","2018/11/01 21:09:22","新北市新店區寶興路60巷3號","121.549883333333","24.9718233333333","6500600","新店區"
"231051","278-BY","2018/11/01 21:09:19","新北市新店區中正路700巷82號","121.535975","24.9932183333333","6500600","新店區"
"231050","AAD-862","2018/11/01 21:09:24","新北市新店區中華路83巷4弄20號","121.538285","24.9689183333333","6500600","新店區"
"231067","4772-VM","2018/11/01 21:09:19","新北市新店區薏仁坑路自強巷1號","121.49697","24.9579383333333","6500600","新店區"
"231065","512-UM","2018/11/01 21:09:19","新北市新店區安祥路69巷89弄13號","121.483291666667","24.959825","6500600","新店區"
"231061","619-UM","2018/11/01 21:09:23","新北市新店區永安街6號","121.516778333333","24.9860266666667","6500600","新店區"
"231063","641-BX","2018/11/01 21:09:14","新北市新店區玫瑰路59巷2號","121.495928333333","24.945625","6500600","新店區"
"231064","719-UM","2018/11/01 21:06:59","新北市新店區薏仁坑路自強巷1號","121.497601666667","24.9577183333333","6500600","新店區"
"231062","720-UM","2018/11/01 21:09:21","新北市新店區雙城路60巷16弄13號","121.491758333333","24.9478683333333","6500600","新店區"
"231060","897-TW","2018/11/01 21:09:26","新北市新店區安康路二段382號","121.500451666667","24.9569733333333","6500600","新店區"
"241011","013-R5","2018/11/01 21:09:22","新北市三重區秀江街67號","121.500758333333","25.07254","6500200","三重區"
"241028","022-UY","2018/11/01 21:09:10","新北市三重區正義南路60-1號","121.498265","25.0606316666667","6500200","三重區"
"241008","059-VK","2018/11/01 21:09:23","新北市三重區自強路一段62號","121.497273333333","25.0666683333333","6500200","三重區"
"241022","060-VK","2018/11/01 21:09:20","新北市三重區中正北路64巷24號","121.486023333333","25.0637033333333","6500200","三重區"
"241031","061-VK","2018/11/01 21:09:13","新北市三重區重新路五段283號","121.47892","25.049055","6500200","三重區"
"241015","062-VK","2018/11/01 21:09:22","新北市三重區福德北路55-1號","121.502356666667","25.06541","6500200","三重區"
"241017","063-VK","2018/11/01 21:09:18","新北市三重區國隆路30號","121.492226666667","25.0643333333333","6500200","三重區"
"241024","065-VK","2018/11/01 21:09:31","新北市三重區國道路一段58巷20號","121.481233333333","25.072035","6500200","三重區"
"241026","066-VK","2018/11/01 21:09:25","新北市三重區文化南路42號","121.50043","25.0602483333333","6500200","三重區"
"241002","090-VK","2018/11/01 21:09:31","新北市三重區五華街11號","121.495011666667","25.08022","6500200","三重區"
"241003","091-VK","2018/11/01 21:09:23","新北市三重區仁義街224號","121.494981666667","25.084715","6500200","三重區"
"251014","742-BX","2018/11/01 21:09:18","新北市淡水區六塊厝1-2號","121.450763333333","25.2426166666667","6501000","淡水區"
"241005","262-UM","2018/11/01 21:09:25","新北市三重區三信路186號","121.487953333333","25.0861","6500200","三重區"
"241016","266-UM","2018/11/01 21:09:25","新北市三重區信義西街138號","121.49553","25.06433","6500200","三重區"
"241009","267-UM","2018/11/01 21:09:21","新北市三重區忠孝路二段122號","121.482985","25.068835","6500200","三重區"
"241018","268-UM","2018/11/01 21:09:24","新北市三重區正義北路330號","121.494456666667","25.070495","6500200","三重區"
"241032","269-UM","2018/11/01 21:09:10","新北市三重區光復路二段175號","121.472571666667","25.061565","6500200","三重區"
"241013","270-UM","2018/11/01 21:09:17","新北市三重區仁愛街124號","121.494975","25.0748416666667","6500200","三重區"
"241025","271-UM","2018/11/01 21:09:10","新北市三重區中正北路208巷8號","121.482336666667","25.0669416666667","6500200","三重區"
"241007","398-BY","2018/11/01 21:09:16","新北市三重區三和路四段145巷85號","121.486441666667","25.0787383333333","6500200","三重區"
"241020","478-VK","2018/11/01 21:09:14","新北市三重區忠孝路二段34號","121.485761666667","25.07107","6500200","三重區"
"241014","543-UM","2018/11/01 21:09:20","新北市三重區長安街82-1號","121.501391666667","25.0676566666667","6500200","三重區"
"241023","545-UM","2018/11/01 21:09:23","新北市三重區洛陽街45巷20號","121.482348333333","25.0637866666667","6500200","三重區"
"241001","547-UM","2018/11/01 21:09:16","新北市三重區溪尾街54號","121.490493333333","25.0774733333333","6500200","三重區"
"241019","KEA-2593","2018/11/01 21:09:29","新北市三重區自強路二段74巷23-1號","121.487885","25.06985","6500200","三重區"
"241006","AAD-863","2018/11/01 21:09:20","新北市三重區明志街135號","121.489265","25.0632366666667","6500200","三重區"
"241030","743-BX","2018/11/01 21:09:28","新北市三重區五谷王北街20巷15弄1號","121.475043333333","25.0484916666667","6500200","三重區"
"241004","887-TS","2018/11/01 21:09:27","新北市三重區仁愛街418號","121.490531666667","25.0814433333333","6500200","三重區"
"241012","941-UM","2018/11/01 20:43:44","新北市三重區仁信街29號","121.501243333333","25.0755483333333","6500200","三重區"
"241029","942-UM","2018/11/01 21:09:29","新北市三重區正義南路111號","121.498218333333","25.0585583333333","6500200","三重區"
"241033","AAC-255","2018/11/01 21:09:20","新北市三重區中興北街289號","121.469133333333","25.0623933333333","6500200","三重區"
"247012","KEA-2869","2018/11/01 21:08:59","新北市蘆洲區民族路52號","121.476986666667","25.084505","6501400","蘆洲區"
"235069","4980-A6","2018/11/01 21:09:30","新北市中和區中正路637巷44弄8號","121.484925","24.9943566666667","6500300","中和區"
"247002","893-R6","2018/11/01 21:09:21","新北市蘆洲區永樂街38巷40號","121.458525","25.0899816666667","6501400","蘆洲區"
"247024","500-BY","2018/11/01 21:09:23","新北市蘆洲區長興路50巷1號","121.463833333333","25.0837883333333","6501400","蘆洲區"
"247014","339-TH","2018/11/01 21:09:17","新北市蘆洲區中央路155號","121.47267","25.084695","6501400","蘆洲區"
"247006","337-TH","2018/11/01 21:09:28","新北市蘆洲區九芎街57號","121.467221666667","25.07869","6501400","蘆洲區"
"247008","336-TH","2018/11/01 21:09:28","新北市蘆洲區民生街117號","121.47302","25.0789233333333","6501400","蘆洲區"
"247020","057-VK","2018/11/01 21:09:22","新北市蘆洲區民族路446-7號","121.47271","25.0922683333333","6501400","蘆洲區"
"247010","056-VK","2018/11/01 21:09:21","新北市蘆洲區鷺江街42號","121.477255","25.083105","6501400","蘆洲區"
"247018","007-UY","2018/11/01 21:09:21","新北市蘆洲區民族路408巷10號","121.474783333333","25.0918183333333","6501400","蘆洲區"
"247004","002-UY","2018/11/01 21:09:16","新北市蘆洲區永安南路二段280號","121.458026666667","25.0810133333333","6501400","蘆洲區"
"247022","001-UY","2018/11/01 21:09:27","新北市蘆洲區三民路251號","121.46849","25.0894383333333","6501400","蘆洲區"
"251009","008-UM","2018/11/01 21:09:13","新北市淡水區民族路112巷40號","121.462036666667","25.1343716666667","6501000","淡水區"
"251005","010-UM","2018/11/01 21:09:22","新北市淡水區英專路2巷27號","121.446396666667","25.1693333333333","6501000","淡水區"
"251013","KEA-2871","2018/11/01 21:09:16","新北市淡水區行忠路328號","121.460451666667","25.199635","6501000","淡水區"
"251016","179-VK","2018/11/01 21:09:16","新北市淡水區前洲子2-1號","121.444146666667","25.2167183333333","6501000","淡水區"
"251008","181-VK","2018/11/01 21:09:24","新北市淡水區淡金路二段95號","121.45099","25.181845","6501000","淡水區"
"251015","182-VK","2018/11/01 21:09:14","新北市淡水區淡金路四段542巷85號","121.455573333333","25.2262583333333","6501000","淡水區"
"251010","413-VK","2018/11/01 21:09:21","新北市淡水區中正路一段102號","121.424318333333","25.177695","6501000","淡水區"
"251012","441-VK","2018/11/01 21:09:12","新北市淡水區淡金路五段172號","121.457048333333","25.2400716666667","6501000","淡水區"
"251001","559-UM","2018/11/01 21:09:22","新北市淡水區新市一路三段109號","121.446721666667","25.1837866666667","6501000","淡水區"
"251011","650-BX","2018/11/01 21:09:14","新北市淡水區新民街180巷7弄10號","121.437343333333","25.1797666666667","6501000","淡水區"
"251002","672-BX","2018/11/01 21:09:15","新北市淡水區水源街一段145號","121.447295","25.17187","6501000","淡水區"
"251003","766-UM","2018/11/01 21:09:13","新北市淡水區新春街83號","121.438901666667","25.1825033333333","6501000","淡水區"
"252001","702-TV","2018/11/01 21:04:25","新北市三芝區埔坪里埔頭坑41號","121.504188333333","25.2643966666667","6502100","三芝區"
"242004","349-TH","2018/11/01 21:09:23","新北市八里區中山路三段409號","121.368508333333","25.1349316666667","6500500","新莊區"
"220070","AAC-253","2018/11/01 21:09:30","新北市八里區中山路三段409號","121.368493333333","25.13441","6500100","板橋區"
