"lineid","car","time","location","longitude","latitude","cityid","cityname"
"231059","046-UY","2018/11/01 21:19:31","新北市新店區僑信路2巷2號","121.499808333333","24.9535566666667","6500600","新店區"
"231040","047-UY","2018/11/01 21:19:30","新北市新店區北新路一段209號","121.540466666667","24.965025","6500600","新店區"
"231047","187-VK","2018/11/01 21:19:26","新北市新店區民生路158巷89號","121.52652","24.9811633333333","6500600","新店區"
"231054","KEA-2219","2018/11/01 21:19:24","新北市新店區中央路183-1號","121.536085","24.9689066666667","6500600","新店區"
"231051","278-BY","2018/11/01 21:19:19","新北市新店區溪園路365-8號","121.521763333333","24.9806583333333","6500600","新店區"
"231050","AAD-862","2018/11/01 21:19:24","新北市新店區中正路302巷8弄5號","121.538253333333","24.9748066666667","6500600","新店區"
"231067","4772-VM","2018/11/01 21:19:19","新北市新店區車子路10號","121.504596666667","24.954935","6500600","新店區"
"231063","641-BX","2018/11/01 21:19:14","新北市新店區吉祥街11巷1號","121.49762","24.9465333333333","6500600","新店區"
"241011","013-R5","2018/11/01 21:19:22","新北市三重區河邊北街110巷66號","121.502235","25.070215","6500200","三重區"
"241028","022-UY","2018/11/01 21:19:30","新北市三重區同安東街82號","121.499006666667","25.05758","6500200","三重區"
"241008","059-VK","2018/11/01 21:19:22","新北市三重區自強路一段147-1號","121.49395","25.06673","6500200","三重區"
"241031","061-VK","2018/11/01 21:19:13","新北市三重區五谷王南街46巷37號","121.475753333333","25.045525","6500200","三重區"
"241017","063-VK","2018/11/01 21:19:18","新北市三重區國隆路30-1號","121.492118333333","25.0643416666667","6500200","三重區"
"241024","065-VK","2018/11/01 21:19:31","新北市三重區中正北路145巷14號","121.484146666667","25.0677616666667","6500200","三重區"
"241026","066-VK","2018/11/01 21:19:25","新北市三重區大同南路218號","121.496785","25.0563983333333","6500200","三重區"
"241002","090-VK","2018/11/01 21:19:11","新北市三重區五華街16號","121.494833333333","25.08032","6500200","三重區"
"241003","091-VK","2018/11/01 21:19:23","新北市三重區仁義街317號","121.495385","25.08413","6500200","三重區"
"251014","742-BX","2018/11/01 21:19:17","新北市淡水區六塊厝2-1號","121.450181666667","25.24047","6501000","淡水區"
"241005","262-UM","2018/11/01 21:19:25","新北市三重區五華街180巷19號","121.488065","25.0859833333333","6500200","三重區"
"241016","266-UM","2018/11/01 21:19:25","新北市三重區自強路一段236號","121.493253333333","25.06702","6500200","三重區"
"241009","267-UM","2018/11/01 21:19:21","新北市三重區中華路76巷27號","121.482486666667","25.0626166666667","6500200","三重區"
"241018","268-UM","2018/11/01 21:19:24","新北市三重區忠孝路二段118號","121.483128333333","25.0690416666667","6500200","三重區"
"241032","269-UM","2018/11/01 21:19:30","新北市三重區光復路二段175號","121.472173333333","25.061435","6500200","三重區"
"241013","270-UM","2018/11/01 21:19:17","新北市三重區仁愛街83號","121.495928333333","25.0732083333333","6500200","三重區"
"241025","271-UM","2018/11/01 21:19:30","新北市三重區中正北路208巷10弄4號","121.482431666667","25.0669733333333","6500200","三重區"
"241007","398-BY","2018/11/01 21:19:16","新北市三重區正義北路328號","121.494796666667","25.0705816666667","6500200","三重區"
"241014","543-UM","2018/11/01 21:19:20","新北市三重區萬全街9號","121.49933","25.0696566666667","6500200","三重區"
"241023","545-UM","2018/11/01 21:19:23","新北市三重區中正北路176巷16號","121.482671666667","25.0658983333333","6500200","三重區"
"241019","KEA-2593","2018/11/01 21:19:29","新北市三重區重陽路三段7-3號","121.489198333333","25.066555","6500200","三重區"
"241006","AAD-863","2018/11/01 21:19:20","新北市三重區新北大道一段97號","121.484471666667","25.0614416666667","6500200","三重區"
"241030","743-BX","2018/11/01 21:19:28","新北市三重區五谷王北街181-1號","121.477275","25.0542533333333","6500200","三重區"
"241004","887-TS","2018/11/01 21:19:27","新北市三重區碧華街325號","121.491435","25.0845983333333","6500200","三重區"
"241033","AAC-255","2018/11/01 21:19:19","新北市三重區光復路二段126巷27號","121.470763333333","25.05882","6500200","三重區"
"247012","KEA-2869","2018/11/01 21:19:19","新北市蘆洲區中興街63號","121.481701666667","25.087685","6501400","蘆洲區"
"247002","893-R6","2018/11/01 21:19:21","新北市蘆洲區永樂街90號","121.456728333333","25.0886533333333","6501400","蘆洲區"
"247024","500-BY","2018/11/01 21:19:23","新北市蘆洲區光明路90號","121.46285","25.0878283333333","6501400","蘆洲區"
"247014","339-TH","2018/11/01 21:19:17","新北市蘆洲區保和街50-5號","121.469773333333","25.0862933333333","6501400","蘆洲區"
"247006","337-TH","2018/11/01 21:19:28","新北市蘆洲區中華街3號","121.464063333333","25.0818516666667","6501400","蘆洲區"
"247008","336-TH","2018/11/01 21:19:28","新北市蘆洲區中山一路95巷20弄33號","121.476166666667","25.0802516666667","6501400","蘆洲區"
"247020","057-VK","2018/11/01 21:19:22","新北市蘆洲區民族路422巷82弄14號","121.473941666667","25.0939283333333","6501400","蘆洲區"
"247010","056-VK","2018/11/01 21:19:21","新北市蘆洲區鷺江街16-2號","121.478851666667","25.08248","6501400","蘆洲區"
"247018","007-UY","2018/11/01 21:19:21","新北市蘆洲區復興路58號","121.47383","25.08602","6501400","蘆洲區"
"247004","002-UY","2018/11/01 21:19:16","新北市蘆洲區永安南路二段322號","121.457025","25.0827316666667","6501400","蘆洲區"
"247022","001-UY","2018/11/01 21:19:26","新北市蘆洲區民族路502號","121.469543333333","25.0904916666667","6501400","蘆洲區"
"251009","008-UM","2018/11/01 21:19:13","新北市淡水區民族路112巷1號","121.462606666667","25.135155","6501000","淡水區"
"251005","010-UM","2018/11/01 21:19:21","新北市淡水區仁愛街18巷8號","121.447006666667","25.17039","6501000","淡水區"
"251013","KEA-2871","2018/11/01 21:19:16","新北市淡水區行忠路328號","121.460468333333","25.19963","6501000","淡水區"
"251016","179-VK","2018/11/01 21:19:16","新北市淡水區前洲子11號","121.44099","25.2194866666667","6501000","淡水區"
"251008","181-VK","2018/11/01 21:19:24","新北市淡水區水源街二段230號","121.460421666667","25.1764066666667","6501000","淡水區"
"251015","182-VK","2018/11/01 21:19:14","新北市淡水區淡金路四段542巷17號","121.452673333333","25.2271116666667","6501000","淡水區"
"251010","413-VK","2018/11/01 21:19:22","新北市淡水區中正路一段156巷51號","121.421878333333","25.1808733333333","6501000","淡水區"
"251012","441-VK","2018/11/01 21:19:12","新北市淡水區淡金路五段35巷46號","121.452473333333","25.2347533333333","6501000","淡水區"
"251001","559-UM","2018/11/01 21:19:22","新北市淡水區中山北路三段31巷120號","121.441578333333","25.189335","6501000","淡水區"
"251006","561-UM","2018/11/01 21:19:14","新北市淡水區中正路一段87巷1號","121.42134","25.1795683333333","6501000","淡水區"
"251011","650-BX","2018/11/01 21:19:14","新北市淡水區新民街120巷29號","121.438933333333","25.1787916666667","6501000","淡水區"
"251002","672-BX","2018/11/01 21:19:15","新北市淡水區學府路172巷21號","121.448313333333","25.1748616666667","6501000","淡水區"
"251003","766-UM","2018/11/01 21:19:13","新北市淡水區崁頂15-5號","121.438981666667","25.1858816666667","6501000","淡水區"
"252001","702-TV","2018/11/01 21:04:25","新北市三芝區埔坪里埔頭坑41號","121.504188333333","25.2643966666667","6502100","三芝區"
"220070","AAC-253","2018/11/01 21:19:10","新北市八里區荖阡坑路15-66號","121.398493333333","25.1403066666667","6500100","板橋區"
