"lineid","car","time","location","longitude","latitude","cityid","cityname"
"248004","653-BX","2018/11/02 07:49:41","新北市五股區明德路12巷1號","121.433306666667","25.0717433333333","6501500","五股區"
"232019","705-BZ","2018/11/02 07:49:45","新北市坪林區乾溪5號","121.742393333333","24.9725783333333","6502000","坪林區"
"232008","758-BX","2018/11/02 07:49:25","新北市坪林區魚堀5號","121.711251666667","24.9013333333333","6502000","坪林區"
"244004","248-BX","2018/11/02 07:49:41","新北市林口區下福里10-1號","121.313066666667","25.1118933333333","6501700","林口區"
"222005","289-BY","2018/11/02 07:49:26","新北市深坑區文化街70號","121.618433333333","25.001715","6501800","深坑區"
"231007","189-VK","2018/11/02 07:49:44","新北市新店區安華路28-1號","121.519735","24.9609816666667","6500600","新店區"
"231009","192-VK","2018/11/02 07:49:38","新北市新店區安一路一段1-1號","121.51929","24.961195","6500600","新店區"
"235011","031-BX","2018/11/02 07:49:32","新北市中和區廟美街11號","121.500871666667","25.0014466666667","6500300","中和區"
"235001","611-BX","2018/11/02 07:49:31","新北市中和區圓通路367巷6號","121.491416666667","24.989205","6500300","中和區"
"235001","157-BY","2018/11/02 07:49:28","新北市中和區捷運路58-9號","121.5074","24.9909383333333","6500300","中和區"
"226005","5620-A6","2018/11/02 07:49:28","新北市平溪區嶺腳里中華街52號","121.739146666667","25.0248133333333","6502400","平溪區"
"226001","7418-A5","2018/11/02 07:49:35","新北市平溪區十分里十分街94號","121.77713","25.042215","6502400","平溪區"
"226006","AGD-0702","2018/11/02 07:49:37","新北市平溪區新寮里頂寮子62-1號","121.774916666667","25.0510783333333","6502400","平溪區"
"223006","022-BY","2018/11/02 07:49:32","新北市坪林區北宜路八段453號","121.706208333333","24.923845","6501900","石碇區"
"223002","KEA-2673","2018/11/02 07:44:05","新北市石碇區大格門5號","121.667853333333","24.9559133333333","6501900","石碇區"
"223003","205-TH","2018/11/02 07:45:07","新北市石碇區樟空子10-2號","121.666945","24.9621983333333","6501900","石碇區"
"223001","592-UM","2018/11/02 07:49:29","新北市石碇區四分子6號","121.663945","24.9604533333333","6501900","石碇區"
"223004","660-BX","2018/11/02 07:49:31","新北市石碇區楓子林30號","121.642325","25.0095133333333","6501900","石碇區"
"223005","677-TV","2018/11/02 07:49:42","新北市石碇區楓子林30號","121.64227","25.0096033333333","6501900","石碇區"
"227005","282-VK","2018/11/02 07:49:42","新北市雙溪區雙溪里太平路56號","121.864888333333","25.0355766666667","6502500","雙溪區"
"252003","249-BX","2018/11/02 07:49:32","新北市三芝區中正路三段1號","121.503026666667","25.254355","6502100","三芝區"
"237001","159-UY","2018/11/02 07:49:44","新北市三峽區大學路77號","121.376108333333","24.941625","6500900","三峽區"
"242001","233-RS","2018/11/02 07:49:29","新北市新莊區中港路301號","121.452928333333","25.0444733333333","6500500","新莊區"
