"lineid","car","time","location","longitude","latitude","cityid","cityname"
"248005","653-BX","2018/06/04 07:59:19","新北市五股區明德路12巷6號","121.43346","25.0718216666667","6501500","五股區"
"232001","290-BY","2018/06/04 07:59:17","新北市坪林區下坑子口12號","121.720408333333","24.9425416666667","6502000","坪林區"
"232012","291-BY","2018/06/04 07:53:39","新北市坪林區金瓜寮23-1號","121.679256666667","24.9111966666667","6502000","坪林區"
"232010","375-UM","2018/06/04 07:59:36","新北市坪林區厚德岡坑8-5號","121.733166666667","24.940965","6502000","坪林區"
"232017","705-BZ","2018/06/04 07:59:18","新北市坪林區坪雙路二段128號","121.755785","24.9626183333333","6502000","坪林區"
"232005","758-BX","2018/06/04 07:59:28","新北市坪林區九芎林19-4號","121.707165","24.926615","6502000","坪林區"
"244006","080-UY","2018/06/04 07:59:33","新北市林口區粉寮路二段221號","121.404215","25.0906383333333","6501700","林口區"
"244001","248-BX","2018/06/04 07:59:33","新北市林口區頂福20-18號","121.354851666667","25.0929266666667","6501700","林口區"
"244018","403-UM","2018/06/04 07:59:27","新北市林口區粉寮路二段128號","121.404713333333","25.0906983333333","6501700","林口區"
"244022","483-VK","2018/06/04 07:59:22","新北市林口區粉寮69號","121.40503","25.09081","6501700","林口區"
"244010","657-BX","2018/06/04 07:59:18","新北市林口區粉寮路二段160巷28號","121.405196666667","25.0907533333333","6501700","林口區"
"244024","837-TS","2018/06/04 07:59:15","新北市林口區粉寮69號","121.405106666667","25.0908266666667","6501700","林口區"
"222005","289-BY","2018/06/04 07:59:16","新北市深坑區文化街45號","121.616928333333","25.0017233333333","6501800","深坑區"
"231007","110-UY","2018/06/04 07:59:30","新北市新店區安華路30巷1號","121.519576666667","24.9598733333333","6500600","新店區"
"231007","189-VK","2018/06/04 07:59:31","新北市新店區安華路28-1號","121.519525","24.96082","6500600","新店區"
"231008","192-VK","2018/06/04 07:59:33","新北市新店區安一路一段1-1號","121.519295","24.96118","6500600","新店區"
"235001","611-BX","2018/06/04 07:59:28","新北市中和區圓通路367巷6號","121.491485","24.9892083333333","6500300","中和區"
"226005","5620-A6","2018/06/04 07:59:20","新北市平溪區石底里公園街18-3號","121.73346","25.0256183333333","6502400","平溪區"
"226001","7418-A5","2018/06/04 07:59:21","新北市平溪區南山里乾坑11號","121.782601666667","25.047195","6502400","平溪區"
"226003","AGD-0702","2018/06/04 07:59:20","新北市平溪區新寮里頂寮子3-10號","121.773713333333","25.05181","6502400","平溪區"
"223006","022-BY","2018/06/04 07:59:23","新北市石碇區十八重溪50號","121.675188333333","25.0131766666667","6501900","石碇區"
"223002","KEA-2673","2018/06/04 07:59:20","新北市石碇區北宜路五段濕水子巷3-1號","121.634345","24.9499666666667","6501900","石碇區"
"223003","205-TH","2018/06/04 07:59:21","新北市石碇區樟空子10-1號","121.666851666667","24.962665","6501900","石碇區"
"223008","406-TH","2018/06/04 07:59:26","新北市石碇區靜安路一段293號","121.695058333333","25.0070783333333","6501900","石碇區"
"223001","592-UM","2018/06/04 07:59:19","新北市石碇區樟空子10-1號","121.666866666667","24.9623833333333","6501900","石碇區"
"223004","660-BX","2018/06/04 07:59:25","新北市石碇區靜安路一段75號","121.651285","25.0070233333333","6501900","石碇區"
"223005","677-TV","2018/06/04 07:59:24","新北市石碇區碇坪路一段18號","121.65173","25.005625","6501900","石碇區"
"227005","282-VK","2018/06/04 07:59:29","新北市雙溪區平林里梅竹蹊16號","121.862055","25.03597","6502500","雙溪區"
"252006","073-UM","2018/06/04 07:58:43","新北市三芝區後厝里芝麻五街29號","121.474488333333","25.2454183333333","6502100","三芝區"
"252004","249-BX","2018/06/04 07:59:15","新北市三芝區店子里菜公坑81-3號","121.510465","25.2019","6502100","三芝區"
"237001","159-UY","2018/06/04 07:59:28","新北市三峽區大學路45-1號","121.377036666667","24.9405383333333","6500900","三峽區"
"236007","165-UM","2018/06/04 07:59:26","新北市土城區清水路194巷14號","121.460581666667","24.9814316666667","6501300","土城區"
"236001","339-SR","2018/06/04 07:59:16","新北市土城區龍泉路89-1號","121.446351666667","24.9421466666667","6501300","土城區"
"242033","AAC-296","2018/06/04 07:59:06","新北市新莊區新莊路467號","121.449266666667","25.03338","6500500","新莊區"
"242057","986-R7","2018/06/04 07:59:17","新北市新莊區中正路530號","121.430918333333","25.0315833333333","6500500","新莊區"
"242052","751-BX","2018/06/04 07:59:22","新北市新莊區瓊林南路307號","121.434078333333","25.0060883333333","6500500","新莊區"
"242026","615-BX","2018/06/04 07:59:22","新北市新莊區思源路111號","121.460173333333","25.0419616666667","6500500","新莊區"
"242024","613-BX","2018/06/04 07:59:30","新北市新莊區復興路二段59號","121.455031666667","25.0442016666667","6500500","新莊區"
"242028","612-BX","2018/06/04 07:59:33","新北市新莊區復興路二段174號","121.458498333333","25.04432","6500500","新莊區"
"242040","566-BX","2018/06/04 07:59:32","新北市新莊區新樹路113巷17號","121.438971666667","25.0264166666667","6500500","新莊區"
"242045","497-BY","2018/06/04 07:59:29","新北市新莊區新樹路65-5號","121.439416666667","25.030815","6500500","新莊區"
"242055","440-UM","2018/06/04 07:59:20","新北市新莊區武前街4巷7號","121.449753333333","25.03305","6500500","新莊區"
"242035","415-TV","2018/06/04 07:59:22","新北市新莊區建國二路1號","121.434896666667","25.0236483333333","6500500","新莊區"
"242006","413-TV","2018/06/04 07:59:14","新北市新莊區福樂街118巷5號","121.457261666667","25.048055","6500500","新莊區"
"242043","400-BY","2018/06/04 07:59:32","新北市新莊區富國路73號","121.419956666667","25.02597","6500500","新莊區"
"242022","362-BY","2018/06/04 07:59:27","新北市新莊區公園路152號","121.453185","25.0400833333333","6500500","新莊區"
"242059","353-BY","2018/06/04 07:59:31","新北市新莊區瓊林南路42巷1-2號","121.436018333333","25.018015","6500500","新莊區"
"242008","132-UY","2018/06/04 07:59:22","新北市新莊區中原路228號","121.452951666667","25.0545183333333","6500500","新莊區"
"242030","135-UY","2018/06/04 07:59:16","新北市新莊區新泰路381巷38號","121.442456666667","25.0436416666667","6500500","新莊區"
"242047","172-VK","2018/06/04 07:59:19","新北市新莊區龍安路252-2號","121.421218333333","25.0195816666667","6500500","新莊區"
"242016","175-VK","2018/06/04 07:59:31","新北市新莊區建豐街15號","121.45167","25.043705","6500500","新莊區"
"242003","176-VK","2018/06/04 07:59:27","新北市新莊區中港路286號","121.453058333333","25.0443216666667","6500500","新莊區"
"242014","346-TH","2018/06/04 07:59:29","新北市新莊區新泰路161號","121.447745","25.0370016666667","6500500","新莊區"
"242020","348-TH","2018/06/04 07:59:33","新北市新莊區中華路一段10號","121.452066666667","25.0370433333333","6500500","新莊區"
"242049","349-TH","2018/06/04 07:59:24","新北市新莊區瓊林南路59-7號","121.435456666667","25.016175","6500500","新莊區"
"242018","350-TH","2018/06/04 07:59:34","新北市新莊區中港路73號","121.455398333333","25.0388","6500500","新莊區"
"242012","351-TH","2018/06/04 07:59:27","新北市新莊區中誠街16巷9號","121.451868333333","25.0487533333333","6500500","新莊區"
"242001","KEA-2550","2018/06/04 07:59:18","新北市新莊區新莊路154號","121.455245","25.0354316666667","6500500","新莊區"
"242038","280-VK","2018/06/04 07:59:17","新北市新莊區民安路272號","121.427655","25.0213083333333","6500500","新莊區"
