"lineid","car","time","location","longitude","latitude","cityid","cityname"
"248005","653-BX","2018/06/04 08:29:19","新北市五股區明德路12巷3號","121.433341666667","25.071785","6501500","五股區"
"232001","290-BY","2018/06/04 08:29:17","新北市坪林區九芎坑13號","121.735246666667","24.9513633333333","6502000","坪林區"
"232012","291-BY","2018/06/04 08:28:51","新北市坪林區九芎根3-1號","121.666831666667","24.8866033333333","6502000","坪林區"
"232017","705-BZ","2018/06/04 08:26:38","新北市坪林區中心崙13號","121.774223333333","24.9430566666667","6502000","坪林區"
"232005","758-BX","2018/06/04 08:29:28","新北市坪林區鶯子瀨3-7號","121.705943333333","24.914135","6502000","坪林區"
"244006","080-UY","2018/06/04 08:29:33","新北市林口區湖子14號","121.386098333333","25.0901533333333","6501700","林口區"
"244001","248-BX","2018/06/04 08:29:33","新北市林口區頂福里9巷90-1號","121.323743333333","25.1068433333333","6501700","林口區"
"244018","403-UM","2018/06/04 08:29:27","新北市林口區公園路191號","121.371948333333","25.072235","6501700","林口區"
"244013","742-UY","2018/06/04 08:29:20","新北市林口區中山路51號","121.394396666667","25.0784383333333","6501700","林口區"
"244008","410-SL","2018/06/04 08:29:20","新北市林口區中北三街61號","121.384698333333","25.0855","6501700","林口區"
"244022","483-VK","2018/06/04 08:29:22","新北市林口區東明一街56號","121.392083333333","25.0721383333333","6501700","林口區"
"244016","485-VK","2018/06/04 08:29:20","新北市林口區文化二路一段260巷9-1號","121.371196666667","25.0730616666667","6501700","林口區"
"244010","657-BX","2018/06/04 08:29:17","新北市林口區中正路208號","121.39074","25.0776916666667","6501700","林口區"
"244024","837-TS","2018/06/04 08:29:15","新北市林口區文化三路一段225巷13號","121.361926666667","25.0713783333333","6501700","林口區"
"244020","838-TS","2018/06/04 08:29:17","新北市林口區粉寮路一段105號","121.398078333333","25.0804466666667","6501700","林口區"
"222005","289-BY","2018/06/04 08:29:22","新北市深坑區深南路51-1號","121.62103","25.0102783333333","6501800","深坑區"
"231007","110-UY","2018/06/04 08:29:30","新北市新店區三民路43號","121.537133333333","24.9708416666667","6500600","新店區"
"231007","189-VK","2018/06/04 08:29:32","新北市新店區新潭路一段160巷17號","121.529591666667","24.9322033333333","6500600","新店區"
"231008","192-VK","2018/06/04 08:29:33","新北市新店區桂山路37號","121.561611666667","24.90153","6500600","新店區"
"235001","611-BX","2018/06/04 08:29:28","新北市中和區新生街114巷1號","121.483491666667","25.00233","6500300","中和區"
"226005","5620-A6","2018/06/04 08:29:20","新北市平溪區南山里六分8號","121.796446666667","25.0496533333333","6502400","平溪區"
"226001","7418-A5","2018/06/04 08:29:21","新北市平溪區東勢里火燒寮6號","121.748335","25.0021616666667","6502400","平溪區"
"226003","AGD-0702","2018/06/04 08:29:19","新北市平溪區靜安路三段388號","121.781236666667","25.0479116666667","6502400","平溪區"
"223006","022-BY","2018/06/04 08:21:19","新北市深坑區昇高坑路51-1號","121.630316666667","24.993975","6501900","石碇區"
"223002","KEA-2673","2018/06/04 08:29:20","新北市石碇區橫坪5號","121.662583333333","24.9703616666667","6501900","石碇區"
"223003","205-TH","2018/06/04 08:29:21","新北市石碇區北宜路六段塗潭巷28號","121.648355","24.9321433333333","6501900","石碇區"
"223008","406-TH","2018/06/04 08:29:26","新北市石碇區十八重溪6號","121.677985","25.0112983333333","6501900","石碇區"
"223001","592-UM","2018/06/04 08:29:21","新北市石碇區北宜路六段塗潭巷27號","121.648673333333","24.9318816666667","6501900","石碇區"
"223004","660-BX","2018/06/04 08:29:25","新北市石碇區碇坪路一段200號","121.671385","24.9822","6501900","石碇區"
"223005","677-TV","2018/06/04 08:29:24","新北市石碇區碇坪路一段196號","121.671225","24.9823633333333","6501900","石碇區"
"224010","AGQ-8101","2018/06/04 08:29:17","新北市瑞芳區柴寮路36號","121.827176666667","25.08662","6501200","瑞芳區"
"227005","282-VK","2018/06/04 08:28:44","新北市雙溪區外柑里三叉坑4號","121.825943333333","25.0172483333333","6502500","雙溪區"
"252006","073-UM","2018/06/04 08:29:03","新北市三芝區蘭陽街13-1號","121.473508333333","25.242475","6502100","三芝區"
"252004","249-BX","2018/06/04 08:29:15","新北市三芝區興華里田心子5-3號","121.500331666667","25.205385","6502100","三芝區"
"237001","159-UY","2018/06/04 08:29:28","新北市三峽區學成路286號","121.376861666667","24.9435916666667","6500900","三峽區"
"236007","165-UM","2018/06/04 08:29:26","新北市土城區石門路85-1號","121.465033333333","24.9594583333333","6501300","土城區"
"236001","339-SR","2018/06/04 08:29:16","新北市土城區中山路4巷2號","121.411898333333","24.9593466666667","6501300","土城區"
"236005","498-BY","2018/06/04 08:29:20","新北市土城區大暖路3號","121.422558333333","24.96139","6501300","土城區"
"242033","AAC-296","2018/06/04 08:29:26","新北市新莊區福海街24巷16號","121.446151666667","25.0341033333333","6500500","新莊區"
"242057","986-R7","2018/06/04 08:29:17","新北市新莊區新北大道七段239號","121.41303","25.0296933333333","6500500","新莊區"
"242052","751-BX","2018/06/04 08:29:22","新北市新莊區新樹路308號","121.43334","25.0047233333333","6500500","新莊區"
"242026","615-BX","2018/06/04 08:29:22","新北市新莊區幸福路77號","121.456816666667","25.0492883333333","6500500","新莊區"
"242024","613-BX","2018/06/04 08:29:30","新北市新莊區五工路96號","121.456805","25.0644383333333","6500500","新莊區"
"242028","612-BX","2018/06/04 08:29:32","新北市新莊區中平路158號","121.444753333333","25.0474216666667","6500500","新莊區"
"242040","566-BX","2018/06/04 08:29:30","新北市新莊區中正路857號","121.419525","25.0280433333333","6500500","新莊區"
"242045","497-BY","2018/06/04 08:29:29","新北市新莊區福營路195巷24號","121.431935","25.0298233333333","6500500","新莊區"
"242055","440-UM","2018/06/04 08:29:20","新北市新莊區豐年街55-9號","121.44648","25.030795","6500500","新莊區"
"242035","415-TV","2018/06/04 08:29:21","新北市新莊區建福路58巷3號","121.42633","25.0271183333333","6500500","新莊區"
"242006","413-TV","2018/06/04 08:29:34","新北市新莊區中華路三段212號","121.452298333333","25.05862","6500500","新莊區"
"242043","400-BY","2018/06/04 08:29:32","新北市新莊區中正路力行巷26號","121.416551666667","25.0265416666667","6500500","新莊區"
"242022","362-BY","2018/06/04 08:29:06","新北市新莊區幸福東路54號","121.465443333333","25.0493616666667","6500500","新莊區"
"242059","353-BY","2018/06/04 08:29:31","新北市新莊區新樹路259-2號","121.434485","25.0212933333333","6500500","新莊區"
"242008","132-UY","2018/06/04 08:29:22","新北市新莊區中華路二段294號","121.452431666667","25.0539","6500500","新莊區"
"242030","135-UY","2018/06/04 08:29:36","新北市新莊區新泰路289巷34號","121.443958333333","25.0405533333333","6500500","新莊區"
"242047","172-VK","2018/06/04 08:29:23","新北市新莊區後港二路13號","121.422976666667","25.02389","6500500","新莊區"
"242016","175-VK","2018/06/04 08:29:32","新北市新莊區永樂街81號","121.450735","25.0449166666667","6500500","新莊區"
"242003","176-VK","2018/06/04 08:29:19","新北市新莊區自由街22號","121.4558","25.047065","6500500","新莊區"
"242014","346-TH","2018/06/04 08:29:29","新北市新莊區中平路132巷3弄2號","121.445706666667","25.0467916666667","6500500","新莊區"
"242020","348-TH","2018/06/04 08:29:33","新北市新莊區建興街71號","121.449935","25.0380483333333","6500500","新莊區"
"242049","349-TH","2018/06/04 08:29:24","新北市新莊區民本街33巷19號","121.429035","25.0187116666667","6500500","新莊區"
"242018","350-TH","2018/06/04 08:29:29","新北市新莊區中港路138巷7弄8號","121.455891666667","25.041285","6500500","新莊區"
"242012","351-TH","2018/06/04 08:29:27","新北市新莊區中誠街121巷7號","121.449475","25.0471433333333","6500500","新莊區"
"242001","KEA-2550","2018/06/04 08:29:25","新北市新莊區新莊路84號","121.456913333333","25.0363616666667","6500500","新莊區"
"242038","280-VK","2018/06/04 08:29:17","新北市新莊區民安西路24巷15號","121.426311666667","25.02079","6500500","新莊區"
