"lineid","car","time","location","longitude","latitude","cityid","cityname"
"234036","336-UY","2018/06/04 12:19:38","新北市永和區福和路1號","121.52663","25.010215","6500400","永和區"
"234084","338-UY","2018/06/04 12:19:26","新北市永和區福和路1號","121.526665","25.0098133333333","6500400","永和區"
"234068","552-UM","2018/06/04 12:19:28","新北市永和區福和路1號","121.526008333333","25.0096716666667","6500400","永和區"
"234015","745-BX","2018/06/04 12:19:27","新北市永和區福和路1號","121.526546666667","25.0097166666667","6500400","永和區"
"234012","KEA-2591","2018/06/04 12:19:40","新北市永和區福和路1號","121.526298333333","25.0097883333333","6500400","永和區"
"244021","838-TS","2018/06/04 12:01:19","新北市林口區粉寮路二段160巷28號","121.405205","25.0907816666667","6501700","林口區"
"243005","AAD-798","2018/06/04 12:03:02","新北市泰山區黎明路25號","121.422005","25.060815","6501600","泰山區"
"243008","380-SR","2018/06/04 12:12:28","新北市泰山區黎明路25號","121.422263333333","25.0606666666667","6501600","泰山區"
"231008","192-VK","2018/06/04 12:18:33","新北市新店區北新路一段91號","121.538701666667","24.9618216666667","6500600","新店區"
"235029","098-UM","2018/06/04 12:19:31","新北市中和區員山路36巷16-3號","121.485015","24.9913483333333","6500300","中和區"
"235031","255-BX","2018/06/04 11:57:03","新北市中和區和城路一段271巷1號","121.485648333333","24.991845","6500300","中和區"
"235025","KEA-2875","2018/06/04 11:53:01","新北市中和區和城路一段271巷1號","121.485655","24.9917066666667","6500300","中和區"
