"lineid","car","time","location","longitude","latitude","cityid","cityname"
"234044","148-BY","2018/06/04 12:39:32","新北市永和區秀朗路二段66巷9號","121.522646666667","25.0013583333333","6500400","永和區"
"234005","207-UY","2018/06/04 12:39:22","新北市永和區福和路1號","121.525496666667","25.0095633333333","6500400","永和區"
"234078","298-R6","2018/06/04 12:39:33","新北市永和區林森路74號","121.523786666667","25.0038933333333","6500400","永和區"
"234036","336-UY","2018/06/04 12:39:38","新北市永和區福和路1號","121.526691666667","25.0102233333333","6500400","永和區"
"234062","337-UY","2018/06/04 12:39:20","新北市永和區福和路1號","121.526615","25.0102316666667","6500400","永和區"
"234084","338-UY","2018/06/04 12:39:26","新北市中和區景新街273巷32號","121.510858333333","24.9941016666667","6500400","永和區"
"234068","552-UM","2018/06/04 12:39:28","新北市永和區福和路1號","121.525556666667","25.0095583333333","6500400","永和區"
"234066","553-UM","2018/06/04 12:39:40","新北市永和區中和路605號","121.512595","25.0045083333333","6500400","永和區"
"234015","745-BX","2018/06/04 12:39:27","新北市永和區福和路1號","121.526338333333","25.009645","6500400","永和區"
"234028","746-BX","2018/06/04 12:39:32","新北市永和區得和路395號","121.525346666667","24.9992583333333","6500400","永和區"
"234012","KEA-2591","2018/06/04 12:39:40","新北市永和區信義路91巷2號","121.512126666667","25.0137816666667","6500400","永和區"
"234060","AAD-866","2018/06/04 12:39:31","新北市永和區福和路10巷1號","121.524641666667","25.0087166666667","6500400","永和區"
"234048","863-TW","2018/06/04 12:39:23","新北市永和區福和路1號","121.526516666667","25.0097766666667","6500400","永和區"
"234025","9371-KE","2018/06/04 12:39:40","新北市永和區福和路1號","121.526688333333","25.010035","6500400","永和區"
"234010","9373-KE","2018/06/04 12:39:32","新北市永和區福和路1號","121.526738333333","25.0100083333333","6500400","永和區"
"248015","026-BX","2018/06/04 12:38:38","新北市五股區中興路二段83巷26-6號","121.459981666667","25.0752466666667","6501500","五股區"
"234022","9380-KE","2018/06/04 12:39:26","新北市永和區豫溪街191巷3弄17號","121.523158333333","25.0107483333333","6500400","永和區"
"234076","969-R7","2018/06/04 12:39:38","新北市永和區民有街1號","121.515756666667","24.9974516666667","6500400","永和區"
"243008","380-SR","2018/06/04 12:12:28","新北市泰山區黎明路25號","121.422263333333","25.0606666666667","6501600","泰山區"
"231023","KEA-2219","2018/06/04 12:39:23","新北市新店區安華路30巷1號","121.519461666667","24.9597183333333","6500600","新店區"
"231014","AAD-862","2018/06/04 12:39:20","新北市新店區安一路一段1-1號","121.519798333333","24.96112","6500600","新店區"
"231037","4716-K9","2018/06/04 12:39:22","新北市新店區安一路一段1-1號","121.519366666667","24.9613183333333","6500600","新店區"
"231025","4715-K9","2018/06/04 12:39:40","新北市新店區安華路1-1號","121.519371666667","24.9605233333333","6500600","新店區"
"231029","897-TW","2018/06/04 12:39:26","新北市新店區安華路28-1號","121.51962","24.9607666666667","6500600","新店區"
"231004","899-TW","2018/06/04 12:39:26","新北市新店區安康路一段359-27號","121.517923333333","24.9609383333333","6500600","新店區"
"231024","AKT-0513","2018/06/04 12:39:26","新北市新店區安華路28-1號","121.519458333333","24.9606583333333","6500600","新店區"
"235028","005-UY","2018/06/04 12:39:24","新北市中和區員山路36巷16-3號","121.485121666667","24.991325","6500300","中和區"
"235029","098-UM","2018/06/04 12:39:31","新北市中和區員山路36巷16-3號","121.48499","24.9913166666667","6500300","中和區"
"235031","255-BX","2018/06/04 12:39:39","新北市中和區新生街28號","121.483206666667","25.0038766666667","6500300","中和區"
"235001","611-BX","2018/06/04 12:39:33","新北市中和區中山路三段136巷10弄21號","121.473786666667","25.0076816666667","6500300","中和區"
