"lineid","car","time","location","longitude","latitude","cityid","cityname"
"234044","148-BY","2018/06/04 13:29:32","新北市永和區秀朗路二段181巷8號","121.526358333333","25.0013433333333","6500400","永和區"
"234005","207-UY","2018/06/04 13:29:42","新北市永和區中山路一段110號","121.51079","25.0103116666667","6500400","永和區"
"234078","298-R6","2018/06/04 13:29:33","新北市永和區福和路7巷10弄2號","121.525115","25.0081","6500400","永和區"
"234036","336-UY","2018/06/04 13:29:40","新北市永和區民樂街31巷2號","121.527603333333","25.0014566666667","6500400","永和區"
"234062","337-UY","2018/06/04 13:29:20","新北市永和區中正路368巷1弄75號","121.520505","25.0007933333333","6500400","永和區"
"234084","338-UY","2018/06/04 13:29:26","新北市永和區林森路29巷18號","121.526286666667","25.0044866666667","6500400","永和區"
"234068","552-UM","2018/06/04 13:29:28","新北市永和區警光街12號","121.519743333333","25.0095483333333","6500400","永和區"
"234066","553-UM","2018/06/04 13:29:40","新北市永和區永貞路354號","121.510438333333","25.0064166666667","6500400","永和區"
"234015","745-BX","2018/06/04 13:29:35","新北市永和區永和路二段425巷12號","121.514975","25.0177816666667","6500400","永和區"
"234028","746-BX","2018/06/04 13:29:31","新北市永和區厚德街9巷1號","121.525765","24.998265","6500400","永和區"
"234052","KEA-2590","2018/06/04 13:29:32","新北市永和區復興街19巷2號","121.516106666667","25.01313","6500400","永和區"
"234012","KEA-2591","2018/06/04 13:29:40","新北市永和區信義路11號","121.514431666667","25.0119866666667","6500400","永和區"
"234060","AAD-866","2018/06/04 13:29:36","新北市永和區安樂路250-2號","121.514646666667","25.0038133333333","6500400","永和區"
"234040","862-TW","2018/06/04 13:29:23","新北市永和區中和路519巷4號","121.51085","25.0030233333333","6500400","永和區"
"234048","863-TW","2018/06/04 13:29:23","新北市永和區信義路120號","121.51235","25.0146633333333","6500400","永和區"
"234025","9371-KE","2018/06/04 13:29:40","新北市永和區永和路一段155-4號","121.514271666667","25.0095116666667","6500400","永和區"
"248015","026-BX","2018/06/04 13:29:26","新北市五股區凌雲路一段149巷42號","121.448585","25.10094","6501500","五股區"
"248005","077-UY","2018/06/04 13:29:24","新北市五股區四維路38號","121.46727","25.071545","6501500","五股區"
"248019","225-UY","2018/06/04 13:29:39","新北市五股區孝義路90號","121.448675","25.1152783333333","6501500","五股區"
"248011","247-BX","2018/06/04 13:29:33","新北市五股區御史路57號","121.441886666667","25.0936266666667","6501500","五股區"
"248013","261-SL","2018/06/04 13:29:23","新北市五股區民義路一段107巷32號","121.43208","25.084965","6501500","五股區"
"248003","677-BX","2018/06/04 13:29:29","新北市五股區民義路一段206號","121.430341666667","25.0891","6501500","五股區"
"248001","678-BX","2018/06/04 13:29:29","新北市五股區西雲路197號","121.44791","25.095875","6501500","五股區"
"248009","682-TV","2018/06/04 13:29:24","新北市五股區明德路26號","121.432761666667","25.0714816666667","6501500","五股區"
"234022","9380-KE","2018/06/04 13:29:26","新北市永和區環河西路二段157-1號","121.505306666667","25.0139166666667","6500400","永和區"
"234076","969-R7","2018/06/04 13:29:38","新北市永和區中正路342號","121.517951666667","25.0002016666667","6500400","永和區"
"234072","AAC-211","2018/06/04 13:29:35","新北市永和區環河東路一段66號","121.519333333333","25.01679","6500400","永和區"
"234001","AAC-295","2018/06/04 13:29:26","新北市永和區永和路一段93號","121.513408333333","25.00749","6500400","永和區"
"244001","248-BX","2018/06/04 13:26:51","新北市林口區嘉寶里89-1號","121.332783333333","25.1205116666667","6501700","林口區"
"243003","267-VK","2018/06/04 13:29:30","新北市泰山區明志路二段246-1號","121.426815","25.0482283333333","6501600","泰山區"
"243005","AAD-798","2018/06/04 13:27:59","新北市泰山區明志路三段206巷3號","121.42327","25.03794","6501600","泰山區"
"243008","380-SR","2018/06/04 13:29:23","新北市泰山區明志路二段137號","121.427643333333","25.0507166666667","6501600","泰山區"
"243002","KEA-2216","2018/06/04 13:29:25","新北市泰山區辭修路48號","121.428331666667","25.05742","6501600","泰山區"
"243004","646-TV","2018/06/04 13:29:25","新北市泰山區泰林路二段73巷29號","121.434411666667","25.0578233333333","6501600","泰山區"
"231002","002-UM","2018/06/04 13:29:36","新北市新店區溪園路397號","121.52366","24.9777233333333","6500600","新店區"
"231027","0291-UT","2018/06/04 13:29:28","新北市新店區國校路70號","121.538446666667","24.9531666666667","6500600","新店區"
"231028","046-UY","2018/06/04 13:29:27","新北市新店區安華路28-1號","121.519581666667","24.9607616666667","6500600","新店區"
"231001","047-UY","2018/06/04 13:29:27","新北市新店區中央路39號","121.532988333333","24.9777316666667","6500600","新店區"
"231005","106-UY","2018/06/04 13:29:30","新北市新店區寶中路72號","121.547903333333","24.98062","6500600","新店區"
"231019","108-UY","2018/06/04 13:29:28","新北市新店區永興路88-1號","121.543953333333","24.9337033333333","6500600","新店區"
"231007","110-UY","2018/06/04 13:29:31","新北市新店區復興路106-1號","121.53156","24.9891633333333","6500600","新店區"
"231011","187-VK","2018/06/04 13:29:23","新北市新店區德正街23巷1號","121.54403","24.9719283333333","6500600","新店區"
"231010","188-VK","2018/06/04 13:29:32","新北市新店區自由街38號","121.53477","24.9741383333333","6500600","新店區"
"231023","KEA-2219","2018/06/04 13:29:24","新北市新店區新店路29號","121.539816666667","24.95281","6500600","新店區"
"231026","256-BX","2018/06/04 13:29:35","新北市新店區新店路27-1號","121.540036666667","24.9528466666667","6500600","新店區"
"231003","268-BY","2018/06/04 13:29:37","新北市新店區中興路一段282號","121.54576","24.968565","6500600","新店區"
"231018","278-BY","2018/06/04 13:29:41","新北市新店區百忍街12號","121.53468","24.97562","6500600","新店區"
"231014","AAD-862","2018/06/04 13:29:40","新北市新店區新烏路一段11巷1弄2號","121.54732","24.9513583333333","6500600","新店區"
"231038","3712-VJ","2018/06/04 13:29:37","新北市新店區溪洲路8巷66號","121.53319","24.96247","6500600","新店區"
"231037","4716-K9","2018/06/04 13:29:22","新北市新店區安康路二段416號","121.496416666667","24.9553833333333","6500600","新店區"
"231025","4715-K9","2018/06/04 13:29:40","新北市新店區三民路191號","121.535433333333","24.975575","6500600","新店區"
"231036","512-UM","2018/06/04 13:29:26","新北市新店區安祥路142號","121.474255","24.9554683333333","6500600","新店區"
"231013","513-UM","2018/06/04 13:26:53","新北市新店區中正路454-5號","121.534408333333","24.9790816666667","6500600","新店區"
"231030","619-UM","2018/06/04 13:29:36","新北市新店區安康路一段355-4號","121.517436666667","24.963885","6500600","新店區"
"231034","641-BX","2018/06/04 13:29:21","新北市新店區車子路111號","121.505191666667","24.9520166666667","6500600","新店區"
"231035","719-UY","2018/06/04 13:29:42","新北市新店區安忠路18號","121.51456","24.962175","6500600","新店區"
"231031","720-UM","2018/06/04 13:29:34","新北市新店區莒光路44巷21弄11-6號","121.5186","24.95232","6500600","新店區"
"231029","897-TW","2018/06/04 13:29:27","新北市新店區安康路二段354號","121.502235","24.9575316666667","6500600","新店區"
"231004","899-TW","2018/06/04 13:29:26","新北市新店區北新路二段12號","121.542763333333","24.97125","6500600","新店區"
"231024","AKT-0513","2018/06/04 13:29:27","新北市新店區中華路47巷2弄2號","121.539701666667","24.96762","6500600","新店區"
"235028","005-UY","2018/06/04 13:29:24","新北市中和區連城路109巷21號","121.496793333333","24.9988216666667","6500300","中和區"
"235027","006-UY","2018/06/04 13:29:33","新北市中和區連城路389巷10弄1號","121.486588333333","24.9955816666667","6500300","中和區"
"235020","096-UM","2018/06/04 13:29:35","新北市中和區中正路1224號","121.479526666667","25.0108","6500300","中和區"
"235003","097-UM","2018/06/04 13:29:27","新北市中和區景平路180號","121.516745","24.9921766666667","6500300","中和區"
"235029","098-UM","2018/06/04 13:29:31","新北市中和區中山路二段2巷45弄12號","121.501931666667","25.0068316666667","6500300","中和區"
"235004","150-BY","2018/06/04 13:29:28","新北市中和區保健路65號","121.509711666667","24.997145","6500300","中和區"
"235019","183-VK","2018/06/04 13:29:26","新北市中和區國光街127號","121.469283333333","25.0009716666667","6500300","中和區"
"235002","185-VK","2018/06/04 13:29:29","新北市永和區民有街75巷2弄15號","121.519001666667","24.99585","6500300","中和區"
"235013","186-VK","2018/06/04 13:29:33","新北市中和區景安路177巷25號","121.506538333333","24.9945583333333","6500300","中和區"
"235031","255-BX","2018/06/04 13:29:39","新北市中和區新生街220巷4號","121.482911666667","24.998615","6500300","中和區"
"235008","293-VK","2018/06/04 13:29:36","新北市中和區復興路327巷6號","121.50079","24.98974","6500300","中和區"
"235036","301-VK","2018/06/04 13:29:31","新北市中和區中山路二段41號","121.504603333333","25.0051133333333","6500300","中和區"
"235007","352-BY","2018/06/04 13:29:24","新北市中和區景平路377號","121.504116666667","24.9933916666667","6500300","中和區"
"235006","551-UM","2018/06/04 13:29:33","新北市中和區秀朗路三段70巷48號","121.525113333333","24.9943583333333","6500300","中和區"
"235034","558-UM","2018/06/04 13:29:37","新北市中和區景平路614號","121.500656666667","24.9968933333333","6500300","中和區"
"235009","565-BX","2018/06/04 13:29:38","新北市中和區南山路236巷24弄56號","121.504215","24.9886933333333","6500300","中和區"
"235018","640-BX","2018/06/04 13:29:34","新北市中和區民享街34號","121.47404","25.0031916666667","6500300","中和區"
"235024","647-TV","2018/06/04 13:29:38","新北市中和區民利街62號","121.478836666667","24.9986483333333","6500300","中和區"
"235010","733-UM","2018/06/04 13:29:26","新北市中和區興南路一段85巷33號","121.510335","24.9881966666667","6500300","中和區"
"235035","783-BX","2018/06/04 13:29:40","新北市中和區光環路二段39號","121.485095","25.0138933333333","6500300","中和區"
"235026","800-TS","2018/06/04 13:29:28","新北市中和區中山路二段278號","121.496485","25.0024833333333","6500300","中和區"
"235021","801-TS","2018/06/04 13:29:38","新北市中和區民安街42巷5-2號","121.478403333333","25.001555","6500300","中和區"
"235005","802-TS","2018/06/04 13:29:28","新北市中和區中和路400巷17號","121.511606666667","25.0024066666667","6500300","中和區"
"235016","805-TS","2018/06/04 13:29:27","新北市中和區興南路二段244號","121.503183333333","24.9819866666667","6500300","中和區"
"235012","896-TW","2018/06/04 13:29:35","新北市中和區南山路300號","121.507846666667","24.9871466666667","6500300","中和區"
"235017","900-TW","2018/06/04 13:29:33","新北市中和區民德路306號","121.467168333333","24.9952716666667","6500300","中和區"
"235030","911-UM","2018/06/04 13:29:41","新北市中和區中山路二段120號","121.502683333333","25.00373","6500300","中和區"
"235015","157-BY","2018/06/04 13:29:31","新北市中和區華新街230號","121.506005","24.981645","6500300","中和區"
"235001","AAC-213","2018/06/04 13:29:34","新北市中和區景平路111巷8號","121.516571666667","24.9911416666667","6500300","中和區"
"235023","AAC-215","2018/06/04 13:29:35","新北市中和區錦和路354巷15號","121.490138333333","24.9915183333333","6500300","中和區"
"220016","013-TV","2018/06/04 13:29:30","新北市板橋區三民路一段31巷25號","121.480465","25.023305","6500100","板橋區"
"220013","072-UY","2018/06/04 13:29:31","新北市板橋區民族路247巷7弄58號","121.470868333333","25.008605","6500100","板橋區"
"220017","AAD-861","2018/06/04 13:29:40","新北市板橋區大華街13號","121.458988333333","25.0060966666667","6500100","板橋區"
"247009","341-TH","2018/06/04 13:28:47","新北市蘆洲區信義路170號","121.479395","25.0838833333333","6501400","蘆洲區"
"247007","056-VK","2018/06/04 13:29:24","新北市蘆洲區永安南路一段142巷64號","121.471698333333","25.077565","6501400","蘆洲區"
"247019","001-UY","2018/06/04 13:29:28","新北市蘆洲區民族路422巷48弄26號","121.474673333333","25.0930366666667","6501400","蘆洲區"
"235011","251-BX","2018/06/04 13:29:27","新北市中和區南山路320巷10弄21號","121.506755","24.9866616666667","6500300","中和區"
"253003","6232-TK","2018/06/04 13:29:28","新北市石門區內石門81-9號","121.566931666667","25.2654683333333","6502200","石門區"
"253001","6251-TK","2018/06/04 13:29:19","新北市石門區下員坑21號","121.51142","25.27785","6502200","石門區"
"253002","637-UY","2018/06/04 13:29:20","新北市石門區內石門80號","121.566238333333","25.2602866666667","6502200","石門區"
"253004","8270-PC","2018/06/04 13:29:31","新北市石門區竹子湖11號","121.618121666667","25.2571433333333","6502200","石門區"
"207002","749-BX","2018/06/04 13:29:25","新北市萬里區崁腳里崁腳路166號","121.645041666667","25.1558383333333","6502800","萬里區"
"252005","073-UM","2018/06/04 13:29:29","新北市三芝區圓山里五腳松10號","121.529433333333","25.2209466666667","6502100","三芝區"
"207001","662-BX","2018/06/04 13:29:37","新北市萬里區大鵬里萬里加投29-11號","121.646765","25.20912","6502800","萬里區"
"236074","166-UM","2018/06/04 13:29:37","新北市土城區永寧路32巷1號","121.428896666667","24.95991","6501300","土城區"
"236005","498-BY","2018/06/04 13:29:40","新北市土城區慶祥街66號","121.436386666667","24.9737633333333","6501300","土城區"
"221032","280-BY","2018/06/04 13:29:35","新北市汐止區水源路一段56號","121.65742","25.065605","6501100","汐止區"
"220027","145-BY","2018/06/04 13:29:28","新北市板橋區南雅西路二段235號","121.45146","25.0141116666667","6500100","板橋區"
"220028","200-UY","2018/06/04 13:29:29","新北市板橋區大觀路二段265巷76弄37號","121.441015","24.9966966666667","6500100","板橋區"
"220030","610-BX","2018/06/04 13:29:28","新北市板橋區篤行路一段10號","121.43212","24.9954966666667","6500100","板橋區"
"220020","277-BY","2018/06/04 13:29:37","新北市板橋區金門街31巷48號","121.433941666667","24.9933566666667","6500100","板橋區"
"220019","283-VK","2018/06/04 13:29:35","新北市板橋區實踐路163號","121.464405","25.003935","6500100","板橋區"
"220031","286-VK","2018/06/04 13:29:37","新北市板橋區大觀路二段101巷17號","121.446895","25.0014066666667","6500100","板橋區"
"220029","287-VK","2018/06/04 13:29:43","新北市板橋區大觀路二段101巷4號","121.446568333333","25.0015866666667","6500100","板橋區"
"220032","296-UM","2018/06/04 13:29:27","新北市板橋區大觀路二段205號","121.445206666667","24.9992233333333","6500100","板橋區"
"220023","303-R5","2018/06/04 13:29:20","新北市板橋區大觀路一段28巷6弄55-3號","121.450985","25.0106633333333","6500100","板橋區"
"220001","461-BY","2018/06/04 13:29:28","新北市板橋區中正路1巷14號","121.455246666667","25.01165","6500100","板橋區"
"220104","560-BX","2018/06/04 13:29:31","新北市板橋區南雅西路二段145巷10號","121.451553333333","25.0118983333333","6500100","板橋區"
"220034","630-UY","2018/06/04 13:29:37","新北市板橋區大智街76號","121.453783333333","25.015575","6500100","板橋區"
"220005","686-BX","2018/06/04 13:29:31","新北市板橋區館前西路60號","121.45826","25.0069133333333","6500100","板橋區"
"220025","687-BX","2018/06/04 13:29:25","新北市板橋區大觀路二段156巷29號","121.441038333333","24.9995833333333","6500100","板橋區"
"220002","741-BX","2018/06/04 13:29:24","新北市板橋區後埔街17號","121.460416666667","25.0067","6500100","板橋區"
"220012","806-UM","2018/06/04 13:29:35","新北市板橋區民生路二段36-1號","121.472141666667","25.0167333333333","6500100","板橋區"
"220003","827-TW","2018/06/04 13:29:41","新北市板橋區民安街2號","121.466673333333","25.011725","6500100","板橋區"
"220014","829-TW","2018/06/04 13:29:35","新北市板橋區三民路二段正隆巷45號","121.476725","25.0134816666667","6500100","板橋區"
"220022","895-R6","2018/06/04 13:29:33","新北市板橋區南雅南路一段121號","121.45516","25.0046866666667","6500100","板橋區"
"220021","985-R7","2018/06/04 13:29:32","新北市板橋區館前西路83號","121.457321666667","25.007125","6500100","板橋區"
"220018","AAC-253","2018/06/04 13:29:26","新北市板橋區館前西路46巷2號","121.45902","25.0071283333333","6500100","板橋區"
"235032","KEA-2873","2018/06/04 13:29:27","新北市中和區圓通路285號","121.495256666667","24.9929516666667","6500300","中和區"
"235025","KEA-2875","2018/06/04 13:29:12","新北市中和區民享街92巷25號","121.473411666667","24.999575","6500300","中和區"
