"lineid","car","time","location","longitude","latitude","cityid","cityname"
"234044","148-BY","2018/06/04 13:32:01","新北市永和區秀朗路二段124-3號","121.524795","25.0015083333333","6500400","永和區"
"234005","207-UY","2018/06/04 13:31:42","新北市永和區中山路一段84號","121.511971666667","25.010905","6500400","永和區"
"234078","298-R6","2018/06/04 13:39:33","新北市永和區福和路5-4號","121.524831666667","25.0084666666667","6500400","永和區"
"234036","336-UY","2018/06/04 13:34:15","新北市永和區成功路二段1巷4號","121.527203333333","25.0013966666667","6500400","永和區"
"234062","337-UY","2018/06/04 13:39:40","新北市永和區秀朗路二段24巷55弄3號","121.519938333333","25.00146","6500400","永和區"
"234084","338-UY","2018/06/04 13:39:26","新北市永和區林森路41巷31號","121.526268333333","25.0043466666667","6500400","永和區"
"234068","552-UM","2018/06/04 13:39:28","新北市永和區竹林路182號","121.520221666667","25.0096633333333","6500400","永和區"
"234066","553-UM","2018/06/04 13:39:40","新北市永和區永貞路414號","121.5089","25.0079133333333","6500400","永和區"
"234015","745-BX","2018/06/04 13:31:55","新北市永和區環河西路一段51巷24號","121.514185","25.0175666666667","6500400","永和區"
"234028","746-BX","2018/06/04 13:39:31","新北市永和區厚德街18號","121.525806666667","24.998235","6500400","永和區"
"234052","KEA-2590","2018/06/04 13:39:32","新北市永和區復興街19巷5號","121.51605","25.0131183333333","6500400","永和區"
"234012","KEA-2591","2018/06/04 13:39:40","新北市永和區信義路10-1號","121.514491666667","25.0120266666667","6500400","永和區"
"234060","AAD-866","2018/06/04 13:39:31","新北市永和區永貞路200號","121.515798333333","25.0041216666667","6500400","永和區"
"234040","862-TW","2018/06/04 13:39:23","新北市永和區永貞路265號","121.511748333333","25.0047766666667","6500400","永和區"
"234048","863-TW","2018/06/04 13:39:23","新北市永和區信義路93號","121.512273333333","25.013865","6500400","永和區"
"234025","9371-KE","2018/06/04 13:39:20","新北市永和區永和路一段178號","121.514201666667","25.0089466666667","6500400","永和區"
"248019","225-UY","2018/06/04 13:37:34","新北市五股區孝義路94號","121.446763333333","25.1191883333333","6501500","五股區"
"248011","247-BX","2018/06/04 13:39:33","新北市五股區成泰路三段43-4號","121.442403333333","25.0889816666667","6501500","五股區"
"248003","677-BX","2018/06/04 13:39:21","新北市五股區民義路二段16號","121.420726666667","25.0964483333333","6501500","五股區"
"248001","678-BX","2018/06/04 13:39:26","新北市五股區西雲路203巷3號","121.448093333333","25.096255","6501500","五股區"
"248009","682-TV","2018/06/04 13:39:25","新北市五股區明德路41號","121.4343","25.071285","6501500","五股區"
"234076","969-R7","2018/06/04 13:39:38","新北市永和區得和路109號","121.518475","25.0003133333333","6500400","永和區"
"234072","AAC-211","2018/06/04 13:39:35","新北市永和區環河東路一段124號","121.520631666667","25.01538","6500400","永和區"
"234001","AAC-295","2018/06/04 13:39:24","新北市永和區永和路一段107號","121.513815","25.007965","6500400","永和區"
"244001","248-BX","2018/06/04 13:39:31","新北市林口區嘉寶里42號","121.334688333333","25.1223316666667","6501700","林口區"
"243003","267-VK","2018/06/04 13:39:30","新北市泰山區明志路二段246-1號","121.426821666667","25.0481666666667","6501600","泰山區"
"243005","AAD-798","2018/06/04 13:27:59","新北市泰山區明志路三段206巷3號","121.42327","25.03794","6501600","泰山區"
"243008","380-SR","2018/06/04 13:39:23","新北市泰山區明志路二段135號","121.427725","25.050725","6501600","泰山區"
"243002","KEA-2216","2018/06/04 13:39:25","新北市泰山區辭修路48號","121.428336666667","25.0574316666667","6501600","泰山區"
"243004","646-TV","2018/06/04 13:39:25","新北市泰山區泰林路二段73巷29號","121.434398333333","25.057845","6501600","泰山區"
"231002","002-UM","2018/06/04 13:39:36","新北市新店區溪園路393號","121.524228333333","24.9790716666667","6500600","新店區"
"231027","0291-UT","2018/06/04 13:39:28","新北市新店區國校路76-1號","121.538615","24.9530266666667","6500600","新店區"
"231028","046-UY","2018/06/04 13:39:27","新北市新店區安華路28-1號","121.519573333333","24.960775","6500600","新店區"
"231001","047-UY","2018/06/04 13:39:27","新北市新店區中央路33號","121.532966666667","24.9777733333333","6500600","新店區"
"231005","106-UY","2018/06/04 13:39:30","新北市新店區寶中路72號","121.547956666667","24.9805666666667","6500600","新店區"
"231019","108-UY","2018/06/04 13:39:28","新北市新店區永興路125-6號","121.544278333333","24.931","6500600","新店區"
"231007","110-UY","2018/06/04 13:39:31","新北市新店區復興路106-1號","121.5316","24.989255","6500600","新店區"
"231011","187-VK","2018/06/04 13:39:43","新北市新店區德正街23巷12-1號","121.544626666667","24.972235","6500600","新店區"
"231010","188-VK","2018/06/04 13:39:32","新北市新店區中正路307巷17號","121.535798333333","24.9736","6500600","新店區"
"231023","KEA-2219","2018/06/04 13:39:23","新北市新店區新店路27-1號","121.539885","24.952845","6500600","新店區"
"231026","256-BX","2018/06/04 13:39:35","新北市新店區新店路27號","121.540053333333","24.9528466666667","6500600","新店區"
"231003","268-BY","2018/06/04 13:39:37","新北市新店區中興路一段289號","121.545605","24.9687433333333","6500600","新店區"
"231018","278-BY","2018/06/04 13:39:21","新北市新店區百忍街14號","121.53466","24.97565","6500600","新店區"
"231014","AAD-862","2018/06/04 13:39:20","新北市新店區新烏路一段11巷1弄2號","121.547408333333","24.9514266666667","6500600","新店區"
"231038","3712-VJ","2018/06/04 13:39:37","新北市新店區溪洲路8巷64號","121.533128333333","24.9624383333333","6500600","新店區"
"231037","4716-K9","2018/06/04 13:39:22","新北市新店區安康路二段422-1號","121.49598","24.9556916666667","6500600","新店區"
"231025","4715-K9","2018/06/04 13:39:20","新北市新店區中正路275巷42號","121.536511666667","24.9725516666667","6500600","新店區"
"231036","512-UM","2018/06/04 13:39:26","新北市新店區安祥路130號","121.474613333333","24.956135","6500600","新店區"
"231013","513-UM","2018/06/04 13:26:53","新北市新店區中正路454-5號","121.534408333333","24.9790816666667","6500600","新店區"
"231030","619-UM","2018/06/04 13:39:36","新北市新店區安康路一段355-4號","121.51746","24.963895","6500600","新店區"
"231034","641-BX","2018/06/04 13:39:21","新北市新店區達觀路14巷1-3號","121.503946666667","24.942305","6500600","新店區"
"231035","719-UY","2018/06/04 13:39:22","新北市新店區安忠路21號","121.514623333333","24.9622033333333","6500600","新店區"
"231031","720-UM","2018/06/04 13:39:34","新北市新店區莒光路44巷21弄11-6號","121.519223333333","24.9522466666667","6500600","新店區"
"231029","897-TW","2018/06/04 13:39:27","新北市新店區安康路二段356號","121.502205","24.9575283333333","6500600","新店區"
"231004","899-TW","2018/06/04 13:39:26","新北市新店區北新路二段1號","121.542726666667","24.971275","6500600","新店區"
"231024","AKT-0513","2018/06/04 13:39:27","新北市新店區中華路47巷9號","121.539658333333","24.9673383333333","6500600","新店區"
"235028","005-UY","2018/06/04 13:39:24","新北市中和區連城路90號","121.496913333333","25.0006883333333","6500300","中和區"
"235027","006-UY","2018/06/04 13:39:33","新北市中和區連城路409號","121.485978333333","24.9962483333333","6500300","中和區"
"235020","096-UM","2018/06/04 13:39:35","新北市中和區中正路1220巷10號","121.479843333333","25.01137","6500300","中和區"
"235003","097-UM","2018/06/04 13:39:27","新北市中和區景平路111巷2號","121.516676666667","24.991985","6500300","中和區"
"235029","098-UM","2018/06/04 13:39:31","新北市中和區莊敬路33巷5弄4號","121.499553333333","25.0067833333333","6500300","中和區"
"235004","150-BY","2018/06/04 13:39:29","新北市中和區保健路46巷2號","121.509703333333","24.99712","6500300","中和區"
"235019","183-VK","2018/06/04 13:39:26","新北市中和區民德路23號","121.468826666667","25.0026816666667","6500300","中和區"
"235002","185-VK","2018/06/04 13:39:29","新北市中和區大勇街60巷19號","121.518701666667","24.9947383333333","6500300","中和區"
"235013","186-VK","2018/06/04 13:39:33","新北市中和區景新街218號","121.50718","24.995125","6500300","中和區"
"235031","255-BX","2018/06/04 13:39:39","新北市中和區新生街266號","121.483446666667","24.9971916666667","6500300","中和區"
"235008","293-VK","2018/06/04 13:39:36","新北市中和區中興街235巷1號","121.500731666667","24.9896783333333","6500300","中和區"
"235036","301-VK","2018/06/04 13:36:50","新北市中和區中山路二段61號","121.50419","25.004725","6500300","中和區"
"235007","352-BY","2018/06/04 13:39:24","新北市中和區景平路373號","121.504228333333","24.9934366666667","6500300","中和區"
"235006","551-UM","2018/06/04 13:39:33","新北市中和區秀朗路三段38號","121.526245","24.99599","6500300","中和區"
"235034","558-UM","2018/06/04 13:39:37","新北市中和區景平路616號","121.500621666667","24.9969783333333","6500300","中和區"
"235009","565-BX","2018/06/04 13:39:37","新北市中和區南山路236巷36弄5號","121.504106666667","24.988335","6500300","中和區"
"235018","640-BX","2018/06/04 13:39:34","新北市中和區莒光路129巷1弄7號","121.472928333333","25.0022666666667","6500300","中和區"
"235024","647-TV","2018/06/04 13:39:38","新北市中和區民利街65號","121.478875","24.9984766666667","6500300","中和區"
"235010","733-UM","2018/06/04 13:39:26","新北市中和區興南路一段106號","121.509765","24.9889066666667","6500300","中和區"
"235035","783-BX","2018/06/04 13:39:20","新北市中和區光環路二段302號","121.485773333333","25.0136733333333","6500300","中和區"
"235026","800-TS","2018/06/04 13:39:28","新北市中和區景平路703巷4號","121.496086666667","25.00346","6500300","中和區"
"235021","801-TS","2018/06/04 13:39:38","新北市中和區民安街42巷3號","121.478533333333","25.0013866666667","6500300","中和區"
"235005","802-TS","2018/06/04 13:33:07","新北市中和區中和路400巷17號","121.511613333333","25.00238","6500300","中和區"
"235016","805-TS","2018/06/04 13:39:27","新北市中和區興南路三段99號","121.488876666667","24.9727666666667","6500300","中和區"
"235012","896-TW","2018/06/04 13:39:35","新北市中和區南山路300號","121.50782","24.98714","6500300","中和區"
"235017","900-TW","2018/06/04 13:39:33","新北市中和區華福街42巷14號","121.466083333333","24.9958983333333","6500300","中和區"
"235030","911-UM","2018/06/04 13:39:21","新北市中和區中山路二段122號","121.502588333333","25.0037816666667","6500300","中和區"
"235015","157-BY","2018/06/04 13:39:31","新北市中和區華新街109巷11弄2-4號","121.508706666667","24.9795216666667","6500300","中和區"
"235001","AAC-213","2018/06/04 13:39:34","新北市中和區景德街29號","121.518935","24.9912483333333","6500300","中和區"
"235023","AAC-215","2018/06/04 13:39:35","新北市中和區錦和路354巷5號","121.490193333333","24.991545","6500300","中和區"
"220016","013-TV","2018/06/04 13:39:30","新北市板橋區三民路一段31巷25號","121.48047","25.0232783333333","6500100","板橋區"
"220013","072-UY","2018/06/04 13:39:31","新北市板橋區民族路247巷7弄58號","121.470895","25.0085783333333","6500100","板橋區"
"220017","AAD-861","2018/06/04 13:39:40","新北市板橋區大華街15號","121.459055","25.0060983333333","6500100","板橋區"
"247009","341-TH","2018/06/04 13:28:47","新北市蘆洲區信義路170號","121.479395","25.0838833333333","6501400","蘆洲區"
"247007","056-VK","2018/06/04 13:39:24","新北市蘆洲區永安南路一段142巷64號","121.471716666667","25.0775583333333","6501400","蘆洲區"
"247019","001-UY","2018/06/04 13:39:28","新北市蘆洲區民族路422巷48弄28號","121.474705","25.0930516666667","6501400","蘆洲區"
"235011","251-BX","2018/06/04 13:39:27","新北市中和區南山路320巷10弄21號","121.506718333333","24.98664","6500300","中和區"
"253003","6232-TK","2018/06/04 13:39:28","新北市石門區尖子鹿5-1號","121.571921666667","25.2815883333333","6502200","石門區"
"253001","6251-TK","2018/06/04 13:39:39","新北市石門區下員坑16-6號","121.50819","25.2796416666667","6502200","石門區"
"253002","637-UY","2018/06/04 13:39:40","新北市石門區九芎林51號","121.566045","25.2503783333333","6502200","石門區"
"253004","8270-PC","2018/06/04 13:38:45","新北市石門區五爪崙8-16號","121.608556666667","25.261405","6502200","石門區"
"207002","749-BX","2018/06/04 13:39:25","新北市萬里區崁腳里崁腳路166號","121.645035","25.15583","6502800","萬里區"
"252005","073-UM","2018/06/04 13:39:29","新北市三芝區圓山里內柑宅22-1號","121.536613333333","25.2183683333333","6502100","三芝區"
"207001","662-BX","2018/06/04 13:39:37","新北市萬里區磺潭里公館崙49號","121.629351666667","25.2072233333333","6502800","萬里區"
"236074","166-UM","2018/06/04 13:39:37","新北市土城區永寧路32巷1號","121.428923333333","24.9598383333333","6501300","土城區"
"236005","498-BY","2018/06/04 13:39:40","新北市土城區中華路二段128號","121.43767","24.9735133333333","6501300","土城區"
"236045","913-UM","2018/06/04 13:39:32","新北市土城區城林路6巷80號","121.438408333333","24.9797783333333","6501300","土城區"
"236060","915-UM","2018/06/04 13:39:28","新北市土城區城林路6巷80號","121.43837","24.9798116666667","6501300","土城區"
"221032","280-BY","2018/06/04 13:39:35","新北市汐止區秀峰路60號","121.659588333333","25.0652533333333","6501100","汐止區"
"220027","145-BY","2018/06/04 13:39:28","新北市板橋區南雅西路二段182號","121.45156","25.0140816666667","6500100","板橋區"
"220028","200-UY","2018/06/04 13:39:29","新北市板橋區大觀路二段265巷130弄28-4號","121.441188333333","24.9963983333333","6500100","板橋區"
"220030","610-BX","2018/06/04 13:39:28","新北市板橋區篤行路一段10號","121.432108333333","24.9954766666667","6500100","板橋區"
"220020","277-BY","2018/06/04 13:39:37","新北市板橋區金門街31巷46號","121.43387","24.993405","6500100","板橋區"
"220019","283-VK","2018/06/04 13:39:35","新北市板橋區實踐路165號","121.464205","25.0038133333333","6500100","板橋區"
"220031","286-VK","2018/06/04 13:39:37","新北市板橋區大觀路二段101巷17號","121.44686","25.00147","6500100","板橋區"
"220029","287-VK","2018/06/04 13:39:23","新北市板橋區大觀路二段101巷4號","121.446523333333","25.0015166666667","6500100","板橋區"
"220009","293-UM","2018/06/04 13:39:41","新北市板橋區民生路二段120號","121.47061","25.01969","6500100","板橋區"
"220032","296-UM","2018/06/04 13:39:27","新北市板橋區大觀路二段205號","121.44519","24.99925","6500100","板橋區"
"220023","303-R5","2018/06/04 13:39:41","新北市板橋區大觀路一段28巷6弄55-3號","121.451035","25.0106783333333","6500100","板橋區"
"220001","461-BY","2018/06/04 13:39:28","新北市板橋區中正路1巷14號","121.455255","25.0116133333333","6500100","板橋區"
"220104","560-BX","2018/06/04 13:39:31","新北市板橋區南雅西路二段145巷10號","121.451551666667","25.0118916666667","6500100","板橋區"
"220052","561-BX","2018/06/04 13:39:23","新北市板橋區民生路二段56-6號","121.471266666667","25.0188916666667","6500100","板橋區"
"220011","609-BX","2018/06/04 13:39:27","新北市板橋區民生路二段184號","121.471148333333","25.0201066666667","6500100","板橋區"
"220034","630-UY","2018/06/04 13:39:37","新北市板橋區大智街67號","121.453733333333","25.0155583333333","6500100","板橋區"
"220005","686-BX","2018/06/04 13:39:31","新北市板橋區館前西路52號","121.458391666667","25.006995","6500100","板橋區"
"220025","687-BX","2018/06/04 13:39:25","新北市板橋區大觀路二段156巷29號","121.441033333333","24.9995566666667","6500100","板橋區"
"220002","741-BX","2018/06/04 13:32:50","新北市板橋區後埔街14號","121.460365","25.0067416666667","6500100","板橋區"
"220012","806-UM","2018/06/04 13:39:35","新北市板橋區民生路二段36-1號","121.47217","25.0167366666667","6500100","板橋區"
"220003","827-TW","2018/06/04 13:39:41","新北市板橋區民安街13號","121.466936666667","25.0116583333333","6500100","板橋區"
"220014","829-TW","2018/06/04 13:39:35","新北市板橋區三民路二段正隆巷45號","121.476713333333","25.0134966666667","6500100","板橋區"
"220022","895-R6","2018/06/04 13:39:33","新北市板橋區南雅南路一段94號","121.455138333333","25.0047216666667","6500100","板橋區"
"220021","985-R7","2018/06/04 13:39:32","新北市板橋區館前西路83號","121.457271666667","25.007135","6500100","板橋區"
"220018","AAC-253","2018/06/04 13:39:26","新北市板橋區館前西路46巷5號","121.458981666667","25.007195","6500100","板橋區"
"235032","KEA-2873","2018/06/04 13:39:27","新北市中和區圓通路285號","121.495256666667","24.9929516666667","6500300","中和區"
"235025","KEA-2875","2018/06/04 13:39:12","新北市中和區民享街112號","121.47459","24.9992316666667","6500300","中和區"
