"lineid","car","time","location","longitude","latitude","cityid","cityname"
"234044","148-BY","2018/06/04 13:32:01","新北市永和區秀朗路二段124-3號","121.524795","25.0015083333333","6500400","永和區"
"234005","207-UY","2018/06/04 13:31:42","新北市永和區中山路一段84號","121.511971666667","25.010905","6500400","永和區"
"234078","298-R6","2018/06/04 13:49:33","新北市永和區福和路5-3號","121.524788333333","25.008485","6500400","永和區"
"234036","336-UY","2018/06/04 13:34:15","新北市永和區成功路二段1巷4號","121.527203333333","25.0013966666667","6500400","永和區"
"234062","337-UY","2018/06/04 13:49:40","新北市永和區秀朗路二段24巷55弄5號","121.51997","25.0014516666667","6500400","永和區"
"234084","338-UY","2018/06/04 13:49:26","新北市永和區林森路41巷31號","121.526238333333","25.004305","6500400","永和區"
"234068","552-UM","2018/06/04 13:49:28","新北市永和區警光街2號","121.520191666667","25.0097","6500400","永和區"
"234066","553-UM","2018/06/04 13:49:40","新北市永和區永貞路412號","121.508923333333","25.0078716666667","6500400","永和區"
"234015","745-BX","2018/06/04 13:31:55","新北市永和區環河西路一段51巷24號","121.514185","25.0175666666667","6500400","永和區"
"234028","746-BX","2018/06/04 13:49:31","新北市永和區厚德街9巷1號","121.525773333333","24.99827","6500400","永和區"
"234052","KEA-2590","2018/06/04 13:49:32","新北市永和區復興街21號","121.516096666667","25.0130633333333","6500400","永和區"
"234012","KEA-2591","2018/06/04 13:49:40","新北市永和區信義路10-1號","121.514536666667","25.0120083333333","6500400","永和區"
"234060","AAD-866","2018/06/04 13:49:31","新北市永和區永貞路204號","121.515726666667","25.0041816666667","6500400","永和區"
"234040","862-TW","2018/06/04 13:49:43","新北市永和區永貞路271號","121.511713333333","25.0047883333333","6500400","永和區"
"234048","863-TW","2018/06/04 13:49:43","新北市永和區信義路93號","121.512258333333","25.013785","6500400","永和區"
"234025","9371-KE","2018/06/04 13:49:40","新北市永和區永和路一段180號","121.514245","25.0089666666667","6500400","永和區"
"248019","225-UY","2018/06/04 13:49:34","新北市五股區凌雲路三段41-1號","121.430593333333","25.1174383333333","6501500","五股區"
"248011","247-BX","2018/06/04 13:49:33","新北市五股區成泰路三段46-1號","121.442461666667","25.0888433333333","6501500","五股區"
"248003","677-BX","2018/06/04 13:49:29","新北市五股區民義路三段1號","121.403561666667","25.113035","6501500","五股區"
"248001","678-BX","2018/06/04 13:49:26","新北市五股區西雲路199號","121.448066666667","25.0961916666667","6501500","五股區"
"248009","682-TV","2018/06/04 13:49:25","新北市五股區明德路41號","121.434296666667","25.0712583333333","6501500","五股區"
"234076","969-R7","2018/06/04 13:49:38","新北市永和區得和路111號","121.518485","25.00032","6500400","永和區"
"234072","AAC-211","2018/06/04 13:49:35","新北市永和區環河東路一段124號","121.520615","25.015365","6500400","永和區"
"234001","AAC-295","2018/06/04 13:49:24","新北市永和區永和路一段107號","121.513891666667","25.0080016666667","6500400","永和區"
"244001","248-BX","2018/06/04 13:49:31","新北市林口區瑞平里8鄰53號","121.342846666667","25.1219333333333","6501700","林口區"
"243003","267-VK","2018/06/04 13:49:30","新北市泰山區明志路二段246-1號","121.426818333333","25.04818","6501600","泰山區"
"243005","AAD-798","2018/06/04 13:27:59","新北市泰山區明志路三段206巷3號","121.42327","25.03794","6501600","泰山區"
"243008","380-SR","2018/06/04 13:49:23","新北市泰山區明志路二段135號","121.427796666667","25.050695","6501600","泰山區"
"243007","421-VK","2018/06/04 13:49:35","新北市泰山區美寧街50號","121.430435","25.0644433333333","6501600","泰山區"
"243002","KEA-2216","2018/06/04 13:49:25","新北市泰山區辭修路48號","121.428308333333","25.05744","6501600","泰山區"
"243004","646-TV","2018/06/04 13:49:25","新北市泰山區泰林路二段73巷29號","121.43439","25.0578666666667","6501600","泰山區"
"231002","002-UM","2018/06/04 13:49:36","新北市新店區溪園路393號","121.52419","24.979055","6500600","新店區"
"231027","0291-UT","2018/06/04 13:49:28","新北市新店區國校路76-1號","121.538658333333","24.95305","6500600","新店區"
"231028","046-UY","2018/06/04 13:49:27","新北市新店區安華路28-1號","121.519605","24.960755","6500600","新店區"
"231001","047-UY","2018/06/04 13:49:27","新北市新店區中央路39號","121.53304","24.9776033333333","6500600","新店區"
"231005","106-UY","2018/06/04 13:49:30","新北市新店區寶中路72號","121.547888333333","24.980615","6500600","新店區"
"231019","108-UY","2018/06/04 13:49:28","新北市新店區永興路88-1號","121.543998333333","24.9337716666667","6500600","新店區"
"231007","110-UY","2018/06/04 13:49:31","新北市新店區復興路106-1號","121.531595","24.9892683333333","6500600","新店區"
"231011","187-VK","2018/06/04 13:49:23","新北市新店區德正街23巷12-1號","121.544608333333","24.9722383333333","6500600","新店區"
"231010","188-VK","2018/06/04 13:49:32","新北市新店區中正路307巷17號","121.535791666667","24.973565","6500600","新店區"
"231023","KEA-2219","2018/06/04 13:49:43","新北市新店區新店路29號","121.539878333333","24.9528033333333","6500600","新店區"
"231026","256-BX","2018/06/04 13:49:36","新北市新店區新店路27-2號","121.540045","24.9527966666667","6500600","新店區"
"231003","268-BY","2018/06/04 13:49:37","新北市新店區中興路一段287巷6號","121.545408333333","24.9689516666667","6500600","新店區"
"231018","278-BY","2018/06/04 13:49:41","新北市新店區百忍街14號","121.534658333333","24.9756716666667","6500600","新店區"
"231014","AAD-862","2018/06/04 13:49:40","新北市新店區新烏路一段11巷7號","121.547315","24.95133","6500600","新店區"
"231038","3712-VJ","2018/06/04 13:49:37","新北市新店區溪洲路8巷66號","121.533125","24.9624633333333","6500600","新店區"
"231037","4716-K9","2018/06/04 13:49:42","新北市新店區安康路二段422-1號","121.496063333333","24.9557416666667","6500600","新店區"
"231025","4715-K9","2018/06/04 13:49:40","新北市新店區中正路275巷42號","121.536543333333","24.9726233333333","6500600","新店區"
"231036","512-UM","2018/06/04 13:49:25","新北市新店區安祥路110巷26號","121.474358333333","24.9563233333333","6500600","新店區"
"231013","513-UM","2018/06/04 13:26:53","新北市新店區中正路454-5號","121.534408333333","24.9790816666667","6500600","新店區"
"231030","619-UM","2018/06/04 13:49:36","新北市新店區安康路一段355-4號","121.517465","24.9639033333333","6500600","新店區"
"231034","641-BX","2018/06/04 13:49:35","新北市新店區達觀路16-7號","121.502353333333","24.940815","6500600","新店區"
"231035","719-UY","2018/06/04 13:49:42","新北市新店區安忠路16號","121.514581666667","24.9621983333333","6500600","新店區"
"231031","720-UM","2018/06/04 13:49:33","新北市新店區莒光路44巷21弄11-6號","121.519281666667","24.95225","6500600","新店區"
"231029","897-TW","2018/06/04 13:49:27","新北市新店區安康路二段356號","121.502185","24.9575233333333","6500600","新店區"
"231004","899-TW","2018/06/04 13:49:26","新北市新店區北新路二段7號","121.542701666667","24.971305","6500600","新店區"
"231024","AKT-0513","2018/06/04 13:49:27","新北市新店區新生街55號","121.538801666667","24.966965","6500600","新店區"
"235028","005-UY","2018/06/04 13:49:24","新北市中和區景平路597號","121.497","25.0006033333333","6500300","中和區"
"235027","006-UY","2018/06/04 13:49:33","新北市中和區中正路700號","121.48604","24.99629","6500300","中和區"
"235020","096-UM","2018/06/04 13:49:35","新北市中和區中正路1220巷10號","121.47983","25.01139","6500300","中和區"
"235003","097-UM","2018/06/04 13:49:27","新北市中和區景平路111巷2號","121.516615","24.99184","6500300","中和區"
"235029","098-UM","2018/06/04 13:49:31","新北市中和區莊敬路33巷5弄4號","121.499578333333","25.0067866666667","6500300","中和區"
"235004","150-BY","2018/06/04 13:49:28","新北市中和區保健路46巷2號","121.509728333333","24.9970966666667","6500300","中和區"
"235019","183-VK","2018/06/04 13:49:26","新北市中和區民德路12號","121.468816666667","25.0026983333333","6500300","中和區"
"235002","185-VK","2018/06/04 13:49:29","新北市中和區大勇街60巷8號","121.518601666667","24.9947533333333","6500300","中和區"
"235013","186-VK","2018/06/04 13:49:33","新北市中和區景新街218號","121.507166666667","24.9951166666667","6500300","中和區"
"235031","255-BX","2018/06/04 13:49:39","新北市中和區新生街264號","121.48374","24.997195","6500300","中和區"
"235008","293-VK","2018/06/04 13:49:36","新北市中和區中興街228巷6號","121.50061","24.9898083333333","6500300","中和區"
"235036","301-VK","2018/06/04 13:36:50","新北市中和區中山路二段61號","121.50419","25.004725","6500300","中和區"
"235007","352-BY","2018/06/04 13:49:24","新北市中和區景平路375號","121.504205","24.993435","6500300","中和區"
"235006","551-UM","2018/06/04 13:49:33","新北市中和區秀朗路三段50巷2弄8號","121.526121666667","24.995925","6500300","中和區"
"235034","558-UM","2018/06/04 13:49:37","新北市中和區景平路616號","121.500655","24.9969816666667","6500300","中和區"
"235009","565-BX","2018/06/04 13:49:37","新北市中和區南山路236巷36弄5號","121.504088333333","24.9883216666667","6500300","中和區"
"235018","640-BX","2018/06/04 13:49:34","新北市中和區莒光路129巷1弄3號","121.47298","25.0021383333333","6500300","中和區"
"235024","647-TV","2018/06/04 13:49:38","新北市中和區民利街62號","121.478838333333","24.9985783333333","6500300","中和區"
"235010","733-UM","2018/06/04 13:49:26","新北市中和區興南路一段106號","121.509761666667","24.988925","6500300","中和區"
"235035","783-BX","2018/06/04 13:49:40","新北市中和區光環路二段302號","121.485741666667","25.013685","6500300","中和區"
"235026","800-TS","2018/06/04 13:49:28","新北市中和區景平路691號","121.496496666667","25.003195","6500300","中和區"
"235021","801-TS","2018/06/04 13:49:38","新北市中和區民安街42巷1號","121.478578333333","25.0014366666667","6500300","中和區"
"235005","802-TS","2018/06/04 13:33:07","新北市中和區中和路400巷17號","121.511613333333","25.00238","6500300","中和區"
"235016","805-TS","2018/06/04 13:49:27","新北市中和區興南路三段46號","121.49541","24.9763033333333","6500300","中和區"
"235012","896-TW","2018/06/04 13:49:35","新北市中和區南山路300號","121.507818333333","24.98717","6500300","中和區"
"235017","900-TW","2018/06/04 13:49:33","新北市中和區華順街135巷11號","121.466056666667","24.9959233333333","6500300","中和區"
"235030","911-UM","2018/06/04 13:49:41","新北市中和區中山路二段122號","121.502481666667","25.0038533333333","6500300","中和區"
"235015","157-BY","2018/06/04 13:49:30","新北市中和區華新街109巷1號","121.508851666667","24.98245","6500300","中和區"
"235001","AAC-213","2018/06/04 13:49:34","新北市中和區景德街3號","121.518961666667","24.99122","6500300","中和區"
"235023","AAC-215","2018/06/04 13:49:35","新北市中和區錦和路354巷15號","121.49017","24.99156","6500300","中和區"
"220016","013-TV","2018/06/04 13:49:30","新北市板橋區三民路一段31巷25號","121.48047","25.0232716666667","6500100","板橋區"
"220013","072-UY","2018/06/04 13:49:31","新北市板橋區民族路247巷9弄40號","121.470938333333","25.008515","6500100","板橋區"
"220017","AAD-861","2018/06/04 13:49:40","新北市板橋區大華街19號","121.459095","25.0060433333333","6500100","板橋區"
"247009","341-TH","2018/06/04 13:28:47","新北市蘆洲區信義路170號","121.479395","25.0838833333333","6501400","蘆洲區"
"247017","057-VK","2018/06/04 13:49:37","新北市蘆洲區民族路257巷2號","121.476563333333","25.09035","6501400","蘆洲區"
"247007","056-VK","2018/06/04 13:43:43","新北市蘆洲區永安南路一段142巷64號","121.471713333333","25.0775616666667","6501400","蘆洲區"
"247019","001-UY","2018/06/04 13:49:28","新北市蘆洲區民族路422巷48弄28號","121.474731666667","25.0930016666667","6501400","蘆洲區"
"235011","251-BX","2018/06/04 13:49:27","新北市中和區南山路320巷10弄21號","121.506731666667","24.9866733333333","6500300","中和區"
"253003","6232-TK","2018/06/04 13:49:28","新北市石門區尖子鹿8-1號","121.575206666667","25.2799483333333","6502200","石門區"
"253001","6251-TK","2018/06/04 13:49:39","新北市石門區八甲58-2號","121.521998333333","25.2742","6502200","石門區"
"253002","637-UY","2018/06/04 13:49:40","新北市石門區尖山湖18號","121.558591666667","25.2470333333333","6502200","石門區"
"253004","8270-PC","2018/06/04 13:49:36","新北市石門區阿里荖48號","121.607113333333","25.2760066666667","6502200","石門區"
"207002","749-BX","2018/06/04 13:49:25","新北市萬里區崁腳里崁腳路166號","121.645043333333","25.1558216666667","6502800","萬里區"
"252005","073-UM","2018/06/04 13:48:49","新北市三芝區圓山里二坪頂46號","121.53984","25.2307916666667","6502100","三芝區"
"207001","662-BX","2018/06/04 13:49:37","新北市萬里區磺潭里公館崙58號","121.628583333333","25.205095","6502800","萬里區"
"236064","105-UM","2018/06/04 13:49:25","新北市土城區城林路6巷80號","121.438626666667","24.9796983333333","6501300","土城區"
"236040","107-UM","2018/06/04 13:49:29","新北市土城區城林路6巷80號","121.438496666667","24.9797816666667","6501300","土城區"
"236074","166-UM","2018/06/04 13:49:37","新北市土城區永寧路32巷1號","121.428908333333","24.9598333333333","6501300","土城區"
"236016","401-BY","2018/06/04 13:49:31","新北市土城區城林路6巷80號","121.438493333333","24.9798333333333","6501300","土城區"
"236005","498-BY","2018/06/04 13:49:40","新北市土城區中華路二段209號","121.437871666667","24.97348","6501300","土城區"
"236057","912-UM","2018/06/04 13:21:53","新北市土城區永平街50-1號","121.426808333333","24.9594266666667","6501300","土城區"
"236045","913-UM","2018/06/04 13:49:32","新北市土城區城林路6巷80號","121.438415","24.979795","6501300","土城區"
"236060","915-UM","2018/06/04 13:49:28","新北市土城區城林路6巷80號","121.438355","24.9798","6501300","土城區"
"221032","280-BY","2018/06/04 13:49:35","新北市汐止區秀峰路60號","121.659598333333","25.0652416666667","6501100","汐止區"
"220027","145-BY","2018/06/04 13:49:28","新北市板橋區南雅西路二段237號","121.451466666667","25.014215","6500100","板橋區"
"220028","200-UY","2018/06/04 13:49:09","新北市板橋區大觀路二段415巷3號","121.441228333333","24.9963816666667","6500100","板橋區"
"220030","610-BX","2018/06/04 13:49:28","新北市板橋區篤行路一段10號","121.432106666667","24.9955283333333","6500100","板橋區"
"220004","276-BY","2018/06/04 13:49:23","新北市板橋區華東街1-10號","121.448591666667","24.9950916666667","6500100","板橋區"
"220020","277-BY","2018/06/04 13:49:37","新北市板橋區金門街31巷46號","121.433835","24.9934233333333","6500100","板橋區"
"220042","280-UM","2018/06/04 13:49:31","新北市板橋區民生路二段120號","121.470733333333","25.019435","6500100","板橋區"
"220019","283-VK","2018/06/04 13:49:35","新北市板橋區實踐路165號","121.464176666667","25.0038566666667","6500100","板橋區"
"220043","285-UM","2018/06/04 13:49:28","新北市板橋區民生路二段161巷3號","121.46986","25.0196716666667","6500100","板橋區"
"220031","286-VK","2018/06/04 13:49:37","新北市板橋區大觀路二段101巷17號","121.446926666667","25.0014683333333","6500100","板橋區"
"220029","287-VK","2018/06/04 13:49:23","新北市板橋區大觀路二段101巷4號","121.4465","25.001495","6500100","板橋區"
"220009","293-UM","2018/06/04 13:49:21","新北市板橋區民生路二段120號","121.470598333333","25.019645","6500100","板橋區"
"220032","296-UM","2018/06/04 13:49:27","新北市板橋區大觀路二段205號","121.445206666667","24.9992433333333","6500100","板橋區"
"220023","303-R5","2018/06/04 13:49:41","新北市板橋區大觀路一段28巷106-3號","121.451036666667","25.0106916666667","6500100","板橋區"
"220010","305-R5","2018/06/04 13:49:27","新北市板橋區民生路一段105號","121.474046666667","25.0143216666667","6500100","板橋區"
"220047","317-R6","2018/06/04 13:49:33","新北市板橋區民生路二段120號","121.470536666667","25.0197583333333","6500100","板橋區"
"220001","461-BY","2018/06/04 13:49:28","新北市板橋區中正路1巷14號","121.455263333333","25.01161","6500100","板橋區"
"220037","491-VK","2018/06/04 13:49:28","新北市板橋區民生路二段188號","121.469905","25.0204466666667","6500100","板橋區"
"220104","560-BX","2018/06/04 13:49:31","新北市板橋區南雅西路二段145巷10號","121.451563333333","25.011905","6500100","板橋區"
"220052","561-BX","2018/06/04 13:49:24","新北市板橋區民生路二段89-1號","121.471248333333","25.018165","6500100","板橋區"
"220011","609-BX","2018/06/04 13:49:27","新北市板橋區民生路二段120號","121.470548333333","25.01959","6500100","板橋區"
"220034","630-UY","2018/06/04 13:49:37","新北市板橋區大智街67號","121.45375","25.0155716666667","6500100","板橋區"
"220005","686-BX","2018/06/04 13:49:31","新北市板橋區館前西路50號","121.458431666667","25.0070216666667","6500100","板橋區"
"220025","687-BX","2018/06/04 13:49:25","新北市板橋區大觀路二段156巷29號","121.441048333333","24.999545","6500100","板橋區"
"220002","741-BX","2018/06/04 13:49:28","新北市板橋區後埔街16號","121.460245","25.006695","6500100","板橋區"
"220012","806-UM","2018/06/04 13:49:35","新北市板橋區民生路二段36-1號","121.472181666667","25.0167266666667","6500100","板橋區"
"220003","827-TW","2018/06/04 13:49:41","新北市板橋區新站路3號","121.467175","25.0116566666667","6500100","板橋區"
"220014","829-TW","2018/06/04 13:49:35","新北市板橋區民生路一段30-1號","121.476686666667","25.01355","6500100","板橋區"
"220022","895-R6","2018/06/04 13:49:33","新北市板橋區南雅南路一段100號","121.455116666667","25.004655","6500100","板橋區"
"220021","985-R7","2018/06/04 13:49:32","新北市板橋區館前西路83號","121.45728","25.0071516666667","6500100","板橋區"
"220018","AAC-253","2018/06/04 13:49:26","新北市板橋區館前西路6號","121.458961666667","25.007205","6500100","板橋區"
"235032","KEA-2873","2018/06/04 13:49:27","新北市中和區圓通路285號","121.495256666667","24.9929516666667","6500300","中和區"
"235025","KEA-2875","2018/06/04 13:49:12","新北市中和區民享街112號","121.47459","24.9992316666667","6500300","中和區"
