"lineid","car","time","location","longitude","latitude","cityid","cityname"
"234044","148-BY","2018/06/04 13:32:01","新北市永和區秀朗路二段124-3號","121.524795","25.0015083333333","6500400","永和區"
"234005","207-UY","2018/06/04 13:31:42","新北市永和區中山路一段84號","121.511971666667","25.010905","6500400","永和區"
"234078","298-R6","2018/06/04 13:59:33","新北市永和區福和路5-2號","121.524861666667","25.0085883333333","6500400","永和區"
"234062","337-UY","2018/06/04 13:59:40","新北市永和區秀朗路二段24巷55弄5號","121.51996","25.00143","6500400","永和區"
"234084","338-UY","2018/06/04 13:59:26","新北市永和區林森路41巷31號","121.526206666667","25.0042833333333","6500400","永和區"
"234068","552-UM","2018/06/04 13:59:28","新北市永和區警光街2號","121.520176666667","25.009705","6500400","永和區"
"234066","553-UM","2018/06/04 13:59:40","新北市永和區永貞路412號","121.508933333333","25.0079066666667","6500400","永和區"
"234015","745-BX","2018/06/04 13:59:26","新北市永和區環河西路一段51巷22號","121.514201666667","25.0176916666667","6500400","永和區"
"234028","746-BX","2018/06/04 13:59:32","新北市永和區厚德街9巷1號","121.525775","24.9982866666667","6500400","永和區"
"234052","KEA-2590","2018/06/04 13:59:32","新北市永和區復興街21號","121.516085","25.0130866666667","6500400","永和區"
"234012","KEA-2591","2018/06/04 13:59:40","新北市永和區信義路10-1號","121.514593333333","25.0120483333333","6500400","永和區"
"234060","AAD-866","2018/06/04 13:59:31","新北市永和區永貞路202號","121.51577","25.0041933333333","6500400","永和區"
"234040","862-TW","2018/06/04 13:59:23","新北市永和區永貞路267號","121.511823333333","25.0046883333333","6500400","永和區"
"234048","863-TW","2018/06/04 13:59:23","新北市永和區信義路87號","121.512253333333","25.0137633333333","6500400","永和區"
"234025","9371-KE","2018/06/04 13:59:40","新北市永和區永和路一段180號","121.514286666667","25.0089733333333","6500400","永和區"
"248005","077-UY","2018/06/04 13:59:38","新北市五股區中興路二段83巷26-6號","121.45998","25.0752433333333","6501500","五股區"
"248007","095-VK","2018/06/04 13:59:39","新北市五股區更洲路32巷8弄14號","121.459218333333","25.0796366666667","6501500","五股區"
"248019","225-UY","2018/06/04 13:59:34","新北市五股區凌雲路三段71-6號","121.424256666667","25.1246883333333","6501500","五股區"
"248011","247-BX","2018/06/04 13:59:33","新北市五股區成泰路三段46-1號","121.442508333333","25.0888066666667","6501500","五股區"
"248003","677-BX","2018/06/04 13:59:29","新北市五股區民義路一段240號","121.427083333333","25.091495","6501500","五股區"
"248001","678-BX","2018/06/04 13:59:26","新北市五股區西雲路220號","121.448125","25.0962016666667","6501500","五股區"
"248009","682-TV","2018/06/04 13:59:24","新北市五股區明德路41號","121.434291666667","25.07125","6501500","五股區"
"234076","969-R7","2018/06/04 13:59:38","新北市永和區得和路109號","121.518456666667","25.00031","6500400","永和區"
"234072","AAC-211","2018/06/04 13:59:35","新北市永和區環河東路一段124號","121.520623333333","25.0153533333333","6500400","永和區"
"234001","AAC-295","2018/06/04 13:59:44","新北市永和區永和路一段118號","121.513991666667","25.007885","6500400","永和區"
"244001","248-BX","2018/06/04 13:59:31","新北市林口區後坑35-1號","121.353096666667","25.1303583333333","6501700","林口區"
"243003","267-VK","2018/06/04 13:59:30","新北市泰山區明志路二段246-1號","121.426875","25.0481866666667","6501600","泰山區"
"243005","AAD-798","2018/06/04 13:59:40","新北市泰山區明志路三段206巷3號","121.423275","25.03795","6501600","泰山區"
"243008","380-SR","2018/06/04 13:59:23","新北市泰山區明志路二段135號","121.427791666667","25.05072","6501600","泰山區"
"243007","421-VK","2018/06/04 13:59:35","新北市泰山區美寧街50號","121.430416666667","25.0644633333333","6501600","泰山區"
"243002","KEA-2216","2018/06/04 13:59:25","新北市泰山區辭修路48號","121.428335","25.05742","6501600","泰山區"
"243004","646-TV","2018/06/04 13:59:25","新北市泰山區泰林路二段73巷31號","121.434366666667","25.05785","6501600","泰山區"
"243006","680-BX","2018/06/04 13:59:37","新北市泰山區犁頭窠3-1號","121.422218333333","25.0606433333333","6501600","泰山區"
"231002","002-UM","2018/06/04 13:59:36","新北市新店區溪園路393號","121.52419","24.9790683333333","6500600","新店區"
"231027","0291-UT","2018/06/04 13:59:28","新北市新店區國校路76-1號","121.538658333333","24.95308","6500600","新店區"
"231028","046-UY","2018/06/04 13:59:26","新北市新店區安康路一段355號","121.519796666667","24.9633583333333","6500600","新店區"
"231001","047-UY","2018/06/04 13:59:27","新北市新店區中正路429-1號","121.534086666667","24.9782983333333","6500600","新店區"
"231005","106-UY","2018/06/04 13:59:30","新北市新店區寶中路72號","121.547863333333","24.9806666666667","6500600","新店區"
"231019","108-UY","2018/06/04 13:59:28","新北市新店區永興路88-1號","121.544001666667","24.9337666666667","6500600","新店區"
"231007","110-UY","2018/06/04 13:59:31","新北市新店區復興路106-1號","121.531685","24.9892716666667","6500600","新店區"
"231011","187-VK","2018/06/04 13:59:23","新北市新店區德正街23巷2號","121.544161666667","24.9719233333333","6500600","新店區"
"231010","188-VK","2018/06/04 13:59:32","新北市新店區中正路307巷17號","121.53579","24.9735833333333","6500600","新店區"
"231023","KEA-2219","2018/06/04 13:59:23","新北市新店區新店路27-1號","121.53995","24.9527416666667","6500600","新店區"
"231026","256-BX","2018/06/04 13:59:35","新北市新店區北宜路一段166號","121.540211666667","24.952985","6500600","新店區"
"231003","268-BY","2018/06/04 13:59:37","新北市新店區中興路一段289-1號","121.545651666667","24.968765","6500600","新店區"
"231018","278-BY","2018/06/04 13:59:21","新北市新店區百忍街14號","121.534643333333","24.97567","6500600","新店區"
"231014","AAD-862","2018/06/04 13:59:40","新北市新店區新烏路一段11巷1弄2號","121.54734","24.95137","6500600","新店區"
"231038","3712-VJ","2018/06/04 13:59:37","新北市新店區溪洲路8巷66號","121.533123333333","24.9624583333333","6500600","新店區"
"231037","4716-K9","2018/06/04 13:59:42","新北市新店區安康路二段422-1號","121.49591","24.95566","6500600","新店區"
"231025","4715-K9","2018/06/04 13:59:40","新北市新店區中正路275巷40號","121.53654","24.9726683333333","6500600","新店區"
"231036","512-UM","2018/06/04 13:59:25","新北市新店區安祥路109巷3弄104號","121.479163333333","24.9605533333333","6500600","新店區"
"231030","619-UM","2018/06/04 13:59:36","新北市新店區安康路一段355-4號","121.517485","24.96391","6500600","新店區"
"231034","641-BX","2018/06/04 13:59:21","新北市新店區達觀路14巷1號","121.504636666667","24.941605","6500600","新店區"
"231035","719-UY","2018/06/04 13:59:22","新北市新店區安忠路21號","121.514648333333","24.9622216666667","6500600","新店區"
"231031","720-UM","2018/06/04 13:59:34","新北市新店區莒光路87巷15號","121.525608333333","24.953365","6500600","新店區"
"231029","897-TW","2018/06/04 13:59:27","新北市新店區安康路二段356號","121.50221","24.9575283333333","6500600","新店區"
"231004","899-TW","2018/06/04 13:59:26","新北市新店區北新路二段7號","121.542675","24.971335","6500600","新店區"
"231024","AKT-0513","2018/06/04 13:59:27","新北市新店區新生街13巷14號","121.539398333333","24.965955","6500600","新店區"
"235028","005-UY","2018/06/04 13:59:24","新北市中和區景平路595-1號","121.497038333333","25.000495","6500300","中和區"
"235027","006-UY","2018/06/04 13:59:33","新北市中和區中正路700號","121.486136666667","24.9963616666667","6500300","中和區"
"235020","096-UM","2018/06/04 13:59:35","新北市中和區中正路1220巷10號","121.479811666667","25.0113816666667","6500300","中和區"
"235003","097-UM","2018/06/04 13:59:27","新北市中和區景平路105號","121.516718333333","24.9920433333333","6500300","中和區"
"235029","098-UM","2018/06/04 13:59:31","新北市中和區勝利路35巷9弄2號","121.499556666667","25.0068266666667","6500300","中和區"
"235004","150-BY","2018/06/04 13:59:28","新北市中和區保健路46巷1號","121.50975","24.99709","6500300","中和區"
"235019","183-VK","2018/06/04 13:59:26","新北市中和區民德路12號","121.468793333333","25.00271","6500300","中和區"
"235002","185-VK","2018/06/04 13:59:29","新北市中和區大勇街60巷8號","121.518638333333","24.99473","6500300","中和區"
"235013","186-VK","2018/06/04 13:59:33","新北市中和區景安路167巷26號","121.506641666667","24.9948583333333","6500300","中和區"
"235031","255-BX","2018/06/04 13:59:39","新北市中和區新生街264號","121.48377","24.9972016666667","6500300","中和區"
"235008","293-VK","2018/06/04 13:59:36","新北市中和區中興街228巷6號","121.500551666667","24.9898","6500300","中和區"
"235036","301-VK","2018/06/04 13:59:39","新北市中和區中山路二段65號","121.50424","25.0045716666667","6500300","中和區"
"235007","352-BY","2018/06/04 13:59:24","新北市中和區景平路375號","121.504151666667","24.99341","6500300","中和區"
"235006","551-UM","2018/06/04 13:59:13","新北市中和區秀朗路三段50巷2弄6號","121.526146666667","24.9958133333333","6500300","中和區"
"235034","558-UM","2018/06/04 13:59:37","新北市中和區景平路616號","121.500626666667","24.99701","6500300","中和區"
"235009","565-BX","2018/06/04 13:59:37","新北市中和區南山路236巷36弄5號","121.504086666667","24.9883333333333","6500300","中和區"
"235018","640-BX","2018/06/04 13:59:34","新北市中和區莒光路129巷1弄6號","121.473046666667","25.00215","6500300","中和區"
"235024","647-TV","2018/06/04 13:59:38","新北市中和區民利街62號","121.478843333333","24.998565","6500300","中和區"
"235010","733-UM","2018/06/04 13:59:26","新北市中和區興南路一段106號","121.509696666667","24.988935","6500300","中和區"
"235035","783-BX","2018/06/04 13:59:40","新北市中和區光環路二段302號","121.485745","25.0136966666667","6500300","中和區"
"235026","800-TS","2018/06/04 13:59:28","新北市中和區景平路726-2號","121.496783333333","25.0035083333333","6500300","中和區"
"235021","801-TS","2018/06/04 13:59:38","新北市中和區民安街42巷42號","121.478625","25.0014583333333","6500300","中和區"
"235005","802-TS","2018/06/04 13:33:07","新北市中和區中和路400巷17號","121.511613333333","25.00238","6500300","中和區"
"235016","805-TS","2018/06/04 13:59:26","新北市中和區興南路二段260號","121.502421666667","24.9814016666667","6500300","中和區"
"235012","896-TW","2018/06/04 13:59:35","新北市中和區南山路300號","121.507813333333","24.9871716666667","6500300","中和區"
"235017","900-TW","2018/06/04 13:59:33","新北市中和區華順街135巷11號","121.466036666667","24.995895","6500300","中和區"
"235030","911-UM","2018/06/04 13:59:41","新北市中和區中山路二段122號","121.50252","25.00379","6500300","中和區"
"235015","157-BY","2018/06/04 13:59:31","新北市中和區華新街109巷1弄1號","121.508771666667","24.982585","6500300","中和區"
"235001","AAC-213","2018/06/04 13:59:34","新北市中和區景德街3號","121.51898","24.991185","6500300","中和區"
"235023","AAC-215","2018/06/04 13:59:35","新北市中和區錦和路354巷5號","121.490186666667","24.9915483333333","6500300","中和區"
"220016","013-TV","2018/06/04 13:59:30","新北市板橋區三民路一段31巷25號","121.480466666667","25.023245","6500100","板橋區"
"220013","072-UY","2018/06/04 13:59:31","新北市板橋區民族路247巷9弄46號","121.470928333333","25.0085483333333","6500100","板橋區"
"220105","075-UY","2018/06/04 13:59:36","新北市板橋區民生路二段120號","121.470295","25.0198616666667","6500100","板橋區"
"220017","AAD-861","2018/06/04 13:59:20","新北市板橋區大華街5巷7號","121.459215","25.0061333333333","6500100","板橋區"
"247013","546-UM","2018/06/04 13:59:38","新北市蘆洲區中正路107號","121.469811666667","25.0842766666667","6501400","蘆洲區"
"247021","500-BY","2018/06/04 13:59:42","新北市蘆洲區中正路263巷2號","121.467358333333","25.0873883333333","6501400","蘆洲區"
"247003","337-TH","2018/06/04 13:59:43","新北市蘆洲區中原路32號","121.460001666667","25.0828016666667","6501400","蘆洲區"
"247005","336-TH","2018/06/04 13:59:32","新北市蘆洲區中山二路262號","121.469108333333","25.0788183333333","6501400","蘆洲區"
"247017","057-VK","2018/06/04 13:59:37","新北市蘆洲區民族路253號","121.476626666667","25.0903016666667","6501400","蘆洲區"
"247007","056-VK","2018/06/04 13:59:23","新北市蘆洲區永安南路一段142巷64號","121.471748333333","25.0775733333333","6501400","蘆洲區"
"247015","007-UY","2018/06/04 13:59:30","新北市蘆洲區光華路40號","121.468928333333","25.0831733333333","6501400","蘆洲區"
"247019","001-UY","2018/06/04 13:59:28","新北市蘆洲區民族路422巷48弄26號","121.474655","25.0930283333333","6501400","蘆洲區"
"235011","251-BX","2018/06/04 13:59:27","新北市中和區南山路320巷10弄21號","121.506711666667","24.98669","6500300","中和區"
"253003","6232-TK","2018/06/04 13:59:28","新北市石門區尖子鹿52-1號","121.578931666667","25.2735966666667","6502200","石門區"
"253001","6251-TK","2018/06/04 13:59:39","新北市石門區下員坑50-1號","121.518611666667","25.2723166666667","6502200","石門區"
"253002","637-UY","2018/06/04 13:58:00","新北市石門區七股56號","121.553158333333","25.25595","6502200","石門區"
"253004","8270-PC","2018/06/04 13:59:36","新北市石門區草埔尾20-4號","121.602988333333","25.2628216666667","6502200","石門區"
"207002","749-BX","2018/06/04 13:59:25","新北市萬里區崁腳里崁腳路166號","121.645055","25.15583","6502800","萬里區"
"252005","073-UM","2018/06/04 13:59:29","新北市三芝區橫山里橫山56-6號","121.53529","25.2507","6502100","三芝區"
"207001","662-BX","2018/06/04 13:58:57","新北市萬里區磺潭里清水18號","121.637648333333","25.1977733333333","6502800","萬里區"
"236064","105-UM","2018/06/04 13:59:25","新北市土城區城林路6巷80號","121.438616666667","24.9797116666667","6501300","土城區"
"236040","107-UM","2018/06/04 13:59:29","新北市土城區城林路6巷80號","121.438498333333","24.9797366666667","6501300","土城區"
"236074","166-UM","2018/06/04 13:59:37","新北市土城區永寧路32巷1號","121.429216666667","24.9604733333333","6501300","土城區"
"236029","253-BX","2018/06/04 13:59:23","新北市土城區城林路6巷80號","121.438583333333","24.9797783333333","6501300","土城區"
"236024","269-VK","2018/06/04 13:59:34","新北市土城區城林路6巷80號","121.438551666667","24.9797083333333","6501300","土城區"
"236032","271-VK","2018/06/04 13:59:37","新北市土城區城林路6巷80號","121.438403333333","24.9798333333333","6501300","土城區"
"236016","401-BY","2018/06/04 13:59:31","新北市土城區城林路6巷80號","121.438493333333","24.97982","6501300","土城區"
"236005","498-BY","2018/06/04 13:59:40","新北市土城區中華路二段209號","121.437926666667","24.97347","6501300","土城區"
"236045","913-UM","2018/06/04 13:59:32","新北市土城區城林路6巷80號","121.438371666667","24.979825","6501300","土城區"
"236060","915-UM","2018/06/04 13:59:28","新北市土城區城林路6巷80號","121.438371666667","24.9798283333333","6501300","土城區"
"236054","AAC-216","2018/06/04 13:59:34","新北市土城區城林路6巷80號","121.438701666667","24.9797016666667","6501300","土城區"
"221032","280-BY","2018/06/04 13:59:35","新北市汐止區秀峰路60號","121.659588333333","25.065275","6501100","汐止區"
"220027","145-BY","2018/06/04 13:59:28","新北市板橋區南雅西路二段180巷11號","121.452231666667","25.0139883333333","6500100","板橋區"
"220028","200-UY","2018/06/04 13:59:29","新北市板橋區大觀路二段415巷3號","121.441376666667","24.99629","6500100","板橋區"
"220030","610-BX","2018/06/04 13:59:28","新北市板橋區篤行路一段10號","121.432075","24.995455","6500100","板橋區"
"220004","276-BY","2018/06/04 13:59:43","新北市板橋區華東街1號","121.448358333333","24.9941383333333","6500100","板橋區"
"220020","277-BY","2018/06/04 13:59:37","新北市板橋區金門街47巷1號","121.4336","24.9934316666667","6500100","板橋區"
"220042","280-UM","2018/06/04 13:59:31","新北市板橋區民生路二段120號","121.470725","25.0193783333333","6500100","板橋區"
"220019","283-VK","2018/06/04 13:59:35","新北市板橋區實踐路126號","121.464316666667","25.0032916666667","6500100","板橋區"
"220043","285-UM","2018/06/04 13:59:28","新北市板橋區民生路二段120號","121.47034","25.0198416666667","6500100","板橋區"
"220031","286-VK","2018/06/04 13:59:37","新北市板橋區大觀路二段101巷2號","121.446828333333","25.0014","6500100","板橋區"
"220029","287-VK","2018/06/04 13:59:23","新北市板橋區大觀路二段101巷4號","121.446535","25.001515","6500100","板橋區"
"220009","293-UM","2018/06/04 13:59:41","新北市板橋區民生路二段120號","121.47067","25.0194183333333","6500100","板橋區"
"220032","296-UM","2018/06/04 13:59:27","新北市板橋區大觀路二段205號","121.4452","24.9992333333333","6500100","板橋區"
"220023","303-R5","2018/06/04 13:59:20","新北市板橋區大觀路一段28巷106-3號","121.451036666667","25.0107033333333","6500100","板橋區"
"220010","305-R5","2018/06/04 13:59:27","新北市板橋區民生路一段109號","121.474055","25.0143516666667","6500100","板橋區"
"220041","307-R5","2018/06/04 13:59:41","新北市板橋區民生路二段120號","121.470818333333","25.0200266666667","6500100","板橋區"
"220047","317-R6","2018/06/04 13:59:33","新北市板橋區民生路二段120號","121.470533333333","25.01981","6500100","板橋區"
"220001","461-BY","2018/06/04 13:59:28","新北市板橋區中正路1巷14號","121.455235","25.0116583333333","6500100","板橋區"
"220037","491-VK","2018/06/04 13:59:28","新北市板橋區民生路二段161巷1號","121.47021","25.0201","6500100","板橋區"
"220104","560-BX","2018/06/04 13:59:31","新北市板橋區南雅西路二段145巷10號","121.451568333333","25.0118966666667","6500100","板橋區"
"220052","561-BX","2018/06/04 13:59:24","新北市板橋區民生路二段120號","121.471151666667","25.0194516666667","6500100","板橋區"
"220011","609-BX","2018/06/04 13:59:27","新北市板橋區民生路二段120號","121.470601666667","25.0194433333333","6500100","板橋區"
"220034","630-UY","2018/06/04 13:59:37","新北市板橋區大智街67號","121.453756666667","25.015565","6500100","板橋區"
"220005","686-BX","2018/06/04 13:59:31","新北市板橋區館前西路48號","121.458495","25.0069833333333","6500100","板橋區"
"220025","687-BX","2018/06/04 13:59:25","新北市板橋區大觀路二段156巷29號","121.44105","24.9995566666667","6500100","板橋區"
"220002","741-BX","2018/06/04 13:59:28","新北市板橋區後埔街79號","121.46062","25.0055133333333","6500100","板橋區"
"220051","KEA-2699","2018/06/04 13:59:32","新北市板橋區民生路二段120號","121.470296666667","25.0199766666667","6500100","板橋區"
"220012","806-UM","2018/06/04 13:59:35","新北市板橋區民生路二段36-1號","121.472171666667","25.0167033333333","6500100","板橋區"
"220003","827-TW","2018/06/04 13:59:41","新北市板橋區新站路3號","121.467336666667","25.011605","6500100","板橋區"
"220014","829-TW","2018/06/04 13:59:35","新北市板橋區三民路二段正隆巷45號","121.476656666667","25.0135033333333","6500100","板橋區"
"220038","833-TW","2018/06/04 13:59:31","新北市板橋區民生路二段161巷5號","121.470273333333","25.0197883333333","6500100","板橋區"
"220022","895-R6","2018/06/04 13:59:33","新北市板橋區南雅南路一段100號","121.45511","25.00468","6500100","板橋區"
"220021","985-R7","2018/06/04 13:59:32","新北市板橋區館前西路83號","121.457308333333","25.0072016666667","6500100","板橋區"
"220018","AAC-253","2018/06/04 13:59:26","新北市板橋區館前西路46巷5號","121.458991666667","25.0071783333333","6500100","板橋區"
"235032","KEA-2873","2018/06/04 13:59:27","新北市中和區圓通路230號","121.495201666667","24.992935","6500300","中和區"
"235025","KEA-2875","2018/06/04 13:59:12","新北市中和區民享街112號","121.47459","24.9992316666667","6500300","中和區"
