"lineid","car","time","location","longitude","latitude","cityid","cityname"
"234044","148-BY","2018/06/04 14:09:33","新北市永和區成功路一段76號","121.526421666667","25.00332","6500400","永和區"
"234005","207-UY","2018/06/04 14:09:39","新北市永和區永和路一段36號","121.51307","25.0053083333333","6500400","永和區"
"234078","298-R6","2018/06/04 14:09:33","新北市永和區林森路20巷28號","121.525565","25.0061366666667","6500400","永和區"
"234036","336-UY","2018/06/04 14:09:36","新北市永和區環河東路四段20號","121.528565","24.9996283333333","6500400","永和區"
"234062","337-UY","2018/06/04 14:09:40","新北市永和區秀朗路一段192巷6弄10號","121.519106666667","25.00233","6500400","永和區"
"234084","338-UY","2018/06/04 14:09:26","新北市永和區中正路562號","121.51728","25.005965","6500400","永和區"
"234068","552-UM","2018/06/04 14:09:28","新北市永和區竹林路53號","121.518131666667","25.0138666666667","6500400","永和區"
"234066","553-UM","2018/06/04 14:09:40","新北市永和區中山路一段147號","121.510195","25.0094966666667","6500400","永和區"
"234015","745-BX","2018/06/04 14:09:26","新北市永和區永和路二段299號","121.51601","25.016085","6500400","永和區"
"234028","746-BX","2018/06/04 14:09:38","新北市永和區民權路1巷14號","121.521083333333","24.9983433333333","6500400","永和區"
"234052","KEA-2590","2018/06/04 14:09:32","新北市永和區竹林路39巷24弄12號","121.519145","25.0143466666667","6500400","永和區"
"234012","KEA-2591","2018/06/04 14:09:40","新北市永和區永平路238巷1弄2號","121.509015","25.0113466666667","6500400","永和區"
"234060","AAD-866","2018/06/04 14:09:31","新北市永和區中正路107號","121.515606666667","24.9974233333333","6500400","永和區"
"234040","862-TW","2018/06/04 14:09:23","新北市永和區中和路389巷49號","121.5081","25.0019883333333","6500400","永和區"
"234048","863-TW","2018/06/04 14:09:23","新北市永和區保安路69號","121.509026666667","25.0153566666667","6500400","永和區"
"248015","026-BX","2018/06/04 14:09:38","新北市五股區成泰路三段543巷18號","121.45091","25.102245","6501500","五股區"
"248005","077-UY","2018/06/04 14:09:38","新北市五股區中興路一段40號","121.468268333333","25.0725966666667","6501500","五股區"
"248007","095-VK","2018/06/04 14:09:39","新北市五股區中興路一段150巷4號","121.464638333333","25.0741366666667","6501500","五股區"
"248019","225-UY","2018/06/04 14:01:13","新北市五股區凌雲路三段57號","121.425261666667","25.1250283333333","6501500","五股區"
"248011","247-BX","2018/06/04 14:09:40","新北市五股區工商路20號","121.439793333333","25.0833666666667","6501500","五股區"
"248003","677-BX","2018/06/04 14:09:29","新北市五股區六合街3號","121.431768333333","25.0885333333333","6501500","五股區"
"248001","678-BX","2018/06/04 14:09:26","新北市五股區成泰路三段454號","121.451425","25.1004116666667","6501500","五股區"
"248009","682-TV","2018/06/04 14:09:39","新北市五股區水碓五路81號","121.430015","25.07191","6501500","五股區"
"234022","9380-KE","2018/06/04 14:09:37","新北市永和區豫溪街57巷8弄3號","121.517578333333","25.010445","6500400","永和區"
"234076","969-R7","2018/06/04 14:09:38","新北市永和區民族街6號","121.518728333333","24.9996616666667","6500400","永和區"
"234072","AAC-211","2018/06/04 14:09:35","新北市永和區竹林路213巷19號","121.521956666667","25.0089616666667","6500400","永和區"
"234001","AAC-295","2018/06/04 14:09:24","新北市永和區永和路一段116號","121.513833333333","25.0074216666667","6500400","永和區"
"244001","248-BX","2018/06/04 14:09:31","新北市林口區汕頭18號","121.36349","25.1344433333333","6501700","林口區"
"243003","267-VK","2018/06/04 14:09:38","新北市泰山區明志路二段322號","121.426095","25.046045","6501600","泰山區"
"243005","AAD-798","2018/06/04 14:09:30","新北市泰山區明志路三段231巷4弄1號","121.424331666667","25.0375933333333","6501600","泰山區"
"243001","297-R6","2018/06/04 14:09:34","新北市泰山區明志路一段122巷27號","121.432693333333","25.063695","6501600","泰山區"
"243008","380-SR","2018/06/04 14:09:25","新北市泰山區明志路二段340號","121.425958333333","25.04553","6501600","泰山區"
"243007","421-VK","2018/06/04 14:09:35","新北市泰山區明志路一段366號","121.430716666667","25.0579883333333","6501600","泰山區"
"243002","KEA-2216","2018/06/04 14:09:25","新北市泰山區明志路一段483巷1弄4號","121.431173333333","25.0554","6501600","泰山區"
"243004","646-TV","2018/06/04 14:09:25","新北市泰山區辭修路10-11號","121.429615","25.05802","6501600","泰山區"
"243006","680-BX","2018/06/04 14:09:37","新北市泰山區泰林路二段528號","121.423835","25.0639233333333","6501600","泰山區"
"231002","002-UM","2018/06/04 14:09:36","新北市新店區中正路674號","121.533951666667","24.9897616666667","6500600","新店區"
"231027","0291-UT","2018/06/04 14:09:28","新北市新店區北宜路一段97號","121.539446666667","24.9554866666667","6500600","新店區"
"231028","046-UY","2018/06/04 14:09:27","新北市新店區安和路二段197號","121.51801","24.975105","6500600","新店區"
"231001","047-UY","2018/06/04 14:09:27","新北市新店區三民路111號","121.535095","24.972145","6500600","新店區"
"231005","106-UY","2018/06/04 14:09:30","新北市新店區寶中路63號","121.547116666667","24.9803716666667","6500600","新店區"
"231019","108-UY","2018/06/04 14:09:28","新北市新店區湖子內路1號","121.54235","24.9305933333333","6500600","新店區"
"231007","110-UY","2018/06/04 14:09:31","新北市新店區建國路221號","121.537618333333","24.9814366666667","6500600","新店區"
"231011","187-VK","2018/06/04 14:09:23","新北市新店區德正街27巷29弄143號","121.545628333333","24.9735533333333","6500600","新店區"
"231010","188-VK","2018/06/04 14:09:32","新北市新店區平等街53號","121.536215","24.9729183333333","6500600","新店區"
"231023","KEA-2219","2018/06/04 14:09:23","新北市新店區新店路148號","121.537133333333","24.9553416666667","6500600","新店區"
"231026","256-BX","2018/06/04 14:09:35","新北市新店區中正路327號","121.535991666667","24.9750233333333","6500600","新店區"
"231003","268-BY","2018/06/04 14:09:37","新北市新店區中興路一段115號","121.541496666667","24.9627983333333","6500600","新店區"
"231018","278-BY","2018/06/04 14:09:41","新北市新店區中正路400巷21號","121.535208333333","24.9783666666667","6500600","新店區"
"231014","AAD-862","2018/06/04 14:09:40","新北市新店區竹林路2巷27弄11號","121.550873333333","24.95091","6500600","新店區"
"231038","3712-VJ","2018/06/04 14:09:37","新北市新店區溪洲路8巷15號","121.533038333333","24.9622833333333","6500600","新店區"
"231037","4716-K9","2018/06/04 14:09:22","新北市新店區安康路三段466-2號","121.484083333333","24.9509683333333","6500600","新店區"
"231025","4715-K9","2018/06/04 14:09:40","新北市新店區中正路328巷42弄14號","121.538493333333","24.9757316666667","6500600","新店區"
"231036","512-UM","2018/06/04 14:09:26","新北市新店區安祥路109巷6弄23號","121.47547","24.9578883333333","6500600","新店區"
"231013","513-UM","2018/06/04 14:09:40","新北市新店區二十張路25巷18弄16號","121.539235","24.9815533333333","6500600","新店區"
"231030","619-UM","2018/06/04 14:09:36","新北市新店區安康路一段50-1號","121.529761666667","24.9613066666667","6500600","新店區"
"231034","641-BX","2018/06/04 14:09:21","新北市新店區車子路11號","121.50309","24.95212","6500600","新店區"
"231035","719-UY","2018/06/04 14:09:22","新北市新店區安忠路77號","121.511198333333","24.9571683333333","6500600","新店區"
"231031","720-UM","2018/06/04 14:09:34","新北市新店區碧潭路42號","121.534268333333","24.9566216666667","6500600","新店區"
"231029","897-TW","2018/06/04 14:09:27","新北市新店區安康路二段149-1號","121.510911666667","24.95981","6500600","新店區"
"231006","898-TW","2018/06/04 14:09:35","新北市新店區北宜路一段140巷15號","121.540038333333","24.954285","6500600","新店區"
"231004","899-TW","2018/06/04 14:09:26","新北市新店區寶橋路132號","121.547345","24.9759666666667","6500600","新店區"
"235028","005-UY","2018/06/04 14:09:24","新北市中和區泰和街38號","121.499275","25.0000266666667","6500300","中和區"
"235027","006-UY","2018/06/04 14:09:33","新北市中和區連城路319巷5弄1號","121.489178333333","24.99542","6500300","中和區"
"235020","096-UM","2018/06/04 14:09:35","新北市中和區中正路1222號","121.47949","25.010495","6500300","中和區"
"235003","097-UM","2018/06/04 14:09:27","新北市中和區大勇街25巷40號","121.5155","24.99395","6500300","中和區"
"235029","098-UM","2018/06/04 14:09:31","新北市中和區勝利路5號","121.499876666667","25.00813","6500300","中和區"
"235004","150-BY","2018/06/04 14:09:34","新北市中和區保健路44巷1號","121.50954","24.9972266666667","6500300","中和區"
"235019","183-VK","2018/06/04 14:09:26","新北市中和區民生街93-2號","121.468543333333","25.0047666666667","6500300","中和區"
"235002","185-VK","2018/06/04 14:09:29","新北市中和區大勇街43巷2號","121.517828333333","24.9948283333333","6500300","中和區"
"235013","186-VK","2018/06/04 14:09:38","新北市中和區景新街147號","121.506208333333","24.9964316666667","6500300","中和區"
"235031","255-BX","2018/06/04 14:09:39","新北市中和區新生街233巷10號","121.48424","24.9985166666667","6500300","中和區"
"235008","293-VK","2018/06/04 14:09:36","新北市中和區復興路280巷1弄1號","121.50218","24.9905733333333","6500300","中和區"
"235036","301-VK","2018/06/04 14:09:39","新北市中和區中山路二段183號","121.500525","25.00276","6500300","中和區"
"235007","352-BY","2018/06/04 14:09:24","新北市中和區景平路189號","121.511493333333","24.9924966666667","6500300","中和區"
"235033","4980-A6","2018/06/04 14:09:34","新北市中和區圓通路109巷10號","121.499735","24.9963816666667","6500300","中和區"
"235006","551-UM","2018/06/04 14:09:33","新北市中和區自立路117巷1號","121.522248333333","24.9946016666667","6500300","中和區"
"235034","558-UM","2018/06/04 14:09:36","新北市中和區中和路149號","121.502565","24.999845","6500300","中和區"
"235009","565-BX","2018/06/04 14:09:37","新北市中和區南山路208巷2號","121.506045","24.9902566666667","6500300","中和區"
"235018","640-BX","2018/06/04 14:09:34","新北市中和區民享街29號","121.473985","25.004365","6500300","中和區"
"235024","647-TV","2018/06/04 14:09:40","新北市中和區中山路二段585號","121.480018333333","25.005735","6500300","中和區"
"235010","733-UM","2018/06/04 14:09:26","新北市中和區興南路二段31巷17號","121.508071666667","24.98526","6500300","中和區"
"235035","783-BX","2018/06/04 14:09:40","新北市中和區中山路二段482巷10號","121.488501666667","25.006165","6500300","中和區"
"235026","800-TS","2018/06/04 14:09:28","新北市中和區橋安街8號","121.492713333333","25.004395","6500300","中和區"
"235021","801-TS","2018/06/04 14:09:38","新北市中和區民安街22巷16號","121.479718333333","25.0013883333333","6500300","中和區"
"235005","802-TS","2018/06/04 14:09:43","新北市中和區永貞路280號","121.513158333333","25.0039916666667","6500300","中和區"
"235016","805-TS","2018/06/04 14:09:27","新北市中和區興南路二段114巷21弄1號","121.503685","24.9844233333333","6500300","中和區"
"235012","896-TW","2018/06/04 14:09:35","新北市中和區華新街64號","121.50817","24.98379","6500300","中和區"
"235017","900-TW","2018/06/04 14:09:33","新北市中和區壽德街2號","121.464453333333","24.9964583333333","6500300","中和區"
"235030","911-UM","2018/06/04 14:09:41","新北市中和區水源路34巷21弄2號","121.504618333333","25.0026683333333","6500300","中和區"
"235015","157-BY","2018/06/04 14:09:30","新北市中和區忠孝街11巷5號","121.509855","24.983235","6500300","中和區"
"235001","AAC-213","2018/06/04 14:09:34","新北市中和區自立路99巷36弄16號","121.523883333333","24.99406","6500300","中和區"
"235023","AAC-215","2018/06/04 14:09:35","新北市中和區圓通路369巷8-2號","121.490621666667","24.988275","6500300","中和區"
"220016","013-TV","2018/06/04 14:09:30","新北市板橋區中山路二段443巷2號","121.481006666667","25.0205633333333","6500100","板橋區"
"220013","072-UY","2018/06/04 14:09:31","新北市板橋區民族路273巷1號","121.470705","25.0071683333333","6500100","板橋區"
"220105","075-UY","2018/06/04 14:09:38","新北市板橋區莒光路30-1號","121.470105","25.0246033333333","6500100","板橋區"
"220017","AAD-861","2018/06/04 14:09:40","新北市板橋區華興街73-1號","121.457048333333","25.0050633333333","6500100","板橋區"
"247023","893-R6","2018/06/04 14:09:30","新北市蘆洲區光榮路88號","121.46362","25.0889166666667","6501400","蘆洲區"
"247013","546-UM","2018/06/04 14:09:38","新北市蘆洲區三民路157-1號","121.470763333333","25.0866316666667","6501400","蘆洲區"
"247021","500-BY","2018/06/04 14:09:22","新北市蘆洲區三民路173號","121.471111666667","25.0871866666667","6501400","蘆洲區"
"247009","341-TH","2018/06/04 14:09:29","新北市蘆洲區信義路170號","121.479391666667","25.0839183333333","6501400","蘆洲區"
"247011","339-TH","2018/06/04 14:09:27","新北市蘆洲區信義路254號","121.478271666667","25.086645","6501400","蘆洲區"
"247003","337-TH","2018/06/04 14:09:23","新北市蘆洲區長榮路52號","121.462855","25.083075","6501400","蘆洲區"
"247005","336-TH","2018/06/04 14:09:32","新北市蘆洲區永安南路二段72-1號","121.464773333333","25.0781716666667","6501400","蘆洲區"
"247017","057-VK","2018/06/04 14:09:37","新北市蘆洲區民族路227巷22弄24號","121.476986666667","25.0894766666667","6501400","蘆洲區"
"247007","056-VK","2018/06/04 14:09:43","新北市蘆洲區中山一路204號","121.473485","25.0807783333333","6501400","蘆洲區"
"247015","007-UY","2018/06/04 14:09:30","新北市蘆洲區光華路46巷53號","121.467301666667","25.0847616666667","6501400","蘆洲區"
"247001","002-UY","2018/06/04 14:09:33","新北市蘆洲區永平街32巷16弄2號","121.459448333333","25.0918766666667","6501400","蘆洲區"
"247019","001-UY","2018/06/04 14:09:28","新北市蘆洲區民族路422巷114弄55號","121.471988333333","25.094945","6501400","蘆洲區"
"235011","251-BX","2018/06/04 14:09:27","新北市中和區興南路二段34巷57弄1號","121.504813333333","24.98592","6500300","中和區"
"253003","6232-TK","2018/06/04 14:09:28","新北市石門區尖子鹿47-2號","121.581141666667","25.2681383333333","6502200","石門區"
"253001","6251-TK","2018/06/04 14:09:39","新北市石門區八甲49-1號","121.530523333333","25.2677783333333","6502200","石門區"
"253002","637-UY","2018/06/04 14:09:40","新北市石門區七股20-3號","121.550238333333","25.27006","6502200","石門區"
"253004","8270-PC","2018/06/04 14:09:36","新北市石門區阿里磅77號","121.588323333333","25.26908","6502200","石門區"
"207002","749-BX","2018/06/04 14:09:25","新北市萬里區溪底里烏塗炭10號","121.632616666667","25.1505166666667","6502800","萬里區"
"252005","073-UM","2018/06/04 14:09:29","新北市三芝區橫山里橫山33號","121.54178","25.2586266666667","6502100","三芝區"
"207001","662-BX","2018/06/04 14:09:37","新北市萬里區磺潭里清水18號","121.637701666667","25.19775","6502800","萬里區"
"236064","105-UM","2018/06/04 14:09:25","新北市土城區青雲路322巷2弄2號","121.458603333333","24.9771","6501300","土城區"
"236040","107-UM","2018/06/04 14:09:29","新北市土城區城林路6巷80號","121.438485","24.9801","6501300","土城區"
"236074","166-UM","2018/06/04 14:09:37","新北市土城區永寧路32巷5號","121.429068333333","24.9606116666667","6501300","土城區"
"236029","253-BX","2018/06/04 14:09:43","新北市土城區城林路6巷80號","121.438583333333","24.9797783333333","6501300","土城區"
"236024","269-VK","2018/06/04 14:09:34","新北市土城區中央路三段96-1號","121.435671666667","24.9664766666667","6501300","土城區"
"236012","270-VK","2018/06/04 14:09:28","新北市土城區中央路二段280號","121.440716666667","24.9739466666667","6501300","土城區"
"236032","271-VK","2018/06/04 14:09:37","新北市土城區青雲路449號","121.458988333333","24.9747766666667","6501300","土城區"
"236016","401-BY","2018/06/04 14:09:31","新北市土城區城林路6巷80號","121.438478333333","24.9798833333333","6501300","土城區"
"236005","498-BY","2018/06/04 14:09:40","新北市土城區中央路一段365巷27弄1號","121.446738333333","24.979835","6501300","土城區"
"236057","912-UM","2018/06/04 14:09:33","新北市土城區中央路四段3號","121.425578333333","24.9629583333333","6501300","土城區"
"236045","913-UM","2018/06/04 14:09:32","新北市土城區明德路一段365-1號","121.453533333333","24.9790566666667","6501300","土城區"
"236060","915-UM","2018/06/04 14:09:28","新北市土城區裕民路255-5號","121.4547","24.9828366666667","6501300","土城區"
"236054","AAC-216","2018/06/04 14:09:34","新北市土城區城林路6巷80號","121.438405","24.979765","6501300","土城區"
"220027","145-BY","2018/06/04 14:09:28","新北市板橋區中正路48號","121.45642","25.0140916666667","6500100","板橋區"
"220028","200-UY","2018/06/04 14:09:29","新北市板橋區大觀路二段397號","121.441198333333","24.9971483333333","6500100","板橋區"
"220030","610-BX","2018/06/04 14:09:28","新北市板橋區篤行路三段玉平巷68弄2號","121.428061666667","24.98611","6500100","板橋區"
"220004","276-BY","2018/06/04 14:09:23","新北市板橋區四川路二段58號","121.453016666667","24.9950916666667","6500100","板橋區"
"220020","277-BY","2018/06/04 14:09:37","新北市板橋區大觀路三段36巷4號","121.43388","24.9959783333333","6500100","板橋區"
"220042","280-UM","2018/06/04 14:09:42","新北市板橋區民生路三段307號","121.46361","25.03089","6500100","板橋區"
"220019","283-VK","2018/06/04 14:09:35","新北市板橋區重慶路247-1號","121.463595","25.0005733333333","6500100","板橋區"
"220043","285-UM","2018/06/04 14:09:38","新北市板橋區光武街28-2號","121.467583333333","25.0256283333333","6500100","板橋區"
"220001","285-VK","2018/06/04 14:09:25","新北市板橋區中山路二段157號","121.475655","25.01669","6500100","板橋區"
"220031","286-VK","2018/06/04 14:09:37","新北市板橋區僑中二街50號","121.446751666667","25.0103916666667","6500100","板橋區"
"220029","287-VK","2018/06/04 14:09:23","新北市板橋區光華街13巷12號","121.453653333333","25.0114883333333","6500100","板橋區"
"220009","293-UM","2018/06/04 14:09:41","新北市板橋區富山街109巷87號","121.474975","25.0210266666667","6500100","板橋區"
"220032","296-UM","2018/06/04 14:09:38","新北市板橋區大觀路二段150巷37號","121.441586666667","25.0000216666667","6500100","板橋區"
"220023","303-R5","2018/06/04 14:09:41","新北市板橋區館前西路267號","121.453873333333","25.0087166666667","6500100","板橋區"
"220010","305-R5","2018/06/04 14:09:31","新北市中和區環中路120號","121.481915","25.0124266666667","6500100","板橋區"
"220041","307-R5","2018/06/04 14:09:42","新北市板橋區文化路一段136巷8弄8號","121.465496666667","25.0181466666667","6500100","板橋區"
"220047","317-R6","2018/06/04 14:09:33","新北市板橋區四維路142號","121.465105","25.0254266666667","6500100","板橋區"
"220001","461-BY","2018/06/04 14:09:28","新北市板橋區國光路190號","121.461188333333","25.018325","6500100","板橋區"
"220037","491-VK","2018/06/04 14:09:28","新北市板橋區文化路二段92-1號","121.469836666667","25.0260166666667","6500100","板橋區"
"220104","560-BX","2018/06/04 14:09:31","新北市板橋區中正路325巷3弄7號","121.453755","25.0189033333333","6500100","板橋區"
"220052","561-BX","2018/06/04 14:09:25","新北市板橋區文化路一段188巷7弄40號","121.46806","25.0192666666667","6500100","板橋區"
"220011","609-BX","2018/06/04 14:09:27","新北市板橋區中山路二段91號","121.474191666667","25.0158866666667","6500100","板橋區"
"220034","630-UY","2018/06/04 14:09:38","新北市板橋區中正路80巷15號","121.457498333333","25.0146833333333","6500100","板橋區"
"220040","637-BX","2018/06/04 14:09:31","新北市板橋區文聖街207-2號","121.479603333333","25.0266366666667","6500100","板橋區"
"220005","686-BX","2018/06/04 14:09:39","新北市板橋區重慶路95號","121.462056666667","25.0057483333333","6500100","板橋區"
"220025","687-BX","2018/06/04 14:09:41","新北市板橋區龍興街99巷1號","121.444226666667","25.00289","6500100","板橋區"
"220002","741-BX","2018/06/04 14:09:33","新北市板橋區重慶路93巷29號","121.46309","25.0059333333333","6500100","板橋區"
"220051","KEA-2699","2018/06/04 14:09:34","新北市板橋區田單街1-3號","121.481546666667","25.0290783333333","6500100","板橋區"
"220012","806-UM","2018/06/04 14:09:39","新北市板橋區板新路189號","121.468953333333","25.0158666666667","6500100","板橋區"
"220003","827-TW","2018/06/04 14:09:41","新北市板橋區中山路一段132號","121.463445","25.0108733333333","6500100","板橋區"
"220014","829-TW","2018/06/04 14:09:35","新北市板橋區三民路二段正隆巷12弄22號","121.477521666667","25.01366","6500100","板橋區"
"220039","830-TW","2018/06/04 14:09:26","新北市板橋區互助街25巷9號","121.463248333333","25.027025","6500100","板橋區"
"220045","831-TW","2018/06/04 14:09:39","新北市板橋區莒光路157號","121.473591666667","25.0240916666667","6500100","板橋區"
"220038","833-TW","2018/06/04 14:09:35","新北市板橋區文化路二段445號","121.475246666667","25.0333266666667","6500100","板橋區"
"220022","895-R6","2018/06/04 14:09:33","新北市板橋區南門街36號","121.457083333333","25.0083016666667","6500100","板橋區"
"220021","985-R7","2018/06/04 14:09:32","新北市板橋區館前西路152-2號","121.455273333333","25.00844","6500100","板橋區"
"220046","AAC-210","2018/06/04 14:09:30","新北市板橋區幸福路60巷58號","121.459633333333","25.0220033333333","6500100","板橋區"
"220018","AAC-253","2018/06/04 14:09:26","新北市板橋區四川路一段206號","121.459475","25.0022283333333","6500100","板橋區"
"235032","KEA-2873","2018/06/04 14:09:27","新北市中和區中正路211巷13弄50號","121.498123333333","24.9929716666667","6500300","中和區"
"235025","KEA-2875","2018/06/04 14:09:35","新北市中和區民治街130巷1號","121.47522","25.0025833333333","6500300","中和區"
