"lineid","car","time","location","longitude","latitude","cityid","cityname"
"234005","207-UY","2018/06/04 14:59:39","新北市永和區安樂路218號","121.51501","25.0021316666667","6500400","永和區"
"234078","298-R6","2018/06/04 14:59:33","新北市永和區永貞路82號","121.520116666667","25.00511","6500400","永和區"
"234062","337-UY","2018/06/04 14:59:40","新北市永和區環河西路二段247號","121.499986666667","25.0094066666667","6500400","永和區"
"234028","746-BX","2018/06/04 14:59:31","新北市永和區民權路84號","121.519863333333","24.99705","6500400","永和區"
"234052","KEA-2590","2018/06/04 14:59:32","新北市永和區光復街2巷23號","121.517186666667","25.0166733333333","6500400","永和區"
"234048","863-TW","2018/06/04 14:59:43","新北市永和區保安路138號","121.508653333333","25.0150366666667","6500400","永和區"
"234025","9371-KE","2018/06/04 14:59:40","新北市永和區中和路493號","121.510385","25.0025283333333","6500400","永和區"
"234010","9373-KE","2018/06/04 14:59:32","新北市永和區保生路55號","121.504621666667","25.0107566666667","6500400","永和區"
"248015","026-BX","2018/06/04 14:59:38","新北市五股區天乙路60號","121.44819","25.1046683333333","6501500","五股區"
"248007","095-VK","2018/06/04 14:59:39","新北市五股區四維路116-5號","121.468198333333","25.0744266666667","6501500","五股區"
"248019","225-UY","2018/06/04 14:59:45","新北市五股區凌雲路三段24巷16-3號","121.435183333333","25.1050733333333","6501500","五股區"
"248011","247-BX","2018/06/04 14:59:33","新北市五股區六合街42號","121.432766666667","25.08932","6501500","五股區"
"248013","261-SL","2018/06/04 14:59:26","新北市五股區成泰路二段226號","121.439638333333","25.0862933333333","6501500","五股區"
"248003","677-BX","2018/06/04 14:59:29","新北市五股區成泰路一段8巷4號","121.435041666667","25.06678","6501500","五股區"
"248001","678-BX","2018/06/04 14:59:32","新北市五股區成泰路三段229號","121.446336666667","25.0932466666667","6501500","五股區"
"248009","682-TV","2018/06/04 14:59:45","新北市五股區成泰路一段2-7號","121.434128333333","25.06706","6501500","五股區"
"234022","9380-KE","2018/06/04 14:59:37","新北市永和區保生路55-1號","121.504486666667","25.010925","6500400","永和區"
"234072","AAC-211","2018/06/04 14:59:35","新北市永和區環河東路二段54-1號","121.523348333333","25.01151","6500400","永和區"
"234001","AAC-295","2018/06/04 14:59:24","新北市永和區中正路553號","121.516748333333","25.008235","6500400","永和區"
"244001","248-BX","2018/06/04 14:59:31","新北市林口區竹林路265號","121.389628333333","25.0807416666667","6501700","林口區"
"243003","267-VK","2018/06/04 14:59:30","新北市泰山區壽山路38號","121.420516666667","25.0290616666667","6501600","泰山區"
"243005","AAD-798","2018/06/04 14:59:30","新北市泰山區新民路14巷1號","121.426548333333","25.0446366666667","6501600","泰山區"
"243001","297-R6","2018/06/04 14:59:23","新北市泰山區泰林路二段251號","121.431791666667","25.0622533333333","6501600","泰山區"
"243008","380-SR","2018/06/04 14:59:43","新北市泰山區貴陽街6號","121.421495","25.03303","6501600","泰山區"
"243007","421-VK","2018/06/04 14:59:35","新北市泰山區泰林路二段71號","121.435055","25.058455","6501600","泰山區"
"243002","KEA-2216","2018/06/04 14:59:25","新北市泰山區新生路31巷7號","121.427658333333","25.04596","6501600","泰山區"
"243004","646-TV","2018/06/04 14:59:25","新北市泰山區楓江路95號","121.437896666667","25.0638216666667","6501600","泰山區"
"243006","680-BX","2018/06/04 14:59:38","新北市泰山區明志路一段139號","121.4334","25.0629766666667","6501600","泰山區"
"231002","002-UM","2018/06/04 14:59:36","新北市新店區建國路268號","121.537523333333","24.9830383333333","6500600","新店區"
"231027","0291-UT","2018/06/04 14:59:28","新北市新店區安和路三段1號","121.517371666667","24.979735","6500600","新店區"
"231028","046-UY","2018/06/04 14:59:26","新北市新店區安德街130巷12號","121.508376666667","24.96096","6500600","新店區"
"231001","047-UY","2018/06/04 14:59:27","新北市新店區中正路253號","121.538935","24.9735116666667","6500600","新店區"
"231005","106-UY","2018/06/04 14:59:30","新北市新店區復興路86號","121.533648333333","24.988235","6500600","新店區"
"231019","108-UY","2018/06/04 14:59:28","新北市新店區新烏路二段9-1號","121.545316666667","24.9292766666667","6500600","新店區"
"231007","110-UY","2018/06/04 14:59:31","新北市新店區車子路15號","121.50384","24.9543333333333","6500600","新店區"
"231011","187-VK","2018/06/04 14:59:32","新北市新店區永華街36號","121.544671666667","24.9753433333333","6500600","新店區"
"231023","KEA-2219","2018/06/04 14:59:23","新北市新店區檳榔路29巷2號","121.541858333333","24.9636116666667","6500600","新店區"
"231026","256-BX","2018/06/04 14:59:35","新北市新店區博愛街11巷2號","121.54101","24.9732533333333","6500600","新店區"
"231003","268-BY","2018/06/04 14:59:37","新北市新店區中正路2號","121.545903333333","24.969275","6500600","新店區"
"231018","278-BY","2018/06/04 14:59:41","新北市新店區中央路230號","121.529503333333","24.9726583333333","6500600","新店區"
"231014","AAD-862","2018/06/04 14:59:40","新北市新店區雙峰路16-1號","121.581603333333","24.9502783333333","6500600","新店區"
"231038","3712-VJ","2018/06/04 14:59:37","新北市新店區安華路28-1號","121.5197","24.9607966666667","6500600","新店區"
"231037","4716-K9","2018/06/04 14:59:41","新北市新店區柴埕路52巷20號","121.510208333333","24.9656783333333","6500600","新店區"
"231025","4715-K9","2018/06/04 14:59:40","新北市新店區民族路162號","121.537548333333","24.9767383333333","6500600","新店區"
"231036","512-UM","2018/06/04 14:59:25","新北市新店區安祥路102巷30弄17號","121.48466","24.963495","6500600","新店區"
"231013","513-UM","2018/06/04 14:59:37","新北市新店區北新路二段121巷15弄1號","121.542283333333","24.9746883333333","6500600","新店區"
"231030","619-UM","2018/06/04 14:59:36","新北市新店區安民街299號","121.517603333333","24.9735933333333","6500600","新店區"
"231034","641-BX","2018/06/04 14:59:41","新北市新店區玫瑰路4-1號","121.493625","24.95134","6500600","新店區"
"231039","718-UY","2018/06/04 14:59:41","新北市新店區寶安街17號","121.542015","24.9819933333333","6500600","新店區"
"231035","719-UY","2018/06/04 14:59:22","新北市新店區安和路二段220號","121.518586666667","24.97653","6500600","新店區"
"231031","720-UM","2018/06/04 14:59:33","新北市新店區安泰路70號","121.48527","24.9475066666667","6500600","新店區"
"231029","897-TW","2018/06/04 14:59:27","新北市新店區安康路三段466號","121.48394","24.9508433333333","6500600","新店區"
"231006","898-TW","2018/06/04 14:59:42","新北市新店區北宜路一段170號","121.540726666667","24.9530233333333","6500600","新店區"
"231004","899-TW","2018/06/04 14:59:26","新北市新店區民族路103號","121.538498333333","24.97753","6500600","新店區"
"231024","AKT-0513","2018/06/04 14:59:27","新北市新店區中華路83巷21號","121.53871","24.968025","6500600","新店區"
"235028","005-UY","2018/06/04 14:59:24","新北市中和區圓通路15號","121.501528333333","24.9979566666667","6500300","中和區"
"235027","006-UY","2018/06/04 14:59:33","新北市中和區連城路263巷9弄1號","121.492286666667","24.995645","6500300","中和區"
"235020","096-UM","2018/06/04 14:59:35","新北市中和區中山路三段134號","121.473956666667","25.0063166666667","6500300","中和區"
"235003","097-UM","2018/06/04 14:59:27","新北市中和區景德街1號","121.519175","24.9913933333333","6500300","中和區"
"235029","098-UM","2018/06/04 14:59:31","新北市中和區永和路90巷9號","121.497576666667","25.00609","6500300","中和區"
"235004","150-BY","2018/06/04 14:59:28","新北市中和區景安路79巷21號","121.50706","24.9967683333333","6500300","中和區"
"235019","183-VK","2018/06/04 14:59:26","新北市中和區民生街73號","121.469195","25.0049816666667","6500300","中和區"
"235002","185-VK","2018/06/04 14:59:29","新北市永和區成功路二段146號","121.52619","24.997","6500300","中和區"
"235031","255-BX","2018/06/04 14:59:19","新北市板橋區民生路三段250號","121.46418","25.0309566666667","6500300","中和區"
"235008","293-VK","2018/06/04 14:59:36","新北市中和區南山路399巷9號","121.50688","24.990365","6500300","中和區"
"235036","301-VK","2018/06/04 14:59:40","新北市中和區中正路454號","121.490735","24.9941633333333","6500300","中和區"
"235007","352-BY","2018/06/04 14:59:44","新北市中和區景平路468號","121.505551666667","24.99355","6500300","中和區"
"235033","4980-A6","2018/06/04 14:59:34","新北市中和區圓通路72號","121.500211666667","24.997265","6500300","中和區"
"235034","558-UM","2018/06/04 14:59:36","新北市中和區景平路535號","121.49884","24.99925","6500300","中和區"
"235018","640-BX","2018/06/04 14:59:34","新北市中和區民享街86巷38號","121.47278","25.0005233333333","6500300","中和區"
"235024","647-TV","2018/06/04 14:59:38","新北市中和區新生街114巷1號","121.48349","25.0024083333333","6500300","中和區"
"235010","733-UM","2018/06/04 14:59:26","新北市中和區興南路一段93巷58弄7號","121.510461666667","24.9858366666667","6500300","中和區"
"235035","783-BX","2018/06/04 14:59:40","新北市中和區連城路280號","121.484346666667","24.996245","6500300","中和區"
"235021","801-TS","2018/06/04 14:59:38","新北市中和區中正路910號","121.483585","25.0073716666667","6500300","中和區"
"235005","802-TS","2018/06/04 14:59:43","新北市中和區宜安路140號","121.509618333333","24.9984466666667","6500300","中和區"
"235016","805-TS","2018/06/04 14:59:26","新北市中和區忠孝街37巷4號","121.51121","24.983585","6500300","中和區"
"235012","896-TW","2018/06/04 14:59:35","新北市中和區忠孝街1巷2-1號","121.50914","24.9831016666667","6500300","中和區"
"235017","900-TW","2018/06/04 14:59:33","新北市中和區民德路256號","121.467851666667","24.997145","6500300","中和區"
"235030","911-UM","2018/06/04 14:59:41","新北市中和區南工路72號","121.506493333333","25.0021416666667","6500300","中和區"
"235015","157-BY","2018/06/04 14:59:41","新北市中和區復興路260-1號","121.503481666667","24.9902916666667","6500300","中和區"
"235001","AAC-213","2018/06/04 14:59:34","新北市中和區自立路38-1號","121.522815","24.992545","6500300","中和區"
"235023","AAC-215","2018/06/04 14:59:35","新北市中和區圓通路305巷48號","121.495455","24.9889533333333","6500300","中和區"
"220016","013-TV","2018/06/04 14:59:36","新北市板橋區光復街208號","121.48564","25.0201916666667","6500100","板橋區"
"220013","072-UY","2018/06/04 14:59:33","新北市板橋區民族路276巷1弄2號","121.469811666667","25.0065066666667","6500100","板橋區"
"220105","075-UY","2018/06/04 14:59:36","新北市板橋區民治街57巷32-1號","121.480141666667","25.0341316666667","6500100","板橋區"
"220017","AAD-861","2018/06/04 14:59:41","新北市板橋區貴興路119巷1弄1號","121.455755","25.00229","6500100","板橋區"
"247001","002-UY","2018/06/04 14:59:33","新北市蘆洲區永康街58號","121.459208333333","25.086095","6501400","蘆洲區"
"235011","251-BX","2018/06/04 14:59:30","新北市中和區和平街23-2號","121.50799","24.990935","6500300","中和區"
"253003","6232-TK","2018/06/04 14:59:39","新北市石門區十八王公廟攤販區2號","121.586111666667","25.2921816666667","6502200","石門區"
"253001","6251-TK","2018/06/04 14:59:39","新北市石門區崁子腳53-3號","121.536281666667","25.2823133333333","6502200","石門區"
"253002","637-UY","2018/06/04 14:59:40","新北市石門區中央路2-1號","121.565221666667","25.291185","6502200","石門區"
"253004","8270-PC","2018/06/04 14:59:35","新北市石門區茂林社區57號","121.592501666667","25.2701016666667","6502200","石門區"
"207002","749-BX","2018/06/04 14:59:25","新北市萬里區崁腳里崁腳路73號","121.647616666667","25.15961","6502800","萬里區"
"207001","662-BX","2018/06/04 14:59:37","新北市萬里區雙興里豐稟路6-1號","121.649115","25.1851983333333","6502800","萬里區"
"236064","105-UM","2018/06/04 14:59:29","新北市土城區裕生路88號","121.44722","24.9851","6501300","土城區"
"236040","107-UM","2018/06/04 14:59:29","新北市土城區裕民路214巷12號","121.452926666667","24.9840583333333","6501300","土城區"
"236074","166-UM","2018/06/04 14:59:37","新北市土城區中央路四段121號","121.416346666667","24.9574916666667","6501300","土城區"
"236029","253-BX","2018/06/04 14:59:23","新北市土城區中央路二段12號","121.442765","24.98069","6501300","土城區"
"236024","269-VK","2018/06/04 14:59:34","新北市土城區中正路56巷2號","121.443841666667","24.975235","6501300","土城區"
"236012","270-VK","2018/06/04 14:59:34","新北市土城區立德路29巷8號","121.46224","24.9882983333333","6501300","土城區"
"236032","271-VK","2018/06/04 14:59:41","新北市土城區仁愛路6巷1號","121.4599","24.9811266666667","6501300","土城區"
"236016","401-BY","2018/06/04 14:59:31","新北市土城區延吉街168巷2弄2號","121.468313333333","24.9856366666667","6501300","土城區"
"236057","912-UM","2018/06/04 14:59:33","新北市土城區金城路二段12號","121.449175","24.9772316666667","6501300","土城區"
"236045","913-UM","2018/06/04 14:59:32","新北市土城區青雲路291號","121.459061666667","24.979765","6501300","土城區"
"236060","915-UM","2018/06/04 14:59:41","新北市土城區金城路三段93巷10號","121.466905","24.9880116666667","6501300","土城區"
"236054","AAC-216","2018/06/04 14:59:34","新北市土城區學成路162號","121.448065","24.98916","6501300","土城區"
"238010","601-UM","2018/06/04 14:59:27","新北市樹林區育德街78-1號","121.387361666667","24.9681866666667","6500700","樹林區"
"238018","571-TV","2018/06/04 14:59:41","新北市樹林區八德街682號","121.39622","24.969055","6500700","樹林區"
"238009","KEA-2213","2018/06/04 14:59:33","新北市樹林區育德街78-1號","121.38859","24.96805","6500700","樹林區"
"238008","KEA-2539","2018/06/04 14:59:27","新北市樹林區佳園路一段153號","121.3938","24.9682533333333","6500700","樹林區"
"238012","303-VK","2018/06/04 14:59:40","新北市樹林區育德街78號","121.387468333333","24.9684833333333","6500700","樹林區"
"238013","172-UY","2018/06/04 14:59:44","新北市樹林區育德街78-1號","121.388061666667","24.968295","6500700","樹林區"
"221032","280-BY","2018/06/04 14:59:35","新北市汐止區橫科路2巷3號","121.616865","25.0512616666667","6501100","汐止區"
"220027","145-BY","2018/06/04 14:59:28","新北市板橋區幸福路70巷1號","121.460578333333","25.01997","6500100","板橋區"
"220028","200-UY","2018/06/04 14:59:29","新北市板橋區大觀路二段153巷46弄42號","121.44936","25.000275","6500100","板橋區"
"220030","610-BX","2018/06/04 14:59:45","新北市板橋區金門街92-2號","121.433123333333","24.9925316666667","6500100","板橋區"
"220004","276-BY","2018/06/04 14:59:23","新北市板橋區四川路二段47巷3弄1號","121.45426","24.9947533333333","6500100","板橋區"
"220020","277-BY","2018/06/04 14:59:44","新北市板橋區金門街215巷55號","121.43373","24.989495","6500100","板橋區"
"220042","280-UM","2018/06/04 14:59:31","新北市板橋區文化路二段656號","121.478915","25.0357683333333","6500100","板橋區"
"220019","283-VK","2018/06/04 14:59:35","新北市板橋區五權街30巷26號","121.463936666667","24.9931316666667","6500100","板橋區"
"220043","285-UM","2018/06/04 14:59:28","新北市板橋區文德路26號","121.462573333333","25.0244616666667","6500100","板橋區"
"220001","285-VK","2018/06/04 14:59:25","新北市板橋區民享街63號","121.47633","25.0153733333333","6500100","板橋區"
"220031","286-VK","2018/06/04 14:59:37","新北市板橋區僑中二街8巷12號","121.446646666667","25.0112866666667","6500100","板橋區"
"220029","287-VK","2018/06/04 14:59:23","新北市板橋區大觀路一段29巷179弄21號","121.44966","25.0045866666667","6500100","板橋區"
"220009","293-UM","2018/06/04 14:59:41","新北市板橋區中山路一段283巷2弄5號","121.47034","25.0147466666667","6500100","板橋區"
"220032","296-UM","2018/06/04 14:59:39","新北市板橋區滿平二街10巷2弄1-4號","121.425596666667","24.98697","6500100","板橋區"
"220023","303-R5","2018/06/04 14:59:41","新北市板橋區大勇街1巷2號","121.455116666667","25.0174783333333","6500100","板橋區"
"220010","305-R5","2018/06/04 14:59:27","新北市板橋區中山路二段416巷57弄2號","121.482968333333","25.01891","6500100","板橋區"
"220041","307-R5","2018/06/04 14:59:42","新北市板橋區四維路259巷60-2號","121.460661666667","25.0268683333333","6500100","板橋區"
"220047","317-R6","2018/06/04 14:59:33","新北市板橋區英士路192-1號","121.458275","25.0236","6500100","板橋區"
"220001","461-BY","2018/06/04 14:59:28","新北市板橋區南雅西路一段154號","121.452645","25.0076366666667","6500100","板橋區"
"220037","491-VK","2018/06/04 14:59:28","新北市板橋區文化路二段359號","121.47298","25.030765","6500100","板橋區"
"220104","560-BX","2018/06/04 14:59:31","新北市板橋區公館街260號","121.459685","25.0209966666667","6500100","板橋區"
"220052","561-BX","2018/06/04 14:59:30","新北市板橋區自由路48號","121.465928333333","25.0233616666667","6500100","板橋區"
"220011","609-BX","2018/06/04 14:59:37","新北市板橋區三民路二段76號","121.47917","25.016935","6500100","板橋區"
"220034","630-UY","2018/06/04 14:59:37","新北市板橋區中正路13號","121.45613","25.0122366666667","6500100","板橋區"
"220040","637-BX","2018/06/04 14:59:31","新北市板橋區懷德街127巷13號","121.479266666667","25.0311133333333","6500100","板橋區"
"220005","686-BX","2018/06/04 14:59:31","新北市板橋區廣和街106號","121.462346666667","24.9931033333333","6500100","板橋區"
"220025","687-BX","2018/06/04 14:59:44","新北市板橋區僑中一街120號","121.446011666667","25.0117683333333","6500100","板橋區"
"220002","741-BX","2018/06/04 14:59:28","新北市板橋區實踐路93巷74號","121.46664","25.0048666666667","6500100","板橋區"
"220051","KEA-2699","2018/06/04 14:59:32","新北市板橋區仁化街5號","121.474821666667","25.031675","6500100","板橋區"
"220012","806-UM","2018/06/04 14:59:35","新北市板橋區館前東路112號","121.463413333333","25.00773","6500100","板橋區"
"220003","827-TW","2018/06/04 14:59:41","新北市板橋區重慶路293號","121.463216666667","24.9992633333333","6500100","板橋區"
"220014","829-TW","2018/06/04 14:59:40","新北市板橋區漢生東路193巷71號","121.472435","25.0119016666667","6500100","板橋區"
"220039","830-TW","2018/06/04 14:59:26","新北市板橋區英士路192-1號","121.45842","25.0236266666667","6500100","板橋區"
"220045","831-TW","2018/06/04 14:59:39","新北市板橋區莊敬路86-3號","121.471498333333","25.02484","6500100","板橋區"
"220038","833-TW","2018/06/04 14:59:33","新北市板橋區綠堤街41-1號","121.455335","25.0259816666667","6500100","板橋區"
"220022","895-R6","2018/06/04 14:59:33","新北市板橋區府中路29-2號","121.458456666667","25.0081183333333","6500100","板橋區"
"220021","985-R7","2018/06/04 14:59:32","新北市板橋區南雅西路二段283號","121.451991666667","25.0153","6500100","板橋區"
"220046","AAC-210","2018/06/04 14:59:30","新北市板橋區漢生西路56號","121.463026666667","25.018805","6500100","板橋區"
"220018","AAC-253","2018/06/04 14:59:29","新北市板橋區民族路239號","121.470013333333","25.0070616666667","6500100","板橋區"
"235032","KEA-2873","2018/06/04 14:59:27","新北市中和區莊敬路16巷14號","121.500003333333","25.003745","6500300","中和區"
"235025","KEA-2875","2018/06/04 14:59:42","新北市中和區新生街166巷20號","121.482583333333","25.000285","6500300","中和區"
