"lineid","car","time","location","longitude","latitude","cityid","cityname"
"243014","680-BX","2018/06/04 15:38:42","新北市泰山區黎明路25號","121.422153333333","25.0606533333333","6501600","泰山區"
"231002","002-UM","2018/06/04 15:39:36","新北市新店區環河路152號","121.535423333333","24.9662383333333","6500600","新店區"
"231028","046-UY","2018/06/04 15:39:26","新北市新店區僑義路9-1號","121.50029","24.9517316666667","6500600","新店區"
"231005","106-UY","2018/06/04 15:39:30","新北市新店區建國路160號","121.538523333333","24.9794516666667","6500600","新店區"
"231019","108-UY","2018/06/04 15:39:28","新北市新店區新烏路一段85巷6-6號","121.549723333333","24.9427466666667","6500600","新店區"
"231007","110-UY","2018/06/04 15:30:26","新北市新店區安華路3號","121.519166666667","24.9603416666667","6500600","新店區"
"231011","187-VK","2018/06/04 15:39:23","新北市新店區寶元路一段105號","121.545636666667","24.9831883333333","6500600","新店區"
"231023","KEA-2219","2018/06/04 15:39:43","新北市新店區中興路一段270-1號","121.545256666667","24.9681033333333","6500600","新店區"
"231026","256-BX","2018/06/04 15:39:35","新北市新店區三民路75巷6號","121.535371666667","24.97095","6500600","新店區"
"231003","268-BY","2018/06/04 15:39:41","新北市新店區中興路二段217號","121.548165","24.9742733333333","6500600","新店區"
"231018","278-BY","2018/06/04 15:39:41","新北市新店區民生路156巷117號","121.526793333333","24.982515","6500600","新店區"
"231014","AAD-862","2018/06/04 15:39:20","新北市新店區北宜路二段21-1號","121.548325","24.9515366666667","6500600","新店區"
"231038","3712-VJ","2018/06/04 15:39:37","新北市新店區安康路二段16巷12號","121.51634","24.9643966666667","6500600","新店區"
"231037","4716-K9","2018/06/04 15:39:41","新北市新店區安興路56號","121.516366666667","24.9747566666667","6500600","新店區"
"231025","4715-K9","2018/06/04 15:39:40","新北市新店區環河路18號","121.536943333333","24.9616166666667","6500600","新店區"
"231036","512-UM","2018/06/04 15:39:25","新北市新店區安祥路35-1號","121.491953333333","24.9553333333333","6500600","新店區"
"231013","513-UM","2018/06/04 15:39:37","新北市新店區永業路81巷7弄27號","121.53109","24.9495516666667","6500600","新店區"
"231030","619-UM","2018/06/04 15:39:36","新北市新店區新和街65號","121.520073333333","24.9857233333333","6500600","新店區"
"231034","641-BX","2018/06/04 15:39:41","新北市新店區玫瑰路58巷1號","121.495425","24.9465683333333","6500600","新店區"
"231039","718-UY","2018/06/04 15:39:41","新北市新店區寶元路二段67號","121.547568333333","24.9808283333333","6500600","新店區"
"231035","719-UY","2018/06/04 15:39:42","新北市新店區安興路92號","121.515188333333","24.976105","6500600","新店區"
"231031","720-UM","2018/06/04 15:39:33","新北市新店區雙城路133號","121.497901666667","24.9388183333333","6500600","新店區"
"231029","897-TW","2018/06/04 15:39:27","新北市新店區安康路三段79號","121.491903333333","24.9519533333333","6500600","新店區"
"231004","899-TW","2018/06/04 15:39:46","新北市新店區民族路105號","121.538163333333","24.9773683333333","6500600","新店區"
"241011","013-R5","2018/06/04 15:39:39","新北市三重區龍濱路285號","121.501115","25.0735783333333","6500200","三重區"
"241028","022-UY","2018/06/04 15:39:40","新北市三重區重新路四段121號","121.484705","25.0526183333333","6500200","三重區"
"241008","059-VK","2018/06/04 15:39:36","新北市三重區重新路四段121號","121.48491","25.0519066666667","6500200","三重區"
"241015","062-VK","2018/06/04 15:39:40","新北市三重區重新路四段121號","121.485155","25.0520383333333","6500200","三重區"
"241017","063-VK","2018/06/04 15:39:43","新北市三重區大仁街1號","121.49164","25.06359","6500200","三重區"
"241024","065-VK","2018/06/04 15:39:34","新北市三重區重新路四段121號","121.484883333333","25.0521183333333","6500200","三重區"
"241026","066-VK","2018/06/04 15:39:24","新北市三重區重新路四段121號","121.484765","25.052075","6500200","三重區"
"241003","091-VK","2018/06/04 15:39:38","新北市三重區重新路四段121號","121.484851666667","25.0521966666667","6500200","三重區"
"241013","742-BX","2018/06/04 15:39:23","新北市三重區重新路四段121號","121.485105","25.0518916666667","6500200","三重區"
"241005","262-UM","2018/06/04 15:39:41","新北市三重區重新路四段121號","121.484851666667","25.0519183333333","6500200","三重區"
"241009","265-UM","2018/06/04 15:39:35","新北市三重區重新路四段121號","121.484951666667","25.051995","6500200","三重區"
"241016","266-UM","2018/06/04 15:39:31","新北市三重區重新路四段121號","121.485128333333","25.0520616666667","6500200","三重區"
"241022","267-UM","2018/06/04 15:39:29","新北市三重區重新路四段121號","121.484708333333","25.0524733333333","6500200","三重區"
"241018","268-UM","2018/06/04 15:39:37","新北市三重區重新路四段121號","121.484846666667","25.05255","6500200","三重區"
"241025","271-UM","2018/06/04 15:39:37","新北市三重區重新路四段121號","121.484786666667","25.05253","6500200","三重區"
"241002","413-TH","2018/06/04 15:39:34","新北市三重區重新路四段121號","121.484835","25.052025","6500200","三重區"
"241004","475-VK","2018/06/04 15:39:40","新北市三重區重新路四段121號","121.484906666667","25.051855","6500200","三重區"
"241020","478-VK","2018/06/04 15:39:34","新北市三重區忠孝路二段61號","121.484998333333","25.070565","6500200","三重區"
"241030","480-VK","2018/06/04 15:39:34","新北市三重區重新路四段121號","121.484681666667","25.0529533333333","6500200","三重區"
"241013","543-UM","2018/06/04 15:39:33","新北市三重區正義北路332號","121.49473","25.0707633333333","6500200","三重區"
"241023","545-UM","2018/06/04 15:39:26","新北市三重區重新路四段121號","121.484721666667","25.0525716666667","6500200","三重區"
"241001","547-UM","2018/06/04 15:39:43","新北市三重區重新路四段121號","121.484441666667","25.0522116666667","6500200","三重區"
"241019","KEA-2593","2018/06/04 15:39:40","新北市三重區重新路四段121號","121.48496","25.05218","6500200","三重區"
"241006","AAD-863","2018/06/04 15:39:33","新北市三重區忠孝路三段52號","121.480678333333","25.0658166666667","6500200","三重區"
"241032","887-TS","2018/06/04 15:39:31","新北市三重區捷運路11-2號","121.485756666667","25.0562833333333","6500200","三重區"
"241029","942-UM","2018/06/04 15:39:31","新北市三重區大同南路202號","121.496788333333","25.0567166666667","6500200","三重區"
"241033","AAC-255","2018/06/04 15:39:29","新北市三重區中興南街58號","121.470358333333","25.044225","6500200","三重區"
"235003","097-UM","2018/06/04 15:39:27","新北市中和區安樂路217巷36號","121.513538333333","24.9981983333333","6500300","中和區"
"235033","4980-A6","2018/06/04 15:39:34","新北市中和區員山路375號","121.480955","25.00224","6500300","中和區"
"235034","558-UM","2018/06/04 15:39:36","新北市中和區中正路488-3號","121.489053333333","24.9943166666667","6500300","中和區"
"235023","AAC-215","2018/06/04 15:39:35","新北市中和區員山路5-5號","121.48318","24.98449","6500300","中和區"
"227001","642-TC","2018/06/04 15:39:28","新北市雙溪區牡丹里中正路54號","121.865436666667","25.0401933333333","6502500","雙溪區"
"236064","105-UM","2018/06/04 15:39:45","新北市土城區中央路三段140號","121.433138333333","24.96551","6501300","土城區"
"236040","107-UM","2018/06/04 15:39:29","新北市土城區裕民路8-1號","121.447041666667","24.98901","6501300","土城區"
"236074","166-UM","2018/06/04 15:39:37","新北市土城區福安街106號","121.417235","24.9639233333333","6501300","土城區"
"236029","253-BX","2018/06/04 15:39:34","新北市土城區中央路一段45巷9號","121.448971666667","24.9901266666667","6501300","土城區"
"236024","269-VK","2018/06/04 15:39:34","新北市土城區中央路一段269號","121.445","24.98533","6501300","土城區"
"236012","270-VK","2018/06/04 15:39:28","新北市土城區廣明街90巷21號","121.455436666667","24.9945433333333","6501300","土城區"
"236016","401-BY","2018/06/04 15:39:42","新北市土城區延吉街111巷10號","121.471701666667","24.9860683333333","6501300","土城區"
"236057","912-UM","2018/06/04 15:39:33","新北市土城區員福街24號","121.44142","24.9787033333333","6501300","土城區"
"236045","913-UM","2018/06/04 15:39:32","新北市土城區金城路三段192號","121.468391666667","24.988065","6501300","土城區"
"236054","AAC-216","2018/06/04 15:39:33","新北市土城區學府路一段146號","121.454926666667","24.9870733333333","6501300","土城區"
"238002","755-BX","2018/06/04 15:39:42","新北市樹林區日新街83號","121.421728333333","24.990395","6500700","樹林區"
"238010","601-UM","2018/06/04 15:39:27","新北市樹林區福興街3巷19號","121.404751666667","25.01678","6500700","樹林區"
"238003","599-UM","2018/06/04 15:39:35","新北市樹林區太平路190-1號","121.418381666667","24.976015","6500700","樹林區"
"238005","571-TV","2018/06/04 15:39:41","新北市樹林區中華路172-3號","121.413861666667","24.9804283333333","6500700","樹林區"
"238011","5061-A6","2018/06/04 15:39:35","新北市樹林區山佳街57-1號","121.392906666667","24.9724483333333","6500700","樹林區"
"238009","KEA-2213","2018/06/04 15:39:33","新北市樹林區中華路185-1號","121.420363333333","24.9818","6500700","樹林區"
"238008","KEA-2539","2018/06/04 15:39:27","新北市樹林區柑園街一段351號","121.390133333333","24.9563566666667","6500700","樹林區"
"238012","303-VK","2018/06/04 15:39:40","新北市樹林區中山路一段160-2號","121.412131666667","24.982815","6500700","樹林區"
"238001","283-BY","2018/06/04 15:39:40","新北市樹林區保安街二段215號","121.4131","25.00404","6500700","樹林區"
"238001","282-BY","2018/06/04 15:39:36","新北市樹林區潭興街143巷28弄2號","121.424925","24.9996833333333","6500700","樹林區"
"238007","268-VK","2018/06/04 15:39:33","新北市樹林區俊英街222號","121.424948333333","25.0099533333333","6500700","樹林區"
"238013","172-UY","2018/06/04 15:39:24","新北市樹林區中洲街30巷6弄4號","121.397336666667","24.971375","6500700","樹林區"
"238003","169-UY","2018/06/04 15:39:42","新北市樹林區文化街60號","121.417838333333","24.9885766666667","6500700","樹林區"
"239006","891-R6","2018/06/04 15:38:22","新北市鶯歌區二甲路171-1號","121.344256666667","24.93563","6500800","鶯歌區"
"220050","245-BX","2018/06/04 15:39:41","新北市板橋區漢生東路83巷1號","121.466391666667","25.0159916666667","6500100","板橋區"
"220031","286-VK","2018/06/04 15:39:37","新北市板橋區僑中二街116巷38號","121.444151666667","25.0067733333333","6500100","板橋區"
"220029","287-VK","2018/06/04 15:39:42","新北市板橋區僑中二街52號","121.446671666667","25.0100683333333","6500100","板橋區"
"220052","561-BX","2018/06/04 15:39:35","新北市板橋區漢生東路43巷2號","121.46583","25.01691","6500100","板橋區"
"220011","609-BX","2018/06/04 15:39:31","新北市板橋區三民路一段136號","121.479291666667","25.0206566666667","6500100","板橋區"
"220038","833-TW","2018/06/04 15:39:31","新北市板橋區四維路301號","121.463195","25.0285083333333","6500100","板橋區"
"220018","AAC-253","2018/06/04 15:39:26","新北市板橋區四川路二段245巷31號","121.45156","24.9928716666667","6500100","板橋區"
