"lineid","car","time","location","longitude","latitude","cityid","cityname"
"243014","680-BX","2018/06/04 15:38:42","新北市泰山區黎明路25號","121.422153333333","25.0606533333333","6501600","泰山區"
"231019","108-UY","2018/06/04 15:49:28","新北市新店區北宜路一段178號","121.540831666667","24.95296","6500600","新店區"
"231007","110-UY","2018/06/04 15:30:26","新北市新店區安華路3號","121.519166666667","24.9603416666667","6500600","新店區"
"231011","187-VK","2018/06/04 15:49:43","新北市新店區中興路三段161號","121.544053333333","24.9802516666667","6500600","新店區"
"231046","188-VK","2018/06/04 15:49:28","新北市新店區安一路一段1-1號","121.519746666667","24.961285","6500600","新店區"
"231023","KEA-2219","2018/06/04 15:49:23","新北市新店區中興路一段216號","121.543875","24.96579","6500600","新店區"
"231026","256-BX","2018/06/04 15:49:35","新北市新店區中正路468號","121.533913333333","24.9796533333333","6500600","新店區"
"231003","268-BY","2018/06/04 15:49:37","新北市新店區寶興路60巷3號","121.549893333333","24.97183","6500600","新店區"
"231018","278-BY","2018/06/04 15:49:41","新北市新店區中正路663巷1弄2號","121.533003333333","24.9900083333333","6500600","新店區"
"231014","AAD-862","2018/06/04 15:49:40","新北市新店區中華路117巷6弄2號","121.537815","24.9688133333333","6500600","新店區"
"231038","3712-VJ","2018/06/04 15:49:37","新北市新店區安康路二段228巷15號","121.509543333333","24.9599183333333","6500600","新店區"
"231037","4716-K9","2018/06/04 15:49:22","新北市新店區安興路56號","121.516533333333","24.9744983333333","6500600","新店區"
"231013","513-UM","2018/06/04 15:49:37","新北市新店區永業路81巷3弄14號","121.530378333333","24.949485","6500600","新店區"
"231030","619-UM","2018/06/04 15:49:36","新北市新店區永安街107號","121.520986666667","24.9856566666667","6500600","新店區"
"231034","641-BX","2018/06/04 15:49:41","新北市新店區玫瑰路57巷3號","121.495928333333","24.9463083333333","6500600","新店區"
"231035","719-UY","2018/06/04 15:49:42","新北市新店區安興路92號","121.51519","24.9761333333333","6500600","新店區"
"231031","720-UM","2018/06/04 15:49:33","新北市新店區雙城路60巷40號","121.492803333333","24.9462683333333","6500600","新店區"
"231029","897-TW","2018/06/04 15:49:27","新北市新店區薏仁坑路8-2號","121.499363333333","24.9589266666667","6500600","新店區"
"231004","899-TW","2018/06/04 15:49:26","新北市新店區中央路155號","121.529663333333","24.9725266666667","6500600","新店區"
"241011","013-R5","2018/06/04 15:49:39","新北市三重區文化北路149-1號","121.49762","25.069505","6500200","三重區"
"241028","022-UY","2018/06/04 15:49:40","新北市三重區中正南路42號","121.493841666667","25.0600583333333","6500200","三重區"
"241008","059-VK","2018/06/04 15:49:36","新北市三重區重新路四段121號","121.484935","25.0519066666667","6500200","三重區"
"241015","062-VK","2018/06/04 15:49:40","新北市三重區重新路四段121號","121.485158333333","25.0520283333333","6500200","三重區"
"241017","063-VK","2018/06/04 15:49:23","新北市三重區大仁街38號","121.491533333333","25.0642216666667","6500200","三重區"
"241024","065-VK","2018/06/04 15:49:34","新北市三重區新北大道一段252號","121.479828333333","25.06143","6500200","三重區"
"241026","066-VK","2018/06/04 15:49:44","新北市三重區泉州街84巷20號","121.495875","25.0543783333333","6500200","三重區"
"241003","091-VK","2018/06/04 15:49:38","新北市三重區長元街105號","121.504575","25.0668833333333","6500200","三重區"
"241013","742-BX","2018/06/04 15:49:43","新北市三重區成功路40號","121.489325","25.0503516666667","6500200","三重區"
"241005","262-UM","2018/06/04 15:49:41","新北市三重區環河南路35號","121.503233333333","25.0611633333333","6500200","三重區"
"241009","265-UM","2018/06/04 15:49:35","新北市三重區重新路四段121號","121.484951666667","25.052","6500200","三重區"
"241016","266-UM","2018/06/04 15:49:31","新北市三重區重新路四段121號","121.485141666667","25.0520333333333","6500200","三重區"
"241022","267-UM","2018/06/04 15:49:29","新北市三重區成功路108巷6-3號","121.486345","25.0504083333333","6500200","三重區"
"241018","268-UM","2018/06/04 15:49:37","新北市三重區重新路四段121號","121.484923333333","25.05242","6500200","三重區"
"241025","271-UM","2018/06/04 15:49:37","新北市三重區捷運路73號","121.482726666667","25.0556416666667","6500200","三重區"
"241007","398-BY","2018/06/04 15:49:43","新北市三重區捷運路73號","121.482608333333","25.0558133333333","6500200","三重區"
"241002","413-TH","2018/06/04 15:49:34","新北市三重區福德南路59-4號","121.502981666667","25.0608583333333","6500200","三重區"
"241004","475-VK","2018/06/04 15:49:40","新北市三重區成功路106-2號","121.487315","25.0517","6500200","三重區"
"241020","478-VK","2018/06/04 15:49:34","新北市三重區忠孝路二段52號","121.485056666667","25.0704216666667","6500200","三重區"
"241030","480-VK","2018/06/04 15:49:34","新北市三重區重新路四段121號","121.484635","25.0526633333333","6500200","三重區"
"241013","543-UM","2018/06/04 15:49:33","新北市三重區六張街16號","121.49553","25.0706316666667","6500200","三重區"
"241023","545-UM","2018/06/04 15:49:26","新北市三重區捷運路36號","121.48281","25.055025","6500200","三重區"
"241001","547-UM","2018/06/04 15:49:43","新北市三重區重新路四段121號","121.484448333333","25.0522866666667","6500200","三重區"
"241019","KEA-2593","2018/06/04 15:49:40","新北市三重區成功路108巷6-3號","121.486526666667","25.0504916666667","6500200","三重區"
"241006","AAD-863","2018/06/04 15:49:33","新北市三重區車路頭街139巷14號","121.48429","25.07623","6500200","三重區"
"241032","887-TS","2018/06/04 15:49:31","新北市三重區三陽路100巷3弄13號","121.482968333333","25.058165","6500200","三重區"
"241012","941-UM","2018/06/04 15:49:39","新北市三重區文化北路83巷2-2號","121.49845","25.067","6500200","三重區"
"241029","942-UM","2018/06/04 15:49:31","新北市三重區大同南路159號","121.496906666667","25.0558016666667","6500200","三重區"
"241033","AAC-255","2018/06/04 15:49:28","新北市三重區光復路一段60號","121.471983333333","25.0488433333333","6500200","三重區"
"235003","097-UM","2018/06/04 15:49:27","新北市中和區景平路278巷16弄2號","121.513943333333","24.9933433333333","6500300","中和區"
"235033","4980-A6","2018/06/04 15:49:34","新北市中和區中正路637巷15弄2號","121.484833333333","24.995085","6500300","中和區"
"235026","800-TS","2018/06/04 15:49:28","新北市中和區橋和路88-1號","121.490275","25.0053766666667","6500300","中和區"
"235023","AAC-215","2018/06/04 15:49:35","新北市中和區員山路32號","121.481041666667","24.9876433333333","6500300","中和區"
"227001","642-TC","2018/06/04 15:49:28","新北市雙溪區平林里外平林44號","121.852935","25.0363133333333","6502500","雙溪區"
"227008","400-TW","2018/06/04 15:49:33","新北市雙溪區牡丹里自強路14號","121.865473333333","25.0392766666667","6502500","雙溪區"
"251008","575-R6","2018/06/04 15:49:27","新北市淡水區中正路二段18號","121.419806666667","25.1810366666667","6501000","淡水區"
"236064","105-UM","2018/06/04 15:49:25","新北市土城區中山路51號","121.42206","24.9633916666667","6501300","土城區"
"236074","166-UM","2018/06/04 15:49:39","新北市土城區中山路45-1號","121.420356666667","24.96288","6501300","土城區"
"236024","269-VK","2018/06/04 15:49:34","新北市土城區裕生路88號","121.446998333333","24.9851633333333","6501300","土城區"
"236057","912-UM","2018/06/04 15:49:33","新北市土城區中央路一段186-2號","121.445538333333","24.9863033333333","6501300","土城區"
"236045","913-UM","2018/06/04 15:49:32","新北市土城區金城路三段19號","121.465038333333","24.986385","6501300","土城區"
"236054","AAC-216","2018/06/04 15:49:33","新北市土城區中華路一段201號","121.442955","24.98521","6501300","土城區"
"238002","755-BX","2018/06/04 15:49:42","新北市樹林區樹德街103號","121.419935","24.9924116666667","6500700","樹林區"
"238010","601-UM","2018/06/04 15:49:27","新北市樹林區龍興街31巷4號","121.403301666667","25.015965","6500700","樹林區"
"238003","599-UM","2018/06/04 15:49:35","新北市樹林區水源街1號","121.424873333333","24.98376","6500700","樹林區"
"238005","571-TV","2018/06/04 15:49:21","新北市樹林區中華路31號","121.423888333333","24.9836616666667","6500700","樹林區"
"238011","5061-A6","2018/06/04 15:49:35","新北市樹林區山佳街57號","121.39289","24.9725083333333","6500700","樹林區"
"238009","KEA-2213","2018/06/04 15:49:33","新北市樹林區太順街62巷3弄33號","121.416538333333","24.9791783333333","6500700","樹林區"
"238008","KEA-2539","2018/06/04 15:49:27","新北市樹林區柑園街二段149巷17-1號","121.38232","24.95367","6500700","樹林區"
"238012","303-VK","2018/06/04 15:49:40","新北市樹林區保安二街46號","121.424458333333","24.99516","6500700","樹林區"
"238001","283-BY","2018/06/04 15:49:40","新北市樹林區保安街二段167巷32號","121.413935","25.0029983333333","6500700","樹林區"
"238001","282-BY","2018/06/04 15:49:36","新北市樹林區保安二街40巷18號","121.425678333333","24.9946933333333","6500700","樹林區"
"238007","268-VK","2018/06/04 15:49:33","新北市樹林區三俊街213-1號","121.420818333333","25.015295","6500700","樹林區"
"238013","172-UY","2018/06/04 15:49:24","新北市樹林區佳園路一段5號","121.392806666667","24.97162","6500700","樹林區"
"238003","169-UY","2018/06/04 15:49:42","新北市樹林區啟智街137巷1號","121.417296666667","24.988355","6500700","樹林區"
"239006","891-R6","2018/06/04 15:38:22","新北市鶯歌區二甲路171-1號","121.344256666667","24.93563","6500800","鶯歌區"
"220018","AAC-253","2018/06/04 15:49:45","新北市板橋區華東街1-8號","121.447958333333","24.9947333333333","6500100","板橋區"
