"lineid","car","time","location","longitude","latitude","cityid","cityname"
"234026","9371-KE","2018/06/04 17:49:33","新北市永和區中山路一段36號","121.513408333333","25.0105566666667","6500400","永和區"
"249005","172-UM","2018/06/04 17:49:39","新北市八里區荖阡坑路34-3號","121.40225","25.1317966666667","6502300","八里區"
"249001","173-UM","2018/06/04 17:49:37","新北市八里區龍米路二段125巷25號","121.446005","25.14635","6502300","八里區"
"249004","303-UY","2018/06/04 17:49:44","新北市八里區中華路一段81巷24號","121.41976","25.1527633333333","6502300","八里區"
"249002","305-UY","2018/06/04 17:49:40","新北市八里區龍形二街21號","121.450623333333","25.13166","6502300","八里區"
"249003","593-UM","2018/06/04 17:49:42","新北市八里區中山路二段196號","121.405706666667","25.152395","6502300","八里區"
"248018","225-UY","2018/06/04 17:49:46","新北市五股區中興路二段83巷26-6號","121.459966666667","25.0752066666667","6501500","五股區"
"248002","678-BX","2018/06/04 17:49:34","新北市五股區中興路二段37巷28號","121.460231666667","25.07475","6501500","五股區"
"232011","375-UM","2018/06/04 17:49:33","新北市坪林區北宜路八段206號","121.708356666667","24.93473","6502000","坪林區"
"244007","080-UY","2018/06/04 17:49:29","新北市林口區佳林路5號","121.387186666667","25.0823566666667","6501700","林口區"
"244019","403-UM","2018/06/04 17:49:38","新北市林口區忠孝路542巷2號","121.372853333333","25.0674016666667","6501700","林口區"
"244013","742-UY","2018/06/04 17:49:38","新北市林口區中山路151號","121.386841666667","25.07918","6501700","林口區"
"244023","483-VK","2018/06/04 17:49:34","新北市林口區育林街30號","121.385993333333","25.0737516666667","6501700","林口區"
"244017","485-VK","2018/06/04 17:49:37","新北市林口區文化二路一段262-8號","121.371576666667","25.07347","6501700","林口區"
"244011","657-BX","2018/06/04 17:49:30","新北市林口區竹林路45號","121.387033333333","25.077695","6501700","林口區"
"244025","837-TS","2018/06/04 17:49:35","新北市林口區文化三路一段181號","121.36217","25.0698433333333","6501700","林口區"
"244021","838-TS","2018/06/04 17:49:28","新北市林口區仁愛路一段167巷12號","121.397921666667","25.0727433333333","6501700","林口區"
"222003","436-BY","2018/06/04 17:49:32","新北市深坑區阿柔洋60-1號","121.608265","24.99861","6501800","深坑區"
"222002","659-BX","2018/06/04 17:49:39","新北市深坑區平埔街22巷17弄1號","121.614868333333","25.000845","6501800","深坑區"
"231046","188-VK","2018/06/04 17:49:48","新北市新店區下石厝路1-1號","121.531263333333","24.928605","6500600","新店區"
"221035","KEA-2785","2018/06/04 17:49:31","新北市汐止區汐萬路一段187號","121.652486666667","25.0715583333333","6501100","汐止區"
"231055","AKT-0513","2018/06/04 17:49:40","新北市新店區安華路1-1號","121.519445","24.9604333333333","6500600","新店區"
"241005","262-UM","2018/06/04 17:49:42","新北市三重區碧華街448號","121.49323","25.0859533333333","6500200","三重區"
"241016","266-UM","2018/06/04 17:49:30","新北市三重區新北大道一段3-1號","121.49008","25.0614283333333","6500200","三重區"
"241007","398-BY","2018/06/04 17:49:43","新北市蘆洲區中山一路417號","121.468625","25.07627","6500200","三重區"
"241033","AAC-255","2018/06/04 17:49:49","新北市三重區光復路一段22號","121.471946666667","25.047135","6500200","三重區"
"235064","005-UY","2018/06/04 17:49:30","新北市中和區員山路36巷16-3號","121.48512","24.9913466666667","6500300","中和區"
"235038","185-VK","2018/06/04 17:49:31","新北市中和區錦和路350-1號","121.490566666667","24.993555","6500300","中和區"
"235067","255-BX","2018/06/04 17:45:15","新北市中和區和城路一段271巷1號","121.485671666667","24.9917966666667","6500300","中和區"
"235062","800-TS","2018/06/04 17:49:31","新北市中和區員山路36巷16-9號","121.484608333333","24.9926883333333","6500300","中和區"
"247024","893-R6","2018/06/04 17:49:41","新北市蘆洲區長樂路120巷2號","121.462273333333","25.0896633333333","6501400","蘆洲區"
"247014","546-UM","2018/06/04 17:49:36","新北市蘆洲區保和街69巷18號","121.46952","25.085305","6501400","蘆洲區"
"247022","500-BY","2018/06/04 17:49:46","新北市蘆洲區三民路341-7號","121.464266666667","25.0914633333333","6501400","蘆洲區"
"247010","341-TH","2018/06/04 17:49:45","新北市蘆洲區民族路62號","121.477203333333","25.0847333333333","6501400","蘆洲區"
"247012","339-TH","2018/06/04 17:49:47","新北市蘆洲區復興路109號","121.477073333333","25.0879133333333","6501400","蘆洲區"
"247004","337-TH","2018/06/04 17:49:32","新北市蘆洲區長安街172巷35弄15號","121.46016","25.084655","6501400","蘆洲區"
"247006","336-TH","2018/06/04 17:49:35","新北市蘆洲區長安街22巷48號","121.46537","25.0805266666667","6501400","蘆洲區"
"247018","057-VK","2018/06/04 17:49:33","新北市蘆洲區復興路231號","121.480123333333","25.0898183333333","6501400","蘆洲區"
"247008","056-VK","2018/06/04 17:49:33","新北市蘆洲區中山一路289號","121.47178","25.0793866666667","6501400","蘆洲區"
"247016","007-UY","2018/06/04 17:49:29","新北市蘆洲區中正路185巷23弄23號","121.467585","25.0839966666667","6501400","蘆洲區"
"247002","002-UY","2018/06/04 17:49:46","新北市蘆洲區永平街32巷21弄32號","121.458","25.092275","6501400","蘆洲區"
"247020","001-UY","2018/06/04 17:49:39","新北市蘆洲區民義街71巷5號","121.472906666667","25.0903483333333","6501400","蘆洲區"
"228003","097-TW","2018/06/04 17:49:37","新北市貢寮區真理里延平街72-5號","121.925186666667","25.058245","6502600","貢寮區"
"228002","585-TW","2018/06/04 17:49:35","新北市貢寮區福隆里外隆林街14-1號","121.959181666667","25.0036083333333","6502600","貢寮區"
"228001","670-TC","2018/06/04 17:49:48","新北市貢寮區仁理村仁愛路95-1號","121.927646666667","25.0554233333333","6502600","貢寮區"
"224006","676-BX","2018/06/04 17:49:33","新北市瑞芳區瑞興新村22巷2號","121.788378333333","25.1082816666667","6501200","瑞芳區"
"224008","285-BY","2018/06/04 17:49:38","新北市瑞芳區明燈路一段6號","121.823101666667","25.10737","6501200","瑞芳區"
"224009","273-VK","2018/06/04 17:49:43","新北市瑞芳區金光路316巷19號","121.850421666667","25.1084466666667","6501200","瑞芳區"
"224005","271-BY","2018/06/04 17:49:35","新北市瑞芳區瑞芳街32-8號","121.823043333333","25.1210333333333","6501200","瑞芳區"
"227001","642-TC","2018/06/04 17:36:36","新北市雙溪區共和里東榮街52號","121.866306666667","25.0337016666667","6502500","雙溪區"
"253006","295-VK","2018/06/04 17:49:26","新北市石門區中山路64-1號","121.567456666667","25.2903966666667","6502200","石門區"
"208003","665-BX","2018/06/04 17:49:34","新北市金山區磺清路135號","121.639385","25.2277483333333","6502700","金山區"
"208001","761-BX","2018/06/04 17:49:29","新北市金山區磺清路135號","121.639333333333","25.2276383333333","6502700","金山區"
"251009","008-UM","2018/06/04 17:49:44","新北市淡水區長興街61號","121.444283333333","25.1720433333333","6501000","淡水區"
"251004","009-UM","2018/06/04 17:49:33","新北市淡水區民權一街32號","121.458585","25.1363866666667","6501000","淡水區"
"251005","010-UM","2018/06/04 17:49:41","新北市淡水區學府路102巷2號","121.450401666667","25.172005","6501000","淡水區"
"251001","011-UM","2018/06/04 17:49:33","新北市淡水區民權路92巷35-1號","121.462076666667","25.12665","6501000","淡水區"
"251013","KEA-2871","2018/06/04 17:49:49","新北市淡水區泉洲厝31號","121.479603333333","25.191055","6501000","淡水區"
"251016","179-VK","2018/06/04 17:49:39","新北市淡水區埤島39-15號","121.452755","25.1959083333333","6501000","淡水區"
"251014","180-VK","2018/06/04 17:49:42","新北市淡水區公埔子16-6號","121.480985","25.2245783333333","6501000","淡水區"
"251015","182-VK","2018/06/04 17:49:43","新北市淡水區興福寮88巷1號","121.485441666667","25.165035","6501000","淡水區"
"251010","413-VK","2018/06/04 17:49:36","新北市淡水區淡海路280巷33弄34-2號","121.418798333333","25.1886683333333","6501000","淡水區"
"251012","441-VK","2018/06/04 17:49:39","新北市淡水區北新路一段3-1號","121.474915","25.18483","6501000","淡水區"
"251007","442-VK","2018/06/04 17:49:40","新北市淡水區民生路16巷33號","121.461836666667","25.1376016666667","6501000","淡水區"
"251006","561-UM","2018/06/04 17:49:42","新北市淡水區中山北路一段45巷17號","121.440911666667","25.175825","6501000","淡水區"
"251008","575-R6","2018/06/04 17:49:34","新北市淡水區八勢路一段149號","121.46754","25.1571033333333","6501000","淡水區"
"251011","650-BX","2018/06/04 17:43:02","新北市淡水區吳(仔)厝10-3號","121.481431666667","25.14797","6501000","淡水區"
"251002","672-BX","2018/06/04 17:49:38","新北市淡水區中山路21號","121.444095","25.1699583333333","6501000","淡水區"
"251003","766-UM","2018/06/04 17:49:28","新北市淡水區大忠街5巷2號","121.44312","25.1763583333333","6501000","淡水區"
"207003","550-UM","2018/06/04 17:49:43","新北市萬里區野柳里東澳路66號","121.692743333333","25.2009516666667","6502800","萬里區"
"207004","225-TW","2018/06/04 17:49:33","新北市萬里區萬里里瑪鋉頂街97號","121.68769","25.180375","6502800","萬里區"
"252002","178-VK","2018/06/04 17:49:38","新北市三芝區民生街30號","121.503616666667","25.256655","6502100","三芝區"
"252001","292-VK","2018/06/04 17:49:33","新北市三芝區中興街一段12號","121.497416666667","25.2592516666667","6502100","三芝區"
"237004","KEA-2597","2018/06/04 17:49:29","新北市三峽區中山路285號","121.361831666667","24.9375916666667","6500900","三峽區"
"237009","210-TH","2018/06/04 17:49:27","新北市三峽區大勇路3巷36號","121.367461666667","24.9367783333333","6500900","三峽區"
"237013","252-BX","2018/06/04 17:49:38","新北市三峽區介壽路一段22號","121.37555","24.9328566666667","6500900","三峽區"
"237012","275-BY","2018/06/04 17:48:08","新北市三峽區民生街57號","121.375325","24.9362266666667","6500900","三峽區"
"237008","302-VK","2018/06/04 17:49:29","新北市三峽區中園街225-4號","121.367331666667","24.9198466666667","6500900","三峽區"
"237014","433-BY","2018/06/04 17:49:44","新北市三峽區和平街36巷15號","121.371205","24.9370016666667","6500900","三峽區"
"237006","5529-G3","2018/06/04 17:49:33","新北市三峽區介壽路二段136巷116-2號","121.3923","24.932655","6500900","三峽區"
"237015","649-BX","2018/06/04 17:49:30","新北市三峽區白雞149-2號","121.40008","24.90548","6500900","三峽區"
"237010","706-TV","2018/06/04 17:49:34","新北市三峽區文化路158號","121.37009","24.9361583333333","6500900","三峽區"
"237005","AKY-6261","2018/06/04 17:49:38","新北市三峽區中山路459巷82號","121.354235","24.93653","6500900","三峽區"
"236069","105-UM","2018/06/04 17:49:31","新北市土城區城林路6巷80號","121.438493333333","24.9797666666667","6501300","土城區"
"236042","107-UM","2018/06/04 17:49:36","新北市土城區城林路6巷80號","121.438583333333","24.979795","6501300","土城區"
"236078","166-UM","2018/06/04 17:49:35","新北市土城區中央路三段180號","121.430883333333","24.9651833333333","6501300","土城區"
"236030","253-BX","2018/06/04 17:49:35","新北市土城區城林路6巷80號","121.438773333333","24.97966","6501300","土城區"
"236014","270-VK","2018/06/04 17:49:34","新北市土城區城林路6巷80號","121.438466666667","24.9796483333333","6501300","土城區"
"236039","271-VK","2018/06/04 17:49:45","新北市土城區城林路6巷80號","121.438525","24.97963","6501300","土城區"
"236059","912-UM","2018/06/04 17:49:29","新北市土城區中華路二段168-1號","121.437466666667","24.97238","6501300","土城區"
"236055","AAC-216","2018/06/04 17:49:43","新北市土城區城林路6巷80號","121.43848","24.97961","6501300","土城區"
"242034","AAC-296","2018/06/04 17:49:30","新北市新莊區新莊路783號","121.441141666667","25.03267","6500500","新莊區"
"242058","986-R7","2018/06/04 17:49:45","新北市新莊區中正路726-13號","121.415243333333","25.0238433333333","6500500","新莊區"
"242053","751-BX","2018/06/04 17:49:40","新北市新莊區民安西路468-1號","121.431656666667","25.0078666666667","6500500","新莊區"
"242027","615-BX","2018/06/04 17:49:27","新北市新莊區福壽街173號","121.457935","25.05385","6500500","新莊區"
"242025","613-BX","2018/06/04 17:49:45","新北市三重區光復路二段172-1號","121.47127","25.0613616666667","6500500","新莊區"
"242029","612-BX","2018/06/04 17:49:43","新北市新莊區復興路一段6號","121.445663333333","25.041405","6500500","新莊區"
"242042","566-BX","2018/06/04 17:49:44","新北市泰山區貴陽街18號","121.422568333333","25.0326633333333","6500500","新莊區"
"242046","497-BY","2018/06/04 17:49:24","新北市新莊區福營路125巷2號","121.433001666667","25.031595","6500500","新莊區"
"242056","440-UM","2018/06/04 17:49:47","新北市新莊區豐年街114號","121.446476666667","25.0304233333333","6500500","新莊區"
"242036","415-TV","2018/06/04 17:49:34","新北市新莊區建福路59巷15號","121.427465","25.0275533333333","6500500","新莊區"
"242007","413-TV","2018/06/04 17:49:48","新北市新莊區福樂街132巷8號","121.456783333333","25.0483","6500500","新莊區"
"242044","400-BY","2018/06/04 17:49:46","新北市新莊區雙鳳路7號","121.417231666667","25.0266966666667","6500500","新莊區"
"242023","362-BY","2018/06/04 17:49:36","新北市新莊區福樂街47號","121.457543333333","25.0472666666667","6500500","新莊區"
"242060","353-BY","2018/06/04 17:49:46","新北市新莊區新樹路583號","121.432866666667","25.0068316666667","6500500","新莊區"
"242009","132-UY","2018/06/04 17:49:39","新北市新莊區昌明街36號","121.456628333333","25.0522333333333","6500500","新莊區"
"242031","135-UY","2018/06/04 17:49:33","新北市新莊區新泰路357巷3弄27號","121.442233333333","25.0406066666667","6500500","新莊區"
"242048","172-VK","2018/06/04 17:49:46","新北市新莊區萬安街102巷16號","121.420358333333","25.0228933333333","6500500","新莊區"
"242017","175-VK","2018/06/04 17:49:37","新北市新莊區中港路341號","121.452175","25.0453716666667","6500500","新莊區"
"242004","176-VK","2018/06/04 17:49:33","新北市新莊區自立街237號","121.458183333333","25.0455333333333","6500500","新莊區"
"242015","346-TH","2018/06/04 17:49:36","新北市新莊區新泰路462號","121.443253333333","25.04485","6500500","新莊區"
"242021","348-TH","2018/06/04 17:49:29","新北市新莊區永寧街37巷1號","121.452805","25.0395233333333","6500500","新莊區"
"242050","349-TH","2018/06/04 17:49:44","新北市新莊區西盛街232巷8號","121.427533333333","25.01643","6500500","新莊區"
"242019","350-TH","2018/06/04 17:49:44","新北市新莊區民樂街97號","121.457888333333","25.0437483333333","6500500","新莊區"
"242013","351-TH","2018/06/04 17:49:40","新北市新莊區中和街82巷1號","121.447925","25.0463983333333","6500500","新莊區"
"238015","755-BX","2018/06/04 17:49:48","新北市樹林區復興路41號","121.421973333333","24.9935633333333","6500700","樹林區"
"238023","601-UM","2018/06/04 17:49:47","新北市樹林區龍興街32巷11號","121.402493333333","25.0157283333333","6500700","樹林區"
"238006","599-UM","2018/06/04 17:49:34","新北市樹林區太平路235-1號","121.418931666667","24.9740116666667","6500700","樹林區"
"238018","571-TV","2018/06/04 17:49:41","新北市樹林區樹新路40-1號","121.427416666667","24.994965","6500700","樹林區"
"238024","5061-A6","2018/06/04 17:48:14","新北市樹林區中山路三段210-2號","121.380721666667","24.96677","6500700","樹林區"
"238022","KEA-2213","2018/06/04 17:49:33","新北市樹林區福順街59號","121.416115","24.9783333333333","6500700","樹林區"
"238021","KEA-2539","2018/06/04 17:49:44","新北市樹林區柑園街一段64號","121.402611666667","24.960325","6500700","樹林區"
"238025","303-VK","2018/06/04 17:49:27","新北市樹林區俊興街209號","121.417373333333","25.013905","6500700","樹林區"
"238017","283-BY","2018/06/04 17:49:39","新北市樹林區中正路464號","121.412908333333","25.012885","6500700","樹林區"
"238014","282-BY","2018/06/04 17:49:36","新北市樹林區保安街一段291號","121.418131666667","24.9973783333333","6500700","樹林區"
"238020","268-VK","2018/06/04 17:49:33","新北市樹林區俊英街210號","121.425148333333","25.00942","6500700","樹林區"
"238026","172-UY","2018/06/04 17:49:44","新北市樹林區中洲街30巷6弄8號","121.397218333333","24.9712616666667","6500700","樹林區"
"238016","169-UY","2018/06/04 17:43:39","新北市樹林區啟智街137巷9弄10號","121.417765","24.98826","6500700","樹林區"
"239007","AAC-297","2018/06/04 17:32:58","新北市鶯歌區中山路124號","121.35041","24.95709","6500800","鶯歌區"
"239006","891-R6","2018/06/04 17:49:47","新北市鶯歌區鶯桃路413巷33號","121.330765","24.9634166666667","6500800","鶯歌區"
"239008","527-UM","2018/06/04 17:49:34","新北市鶯歌區香賓街5巷2號","121.33642","24.978705","6500800","鶯歌區"
"239005","526-UM","2018/06/04 17:49:43","新北市鶯歌區鳳吉五街31號","121.32736","24.97273","6500800","鶯歌區"
"239001","417-VK","2018/06/04 17:49:44","新北市鶯歌區中正三路314號","121.328248333333","24.935475","6500800","鶯歌區"
"239003","360-BY","2018/06/04 17:49:40","新北市鶯歌區鶯桃路284號","121.335145","24.9601933333333","6500800","鶯歌區"
"239002","359-BY","2018/06/04 17:49:42","新北市鶯歌區育智路20號","121.345","24.9553383333333","6500800","鶯歌區"
"239004","193-VK","2018/06/04 17:49:35","新北市鶯歌區尖山路40號","121.350916666667","24.950385","6500800","鶯歌區"
"221008","489-VK","2018/06/04 17:49:43","新北市汐止區康寧街901號","121.651403333333","25.07505","6501100","汐止區"
"221036","130-UY","2018/06/04 17:49:32","新北市汐止區汐萬路一段312號","121.65056","25.07535","6501100","汐止區"
"221015","131-UY","2018/06/04 17:49:41","新北市汐止區長江街101-5號","121.659056666667","25.0738083333333","6501100","汐止區"
"221010","269-BY","2018/06/04 17:49:37","新北市汐止區汐萬路二段63號","121.649271666667","25.08229","6501100","汐止區"
"221012","278-VK","2018/06/04 17:49:34","新北市汐止區吉祥街27巷16號","121.666823333333","25.0812333333333","6501100","汐止區"
"221023","279-VK","2018/06/04 17:49:30","新北市汐止區康寧街591巷4號","121.634936666667","25.070545","6501100","汐止區"
"221032","280-BY","2018/06/04 17:49:40","新北市汐止區工建路202號","121.636993333333","25.0627966666667","6501100","汐止區"
"221027","281-BY","2018/06/04 17:49:37","新北市汐止區康寧街901號","121.650928333333","25.0752383333333","6501100","汐止區"
"221029","298-VK","2018/06/04 17:49:33","新北市汐止區汐萬路一段256巷1號","121.651636666667","25.074795","6501100","汐止區"
"221021","299-VK","2018/06/04 17:49:34","新北市汐止區水源路一段84號","121.656873333333","25.0648166666667","6501100","汐止區"
"221031","353-TW","2018/06/04 17:49:36","新北市汐止區中興路96巷16號","121.635648333333","25.06251","6501100","汐止區"
"221025","623-UM","2018/06/04 17:49:36","新北市汐止區大同路二段171號","121.651618333333","25.0648683333333","6501100","汐止區"
"221038","646-BX","2018/06/04 17:49:32","新北市汐止區康寧街901號","121.651523333333","25.0750216666667","6501100","汐止區"
"221033","647-BX","2018/06/04 17:49:34","新北市汐止區林森街129巷6號","121.624588333333","25.0410133333333","6501100","汐止區"
"221002","707-TV","2018/06/04 17:49:34","新北市汐止區康寧街901號","121.651536666667","25.0749766666667","6501100","汐止區"
"221018","753-BX","2018/06/04 17:49:29","新北市汐止區茄苳路2巷1號","121.664506666667","25.07082","6501100","汐止區"
"242002","KEA-2550","2018/06/04 17:49:37","新北市新莊區景德路174號","121.450233333333","25.0342","6500500","新莊區"
"242039","280-VK","2018/06/04 17:49:50","新北市新莊區民安路172號","121.425008333333","25.023955","6500500","新莊區"
