"lineid","car","time","location","longitude","latitude","cityid","cityname"
"234026","9371-KE","2018/06/04 17:59:33","新北市永和區永和路一段45-1號","121.51274","25.00627","6500400","永和區"
"234011","9373-KE","2018/06/04 17:49:43","新北市永和區福和路1號","121.525575","25.0095666666667","6500400","永和區"
"249005","172-UM","2018/06/04 17:59:39","新北市八里區荖阡坑路20號","121.397178333333","25.13643","6502300","八里區"
"249001","173-UM","2018/06/04 17:59:37","新北市八里區龍米路二段30號","121.448643333333","25.1401116666667","6502300","八里區"
"249004","303-UY","2018/06/04 17:59:44","新北市八里區龍米路三段6號","121.429265","25.158975","6502300","八里區"
"249002","305-UY","2018/06/04 17:59:40","新北市八里區龍米路一段428巷5號","121.451123333333","25.134015","6502300","八里區"
"249003","593-UM","2018/06/04 17:59:42","新北市八里區中華路二段201號","121.405613333333","25.1496966666667","6502300","八里區"
"248016","026-BX","2018/06/04 17:59:41","新北市五股區中興路二段161號","121.457803333333","25.0771666666667","6501500","五股區"
"248006","077-UY","2018/06/04 17:59:33","新北市五股區中興路二段83巷26-6號","121.460048333333","25.0750183333333","6501500","五股區"
"248008","095-VK","2018/06/04 17:59:30","新北市五股區更洲路40號","121.457675","25.079355","6501500","五股區"
"248018","225-UY","2018/06/04 17:59:46","新北市五股區中興路二段103巷14號","121.45834","25.0764766666667","6501500","五股區"
"248012","247-BX","2018/06/04 17:59:39","新北市五股區中興路二段83巷26-6號","121.460116666667","25.07521","6501500","五股區"
"248014","261-SL","2018/06/04 17:59:36","新北市五股區中興路三段3-6號","121.450613333333","25.07938","6501500","五股區"
"248004","677-BX","2018/06/04 17:59:33","新北市五股區中興路二段83巷26-6號","121.45929","25.0754716666667","6501500","五股區"
"248002","678-BX","2018/06/04 17:59:34","新北市五股區中興路二段83巷26-6號","121.459983333333","25.075035","6501500","五股區"
"248010","682-TV","2018/06/04 17:59:30","新北市五股區中興路二段163號","121.457625","25.0776633333333","6501500","五股區"
"232011","375-UM","2018/06/04 17:59:33","新北市坪林區水柳腳39號","121.70955","24.9351583333333","6502000","坪林區"
"244007","080-UY","2018/06/04 17:59:29","新北市林口區竹林路265號","121.389375","25.0808833333333","6501700","林口區"
"244019","403-UM","2018/06/04 17:59:38","新北市林口區文化一路一段124號","121.374861666667","25.072255","6501700","林口區"
"244013","742-UY","2018/06/04 17:59:38","新北市林口區中山路48號","121.395275","25.07838","6501700","林口區"
"244023","483-VK","2018/06/04 17:59:34","新北市林口區東湖路105巷22號","121.383978333333","25.0722683333333","6501700","林口區"
"244017","485-VK","2018/06/04 17:59:37","新北市林口區文化二路一段232號","121.369558333333","25.0727166666667","6501700","林口區"
"244011","657-BX","2018/06/04 17:59:30","新北市林口區中正路180號","121.392095","25.0774466666667","6501700","林口區"
"244025","837-TS","2018/06/04 17:59:35","新北市林口區文化三路一段39巷189號","121.359366666667","25.0682883333333","6501700","林口區"
"244021","838-TS","2018/06/04 17:59:32","新北市林口區仁愛路一段2-1號","121.39757","25.0676733333333","6501700","林口區"
"243013","AAD-798","2018/06/04 17:59:41","新北市泰山區黎明路31號","121.421828333333","25.060605","6501600","泰山區"
"222003","436-BY","2018/06/04 17:59:32","新北市深坑區炮子崙24-1號","121.606218333333","24.9883766666667","6501800","深坑區"
"222002","659-BX","2018/06/04 17:59:39","新北市深坑區平埔街5巷2號","121.615671666667","25.00112","6501800","深坑區"
"231046","188-VK","2018/06/04 17:59:48","新北市新店區康雅崙路12號","121.53636","24.9265716666667","6500600","新店區"
"231054","KEA-2219","2018/06/04 17:59:39","新北市新店區安一路一段1-1號","121.51987","24.96118","6500600","新店區"
"221035","KEA-2785","2018/06/04 17:59:31","新北市汐止區新江北路30巷30弄9號","121.651213333333","25.0697033333333","6501100","汐止區"
"231055","AKT-0513","2018/06/04 17:59:40","新北市新店區安華路28-1號","121.519533333333","24.9606066666667","6500600","新店區"
"241016","266-UM","2018/06/04 17:59:30","新北市三重區新北大道一段252號","121.480583333333","25.061745","6500200","三重區"
"241033","AAC-255","2018/06/04 17:59:28","新北市三重區重新路五段625號","121.467708333333","25.0441983333333","6500200","三重區"
"235064","005-UY","2018/06/04 17:59:30","新北市中和區員山路36巷16-3號","121.485","24.9912983333333","6500300","中和區"
"235056","096-UM","2018/06/04 17:59:30","新北市中和區員山路36巷16號","121.484421666667","24.9914816666667","6500300","中和區"
"235065","098-UM","2018/06/04 17:59:27","新北市中和區中正路810號","121.484845","25.0030916666667","6500300","中和區"
"235058","151-BY","2018/06/04 17:59:31","新北市中和區錦和路350-1號","121.490458333333","24.993505","6500300","中和區"
"235038","185-VK","2018/06/04 17:59:31","新北市中和區宜安路80號","121.510965","24.99751","6500300","中和區"
"235067","255-BX","2018/06/04 17:45:15","新北市中和區和城路一段271巷1號","121.485671666667","24.9917966666667","6500300","中和區"
"235042","551-UM","2018/06/04 17:59:28","新北市中和區員山路36巷16-8號","121.485365","24.9921983333333","6500300","中和區"
"235054","640-BX","2018/06/04 17:59:28","新北市中和區員山路36巷16-6號","121.48532","24.9920166666667","6500300","中和區"
"235062","800-TS","2018/06/04 17:58:11","新北市中和區員山路36巷16-9號","121.484608333333","24.9926883333333","6500300","中和區"
"235052","805-TS","2018/06/04 17:59:48","新北市中和區錦和路350-1號","121.490038333333","24.9935266666667","6500300","中和區"
"235051","157-BY","2018/06/04 17:59:30","新北市中和區和城路一段271巷1號","121.485428333333","24.9919166666667","6500300","中和區"
"235037","AAC-213","2018/06/04 17:59:36","新北市中和區中正路166-1號","121.498348333333","24.9939066666667","6500300","中和區"
"247024","893-R6","2018/06/04 17:59:41","新北市蘆洲區光復路41巷17號","121.462706666667","25.085175","6501400","蘆洲區"
"247014","546-UM","2018/06/04 17:59:36","新北市蘆洲區忠孝路45號","121.471375","25.08631","6501400","蘆洲區"
"247022","500-BY","2018/06/04 17:59:46","新北市蘆洲區中正路513巷20號","121.460596666667","25.096875","6501400","蘆洲區"
"247010","341-TH","2018/06/04 17:59:37","新北市蘆洲區信義路271巷7號","121.478518333333","25.0848983333333","6501400","蘆洲區"
"247012","339-TH","2018/06/04 17:59:27","新北市蘆洲區民族路167巷14號","121.478355","25.08846","6501400","蘆洲區"
"247006","336-TH","2018/06/04 17:59:35","新北市蘆洲區中華街6號","121.463521666667","25.0816616666667","6501400","蘆洲區"
"247018","057-VK","2018/06/04 17:58:52","新北市蘆洲區復興路281號","121.481415","25.0901983333333","6501400","蘆洲區"
"247008","056-VK","2018/06/04 17:59:42","新北市蘆洲區信義路1號","121.473553333333","25.0791183333333","6501400","蘆洲區"
"247016","007-UY","2018/06/04 17:59:29","新北市蘆洲區中正路185巷80弄2號","121.465961666667","25.0841866666667","6501400","蘆洲區"
"247002","002-UY","2018/06/04 17:59:46","新北市蘆洲區永平街32巷45弄36號","121.458356666667","25.093305","6501400","蘆洲區"
"247020","001-UY","2018/06/04 17:59:44","新北市蘆洲區民義街35巷7號","121.471543333333","25.08941","6501400","蘆洲區"
"228003","097-TW","2018/06/04 17:59:37","新北市貢寮區真理里美艷山街6-2號","121.92889","25.0607466666667","6502600","貢寮區"
"228002","585-TW","2018/06/04 17:59:35","新北市貢寮區福隆里桂安街11號","121.959986666667","25.0205333333333","6502600","貢寮區"
"228001","670-TC","2018/06/04 17:59:43","新北市貢寮區真理里新港街26巷53號","121.928031666667","25.05356","6502600","貢寮區"
"224006","676-BX","2018/06/04 17:59:33","新北市瑞芳區大寮路356-1號","121.784993333333","25.1032016666667","6501200","瑞芳區"
"224002","639-TC","2018/06/04 17:59:37","新北市瑞芳區三爪子坑路30號","121.810441666667","25.10622","6501200","瑞芳區"
"224008","285-BY","2018/06/04 17:59:38","新北市瑞芳區明燈路一段45巷89號","121.821971666667","25.1044433333333","6501200","瑞芳區"
"224009","273-VK","2018/06/04 17:59:43","新北市瑞芳區山尖路2號","121.854518333333","25.116685","6501200","瑞芳區"
"224005","271-BY","2018/06/04 17:59:35","新北市瑞芳區深澳路133-1號","121.819908333333","25.132785","6501200","瑞芳區"
"227001","642-TC","2018/06/04 17:36:36","新北市雙溪區共和里東榮街52號","121.866306666667","25.0337016666667","6502500","雙溪區"
"253005","032-BX","2018/06/04 17:59:34","新北市石門區中山路62-5號","121.567286666667","25.2896233333333","6502200","石門區"
"253006","295-VK","2018/06/04 17:59:46","新北市石門區大丘田45-1號","121.549791666667","25.2750966666667","6502200","石門區"
"222001","KEA-2212","2018/06/04 17:59:42","新北市深坑區深坑街174號","121.612136666667","25.000805","6501800","深坑區"
"208002","KEA-2872","2018/06/04 17:59:46","新北市金山區三界壇路55號","121.627071666667","25.228065","6502700","金山區"
"208003","665-BX","2018/06/04 17:59:39","新北市金山區磺港里磺港路304號","121.643781666667","25.2269366666667","6502700","金山區"
"208001","761-BX","2018/06/04 17:59:31","新北市金山區磺港里磺港路248號","121.643805","25.2250233333333","6502700","金山區"
"251009","008-UM","2018/06/04 17:59:44","新北市淡水區大仁街6巷1號","121.442378333333","25.1746366666667","6501000","淡水區"
"251004","009-UM","2018/06/04 17:59:34","新北市淡水區民權路187號","121.459516666667","25.1335033333333","6501000","淡水區"
"251005","010-UM","2018/06/04 17:59:41","新北市淡水區英專路125-6號","121.44598","25.172625","6501000","淡水區"
"251001","011-UM","2018/06/04 17:59:33","新北市淡水區民權路94巷1號","121.462966666667","25.1247383333333","6501000","淡水區"
"251013","KEA-2871","2018/06/04 17:59:29","新北市淡水區泉洲厝31號","121.479496666667","25.1910166666667","6501000","淡水區"
"251016","179-VK","2018/06/04 17:59:39","新北市淡水區埤島30-14號","121.44823","25.19805","6501000","淡水區"
"251014","180-VK","2018/06/04 17:59:42","新北市淡水區公埔子16-6號","121.48058","25.2241633333333","6501000","淡水區"
"251015","182-VK","2018/06/04 17:59:43","新北市淡水區興福寮66巷541號","121.484578333333","25.1651833333333","6501000","淡水區"
"251010","413-VK","2018/06/04 17:59:48","新北市淡水區中正路一段130-7號","121.422118333333","25.1793883333333","6501000","淡水區"
"251012","441-VK","2018/06/04 17:59:39","新北市淡水區北新路三段38巷7號","121.48454","25.1869983333333","6501000","淡水區"
"251007","442-VK","2018/06/04 17:59:40","新北市淡水區中正東路二段161巷11弄10號","121.461478333333","25.1460783333333","6501000","淡水區"
"251006","561-UM","2018/06/04 17:59:33","新北市淡水區真理街1-1號","121.438133333333","25.1730566666667","6501000","淡水區"
"251008","575-R6","2018/06/04 17:59:34","新北市淡水區八勢一街43-8號","121.461911666667","25.1558166666667","6501000","淡水區"
"251011","650-BX","2018/06/04 17:59:42","新北市淡水區三空泉7-1號","121.476283333333","25.1624883333333","6501000","淡水區"
"251002","672-BX","2018/06/04 17:59:38","新北市淡水區中正東路34-3號","121.448726666667","25.1658183333333","6501000","淡水區"
"251003","766-UM","2018/06/04 17:59:48","新北市淡水區大忠街96號","121.445313333333","25.1764616666667","6501000","淡水區"
"207003","550-UM","2018/06/04 17:59:42","新北市萬里區港東路野柳風景區攤販55號","121.691476666667","25.2058616666667","6502800","萬里區"
"207004","225-TW","2018/06/04 17:59:33","新北市萬里區中幅里中福路48號","121.683406666667","25.1740916666667","6502800","萬里區"
"252002","178-VK","2018/06/04 17:59:38","新北市三芝區中山路二段45號","121.502985","25.254755","6502100","三芝區"
"252001","292-VK","2018/06/04 17:59:33","新北市三芝區中興街二段6號","121.498398333333","25.2565616666667","6502100","三芝區"
"237004","KEA-2597","2018/06/04 17:59:49","新北市三峽區中園街122號","121.367173333333","24.9222966666667","6500900","三峽區"
"237007","153-BY","2018/06/04 17:59:43","新北市三峽區中園街237號","121.366855","24.919665","6500900","三峽區"
"237009","210-TH","2018/06/04 17:59:47","新北市三峽區中山路106巷19號","121.365963333333","24.9362916666667","6500900","三峽區"
"237013","252-BX","2018/06/04 17:59:32","新北市三峽區長泰街78巷16號","121.376706666667","24.9335966666667","6500900","三峽區"
"237012","275-BY","2018/06/04 17:57:08","新北市三峽區民生街27巷18號","121.375795","24.93581","6500900","三峽區"
"237008","302-VK","2018/06/04 17:59:29","新北市三峽區白雞33-8號","121.371616666667","24.9120883333333","6500900","三峽區"
"237014","433-BY","2018/06/04 17:59:44","新北市三峽區復興路101巷1弄79號","121.370993333333","24.9377183333333","6500900","三峽區"
"237006","5529-G3","2018/06/04 17:59:33","新北市三峽區介壽路二段138巷1弄160-20號","121.40218","24.9304833333333","6500900","三峽區"
"237015","649-BX","2018/06/04 17:59:30","新北市三峽區詩朗139號","121.405733333333","24.9109166666667","6500900","三峽區"
"237010","706-TV","2018/06/04 17:59:34","新北市三峽區中山路47號","121.368058333333","24.9345233333333","6500900","三峽區"
"237005","AKY-6261","2018/06/04 17:59:38","新北市三峽區復興路183號","121.368888333333","24.9388116666667","6500900","三峽區"
"236069","105-UM","2018/06/04 17:59:30","新北市土城區中華路一段263號","121.44031","24.9804783333333","6501300","土城區"
"236042","107-UM","2018/06/04 17:59:36","新北市土城區城林路6巷80號","121.43861","24.9797566666667","6501300","土城區"
"236078","166-UM","2018/06/04 17:59:35","新北市土城區永寧路32巷10弄3號","121.428835","24.961045","6501300","土城區"
"236030","253-BX","2018/06/04 17:59:35","新北市土城區城林路6巷80號","121.438773333333","24.97966","6501300","土城區"
"236026","269-VK","2018/06/04 17:59:40","新北市土城區中央路三段42號","121.437546666667","24.9680966666667","6501300","土城區"
"236014","270-VK","2018/06/04 17:59:34","新北市土城區城林路6巷80號","121.438466666667","24.9796283333333","6501300","土城區"
"236039","271-VK","2018/06/04 17:59:45","新北市土城區城林路6巷80號","121.438551666667","24.9796233333333","6501300","土城區"
"236020","401-BY","2018/06/04 17:59:30","新北市土城區城林路6巷80號","121.438835","24.9796333333333","6501300","土城區"
"236059","912-UM","2018/06/04 17:59:38","新北市土城區中央路三段250號","121.427703333333","24.9641616666667","6501300","土城區"
"236048","913-UM","2018/06/04 17:59:36","新北市土城區城林路6巷80號","121.43866","24.9796783333333","6501300","土城區"
"236063","915-UM","2018/06/04 17:59:31","新北市土城區城林路6巷80號","121.438436666667","24.9795816666667","6501300","土城區"
"236055","AAC-216","2018/06/04 17:59:43","新北市土城區中央路二段280號","121.440661666667","24.974045","6501300","土城區"
"242034","AAC-296","2018/06/04 17:59:34","新北市新莊區福海街31巷6號","121.444951666667","25.033915","6500500","新莊區"
"242058","986-R7","2018/06/04 17:59:46","新北市新莊區雙鳳路134巷9號","121.412563333333","25.02816","6500500","新莊區"
"242053","751-BX","2018/06/04 17:59:40","新北市新莊區民安西路327巷4弄19號","121.428693333333","25.011245","6500500","新莊區"
"242027","615-BX","2018/06/04 17:59:27","新北市新莊區思源路451號","121.459585","25.05336","6500500","新莊區"
"242025","613-BX","2018/06/04 17:59:45","新北市新莊區五工路58號","121.458778333333","25.06287","6500500","新莊區"
"242029","612-BX","2018/06/04 17:59:43","新北市新莊區中平路110巷13號","121.445705","25.0461666666667","6500500","新莊區"
"242042","566-BX","2018/06/04 17:59:44","新北市泰山區壽山路52號","121.420245","25.0291333333333","6500500","新莊區"
"242046","497-BY","2018/06/04 17:59:44","新北市新莊區福營路221號","121.43021","25.0301733333333","6500500","新莊區"
"242056","440-UM","2018/06/04 17:59:47","新北市新莊區豐年街124巷22號","121.445486666667","25.0299766666667","6500500","新莊區"
"242036","415-TV","2018/06/04 17:59:34","新北市新莊區建福路36號","121.426381666667","25.0284","6500500","新莊區"
"242007","413-TV","2018/06/04 17:59:32","新北市新莊區自信街37號","121.454195","25.0482733333333","6500500","新莊區"
"242044","400-BY","2018/06/04 17:59:46","新北市新莊區雙鳳路163巷2號","121.41283","25.0268383333333","6500500","新莊區"
"242023","362-BY","2018/06/04 17:59:34","新北市新莊區幸福路595號","121.453473333333","25.0492216666667","6500500","新莊區"
"242060","353-BY","2018/06/04 17:59:46","新北市新莊區新樹路335號","121.433046666667","25.0187933333333","6500500","新莊區"
"242009","132-UY","2018/06/04 17:59:40","新北市新莊區中原路191號","121.452391666667","25.05415","6500500","新莊區"
"242031","135-UY","2018/06/04 17:59:33","新北市新莊區新泰路289巷12號","121.44486","25.0406383333333","6500500","新莊區"
"242048","172-VK","2018/06/04 17:59:33","新北市新莊區後港二路6號","121.422991666667","25.024275","6500500","新莊區"
"242011","173-VK","2018/06/04 17:59:44","新北市新莊區中港路620巷1號","121.451256666667","25.0549533333333","6500500","新莊區"
"242017","175-VK","2018/06/04 17:59:37","新北市新莊區永樂街164號","121.448803333333","25.0447283333333","6500500","新莊區"
"242004","176-VK","2018/06/04 17:59:47","新北市新莊區自信街79號","121.45593","25.0481383333333","6500500","新莊區"
"242015","346-TH","2018/06/04 17:59:16","新北市新莊區中平路81巷2號","121.444643333333","25.04533","6500500","新莊區"
"242021","348-TH","2018/06/04 17:59:29","新北市新莊區中正路174號","121.450305","25.035745","6500500","新莊區"
"242050","349-TH","2018/06/04 17:59:41","新北市新莊區西盛街153巷2號","121.428383333333","25.0180766666667","6500500","新莊區"
"242019","350-TH","2018/06/04 17:59:44","新北市新莊區明中街43巷6號","121.457503333333","25.0389266666667","6500500","新莊區"
"242013","351-TH","2018/06/04 17:59:40","新北市新莊區幸福路910號","121.44284","25.0490216666667","6500500","新莊區"
"238015","755-BX","2018/06/04 17:59:28","新北市樹林區啟智街80巷13號","121.418963333333","24.9923166666667","6500700","樹林區"
"238023","601-UM","2018/06/04 17:59:27","新北市樹林區龍興街44號","121.403075","25.0156083333333","6500700","樹林區"
"238006","599-UM","2018/06/04 17:59:34","新北市樹林區水源街15號","121.425118333333","24.9829833333333","6500700","樹林區"
"238018","571-TV","2018/06/04 17:59:41","新北市樹林區中正路243號","121.430166666667","24.9985166666667","6500700","樹林區"
"238022","KEA-2213","2018/06/04 17:59:33","新北市樹林區太平路150巷19號","121.41768","24.9775966666667","6500700","樹林區"
"238021","KEA-2539","2018/06/04 17:59:44","新北市樹林區柑園街一段136號","121.399586666667","24.9579116666667","6500700","樹林區"
"238025","303-VK","2018/06/04 17:59:47","新北市樹林區中正路743號","121.411043333333","25.014575","6500700","樹林區"
"238017","283-BY","2018/06/04 17:59:39","新北市樹林區中正路714號","121.409071666667","25.017825","6500700","樹林區"
"238014","282-BY","2018/06/04 17:59:36","新北市樹林區大安路5號","121.425075","25.0005183333333","6500700","樹林區"
"238020","268-VK","2018/06/04 17:59:33","新北市樹林區三俊街197號","121.420058333333","25.0157833333333","6500700","樹林區"
"238026","172-UY","2018/06/04 17:59:44","新北市樹林區育德街18號","121.390565","24.9699583333333","6500700","樹林區"
"238016","169-UY","2018/06/04 17:53:02","新北市樹林區啟智街137巷9弄6號","121.417663333333","24.9882083333333","6500700","樹林區"
"239007","AAC-297","2018/06/04 17:32:58","新北市鶯歌區中山路124號","121.35041","24.95709","6500800","鶯歌區"
"239006","891-R6","2018/06/04 17:59:28","新北市鶯歌區鶯桃路455巷4弄4號","121.331968333333","24.9650716666667","6500800","鶯歌區"
"239008","527-UM","2018/06/04 17:59:34","新北市鶯歌區明圓街4號","121.336475","24.9775416666667","6500800","鶯歌區"
"239005","526-UM","2018/06/04 17:59:43","新北市鶯歌區大湖路361巷81-1號","121.332723333333","24.9737466666667","6500800","鶯歌區"
"239001","417-VK","2018/06/04 17:59:44","新北市鶯歌區中正三路236-8號","121.330376666667","24.9369183333333","6500800","鶯歌區"
"239003","360-BY","2018/06/04 17:59:40","新北市鶯歌區永吉街35-1號","121.335798333333","24.9575233333333","6500800","鶯歌區"
"239002","359-BY","2018/06/04 17:59:42","新北市鶯歌區育英街17巷1弄3號","121.347523333333","24.9552033333333","6500800","鶯歌區"
"221008","489-VK","2018/06/04 17:59:43","新北市汐止區明峰街17號","121.634663333333","25.0713633333333","6501100","汐止區"
"221036","130-UY","2018/06/04 17:59:32","新北市汐止區大同路三段62巷1號","121.667608333333","25.077025","6501100","汐止區"
"221015","131-UY","2018/06/04 17:59:41","新北市汐止區長江街285-1號","121.665201666667","25.0811033333333","6501100","汐止區"
"221010","269-BY","2018/06/04 17:59:37","新北市汐止區汐萬路二段275巷1弄28號","121.646163333333","25.0880816666667","6501100","汐止區"
"221012","278-VK","2018/06/04 17:59:34","新北市汐止區長興街二段32號","121.673338333333","25.0813816666667","6501100","汐止區"
"221023","279-VK","2018/06/04 17:59:34","新北市汐止區民族六街2巷2號","121.62898","25.0707833333333","6501100","汐止區"
"221032","280-BY","2018/06/04 17:59:40","新北市汐止區民權街一段16號","121.621131666667","25.053505","6501100","汐止區"
"221027","281-BY","2018/06/04 17:59:37","新北市汐止區大同路二段374號","121.657818333333","25.0670933333333","6501100","汐止區"
"221029","298-VK","2018/06/04 17:59:33","新北市汐止區樟樹二路334號","121.641485","25.0703916666667","6501100","汐止區"
"221021","299-VK","2018/06/04 17:59:34","新北市汐止區復興路10號","121.655681666667","25.0645533333333","6501100","汐止區"
"221031","353-TW","2018/06/04 17:59:40","新北市汐止區中興路159號","121.631118333333","25.0660783333333","6501100","汐止區"
"221025","623-UM","2018/06/04 17:59:36","新北市汐止區新台五路一段266號","121.659245","25.0637183333333","6501100","汐止區"
"221038","646-BX","2018/06/04 17:59:32","新北市汐止區大同路二段184巷11號","121.653451666667","25.06357","6501100","汐止區"
"221033","647-BX","2018/06/04 17:59:34","新北市汐止區合順街39巷5號","121.62068","25.0433783333333","6501100","汐止區"
"221002","707-TV","2018/06/04 17:59:34","新北市汐止區中興路58號","121.635423333333","25.0612833333333","6501100","汐止區"
"221018","753-BX","2018/06/04 17:59:29","新北市汐止區招商街16號","121.666591666667","25.0684066666667","6501100","汐止區"
"242002","KEA-2550","2018/06/04 17:59:45","新北市新莊區大觀街42巷15號","121.4544","25.0360016666667","6500500","新莊區"
"242039","280-VK","2018/06/04 17:59:30","新北市新莊區民安西路26號","121.42672","25.02129","6500500","新莊區"
"235061","KEA-2875","2018/06/04 17:59:43","新北市中和區員山路36巷16-2號","121.485323333333","24.9918433333333","6500300","中和區"
