"lineid","car","time","location","longitude","latitude","cityid","cityname"
"234046","148-BY","2018/06/04 19:29:46","新北市永和區秀朗路二段121號","121.524136666667","25.0016383333333","6500400","永和區"
"234007","207-UY","2018/06/04 19:29:29","新北市永和區中山路一段27號","121.513406666667","25.0105233333333","6500400","永和區"
"234081","298-R6","2018/06/04 19:29:45","新北市永和區林森路8號","121.526573333333","25.0056533333333","6500400","永和區"
"234038","336-UY","2018/06/04 19:29:38","新北市永和區成功路二段65號","121.527435","25.0001183333333","6500400","永和區"
"234064","337-UY","2018/06/04 19:29:46","新北市永和區中正路368巷1弄86號","121.520385","25.0007233333333","6500400","永和區"
"234086","338-UY","2018/06/04 19:29:42","新北市永和區永元路138號","121.522893333333","25.0030666666667","6500400","永和區"
"234070","552-UM","2018/06/04 19:29:39","新北市永和區中正路666巷36號","121.518073333333","25.0090883333333","6500400","永和區"
"234017","745-BX","2018/06/04 19:29:42","新北市永和區環河西路一段51巷2號","121.51389","25.0181633333333","6500400","永和區"
"234030","746-BX","2018/06/04 19:29:46","新北市永和區民生路69號","121.522645","24.9971683333333","6500400","永和區"
"234054","KEA-2590","2018/06/04 19:29:36","新北市永和區復興街19巷2號","121.516148333333","25.01313","6500400","永和區"
"234013","KEA-2591","2018/06/04 19:29:40","新北市永和區永和路二段96號","121.514966666667","25.0117066666667","6500400","永和區"
"234061","AAD-866","2018/06/04 19:29:42","新北市永和區中正路506號","121.517363333333","25.0045283333333","6500400","永和區"
"234042","862-TW","2018/06/04 19:29:43","新北市永和區水源街33巷1號","121.510751666667","25.00443","6500400","永和區"
"234050","863-TW","2018/06/04 19:29:39","新北市永和區信義路106號","121.512386666667","25.0140916666667","6500400","永和區"
"234026","9371-KE","2018/06/04 19:29:32","新北市永和區中正路49號","121.514333333333","24.9964016666667","6500400","永和區"
"234011","9373-KE","2018/06/04 19:29:46","新北市永和區保福路二段163巷13弄7號","121.50923","25.014255","6500400","永和區"
"248008","095-VK","2018/06/04 19:29:49","新北市五股區中興路一段141號","121.465313333333","25.0735","6501500","五股區"
"248018","225-UY","2018/06/04 19:28:46","新北市五股區壟路16-1號","121.414423333333","25.0852266666667","6501500","五股區"
"248012","247-BX","2018/06/04 19:29:40","新北市五股區成泰路二段87號","121.438185","25.0839366666667","6501500","五股區"
"248014","261-SL","2018/06/04 19:29:44","新北市五股區民義路一段183巷5號","121.430738333333","25.0871883333333","6501500","五股區"
"248004","677-BX","2018/06/04 19:29:33","新北市五股區五福路145號","121.431853333333","25.091655","6501500","五股區"
"248002","678-BX","2018/06/04 19:29:34","新北市五股區凌雲路一段158巷14-1號","121.447826666667","25.10353","6501500","五股區"
"248010","682-TV","2018/06/04 19:29:30","新北市五股區水碓二路1號","121.430596666667","25.071265","6501500","五股區"
"234023","9380-KE","2018/06/04 19:29:49","新北市永和區竹林路91巷39號","121.521138333333","25.0126616666667","6500400","永和區"
"234077","969-R7","2018/06/04 19:29:35","新北市永和區民治街29號","121.51968","24.9977466666667","6500400","永和區"
"234074","AAC-211","2018/06/04 19:29:32","新北市永和區環河東路一段122號","121.52057","25.0156516666667","6500400","永和區"
"234067","AAC-212","2018/06/04 19:29:46","新北市永和區永貞路349號","121.50928","25.0075033333333","6500400","永和區"
"234003","AAC-295","2018/06/04 19:29:49","新北市永和區永和路一段118號","121.51408","25.007715","6500400","永和區"
"244013","742-UY","2018/06/04 19:29:38","新北市林口區中山路500號","121.379361666667","25.0828583333333","6501700","林口區"
"244023","483-VK","2018/06/04 19:29:34","新北市林口區文化三路二段18號","121.373165","25.0788233333333","6501700","林口區"
"244017","485-VK","2018/06/04 19:29:37","新北市林口區後坑35-1號","121.353005","25.1303133333333","6501700","林口區"
"243013","AAD-798","2018/06/04 19:29:44","新北市泰山區貴子路36巷16號","121.425893333333","25.0410933333333","6501600","泰山區"
"243009","297-R6","2018/06/04 19:29:28","新北市五股區成泰路一段7巷7號","121.433285","25.0666983333333","6501600","泰山區"
"243016","380-SR","2018/06/04 19:29:43","新北市泰山區工專路9號","121.423671666667","25.039645","6501600","泰山區"
"243015","421-VK","2018/06/04 19:29:32","新北市泰山區明志路二段136巷1-1號","121.427338333333","25.0512016666667","6501600","泰山區"
"243010","KEA-2216","2018/06/04 19:29:46","新北市泰山區民生路17巷34號","121.429498333333","25.0516483333333","6501600","泰山區"
"243012","646-TV","2018/06/04 19:29:32","新北市泰山區明志路一段501巷19號","121.431353333333","25.0545483333333","6501600","泰山區"
"243014","680-BX","2018/06/04 19:29:44","新北市泰山區仁愛路64號","121.432225","25.0549266666667","6501600","泰山區"
"222003","436-BY","2018/06/04 19:29:32","新北市深坑區深南路88巷1號","121.620988333333","25.0117366666667","6501800","深坑區"
"222002","659-BX","2018/06/04 19:29:39","新北市深坑區北深路一段177號","121.632523333333","25.0109083333333","6501800","深坑區"
"231041","002-UM","2018/06/04 19:29:41","新北市新店區中正路616號","121.53399","24.9886866666667","6500600","新店區"
"231059","046-UY","2018/06/04 19:29:31","新北市新店區安和路三段4號","121.517968333333","24.9809183333333","6500600","新店區"
"231040","047-UY","2018/06/04 19:29:44","新北市新店區北新路一段14號","121.540776666667","24.9657116666667","6500600","新店區"
"231044","106-UY","2018/06/04 19:29:36","新北市新店區中興路三段167號","121.544213333333","24.9805383333333","6500600","新店區"
"231052","108-UY","2018/06/04 19:29:46","新北市新店區新烏路二段301-9號","121.549101666667","24.9122083333333","6500600","新店區"
"231047","187-VK","2018/06/04 19:29:31","新北市新店區中興路一段254巷5號","121.544996666667","24.96657","6500600","新店區"
"231046","188-VK","2018/06/04 19:29:48","新北市新店區光明街149號","121.539463333333","24.96225","6500600","新店區"
"231054","KEA-2219","2018/06/04 19:29:39","新北市新店區文中路45號","121.53959","24.95663","6500600","新店區"
"231057","256-BX","2018/06/04 19:29:43","新北市新店區花園一路二段23號","121.551095","24.9327033333333","6500600","新店區"
"231042","268-BY","2018/06/04 19:29:47","新北市新店區中興路一段24-2號","121.53857","24.958395","6500600","新店區"
"231051","278-BY","2018/06/04 19:29:40","新北市新店區中央五街80號","121.52664","24.9760983333333","6500600","新店區"
"231050","AAD-862","2018/06/04 19:29:34","新北市新店區竹林路157號","121.556156666667","24.94811","6500600","新店區"
"231058","3713-VJ","2018/06/04 19:29:37","新北市新店區寶橋路85巷50號","121.545463333333","24.97627","6500600","新店區"
"231066","4716-K9","2018/06/04 19:29:32","新北市新店區安康路三段207巷20號","121.488103333333","24.9508833333333","6500600","新店區"
"231067","4772-VM","2018/06/04 19:29:46","新北市新店區安康路一段89號","121.529203333333","24.9614366666667","6500600","新店區"
"231065","512-UM","2018/06/04 19:29:29","新北市新店區安祥路108巷35號","121.475053333333","24.9570633333333","6500600","新店區"
"231049","513-UM","2018/06/04 19:29:41","新北市新店區北新路三段65巷12弄1號","121.540833333333","24.9813066666667","6500600","新店區"
"231061","619-UM","2018/06/04 19:29:48","新北市新店區安康路一段204號","121.524201666667","24.9635216666667","6500600","新店區"
"231063","641-BX","2018/06/04 19:29:37","新北市新店區達觀路16號","121.503223333333","24.9405233333333","6500600","新店區"
"231064","719-UY","2018/06/04 19:29:45","新北市新店區安忠路57巷1-5號","121.513436666667","24.95941","6500600","新店區"
"231062","720-UM","2018/06/04 19:29:49","新北市新店區莒光路70號","121.522961666667","24.9551833333333","6500600","新店區"
"231060","897-TW","2018/06/04 19:29:31","新北市新店區安康路二段60號","121.514968333333","24.9637366666667","6500600","新店區"
"231045","898-TW","2018/06/04 19:29:42","新北市新店區北宜路二段213號","121.553226666667","24.953285","6500600","新店區"
"231043","899-TW","2018/06/04 19:29:33","新北市新店區民族路1號","121.542393333333","24.97886","6500600","新店區"
"231055","AKT-0513","2018/06/04 19:29:40","新北市新店區中華路83巷67號","121.538366666667","24.9674333333333","6500600","新店區"
"241028","022-UY","2018/06/04 19:29:33","新北市三重區中寮街72號","121.493101666667","25.0582866666667","6500200","三重區"
"241008","059-VK","2018/06/04 19:29:45","新北市三重區永福街135巷32弄7號","121.477043333333","25.0771116666667","6500200","三重區"
"241031","061-VK","2018/06/04 19:29:50","新北市三重區集美街100號","121.488515","25.0541666666667","6500200","三重區"
"241017","063-VK","2018/06/04 19:29:43","新北市三重區中正北路25巷25弄2號","121.4932","25.0626366666667","6500200","三重區"
"241026","066-VK","2018/06/04 19:29:40","新北市三重區文化南路47巷19號","121.499436666667","25.061135","6500200","三重區"
"241009","265-UM","2018/06/04 19:29:35","新北市三重區溪尾街242巷50號","121.486491666667","25.081485","6500200","三重區"
"241022","267-UM","2018/06/04 19:29:47","新北市三重區三民街111號","121.48489","25.0636833333333","6500200","三重區"
"241025","271-UM","2018/06/04 19:29:37","新北市三重區頂崁街210巷36號","121.475753333333","25.06806","6500200","三重區"
"241007","398-BY","2018/06/04 19:29:43","新北市三重區慈愛街149號","121.489418333333","25.079415","6500200","三重區"
"241013","475-VK","2018/06/04 19:29:40","新北市三重區仁福街64巷20號","121.497403333333","25.075165","6500200","三重區"
"241020","478-VK","2018/06/04 19:29:30","新北市三重區三和路四段42號","121.490468333333","25.0744683333333","6500200","三重區"
"241030","480-VK","2018/06/04 19:29:34","新北市三重區成功路41巷10號","121.490276666667","25.0515733333333","6500200","三重區"
"241023","545-UM","2018/06/04 19:29:46","新北市三重區頂崁街99號","121.478036666667","25.063805","6500200","三重區"
"241006","AAD-863","2018/06/04 19:29:47","新北市三重區自強路三段78號","121.487033333333","25.0743583333333","6500200","三重區"
"241032","887-TS","2018/06/04 19:29:45","新北市三重區三陽路115號","121.483611666667","25.05879","6500200","三重區"
"241029","942-UM","2018/06/04 19:29:48","新北市三重區重安街103號","121.493895","25.0551483333333","6500200","三重區"
"235064","005-UY","2018/06/04 19:29:30","新北市中和區南山路81巷58號","121.503955","24.9980416666667","6500300","中和區"
"235063","006-UY","2018/06/04 19:29:34","新北市中和區連城路249巷5號","121.493725","24.9967566666667","6500300","中和區"
"235056","096-UM","2018/06/04 19:29:29","新北市中和區民富街11號","121.47653","25.00733","6500300","中和區"
"235039","097-UM","2018/06/04 19:29:34","新北市中和區秀峰街119巷2弄1號","121.51989","24.9904666666667","6500300","中和區"
"235065","098-UM","2018/06/04 19:29:47","新北市中和區莊敬路14號","121.499833333333","25.0043633333333","6500300","中和區"
"235040","150-BY","2018/06/04 19:29:42","新北市中和區保健路46巷20弄15號","121.508396666667","24.99642","6500300","中和區"
"235058","151-BY","2018/06/04 19:29:51","新北市中和區連城路318號","121.483426666667","24.9960883333333","6500300","中和區"
"235055","183-VK","2018/06/04 19:29:31","新北市中和區莒光路120巷17弄1號","121.471683333333","25.0009833333333","6500300","中和區"
"235038","185-VK","2018/06/04 19:29:31","新北市中和區自立路23號","121.522436666667","24.9958083333333","6500300","中和區"
"235049","186-VK","2018/06/04 19:29:48","新北市中和區景新街285巷16號","121.510465","24.9935883333333","6500300","中和區"
"235067","255-BX","2018/06/04 19:29:31","新北市中和區新生街220巷4號","121.48289","24.9985466666667","6500300","中和區"
"235044","293-VK","2018/06/04 19:29:32","新北市中和區捷運路163號","121.50615","24.9911833333333","6500300","中和區"
"235072","301-VK","2018/06/04 19:29:49","新北市中和區連城路263巷8弄7號","121.491858333333","24.9952316666667","6500300","中和區"
"235043","352-BY","2018/06/04 19:29:44","新北市中和區安和路27號","121.510471666667","24.9944","6500300","中和區"
"235042","551-UM","2018/06/04 19:29:48","新北市中和區安樂路217巷48號","121.513146666667","24.9979083333333","6500300","中和區"
"235070","558-UM","2018/06/04 19:29:48","新北市中和區中和路86號","121.501185","25.000535","6500300","中和區"
"235045","565-BX","2018/06/04 19:29:34","新北市中和區景新街399巷2號","121.512798333333","24.9897866666667","6500300","中和區"
"235054","640-BX","2018/06/04 19:29:48","新北市中和區國光街112巷23弄1號","121.469668333333","25.0022233333333","6500300","中和區"
"235060","647-TV","2018/06/04 19:29:45","新北市中和區民樂路9號","121.481605","25.00173","6500300","中和區"
"235046","733-UM","2018/06/04 19:29:41","新北市中和區忠孝街37巷30號","121.510776666667","24.9843033333333","6500300","中和區"
"235071","783-BX","2018/06/04 19:29:41","新北市中和區連城路469巷21弄22號","121.484241666667","24.9950716666667","6500300","中和區"
"235026","800-TS","2018/06/04 19:29:35","新北市中和區員山路36巷16-3號","121.4848","24.9913583333333","6500300","中和區"
"235057","801-TS","2018/06/04 19:29:39","新北市中和區中山路三段35號","121.47889","25.0057716666667","6500300","中和區"
"235041","802-TS","2018/06/04 19:29:40","新北市中和區中安街76號","121.51232","25.0019283333333","6500300","中和區"
"235052","805-TS","2018/06/04 19:29:28","新北市中和區華新街143巷72號","121.50638","24.97916","6500300","中和區"
"235048","896-TW","2018/06/04 19:29:41","新北市中和區忠孝街137號","121.512785","24.9882416666667","6500300","中和區"
"235053","900-TW","2018/06/04 19:29:39","新北市中和區華順街10號","121.467353333333","24.9987016666667","6500300","中和區"
"235066","911-UM","2018/06/04 19:29:36","新北市中和區景新街56號","121.503975","24.99912","6500300","中和區"
"235051","157-BY","2018/06/04 19:29:30","新北市中和區景新街137號","121.505891666667","24.9970183333333","6500300","中和區"
"235037","AAC-213","2018/06/04 19:29:36","新北市中和區秀朗路三段10巷14弄16號","121.524963333333","24.9965833333333","6500300","中和區"
"235059","AAC-215","2018/06/04 19:29:41","新北市中和區圓通路252巷29弄10號","121.492758333333","24.9918216666667","6500300","中和區"
"220068","013-TV","2018/06/04 19:29:46","新北市板橋區林森街1巷1號","121.482021666667","25.02412","6500100","板橋區"
"220065","072-UY","2018/06/04 19:29:49","新北市板橋區實踐路93巷43弄11號","121.465856666667","25.0054616666667","6500100","板橋區"
"220106","075-UY","2018/06/04 19:29:51","新北市板橋區江寧路三段125號","121.473423333333","25.0331866666667","6500100","板橋區"
"220069","AAD-861","2018/06/04 19:29:34","新北市板橋區稚暉街35號","121.45706","25.0041016666667","6500100","板橋區"
"220090","120-SR","2018/06/04 19:29:46","新北市板橋區長江路一段106巷12弄3號","121.459935","25.028935","6500100","板橋區"
"226001","312-R5","2018/06/04 19:19:17","新北市平溪區十分里十分街238號","121.778076666667","25.0441016666667","6502400","平溪區"
"235047","251-BX","2018/06/04 19:29:30","新北市中和區景平路241巷66號","121.507735","24.9922183333333","6500300","中和區"
"228003","097-TW","2018/06/04 19:29:36","新北市貢寮區和美里和美街22-1號","121.912796666667","25.0826633333333","6502600","貢寮區"
"228002","585-TW","2018/06/04 19:29:35","新北市貢寮區龍門里龍門街6號","121.93205","25.0254916666667","6502600","貢寮區"
"228001","670-TC","2018/06/04 19:29:48","新北市貢寮區真理里延平街68號","121.92541","25.0573866666667","6502600","貢寮區"
"224010","AGQ-8101","2018/06/04 19:29:44","新北市瑞芳區基山街171號","121.843248333333","25.1080016666667","6501200","瑞芳區"
"224002","639-TC","2018/06/04 19:29:37","新北市瑞芳區三爪子坑路63號","121.812671666667","25.1073316666667","6501200","瑞芳區"
"227001","642-TC","2018/06/04 19:29:38","新北市雙溪區雙溪里太平路54號","121.864826666667","25.0353283333333","6502500","雙溪區"
"227008","400-TW","2018/06/04 19:29:33","新北市雙溪區新基里新基北街43號","121.868175","25.039685","6502500","雙溪區"
"253005","032-BX","2018/06/04 19:29:34","新北市石門區小坑9號","121.593806666667","25.2885566666667","6502200","石門區"
"253006","295-VK","2018/06/04 19:29:46","新北市石門區中央路37-2號","121.56855","25.2948766666667","6502200","石門區"
"222001","KEA-2212","2018/06/04 19:29:42","新北市深坑區深坑街10號","121.615823333333","25.0028516666667","6501800","深坑區"
"208002","KEA-2872","2018/06/04 19:29:46","新北市金山區中華路104號","121.634001666667","25.2201133333333","6502700","金山區"
"208003","665-BX","2018/06/04 19:29:34","新北市金山區中山路263巷10號","121.636345","25.2216183333333","6502700","金山區"
"208001","761-BX","2018/06/04 19:29:49","新北市金山區金包里街117號","121.637516666667","25.2225383333333","6502700","金山區"
"251009","008-UM","2018/06/04 19:29:44","新北市淡水區大忠街5巷9號","121.443358333333","25.1765316666667","6501000","淡水區"
"251005","010-UM","2018/06/04 19:29:41","新北市淡水區水源街一段71巷18號","121.444351666667","25.1729683333333","6501000","淡水區"
"251001","011-UM","2018/06/04 19:29:39","新北市淡水區民權路155號","121.459945","25.13617","6501000","淡水區"
"251013","KEA-2871","2018/06/04 19:29:29","新北市淡水區安子內18號","121.471391666667","25.2188816666667","6501000","淡水區"
"251016","179-VK","2018/06/04 19:29:39","新北市淡水區下圭柔山119-51號","121.450761666667","25.2084766666667","6501000","淡水區"
"251014","180-VK","2018/06/04 19:29:42","新北市淡水區小中寮19-7號","121.484713333333","25.2297233333333","6501000","淡水區"
"251015","182-VK","2018/06/04 19:29:43","新北市淡水區山子頂24-1號","121.491478333333","25.1873016666667","6501000","淡水區"
"251010","413-VK","2018/06/04 19:29:44","新北市淡水區淡海路242號","121.420136666667","25.1867283333333","6501000","淡水區"
"251012","441-VK","2018/06/04 19:29:39","新北市淡水區崁頂75-2號","121.43659","25.203445","6501000","淡水區"
"251007","442-VK","2018/06/04 19:29:39","新北市淡水區竹林路120號","121.462641666667","25.1435683333333","6501000","淡水區"
"251006","561-UM","2018/06/04 19:29:36","新北市淡水區大義街36號","121.442253333333","25.178335","6501000","淡水區"
"251008","575-R6","2018/06/04 19:29:34","新北市淡水區中正路一段49號","121.424358333333","25.1775033333333","6501000","淡水區"
"251011","650-BX","2018/06/04 19:29:48","新北市淡水區中正東路二段161巷2弄1號","121.460713333333","25.1455333333333","6501000","淡水區"
"251003","766-UM","2018/06/04 19:29:48","新北市淡水區中山北路三段159號","121.445266666667","25.1964166666667","6501000","淡水區"
"207003","550-UM","2018/06/04 19:29:42","新北市萬里區大鵬里萬里加投158號","121.643946666667","25.215055","6502800","萬里區"
"207004","225-TW","2018/06/04 19:29:33","新北市萬里區萬里里瑪鋉路121號","121.689021666667","25.1779483333333","6502800","萬里區"
"252002","178-VK","2018/06/04 19:29:38","新北市三芝區淡金路二段17號","121.502665","25.2594616666667","6502100","三芝區"
"252001","292-VK","2018/06/04 19:29:33","新北市三芝區長勤街63-4號","121.50012","25.2559133333333","6502100","三芝區"
"237004","KEA-2597","2018/06/04 19:29:49","新北市三峽區有木206號","121.439121666667","24.8515133333333","6500900","三峽區"
"237007","153-BY","2018/06/04 19:29:22","新北市三峽區二鬮路112號","121.359806666667","24.9087933333333","6500900","三峽區"
"237009","210-TH","2018/06/04 19:29:47","新北市三峽區民權街49號","121.369683333333","24.9334316666667","6500900","三峽區"
"237013","252-BX","2018/06/04 19:29:52","新北市三峽區介壽路一段251號","121.379526666667","24.9301566666667","6500900","三峽區"
"237012","275-BY","2018/06/04 19:29:48","新北市三峽區民生街95號","121.374446666667","24.9357","6500900","三峽區"
"237008","302-VK","2018/06/04 19:29:48","新北市三峽區永安街91號","121.374705","24.9290416666667","6500900","三峽區"
"237014","433-BY","2018/06/04 19:29:44","新北市三峽區中山路114號","121.36573","24.9358066666667","6500900","三峽區"
"237006","5529-G3","2018/06/04 19:29:33","新北市三峽區中正路一段336巷15弄2號","121.369971666667","24.924935","6500900","三峽區"
"237011","KEA-2596","2018/06/04 19:29:33","新北市三峽區中正路一段524號","121.369448333333","24.9201816666667","6500900","三峽區"
"237015","649-BX","2018/06/04 19:29:30","新北市三峽區成福路263號","121.428088333333","24.9235016666667","6500900","三峽區"
"237010","706-TV","2018/06/04 19:29:34","新北市三峽區復興路49號","121.37332","24.9368816666667","6500900","三峽區"
"237005","AKY-6261","2018/06/04 19:29:37","新北市三峽區復興路367巷13號","121.363856666667","24.937635","6500900","三峽區"
"236069","105-UM","2018/06/04 19:29:31","新北市土城區學府路一段155巷2號","121.453388333333","24.9856966666667","6501300","土城區"
"236078","166-UM","2018/06/04 19:29:34","新北市土城區中州路3巷35號","121.413408333333","24.9563883333333","6501300","土城區"
"236026","269-VK","2018/06/04 19:29:40","新北市土城區中央路二段61巷22號","121.443181666667","24.9786083333333","6501300","土城區"
"236014","270-VK","2018/06/04 19:29:34","新北市土城區廣福街123號","121.45625","24.9929083333333","6501300","土城區"
"236020","401-BY","2018/06/04 19:29:50","新北市土城區峰廷街8號","121.468668333333","24.9877666666667","6501300","土城區"
"236059","912-UM","2018/06/04 19:29:49","新北市土城區中央路二段93號","121.442181666667","24.9780583333333","6501300","土城區"
"236048","913-UM","2018/06/04 19:29:43","新北市土城區清水路184號","121.460191666667","24.9817266666667","6501300","土城區"
"236063","915-UM","2018/06/04 19:29:31","新北市土城區金城路三段202-3號","121.469441666667","24.98853","6501300","土城區"
"242056","440-UM","2018/06/04 19:29:36","新北市新莊區環河路636-7號","121.437436666667","25.0116583333333","6500500","新莊區"
"242023","362-BY","2018/06/04 19:29:47","新北市新莊區新泰路357巷3弄53號","121.442353333333","25.0399083333333","6500500","新莊區"
"242031","135-UY","2018/06/04 19:29:41","新北市新莊區新泰路225巷22弄5號","121.444978333333","25.0392216666667","6500500","新莊區"
"242048","172-VK","2018/06/04 19:29:33","新北市新莊區後港一路19號","121.424111666667","25.02619","6500500","新莊區"
"242004","176-VK","2018/06/04 19:29:32","新北市新莊區化成路11巷68號","121.462226666667","25.0435966666667","6500500","新莊區"
"242021","348-TH","2018/06/04 19:29:49","新北市新莊區新泰路357巷3弄57號","121.442483333333","25.0398083333333","6500500","新莊區"
"242013","351-TH","2018/06/04 19:29:40","新北市新莊區新泰路421-7號","121.44256","25.0449433333333","6500500","新莊區"
"238015","755-BX","2018/06/04 19:29:50","新北市樹林區復興路197號","121.420613333333","24.99173","6500700","樹林區"
"238023","601-UM","2018/06/04 19:29:47","桃園市龜山區萬壽路一段319號","121.402433333333","25.0171316666667","6500700","樹林區"
"238006","599-UM","2018/06/04 19:29:34","新北市樹林區八德街3號","121.41778","24.9845616666667","6500700","樹林區"
"238018","571-TV","2018/06/04 19:29:41","新北市樹林區中華路11號","121.424378333333","24.983795","6500700","樹林區"
"238024","5061-A6","2018/06/04 19:29:35","新北市樹林區中山路三段155號","121.395568333333","24.972695","6500700","樹林區"
"238022","KEA-2213","2018/06/04 19:29:49","新北市樹林區名園街11號","121.41928","24.9795183333333","6500700","樹林區"
"238021","KEA-2539","2018/06/04 19:29:41","新北市樹林區大成路162號","121.381771666667","24.9481316666667","6500700","樹林區"
"238025","303-VK","2018/06/04 19:29:47","新北市樹林區保安二街29號","121.424761666667","24.9937066666667","6500700","樹林區"
"238017","283-BY","2018/06/04 19:29:39","新北市樹林區光興街11巷1號","121.412406666667","25.0028383333333","6500700","樹林區"
"238014","282-BY","2018/06/04 19:29:36","新北市樹林區保安二街64巷2號","121.424571666667","24.99615","6500700","樹林區"
"238020","268-VK","2018/06/04 19:29:33","新北市樹林區俊英街111巷1-10號","121.423851666667","25.00944","6500700","樹林區"
"238026","172-UY","2018/06/04 19:29:44","新北市樹林區佳園路二段41號","121.391645","24.9625983333333","6500700","樹林區"
"238016","169-UY","2018/06/04 19:29:48","新北市樹林區東佳路218號","121.410688333333","24.98187","6500700","樹林區"
"239006","891-R6","2018/06/04 19:29:47","新北市鶯歌區鶯桃路45號","121.342165","24.9514666666667","6500800","鶯歌區"
"239005","526-UM","2018/06/04 19:29:43","新北市鶯歌區東湖路3號","121.350306666667","24.9733183333333","6500800","鶯歌區"
"239001","417-VK","2018/06/04 19:29:44","新北市鶯歌區建國路596巷46號","121.340443333333","24.9515783333333","6500800","鶯歌區"
"239003","360-BY","2018/06/04 19:29:40","新北市鶯歌區中山路170號","121.348756666667","24.9569716666667","6500800","鶯歌區"
"239002","359-BY","2018/06/04 19:29:45","新北市鶯歌區湖山路2號","121.341668333333","24.9727583333333","6500800","鶯歌區"
"239004","193-VK","2018/06/04 19:29:35","新北市鶯歌區二甲路37號","121.340636666667","24.93664","6500800","鶯歌區"
"221008","489-VK","2018/06/04 19:29:43","新北市汐止區康寧街145號","121.621885","25.0665966666667","6501100","汐止區"
"221036","130-UY","2018/06/04 19:29:32","新北市汐止區康寧街901號","121.651005","25.07517","6501100","汐止區"
"221015","131-UY","2018/06/04 19:29:41","新北市汐止區康寧街901號","121.651505","25.0749416666667","6501100","汐止區"
"221010","269-BY","2018/06/04 19:29:37","新北市汐止區連峰街1巷2號","121.64644","25.07626","6501100","汐止區"
"221012","278-VK","2018/06/04 19:29:45","新北市汐止區大同路三段184號","121.674283333333","25.074635","6501100","汐止區"
"221023","279-VK","2018/06/04 19:29:30","新北市汐止區康寧街609號","121.636128333333","25.0708883333333","6501100","汐止區"
"221027","281-BY","2018/06/04 19:29:37","新北市汐止區忠孝東路9號","121.658291666667","25.0659116666667","6501100","汐止區"
"221029","298-VK","2018/06/04 19:29:33","新北市汐止區康寧街901號","121.651436666667","25.074915","6501100","汐止區"
"221021","299-VK","2018/06/04 19:29:34","新北市汐止區康寧街901號","121.65138","25.075045","6501100","汐止區"
"221031","353-TW","2018/06/04 19:29:36","新北市汐止區汐萬路一段256巷3號","121.653356666667","25.07463","6501100","汐止區"
"221025","623-UM","2018/06/04 19:29:41","新北市汐止區大同路二段426號","121.658953333333","25.067165","6501100","汐止區"
"221038","646-BX","2018/06/04 19:29:32","新北市汐止區汐萬路一段39號","121.655271666667","25.06879","6501100","汐止區"
"221033","647-BX","2018/06/04 19:29:34","新北市汐止區南勢街1巷1號","121.627051666667","25.037395","6501100","汐止區"
"221002","707-TV","2018/06/04 19:29:34","新北市汐止區大同路一段337巷17弄1號","121.63744","25.0598216666667","6501100","汐止區"
"220079","145-BY","2018/06/04 19:29:44","新北市板橋區建國街5號","121.457196666667","25.0168933333333","6500100","板橋區"
"220080","200-UY","2018/06/04 19:29:35","新北市板橋區大觀路二段37巷304號","121.450131666667","25.0022083333333","6500100","板橋區"
"242002","KEA-2550","2018/06/04 19:29:36","新北市新莊區瓊林南路77-41號","121.437685","25.01246","6500500","新莊區"
"220082","610-BX","2018/06/04 19:29:48","新北市板橋區金門街40號","121.433123333333","24.9937233333333","6500100","板橋區"
"220101","245-BX","2018/06/04 19:29:42","新北市板橋區莊敬路262-1號","121.474071666667","25.0216716666667","6500100","板橋區"
"220093","267-BY","2018/06/04 19:29:32","新北市板橋區英士路49號","121.46109","25.0247066666667","6500100","板橋區"
"220056","276-BY","2018/06/04 19:29:49","新北市板橋區國慶路49巷19弄4號","121.45919","24.9962533333333","6500100","板橋區"
"220072","277-BY","2018/06/04 19:29:47","新北市板橋區金門街253巷12號","121.43292","24.9883016666667","6500100","板橋區"
"220071","283-VK","2018/06/04 19:29:19","新北市板橋區忠孝路48巷4弄7號","121.460603333333","25.000665","6500100","板橋區"
"220094","285-UM","2018/06/04 19:29:49","新北市板橋區吳鳳路50巷21弄2號","121.46843","25.0303983333333","6500100","板橋區"
"220053","285-VK","2018/06/04 19:29:40","新北市板橋區永豐街114號","121.476198333333","25.0207516666667","6500100","板橋區"
"220083","286-VK","2018/06/04 19:29:50","新北市板橋區龍興街73巷9號","121.443393333333","25.00228","6500100","板橋區"
"220081","287-VK","2018/06/04 19:29:45","新北市板橋區南雅南路一段106號","121.454938333333","25.00434","6500100","板橋區"
"220061","293-UM","2018/06/04 19:29:32","新北市板橋區中山路二段251號","121.47727","25.0177666666667","6500100","板橋區"
"220084","296-UM","2018/06/04 19:29:40","新北市板橋區滿平街84巷120弄14號","121.426581666667","24.9858883333333","6500100","板橋區"
"220075","303-R5","2018/06/04 19:29:27","新北市板橋區中正路253巷40號","121.454125","25.0177516666667","6500100","板橋區"
"220062","305-R5","2018/06/04 19:29:51","新北市板橋區三民路二段161號","121.479141666667","25.0147466666667","6500100","板橋區"
"220092","307-R5","2018/06/04 19:29:31","新北市板橋區文化路二段75號","121.469148333333","25.0260983333333","6500100","板橋區"
"220098","317-R6","2018/06/04 19:29:49","新北市板橋區民生路三段263巷2弄2號","121.46394","25.0294483333333","6500100","板橋區"
"220088","491-VK","2018/06/04 19:29:29","新北市板橋區雙十路二段151號","121.474588333333","25.0280883333333","6500100","板橋區"
"220035","560-BX","2018/06/04 19:29:48","新北市板橋區中正路399巷6號","121.453803333333","25.0222766666667","6500100","板橋區"
"220103","561-BX","2018/06/04 19:29:44","新北市板橋區文化路一段216號","121.466478333333","25.02034","6500100","板橋區"
"220063","609-BX","2018/06/04 19:29:39","新北市板橋區三民路一段3巷30號","121.480143333333","25.0236733333333","6500100","板橋區"
"220086","630-UY","2018/06/04 19:29:45","新北市板橋區國光路156號","121.459883333333","25.01815","6500100","板橋區"
"220091","637-BX","2018/06/04 19:29:46","新北市板橋區文聖街137號","121.478256666667","25.0285","6500100","板橋區"
"220057","686-BX","2018/06/04 19:29:34","新北市板橋區和平路100號","121.462033333333","24.99471","6500100","板橋區"
"220077","687-BX","2018/06/04 19:29:36","新北市板橋區僑中二街126巷2號","121.445371666667","25.0052633333333","6500100","板橋區"
"220054","741-BX","2018/06/04 19:29:46","新北市板橋區光明街86號","121.461766666667","25.0026983333333","6500100","板橋區"
"220102","KEA-2699","2018/06/04 19:29:41","新北市板橋區雙十路二段114號","121.47446","25.0288783333333","6500100","板橋區"
"220064","806-UM","2018/06/04 19:29:48","新北市板橋區中山路一段22號","121.460296666667","25.0080866666667","6500100","板橋區"
"220055","827-TW","2018/06/04 19:29:44","新北市板橋區重慶路290巷22弄16號","121.462211666667","24.999475","6500100","板橋區"
"220067","830-TW","2018/06/04 19:29:43","新北市板橋區漢生東路313巷6號","121.472446666667","25.008315","6500100","板橋區"
"220096","831-TW","2018/06/04 19:29:41","新北市板橋區大同街35巷31號","121.476501666667","25.0275366666667","6500100","板橋區"
"220089","833-TW","2018/06/04 19:29:37","新北市板橋區民權路182號","121.459385","25.0135416666667","6500100","板橋區"
"220074","895-R6","2018/06/04 19:29:35","新北市板橋區民權路97-1號","121.459796666667","25.0128816666667","6500100","板橋區"
"220073","985-R7","2018/06/04 19:29:49","新北市板橋區中正路222號","121.455801666667","25.0186183333333","6500100","板橋區"
"220097","AAC-210","2018/06/04 19:29:37","新北市板橋區漢生西路141號","121.462825","25.0217","6500100","板橋區"
"220070","AAC-253","2018/06/04 19:29:37","新北市板橋區四川路一段159號","121.460003333333","25.0038266666667","6500100","板橋區"
"235068","KEA-2873","2018/06/04 19:29:26","新北市中和區連勝街57巷20號","121.498056666667","24.99644","6500300","中和區"
"235061","KEA-2875","2018/06/04 19:29:43","新北市中和區民利街56號","121.479146666667","24.998675","6500300","中和區"
