"lineid","car","time","location","longitude","latitude","cityid","cityname"
"234046","148-BY","2018/06/04 19:39:46","新北市永和區秀朗路二段106巷2號","121.523921666667","25.0016366666667","6500400","永和區"
"234007","207-UY","2018/06/04 19:39:38","新北市永和區永和路一段22號","121.513045","25.0048766666667","6500400","永和區"
"234081","298-R6","2018/06/04 19:39:45","新北市永和區國中路104巷8弄18號","121.525213333333","25.00643","6500400","永和區"
"234038","336-UY","2018/06/04 19:39:43","新北市永和區成功路一段146號","121.52676","25.0016866666667","6500400","永和區"
"234064","337-UY","2018/06/04 19:39:45","新北市永和區秀朗路一段192巷6弄14號","121.519076666667","25.0022783333333","6500400","永和區"
"234086","338-UY","2018/06/04 19:39:42","新北市永和區成功路一段18巷15號","121.526315","25.004935","6500400","永和區"
"234070","552-UM","2018/06/04 19:39:39","新北市永和區勵行街119號","121.517538333333","25.0119066666667","6500400","永和區"
"234017","745-BX","2018/06/04 19:39:35","新北市永和區永和路二段425巷64號","121.51357","25.01723","6500400","永和區"
"234030","746-BX","2018/06/04 19:39:46","新北市永和區民生路37巷6號","121.52321","24.998055","6500400","永和區"
"234054","KEA-2590","2018/06/04 19:39:37","新北市永和區竹林路39巷14號","121.518485","25.0145916666667","6500400","永和區"
"234013","KEA-2591","2018/06/04 19:39:40","新北市永和區永平路222號","121.509085","25.01059","6500400","永和區"
"234061","AAD-866","2018/06/04 19:39:42","新北市永和區中正路458號","121.517431666667","25.0029766666667","6500400","永和區"
"234042","862-TW","2018/06/04 19:39:29","新北市永和區中和路305巷2弄1號","121.506653333333","25.0000683333333","6500400","永和區"
"234050","863-TW","2018/06/04 19:39:47","新北市永和區保福路二段156號","121.509245","25.0149316666667","6500400","永和區"
"234026","9371-KE","2018/06/04 19:39:32","新北市永和區中和路501巷2號","121.510536666667","25.002565","6500400","永和區"
"234011","9373-KE","2018/06/04 19:39:46","新北市永和區保生路55號","121.504521666667","25.01085","6500400","永和區"
"249002","305-UY","2018/06/04 19:39:40","新北市八里區頂寮二街62巷1-1號","121.450103333333","25.1255983333333","6502300","八里區"
"248016","026-BX","2018/06/04 19:39:40","新北市五股區成泰路四段88號","121.457271666667","25.111165","6501500","五股區"
"248008","095-VK","2018/06/04 19:39:50","新北市五股區四維路116-2號","121.467845","25.074645","6501500","五股區"
"248018","225-UY","2018/06/04 19:29:46","新北市五股區壟路19-2號","121.41277","25.08514","6501500","五股區"
"248012","247-BX","2018/06/04 19:39:39","新北市五股區成泰路二段87號","121.438261666667","25.0841166666667","6501500","五股區"
"248014","261-SL","2018/06/04 19:39:44","新北市五股區五福路52巷3弄6號","121.433435","25.09006","6501500","五股區"
"248004","677-BX","2018/06/04 19:39:34","新北市五股區工商路138號","121.435341666667","25.0864216666667","6501500","五股區"
"248002","678-BX","2018/06/04 19:39:34","新北市五股區成泰路三段577巷49號","121.450691666667","25.1031933333333","6501500","五股區"
"248010","682-TV","2018/06/04 19:39:30","新北市五股區自強路154號","121.432206666667","25.0701666666667","6501500","五股區"
"234077","969-R7","2018/06/04 19:39:46","新北市永和區民族街67巷8號","121.518885","24.99719","6500400","永和區"
"234074","AAC-211","2018/06/04 19:39:32","新北市永和區福和路170號","121.521103333333","25.0078016666667","6500400","永和區"
"234067","AAC-212","2018/06/04 19:39:46","新北市永和區永平路173巷9號","121.510076666667","25.00825","6500400","永和區"
"234003","AAC-295","2018/06/04 19:39:49","新北市永和區永和路一段33號","121.512921666667","25.0059533333333","6500400","永和區"
"244023","483-VK","2018/06/04 19:39:34","新北市林口區文林三街139號","121.374603333333","25.0878816666667","6501700","林口區"
"243013","AAD-798","2018/06/04 19:39:44","新北市泰山區應化街7號","121.42388","25.0437266666667","6501600","泰山區"
"243009","297-R6","2018/06/04 19:39:48","新北市泰山區美寧街64號","121.430975","25.0645916666667","6501600","泰山區"
"243016","380-SR","2018/06/04 19:39:42","新北市泰山區明志路三段308號","121.420898333333","25.0351783333333","6501600","泰山區"
"243015","421-VK","2018/06/04 19:39:32","新北市泰山區民權街83號","121.428586666667","25.0497266666667","6501600","泰山區"
"243010","KEA-2216","2018/06/04 19:39:26","新北市泰山區中港西路490號","121.432423333333","25.0524583333333","6501600","泰山區"
"243012","646-TV","2018/06/04 19:39:52","新北市泰山區仁愛路100巷32號","121.433358333333","25.0550733333333","6501600","泰山區"
"243014","680-BX","2018/06/04 19:39:44","新北市泰山區泰林路二段25號","121.435226666667","25.0563216666667","6501600","泰山區"
"222003","436-BY","2018/06/04 19:32:53","新北市深坑區深南路51-1號","121.621168333333","25.0101516666667","6501800","深坑區"
"222002","659-BX","2018/06/04 19:39:39","新北市深坑區北深路一段177號","121.63249","25.01091","6501800","深坑區"
"231041","002-UM","2018/06/04 19:39:41","新北市新店區中正路500號","121.534085","24.9820566666667","6500600","新店區"
"231059","046-UY","2018/06/04 19:39:33","新北市新店區安和路三段112號","121.51719","24.985325","6500600","新店區"
"231040","047-UY","2018/06/04 19:39:44","新北市新店區北新路一段96巷23號","121.542953333333","24.9688233333333","6500600","新店區"
"231044","106-UY","2018/06/04 19:39:36","新北市新店區北新路三段115號","121.541308333333","24.982385","6500600","新店區"
"231052","108-UY","2018/06/04 19:39:46","新北市新店區新烏路二段482號","121.55299","24.9079733333333","6500600","新店區"
"231047","187-VK","2018/06/04 19:39:51","新北市新店區五峰路63巷8弄20號","121.547411666667","24.969325","6500600","新店區"
"231046","188-VK","2018/06/04 19:39:28","新北市新店區中正路329巷3弄1號","121.535538333333","24.9748183333333","6500600","新店區"
"231054","KEA-2219","2018/06/04 19:39:39","新北市新店區文中路40號","121.539573333333","24.956555","6500600","新店區"
"231057","256-BX","2018/06/04 19:39:33","新北市新店區橘園一路11號","121.547955","24.934015","6500600","新店區"
"231042","268-BY","2018/06/04 19:39:47","新北市新店區中興路一段204號","121.543768333333","24.9653833333333","6500600","新店區"
"231051","278-BY","2018/06/04 19:39:40","新北市新店區中央三街1號","121.529756666667","24.9737266666667","6500600","新店區"
"231050","AAD-862","2018/06/04 19:39:34","新北市新店區北宜路二段92-1號","121.555118333333","24.9535316666667","6500600","新店區"
"231058","3713-VJ","2018/06/04 19:39:37","新北市新店區中正路102巷8弄2號","121.543423333333","24.97109","6500600","新店區"
"231066","4716-K9","2018/06/04 19:39:32","新北市新店區安康路二段341巷14號","121.496446666667","24.9548266666667","6500600","新店區"
"231056","4715-K9","2018/06/04 19:39:45","新北市新店區中央路222號","121.52974","24.9729216666667","6500600","新店區"
"231067","4772-VM","2018/06/04 19:39:46","新北市新店區精忠路10-1號","121.53265","24.9590733333333","6500600","新店區"
"231065","512-UM","2018/06/04 19:39:50","新北市新店區安祥路109巷2號","121.47515","24.958445","6500600","新店區"
"231049","513-UM","2018/06/04 19:39:40","新北市新店區大豐路1號","121.541655","24.9805","6500600","新店區"
"231061","619-UM","2018/06/04 19:39:28","新北市新店區安民街42號","121.515926666667","24.9653483333333","6500600","新店區"
"231063","641-BX","2018/06/04 19:39:37","新北市新店區達觀路40號","121.503188333333","24.9386383333333","6500600","新店區"
"231064","719-UY","2018/06/04 19:39:45","新北市新店區安和路一段55號","121.517585","24.9662066666667","6500600","新店區"
"231062","720-UM","2018/06/04 19:39:29","新北市新店區太平路57號","121.532785","24.9590333333333","6500600","新店區"
"231060","897-TW","2018/06/04 19:39:35","新北市新店區安康路二段137號","121.511898333333","24.9603866666667","6500600","新店區"
"231045","898-TW","2018/06/04 19:39:42","新北市新店區北宜路二段242號","121.560101666667","24.9544283333333","6500600","新店區"
"231043","899-TW","2018/06/04 19:39:35","新北市新店區北新路二段122號","121.543055","24.9744583333333","6500600","新店區"
"231055","AKT-0513","2018/06/04 19:39:46","新北市新店區新生街5巷14號","121.539735","24.9656933333333","6500600","新店區"
"241011","013-R5","2018/06/04 19:39:45","新北市三重區秀江街196號","121.497591666667","25.0716283333333","6500200","三重區"
"241028","022-UY","2018/06/04 19:39:33","新北市三重區中正南路196號","121.493896666667","25.0560333333333","6500200","三重區"
"241008","059-VK","2018/06/04 19:39:45","新北市三重區永福街135巷14號","121.47819","25.0769433333333","6500200","三重區"
"241031","061-VK","2018/06/04 19:39:30","新北市三重區重新路四段248號","121.486053333333","25.05339","6500200","三重區"
"241015","062-VK","2018/06/04 19:39:44","新北市三重區福德北路34號","121.502","25.0653066666667","6500200","三重區"
"241017","063-VK","2018/06/04 19:39:43","新北市三重區重陽路三段5巷30號","121.491338333333","25.0654166666667","6500200","三重區"
"241026","066-VK","2018/06/04 19:39:40","新北市三重區文化南路65巷46弄4號","121.498715","25.060635","6500200","三重區"
"241009","265-UM","2018/06/04 19:39:35","新北市三重區三和路四段420號","121.480665","25.080065","6500200","三重區"
"241022","267-UM","2018/06/04 19:39:47","新北市三重區三民街157巷24號","121.484185","25.0650666666667","6500200","三重區"
"241025","271-UM","2018/06/04 19:39:37","新北市三重區頂崁街189號","121.477545","25.0664383333333","6500200","三重區"
"241007","398-BY","2018/06/04 19:39:43","新北市三重區三和路四段125巷62號","121.48683","25.0784616666667","6500200","三重區"
"241035","KEA-2210","2018/06/04 19:39:49","新北市三重區信義西街19號","121.497738333333","25.0646383333333","6500200","三重區"
"241004","475-VK","2018/06/04 19:39:40","新北市三重區仁愛街125巷119號","121.49932","25.0764866666667","6500200","三重區"
"241020","478-VK","2018/06/04 19:39:30","新北市三重區自強路三段43巷14號","121.487731666667","25.0729766666667","6500200","三重區"
"241030","480-VK","2018/06/04 19:39:34","新北市三重區新興路30-1號","121.49184","25.0530866666667","6500200","三重區"
"241014","543-UM","2018/06/04 19:39:33","新北市三重區河邊北街84-1號","121.504141666667","25.0693183333333","6500200","三重區"
"241023","545-UM","2018/06/04 19:39:46","新北市三重區忠孝路三段99巷23弄3號","121.479403333333","25.0645816666667","6500200","三重區"
"241001","547-UM","2018/06/04 19:39:33","新北市三重區仁愛街315巷20號","121.49336","25.0797566666667","6500200","三重區"
"241019","KEA-2593","2018/06/04 19:39:38","新北市三重區六張街194巷1弄2號","121.488593333333","25.0680316666667","6500200","三重區"
"241006","AAD-863","2018/06/04 19:39:47","新北市三重區聯華街97號","121.485463333333","25.0752666666667","6500200","三重區"
"241032","887-TS","2018/06/04 19:39:45","新北市三重區重陽路一段60巷73號","121.484283333333","25.0582233333333","6500200","三重區"
"241012","941-UM","2018/06/04 19:39:36","新北市三重區河邊北街256巷41號","121.500356666667","25.0759216666667","6500200","三重區"
"241029","942-UM","2018/06/04 19:39:48","新北市三重區光明路122號","121.492856666667","25.055895","6500200","三重區"
"235064","005-UY","2018/06/04 19:39:50","新北市中和區南山路127巷35號","121.503853333333","24.9976116666667","6500300","中和區"
"235063","006-UY","2018/06/04 19:39:34","新北市中和區連勝街136號","121.494196666667","24.9969666666667","6500300","中和區"
"235056","096-UM","2018/06/04 19:39:49","新北市中和區員山路581巷31弄1號","121.477305","25.010235","6500300","中和區"
"235039","097-UM","2018/06/04 19:39:34","新北市中和區秀峰街103巷4弄1號","121.520371666667","24.989865","6500300","中和區"
"235065","098-UM","2018/06/04 19:39:47","新北市中和區永和路8巷3號","121.500233333333","25.0031716666667","6500300","中和區"
"235040","150-BY","2018/06/04 19:39:42","新北市中和區安平路30號","121.509533333333","24.994795","6500300","中和區"
"235058","151-BY","2018/06/04 19:39:31","新北市中和區員山路124巷34號","121.482415","24.995935","6500300","中和區"
"235055","183-VK","2018/06/04 19:39:31","新北市中和區中山路三段181巷2號","121.472818333333","25.0059833333333","6500300","中和區"
"235038","185-VK","2018/06/04 19:39:31","新北市中和區自強路27巷1號","121.52072","24.992995","6500300","中和區"
"235049","186-VK","2018/06/04 19:39:32","新北市中和區安平路10-1號","121.509218333333","24.9939533333333","6500300","中和區"
"235067","255-BX","2018/06/04 19:39:31","新北市中和區新生街264號","121.483613333333","24.9971916666667","6500300","中和區"
"235044","293-VK","2018/06/04 19:39:32","新北市中和區南山路421巷1弄1號","121.507348333333","24.9895416666667","6500300","中和區"
"235072","301-VK","2018/06/04 19:39:49","新北市中和區錦和路95號","121.49007","24.99559","6500300","中和區"
"235043","352-BY","2018/06/04 19:39:35","新北市中和區興南路二段77號","121.506541666667","24.9849983333333","6500300","中和區"
"235042","551-UM","2018/06/04 19:39:28","新北市中和區中和路262巷43弄3號","121.509616666667","24.9994983333333","6500300","中和區"
"235070","558-UM","2018/06/04 19:39:48","新北市中和區景平路642號","121.497795","25.000335","6500300","中和區"
"235045","565-BX","2018/06/04 19:39:34","新北市中和區景新街487號","121.513671666667","24.987275","6500300","中和區"
"235054","640-BX","2018/06/04 19:39:48","新北市中和區國光街107巷4弄28號","121.469836666667","24.998825","6500300","中和區"
"235060","647-TV","2018/06/04 19:39:45","新北市中和區中山路二段523巷22號","121.481713333333","25.0041066666667","6500300","中和區"
"235046","733-UM","2018/06/04 19:39:41","新北市中和區忠孝街69號","121.51197","24.9849316666667","6500300","中和區"
"235071","783-BX","2018/06/04 19:39:41","新北市中和區中正路839巷29號","121.483605","25.0022433333333","6500300","中和區"
"235026","800-TS","2018/06/04 19:29:35","新北市中和區員山路36巷16-3號","121.4848","24.9913583333333","6500300","中和區"
"235057","801-TS","2018/06/04 19:39:39","新北市中和區員山路160號","121.481415","24.9995433333333","6500300","中和區"
"235041","802-TS","2018/06/04 19:39:40","新北市中和區中和路456號","121.512171666667","25.00372","6500300","中和區"
"235052","805-TS","2018/06/04 19:39:28","新北市中和區華新街192巷2-1號","121.506821666667","24.9823883333333","6500300","中和區"
"235048","896-TW","2018/06/04 19:39:41","新北市中和區忠孝街2-7號","121.509173333333","24.98301","6500300","中和區"
"235053","900-TW","2018/06/04 19:39:39","新北市中和區國光街205巷2號","121.466768333333","25.00195","6500300","中和區"
"235066","911-UM","2018/06/04 19:39:36","新北市中和區中和路196巷11號","121.50506","24.9990966666667","6500300","中和區"
"235051","157-BY","2018/06/04 19:39:50","新北市中和區南山路269號","121.503948333333","24.9925366666667","6500300","中和區"
"235037","AAC-213","2018/06/04 19:39:36","新北市中和區秀朗路三段50巷2弄2號","121.526206666667","24.995525","6500300","中和區"
"235059","AAC-215","2018/06/04 19:39:41","新北市中和區錦和路203巷1號","121.491043333333","24.9904333333333","6500300","中和區"
"220068","013-TV","2018/06/04 19:39:46","新北市板橋區中山路二段541-6號","121.483578333333","25.02154","6500100","板橋區"
"220065","072-UY","2018/06/04 19:39:29","新北市板橋區國泰街2號","121.469318333333","25.00686","6500100","板橋區"
"220106","075-UY","2018/06/04 19:39:30","新北市板橋區江寧路三段41號","121.471493333333","25.0319466666667","6500100","板橋區"
"220069","AAD-861","2018/06/04 19:39:34","新北市板橋區貴興路106巷4號","121.455353333333","25.0027","6500100","板橋區"
"220090","120-SR","2018/06/04 19:39:46","新北市板橋區長江路一段106巷13弄22號","121.460973333333","25.0294166666667","6500100","板橋區"
"247004","337-TH","2018/06/04 19:39:36","新北市蘆洲區長安街98巷6號","121.462441666667","25.0813066666667","6501400","蘆洲區"
"247008","056-VK","2018/06/04 19:39:30","新北市蘆洲區中山一路167號","121.475088333333","25.08159","6501400","蘆洲區"
"226001","312-R5","2018/06/04 19:39:37","新北市平溪區十分里十分街76號","121.776345","25.042105","6502400","平溪區"
"235047","251-BX","2018/06/04 19:39:50","新北市中和區和平街182巷3號","121.505133333333","24.992605","6500300","中和區"
"228003","097-TW","2018/06/04 19:39:37","新北市貢寮區真理里美艷山街23號","121.92335","25.06875","6502600","貢寮區"
"228001","670-TC","2018/06/04 19:39:28","新北市貢寮區真理里延平街49號","121.924561666667","25.0556233333333","6502600","貢寮區"
"224010","AGQ-8101","2018/06/04 19:37:44","新北市瑞芳區烏勢巷145號","121.847296666667","25.1081733333333","6501200","瑞芳區"
"224002","639-TC","2018/06/04 19:39:37","新北市瑞芳區三爪子坑路13巷203號","121.815575","25.1061416666667","6501200","瑞芳區"
"227001","642-TC","2018/06/04 19:39:38","新北市雙溪區雙溪里太平路54號","121.864681666667","25.0354266666667","6502500","雙溪區"
"227008","400-TW","2018/06/04 19:39:44","新北市雙溪區新基里新基北街18號","121.86718","25.0386316666667","6502500","雙溪區"
"222001","KEA-2212","2018/06/04 19:39:41","新北市深坑區深坑街142號","121.613133333333","25.001585","6501800","深坑區"
"208002","KEA-2872","2018/06/04 19:39:45","新北市金山區中山路313巷1號","121.63548","25.2234866666667","6502700","金山區"
"208003","665-BX","2018/06/04 19:39:34","新北市金山區仁愛路9號","121.638015","25.2195133333333","6502700","金山區"
"208001","761-BX","2018/06/04 19:39:40","新北市金山區六股里下六股52-3號","121.616743333333","25.2216516666667","6502700","金山區"
"251009","008-UM","2018/06/04 19:39:44","新北市淡水區中山北路一段198巷15號","121.445405","25.1792566666667","6501000","淡水區"
"251005","010-UM","2018/06/04 19:39:40","新北市淡水區原德路108巷2號","121.44337","25.17349","6501000","淡水區"
"251001","011-UM","2018/06/04 19:39:33","新北市淡水區民權路51號","121.459825","25.1390783333333","6501000","淡水區"
"251013","KEA-2871","2018/06/04 19:39:49","新北市淡水區店子後9號","121.45988","25.2187","6501000","淡水區"
"251016","179-VK","2018/06/04 19:39:39","新北市淡水區下圭柔山119-51號","121.450731666667","25.2084666666667","6501000","淡水區"
"251014","180-VK","2018/06/04 19:39:42","新北市淡水區桂竹圍4-2號","121.474453333333","25.2317233333333","6501000","淡水區"
"251015","182-VK","2018/06/04 19:39:43","新北市淡水區泉洲厝26-3號","121.484075","25.1908633333333","6501000","淡水區"
"251010","413-VK","2018/06/04 19:39:35","新北市淡水區濱海路二段202巷27號","121.434953333333","25.1920733333333","6501000","淡水區"
"251012","441-VK","2018/06/04 19:39:39","新北市淡水區中山北路三段156號","121.445611666667","25.195475","6501000","淡水區"
"251007","442-VK","2018/06/04 19:39:39","新北市淡水區坪頂路19號","121.455531666667","25.1605816666667","6501000","淡水區"
"251006","561-UM","2018/06/04 19:39:33","新北市淡水區中山北路一段247巷82號","121.442496666667","25.1793433333333","6501000","淡水區"
"251008","575-R6","2018/06/04 19:39:34","新北市淡水區中正路一段8巷1弄7號","121.428361666667","25.1766966666667","6501000","淡水區"
"251011","650-BX","2018/06/04 19:39:48","新北市淡水區八勢路30巷13號","121.46224","25.1538683333333","6501000","淡水區"
"207003","550-UM","2018/06/04 19:39:42","新北市萬里區大鵬里下社33-2號","121.64927","25.21661","6502800","萬里區"
"207004","225-TW","2018/06/04 19:39:33","新北市萬里區萬里里瑪鋉路5-2號","121.686896666667","25.1753116666667","6502800","萬里區"
"252002","178-VK","2018/06/04 19:39:38","新北市三芝區中正路一段18巷56號","121.504278333333","25.2586816666667","6502100","三芝區"
"252001","292-VK","2018/06/04 19:39:33","新北市三芝區公正街66號","121.499786666667","25.2574483333333","6502100","三芝區"
"237004","KEA-2597","2018/06/04 19:39:49","新北市三峽區插角219-3號","121.416788333333","24.8657616666667","6500900","三峽區"
"237007","153-BY","2018/06/04 19:39:42","新北市三峽區二鬮路136巷20弄11號","121.356595","24.909875","6500900","三峽區"
"237009","210-TH","2018/06/04 19:39:47","新北市三峽區中園街69號","121.36807","24.92559","6500900","三峽區"
"237013","252-BX","2018/06/04 19:39:32","新北市三峽區介壽路一段392號","121.383431666667","24.930775","6500900","三峽區"
"237012","275-BY","2018/06/04 19:39:48","新北市三峽區中華路31號","121.372933333333","24.9313233333333","6500900","三峽區"
"237008","302-VK","2018/06/04 19:39:48","新北市三峽區大同路132巷12號","121.373803333333","24.9273416666667","6500900","三峽區"
"237014","433-BY","2018/06/04 19:39:44","新北市三峽區中正路二段168號","121.366066666667","24.9157716666667","6500900","三峽區"
"237006","5529-G3","2018/06/04 19:39:33","新北市三峽區中正路一段336巷15弄2號","121.36997","24.9249383333333","6500900","三峽區"
"237015","649-BX","2018/06/04 19:39:50","新北市三峽區成福路117號","121.419798333333","24.9297916666667","6500900","三峽區"
"237005","AKY-6261","2018/06/04 19:39:37","新北市三峽區文化路312號","121.364366666667","24.9355033333333","6500900","三峽區"
"236069","105-UM","2018/06/04 19:39:50","新北市土城區明德路一段385-1號","121.452943333333","24.9804433333333","6501300","土城區"
"236042","107-UM","2018/06/04 19:39:36","新北市土城區學士路11號","121.453725","24.9830033333333","6501300","土城區"
"236078","166-UM","2018/06/04 19:39:34","新北市土城區中州路27巷59號","121.41291","24.95685","6501300","土城區"
"236030","253-BX","2018/06/04 19:39:40","新北市土城區福祥街16號","121.440868333333","24.9798683333333","6501300","土城區"
"236026","269-VK","2018/06/04 19:39:40","新北市土城區中央路二段61巷26號","121.443243333333","24.9786016666667","6501300","土城區"
"236039","271-VK","2018/06/04 19:39:45","新北市土城區青雲路269巷10-3號","121.459748333333","24.9804933333333","6501300","土城區"
"236020","401-BY","2018/06/04 19:39:30","新北市土城區峰廷街8號","121.468671666667","24.9877883333333","6501300","土城區"
"236048","913-UM","2018/06/04 19:39:42","新北市土城區明德路一段55號","121.465383333333","24.98466","6501300","土城區"
"236063","915-UM","2018/06/04 19:39:51","新北市土城區延平街38號","121.468045","24.992005","6501300","土城區"
"236055","AAC-216","2018/06/04 19:39:42","新北市土城區學府路一段76號","121.45653","24.9881766666667","6501300","土城區"
"242053","751-BX","2018/06/04 19:36:18","新北市新莊區民安西路415巷2號","121.430863333333","25.0091416666667","6500500","新莊區"
"242029","612-BX","2018/06/04 19:39:33","新北市新莊區新泰路357巷3弄57號","121.442063333333","25.039055","6500500","新莊區"
"242056","440-UM","2018/06/04 19:38:37","新北市新莊區瓊林路59-28號","121.44411","25.0263783333333","6500500","新莊區"
"242023","362-BY","2018/06/04 19:39:27","新北市新莊區復興路三段68號","121.464008333333","25.0445566666667","6500500","新莊區"
"242031","135-UY","2018/06/04 19:39:41","新北市新莊區公園一路139號","121.446325","25.0383633333333","6500500","新莊區"
"242048","172-VK","2018/06/04 19:39:38","新北市新莊區民安路37巷8號","121.424033333333","25.0268083333333","6500500","新莊區"
"242011","173-VK","2018/06/04 19:39:24","新北市新莊區三和路12-21號","121.441906666667","25.0385833333333","6500500","新莊區"
"242004","176-VK","2018/06/04 19:39:33","新北市新莊區化成路29巷84號","121.462018333333","25.044015","6500500","新莊區"
"242021","348-TH","2018/06/04 19:39:29","新北市新莊區新泰路76號","121.449048333333","25.0349616666667","6500500","新莊區"
"242013","351-TH","2018/06/04 19:39:40","新北市新莊區中誠街119號","121.449408333333","25.0475266666667","6500500","新莊區"
"238015","755-BX","2018/06/04 19:39:47","新北市樹林區日新街62號","121.422026666667","24.9909783333333","6500700","樹林區"
"238023","601-UM","2018/06/04 19:39:47","新北市樹林區三福街114號","121.406451666667","25.0162883333333","6500700","樹林區"
"238006","599-UM","2018/06/04 19:39:34","新北市樹林區中山路三段125-6號","121.398213333333","24.9739283333333","6500700","樹林區"
"238024","5061-A6","2018/06/04 19:39:34","新北市樹林區育德街78-1號","121.387326666667","24.9681266666667","6500700","樹林區"
"238022","KEA-2213","2018/06/04 19:39:33","新北市樹林區國凱街50巷3號","121.420473333333","24.9785633333333","6500700","樹林區"
"238021","KEA-2539","2018/06/04 19:39:41","新北市樹林區佳園路三段147號","121.385808333333","24.9493066666667","6500700","樹林區"
"238025","303-VK","2018/06/04 19:39:47","新北市樹林區中山路一段398號","121.418275","24.9855316666667","6500700","樹林區"
"238017","283-BY","2018/06/04 19:39:39","新北市樹林區保安街二段107巷1弄5號","121.415183333333","25.0008666666667","6500700","樹林區"
"238014","282-BY","2018/06/04 19:39:36","新北市樹林區千歲街28-1號","121.425633333333","24.99652","6500700","樹林區"
"238020","268-VK","2018/06/04 19:39:33","新北市樹林區俊英街21-5號","121.42884","25.00228","6500700","樹林區"
"239006","891-R6","2018/06/04 19:39:47","新北市鶯歌區永昌街84號","121.341715","24.9497016666667","6500800","鶯歌區"
"239001","417-VK","2018/06/04 19:39:44","新北市鶯歌區鶯桃路39-7號","121.342346666667","24.951335","6500800","鶯歌區"
"239002","359-BY","2018/06/04 19:39:42","新北市鶯歌區大湖路185巷2號","121.344158333333","24.9699033333333","6500800","鶯歌區"
"239004","193-VK","2018/06/04 19:39:35","新北市鶯歌區二甲路佳美巷13號","121.337356666667","24.9341416666667","6500800","鶯歌區"
"221008","489-VK","2018/06/04 19:39:43","新北市汐止區康寧街61巷33號","121.619591666667","25.0675416666667","6501100","汐止區"
"221036","130-UY","2018/06/04 19:39:32","新北市汐止區康寧街901號","121.651035","25.0751283333333","6501100","汐止區"
"221015","131-UY","2018/06/04 19:39:41","新北市汐止區康寧街901號","121.650711666667","25.0753166666667","6501100","汐止區"
"221010","269-BY","2018/06/04 19:39:37","新北市汐止區汐萬路一段355-1號","121.649988333333","25.0775616666667","6501100","汐止區"
"221012","278-VK","2018/06/04 19:39:33","新北市汐止區汐平路一段5號","121.68077","25.0712066666667","6501100","汐止區"
"221023","279-VK","2018/06/04 19:39:50","新北市汐止區中興路286巷1號","121.628246666667","25.0695616666667","6501100","汐止區"
"221027","281-BY","2018/06/04 19:39:37","新北市汐止區忠孝東路9號","121.658295","25.0659066666667","6501100","汐止區"
"221029","298-VK","2018/06/04 19:39:33","新北市汐止區康寧街901號","121.651471666667","25.0749433333333","6501100","汐止區"
"221021","299-VK","2018/06/04 19:39:34","新北市汐止區南興路28號","121.65222","25.0615833333333","6501100","汐止區"
"221031","353-TW","2018/06/04 19:39:36","新北市汐止區康寧街901號","121.65085","25.0752583333333","6501100","汐止區"
"221025","623-UM","2018/06/04 19:39:36","新北市汐止區福安街12-1號","121.662286666667","25.0653366666667","6501100","汐止區"
"221038","646-BX","2018/06/04 19:39:32","新北市汐止區忠孝東路225號","121.66232","25.06695","6501100","汐止區"
"221033","647-BX","2018/06/04 19:39:33","台北市南港區舊莊街二段10巷2號","121.625993333333","25.037535","6501100","汐止區"
"221002","707-TV","2018/06/04 19:39:34","新北市汐止區大同路一段239號","121.634953333333","25.0578916666667","6501100","汐止區"
"220079","145-BY","2018/06/04 19:39:45","新北市板橋區民權路202巷25號","121.460498333333","25.0175","6500100","板橋區"
"220080","200-UY","2018/06/04 19:39:35","新北市板橋區大觀路二段37巷270號","121.449783333333","25.0013633333333","6500100","板橋區"
"242002","KEA-2550","2018/06/04 19:39:36","新北市新莊區環河路636-7號","121.437391666667","25.011835","6500500","新莊區"
"220082","610-BX","2018/06/04 19:39:48","新北市板橋區篤行路一段37號","121.43221","24.9938983333333","6500100","板橋區"
"220101","245-BX","2018/06/04 19:39:42","新北市板橋區莒光路196巷28號","121.472948333333","25.0225333333333","6500100","板橋區"
"220093","267-BY","2018/06/04 19:39:33","新北市板橋區長江路一段111號","121.459795","25.029785","6500100","板橋區"
"220056","276-BY","2018/06/04 19:39:29","新北市板橋區四川路二段47巷1弄2號","121.454143333333","24.9949033333333","6500100","板橋區"
"220072","277-BY","2018/06/04 19:39:47","新北市板橋區金門街215巷41號","121.433436666667","24.989635","6500100","板橋區"
"220071","283-VK","2018/06/04 19:39:39","新北市板橋區信義路71號","121.457276666667","24.9952816666667","6500100","板橋區"
"220094","285-UM","2018/06/04 19:39:49","新北市板橋區銘傳街98號","121.469693333333","25.0316133333333","6500100","板橋區"
"220053","285-VK","2018/06/04 19:39:40","新北市板橋區中山路二段172號","121.477098333333","25.01734","6500100","板橋區"
"220083","286-VK","2018/06/04 19:39:50","新北市板橋區龍興街71巷11號","121.44326","25.0020133333333","6500100","板橋區"
"220081","287-VK","2018/06/04 19:39:47","新北市板橋區大觀路一段59號","121.4482","25.0048483333333","6500100","板橋區"
"220061","293-UM","2018/06/04 19:39:31","新北市板橋區中山路一段272巷18-1號","121.469281666667","25.0136583333333","6500100","板橋區"
"220084","296-UM","2018/06/04 19:39:40","新北市板橋區滿平二街4號","121.425513333333","24.9864083333333","6500100","板橋區"
"220075","303-R5","2018/06/04 19:39:47","新北市板橋區大勇街28號","121.454201666667","25.01714","6500100","板橋區"
"220062","305-R5","2018/06/04 19:39:37","新北市板橋區三民路二段83號","121.479373333333","25.016665","6500100","板橋區"
"220092","307-R5","2018/06/04 19:39:31","新北市板橋區自由路18-3號","121.465568333333","25.0224483333333","6500100","板橋區"
"220098","317-R6","2018/06/04 19:39:49","新北市板橋區四維路269巷29號","121.462008333333","25.0278083333333","6500100","板橋區"
"242039","280-VK","2018/06/04 19:39:29","新北市新莊區建國二路68號","121.431851666667","25.0254083333333","6500500","新莊區"
"220088","491-VK","2018/06/04 19:39:50","新北市板橋區文化路二段568號","121.476516666667","25.0346383333333","6500100","板橋區"
"220035","560-BX","2018/06/04 19:39:47","新北市板橋區新生街98巷18號","121.458975","25.0216","6500100","板橋區"
"220103","561-BX","2018/06/04 19:39:44","新北市板橋區文化路一段288號","121.467445","25.0213983333333","6500100","板橋區"
"220063","609-BX","2018/06/04 19:39:39","新北市板橋區中山路二段505巷55號","121.481886666667","25.0230283333333","6500100","板橋區"
"220086","630-UY","2018/06/04 19:39:45","新北市板橋區光華街2號","121.454365","25.0112266666667","6500100","板橋區"
"220091","637-BX","2018/06/04 19:39:46","新北市板橋區懷德街133號","121.47926","25.0304533333333","6500100","板橋區"
"220057","686-BX","2018/06/04 19:39:31","新北市板橋區國慶路158巷18號","121.46167","24.9954383333333","6500100","板橋區"
"220077","687-BX","2018/06/04 19:39:36","新北市板橋區僑中一街120號","121.445993333333","25.011755","6500100","板橋區"
"220054","741-BX","2018/06/04 19:39:46","新北市板橋區忠孝路239巷30號","121.467193333333","25.00353","6500100","板橋區"
"220102","KEA-2699","2018/06/04 19:39:36","新北市板橋區文化路二段410巷37號","121.474748333333","25.0304166666667","6500100","板橋區"
"220064","806-UM","2018/06/04 19:39:28","新北市板橋區民權路45號","121.4619","25.0113466666667","6500100","板橋區"
"220055","827-TW","2018/06/04 19:39:44","新北市板橋區國慶路149巷13弄4號","121.460843333333","24.99713","6500100","板橋區"
"220067","830-TW","2018/06/04 19:39:47","新北市板橋區長安街168巷10弄18號","121.473488333333","25.0105683333333","6500100","板橋區"
"220096","831-TW","2018/06/04 19:39:41","新北市板橋區民生路二段226巷9號","121.47033","25.0217566666667","6500100","板橋區"
"220089","833-TW","2018/06/04 19:39:37","新北市板橋區英士路13號","121.461961666667","25.025215","6500100","板橋區"
"220074","895-R6","2018/06/04 19:39:35","新北市板橋區倉後街1-8號","121.45555","25.0090866666667","6500100","板橋區"
"220073","985-R7","2018/06/04 19:39:49","新北市板橋區國光路31巷32號","121.457875","25.0183633333333","6500100","板橋區"
"220097","AAC-210","2018/06/04 19:39:37","新北市板橋區幸福路33號","121.461605","25.0201433333333","6500100","板橋區"
"220070","AAC-253","2018/06/04 19:39:42","新北市板橋區民族路272-1號","121.469746666667","25.007015","6500100","板橋區"
"235068","KEA-2873","2018/06/04 19:39:26","新北市中和區景平路493-5號","121.500133333333","24.9979016666667","6500300","中和區"
"235061","KEA-2875","2018/06/04 19:39:43","新北市中和區民樂路2-1號","121.481493333333","25.0011066666667","6500300","中和區"
