"lineid","car","time","location","longitude","latitude","cityid","cityname"
"234081","298-R6","2018/06/04 20:39:45","新北市永和區中正路481號","121.51703","25.0064666666667","6500400","永和區"
"234038","336-UY","2018/06/04 20:39:38","新北市永和區環河東路四段38號","121.528798333333","24.9989283333333","6500400","永和區"
"234064","337-UY","2018/06/04 20:39:44","新北市永和區保順路59號","121.502521666667","25.0115466666667","6500400","永和區"
"234086","338-UY","2018/06/04 20:39:42","新北市永和區光復街13號","121.516513333333","25.0173483333333","6500400","永和區"
"234030","746-BX","2018/06/04 20:39:46","新北市中和區中正路406號","121.492396666667","24.9940866666667","6500400","永和區"
"234061","AAD-866","2018/06/04 20:39:42","新北市永和區秀朗路一段175號","121.517098333333","25.0037033333333","6500400","永和區"
"234050","863-TW","2018/06/04 20:39:39","新北市永和區保安路138號","121.508696666667","25.015175","6500400","永和區"
"249001","173-UM","2018/06/04 20:39:31","新北市八里區中山路三段382號","121.368526666667","25.1360216666667","6502300","八里區"
"249004","303-UY","2018/06/04 20:39:50","新北市八里區中山路一段338號","121.41255","25.1588833333333","6502300","八里區"
"249002","305-UY","2018/06/04 20:39:40","新北市八里區龍米路三段56號","121.424493333333","25.1593616666667","6502300","八里區"
"234023","9380-KE","2018/06/04 20:39:46","新北市永和區竹林路25巷28號","121.518011666667","25.0149216666667","6500400","永和區"
"234074","AAC-211","2018/06/04 20:39:32","新北市永和區竹林路119巷22弄2號","121.521146666667","25.011505","6500400","永和區"
"243016","380-SR","2018/06/04 20:39:42","新北市泰山區文程路62號","121.43019","25.0483233333333","6501600","泰山區"
"243010","KEA-2216","2018/06/04 20:39:46","新北市泰山區泰林路二段607巷1-1號","121.420735","25.064225","6501600","泰山區"
"243014","680-BX","2018/06/04 20:39:44","新北市泰山區泰林路三段745巷145號","121.405681666667","25.067715","6501600","泰山區"
"222003","436-BY","2018/06/04 20:39:47","新北市深坑區深坑街164號","121.612728333333","25.0011666666667","6501800","深坑區"
"222002","659-BX","2018/06/04 20:39:39","新北市深坑區萬福路45號","121.59948","25.00685","6501800","深坑區"
"231041","002-UM","2018/06/04 20:39:41","新北市新店區中正路543-4號","121.533753333333","24.9874483333333","6500600","新店區"
"231059","046-UY","2018/06/04 20:39:33","新北市新店區僑愛一路1號","121.499836666667","24.9449166666667","6500600","新店區"
"231040","047-UY","2018/06/04 20:39:44","新北市新店區中正路270號","121.538928333333","24.9735666666667","6500600","新店區"
"231044","106-UY","2018/06/04 20:39:36","新北市新店區建國路293巷2號","121.537003333333","24.9859116666667","6500600","新店區"
"231052","108-UY","2018/06/04 20:39:46","新北市新店區廣興路5巷3號","121.545631666667","24.911705","6500600","新店區"
"231047","187-VK","2018/06/04 20:39:31","新北市新店區寶慶街34號","121.54309","24.9868233333333","6500600","新店區"
"231054","KEA-2219","2018/06/04 20:39:49","新北市新店區北新路一段64巷43號","121.542268333333","24.9656183333333","6500600","新店區"
"221035","KEA-2785","2018/06/04 20:39:43","新北市汐止區長江街101-5號","121.658678333333","25.073185","6501100","汐止區"
"231057","256-BX","2018/06/04 20:39:32","新北市新店區花園六路二段9-2號","121.555725","24.932935","6500600","新店區"
"231042","268-BY","2018/06/04 20:39:46","新北市新店區寶橋路230號","121.551521666667","24.9789166666667","6500600","新店區"
"231051","278-BY","2018/06/04 20:39:40","新北市新店區中央七街127號","121.525","24.97817","6500600","新店區"
"231050","AAD-862","2018/06/04 20:39:34","新北市新店區建國路4號","121.539828333333","24.9733316666667","6500600","新店區"
"231058","3713-VJ","2018/06/04 20:39:37","新北市新店區平等街17號","121.536816666667","24.9738633333333","6500600","新店區"
"231066","4716-K9","2018/06/04 20:39:31","新北市新店區安民街365巷1弄10號","121.51648","24.9751583333333","6500600","新店區"
"231056","4715-K9","2018/06/04 20:39:45","新北市新店區中央路81號","121.532185","24.97655","6500600","新店區"
"231067","4772-VM","2018/06/04 20:39:46","新北市新店區安華路28-1號","121.519643333333","24.96071","6500600","新店區"
"231049","513-UM","2018/06/04 20:39:35","新北市新店區永業路81巷12號","121.531221666667","24.9481166666667","6500600","新店區"
"231065","515-UM","2018/06/04 20:39:41","新北市新店區安祥路106巷112號","121.473865","24.9589716666667","6500600","新店區"
"231061","619-UM","2018/06/04 20:39:48","新北市新店區新和街37號","121.519256666667","24.9849316666667","6500600","新店區"
"231063","641-BX","2018/06/04 20:39:37","新北市新店區玫瑰路4-1號","121.493615","24.95138","6500600","新店區"
"231068","718-UY","2018/06/04 20:39:48","新北市新店區寶慶街35巷16弄1號","121.543043333333","24.98603","6500600","新店區"
"231064","719-UY","2018/06/04 20:39:48","新北市新店區安和路三段110巷1號","121.517356666667","24.9854533333333","6500600","新店區"
"231062","720-UM","2018/06/04 20:39:49","新北市新店區安泰路60巷55弄172號","121.484751666667","24.9456483333333","6500600","新店區"
"231060","897-TW","2018/06/04 20:39:50","新北市新店區安康路三段628-3號","121.477636666667","24.9452416666667","6500600","新店區"
"231045","898-TW","2018/06/04 20:39:42","新北市新店區長春路63號","121.550691666667","24.9578266666667","6500600","新店區"
"231043","899-TW","2018/06/04 20:39:42","新北市新店區建國路12號","121.540015","24.97363","6500600","新店區"
"241011","013-R5","2018/06/04 20:39:45","新北市三重區龍門路194號","121.499588333333","25.0733916666667","6500200","三重區"
"241028","022-UY","2018/06/04 20:39:32","新北市三重區光興街91號","121.497355","25.0599933333333","6500200","三重區"
"241008","059-VK","2018/06/04 20:39:45","新北市三重區下竹圍街42-1號","121.481018333333","25.0749066666667","6500200","三重區"
"241031","061-VK","2018/06/04 20:39:30","新北市三重區重陽路一段43巷30號","121.48822","25.05865","6500200","三重區"
"241015","062-VK","2018/06/04 20:39:44","新北市三重區文化北路200巷13號","121.497953333333","25.068225","6500200","三重區"
"241017","063-VK","2018/06/04 20:39:43","新北市三重區安慶街270號","121.49064","25.0676416666667","6500200","三重區"
"241024","065-VK","2018/06/04 20:39:39","新北市三重區中正北路191巷3弄18號","121.478436666667","25.0695833333333","6500200","三重區"
"241026","066-VK","2018/06/04 20:39:40","新北市三重區和平街1號","121.500071666667","25.0623816666667","6500200","三重區"
"241003","091-VK","2018/06/04 20:39:38","新北市三重區五華街141巷58號","121.49344","25.0865916666667","6500200","三重區"
"241013","742-BX","2018/06/04 20:39:37","新北市三重區三和路四段83號","121.489163333333","25.0752983333333","6500200","三重區"
"241005","262-UM","2018/06/04 20:39:40","新北市三重區五華街131號","121.491205","25.084415","6500200","三重區"
"241009","265-UM","2018/06/04 20:39:35","新北市三重區碧華街57號","121.484756666667","25.0813283333333","6500200","三重區"
"241016","266-UM","2018/06/04 20:39:30","新北市三重區長壽西街91號","121.494956666667","25.06692","6500200","三重區"
"241022","267-UM","2018/06/04 20:39:47","新北市三重區新北大道一段46巷18弄17號","121.48857","25.062005","6500200","三重區"
"241018","268-UM","2018/06/04 20:39:36","新北市三重區自強路一段179號","121.49234","25.0678016666667","6500200","三重區"
"241025","271-UM","2018/06/04 20:39:36","新北市三重區忠孝路三段93巷10號","121.478905","25.06491","6500200","三重區"
"241007","398-BY","2018/06/04 20:39:43","新北市三重區三和路四段101巷20號","121.488781666667","25.0770616666667","6500200","三重區"
"241035","KEA-2210","2018/06/04 20:39:49","新北市三重區正義北路279號","121.495091666667","25.07022","6500200","三重區"
"241002","413-TH","2018/06/04 20:39:39","新北市三重區仁義街167巷40號","121.498806666667","25.0825666666667","6500200","三重區"
"241004","475-VK","2018/06/04 20:39:46","新北市三重區仁愛街394號","121.490813333333","25.08102","6500200","三重區"
"241020","478-VK","2018/06/04 20:39:50","新北市三重區明德街14號","121.49273","25.072205","6500200","三重區"
"241030","480-VK","2018/06/04 20:39:34","新北市三重區成功路73巷18號","121.489401666667","25.0519383333333","6500200","三重區"
"241014","543-UM","2018/06/04 20:39:45","新北市三重區萬壽街1號","121.49917","25.0692633333333","6500200","三重區"
"241023","545-UM","2018/06/04 20:39:46","新北市三重區自由街39巷5號","121.47868","25.0670033333333","6500200","三重區"
"241001","547-UM","2018/06/04 20:39:37","新北市三重區自強路三段110巷23號","121.486161666667","25.0746416666667","6500200","三重區"
"241019","KEA-2593","2018/06/04 20:39:38","新北市三重區忠孝路一段10巷44號","121.491038333333","25.0712283333333","6500200","三重區"
"241006","AAD-863","2018/06/04 20:39:47","新北市三重區車路頭街135-1號","121.484258333333","25.0761566666667","6500200","三重區"
"241032","887-TS","2018/06/04 20:39:45","新北市三重區重陽路一段120巷46號","121.485085","25.060095","6500200","三重區"
"241012","941-UM","2018/06/04 20:39:36","新北市三重區秀江街1號","121.5029","25.07334","6500200","三重區"
"241029","942-UM","2018/06/04 20:39:48","新北市三重區集美街126巷26號","121.49006","25.0539033333333","6500200","三重區"
"241033","AAC-255","2018/06/04 20:39:37","新北市三重區五谷王北街181-1號","121.477531666667","25.0544483333333","6500200","三重區"
"235040","150-BY","2018/06/04 20:39:42","新北市新店區薏仁坑路6號","121.500161666667","24.95804","6500300","中和區"
"235069","4980-A6","2018/06/04 20:39:35","新北市中和區新生街232號","121.483765","24.99814","6500300","中和區"
"235059","AAC-215","2018/06/04 20:39:41","新北市中和區員山路72號","121.48087","24.993755","6500300","中和區"
"247024","893-R6","2018/06/04 20:39:44","新北市蘆洲區光復路59號","121.46361","25.0853016666667","6501400","蘆洲區"
"247014","546-UM","2018/06/04 20:39:39","新北市蘆洲區中山一路245號","121.473233333333","25.0804383333333","6501400","蘆洲區"
"247022","500-BY","2018/06/04 20:39:47","新北市蘆洲區中正路243巷7弄50號","121.467718333333","25.0855066666667","6501400","蘆洲區"
"247010","341-TH","2018/06/04 20:39:37","新北市蘆洲區重陽街72號","121.481798333333","25.0842716666667","6501400","蘆洲區"
"247012","339-TH","2018/06/04 20:39:46","新北市蘆洲區集賢路224巷37弄1號","121.480633333333","25.088045","6501400","蘆洲區"
"247004","337-TH","2018/06/04 20:39:36","新北市蘆洲區長安街222號","121.45816","25.0848816666667","6501400","蘆洲區"
"247006","336-TH","2018/06/04 20:39:45","新北市蘆洲區和平路181號","121.466383333333","25.081185","6501400","蘆洲區"
"247008","056-VK","2018/06/04 20:39:50","新北市蘆洲區重陽街24號","121.480865","25.0819766666667","6501400","蘆洲區"
"247016","007-UY","2018/06/04 20:39:49","新北市蘆洲區中山二路134號","121.471558333333","25.0814716666667","6501400","蘆洲區"
"247002","002-UY","2018/06/04 20:39:30","新北市蘆洲區長安街375巷6號","121.456913333333","25.087965","6501400","蘆洲區"
"247020","001-UY","2018/06/04 20:39:49","新北市蘆洲區民族路422巷1號","121.473986666667","25.091905","6501400","蘆洲區"
"222001","KEA-2212","2018/06/04 20:39:41","新北市深坑區北深路三段230號","121.600698333333","25.0039516666667","6501800","深坑區"
"251001","011-UM","2018/06/04 20:39:33","新北市淡水區淡金路218-1號","121.46071","25.1675966666667","6501000","淡水區"
"251013","KEA-2871","2018/06/04 20:39:48","新北市淡水區下圭柔山28巷29號","121.458568333333","25.203705","6501000","淡水區"
"251016","179-VK","2018/06/04 20:39:39","新北市淡水區後洲子8-2號","121.449638333333","25.2240333333333","6501000","淡水區"
"251014","180-VK","2018/06/04 20:39:42","新北市淡水區公埔子26號","121.467223333333","25.233325","6501000","淡水區"
"251015","182-VK","2018/06/04 20:39:43","新北市淡水區淡金路四段478號","121.452048333333","25.2244683333333","6501000","淡水區"
"251010","413-VK","2018/06/04 20:39:35","新北市淡水區沙崙路181巷15號","121.423958333333","25.1843683333333","6501000","淡水區"
"251012","441-VK","2018/06/04 20:39:39","新北市淡水區興仁路99號","121.451646666667","25.2180566666667","6501000","淡水區"
"251007","442-VK","2018/06/04 20:39:39","新北市淡水區北投子14-3號","121.44917","25.182895","6501000","淡水區"
"251006","561-UM","2018/06/04 20:39:33","新北市淡水區商工路177號","121.448303333333","25.1883283333333","6501000","淡水區"
"251011","650-BX","2018/06/04 20:39:47","新北市淡水區新市一路一段365號","121.436478333333","25.1861766666667","6501000","淡水區"
"251002","672-BX","2018/06/04 20:39:37","新北市淡水區中正路28號","121.444306666667","25.16904","6501000","淡水區"
"251003","766-UM","2018/06/04 20:39:47","新北市淡水區新民街120巷21號","121.438298333333","25.1781133333333","6501000","淡水區"
"252002","178-VK","2018/06/04 20:39:38","新北市三芝區淡金路二段47-1號","121.503676666667","25.2604616666667","6502100","三芝區"
"252001","292-VK","2018/06/04 20:39:33","新北市三芝區長安街55號","121.50113","25.2565433333333","6502100","三芝區"
"242058","986-R7","2018/06/04 20:39:43","新北市新莊區四維路133號","121.422798333333","25.0225833333333","6500500","新莊區"
"242053","751-BX","2018/06/04 20:39:35","新北市新莊區西盛街323巷5號","121.428466666667","25.0147116666667","6500500","新莊區"
"242027","615-BX","2018/06/04 20:39:37","新北市新莊區思源路57號","121.459993333333","25.04027","6500500","新莊區"
"242025","613-BX","2018/06/04 20:39:31","新北市新莊區化成路579巷1號","121.464315","25.0661266666667","6500500","新莊區"
"242029","612-BX","2018/06/04 20:39:53","新北市新莊區中華路二段26-1號","121.45357","25.0450733333333","6500500","新莊區"
"242042","566-BX","2018/06/04 20:39:43","新北市新莊區天祥街19巷1-1號","121.417383333333","25.0277066666667","6500500","新莊區"
"242046","497-BY","2018/06/04 20:39:44","新北市新莊區裕民街70號","121.418603333333","25.0241683333333","6500500","新莊區"
"242056","440-UM","2018/06/04 20:39:37","新北市新莊區瓊泰路70號","121.443246666667","25.0288916666667","6500500","新莊區"
"242036","415-TV","2018/06/04 20:39:45","新北市新莊區後港一路94巷3弄4號","121.428166666667","25.0262883333333","6500500","新莊區"
"242007","413-TV","2018/06/04 20:39:32","新北市新莊區思源路287巷2弄7號","121.459326666667","25.0485383333333","6500500","新莊區"
"242044","400-BY","2018/06/04 20:39:48","新北市新莊區龍安路108號","121.418348333333","25.0204183333333","6500500","新莊區"
"242023","362-BY","2018/06/04 20:39:47","新北市新莊區復興路三段48號","121.46171","25.0445183333333","6500500","新莊區"
"242060","353-BY","2018/06/04 20:39:33","新北市新莊區新樹路258巷3號","121.432163333333","25.0155683333333","6500500","新莊區"
"242009","132-UY","2018/06/04 20:39:52","新北市新莊區昌盛街107號","121.45635","25.0501116666667","6500500","新莊區"
"242031","135-UY","2018/06/04 20:39:41","新北市新莊區中正路508巷2號","121.435983333333","25.033175","6500500","新莊區"
"242048","172-VK","2018/06/04 20:39:33","新北市新莊區中正路717號","121.42413","25.0292983333333","6500500","新莊區"
"242011","173-VK","2018/06/04 20:39:44","新北市新莊區中榮街122巷18號","121.446636666667","25.0535233333333","6500500","新莊區"
"242017","175-VK","2018/06/04 20:39:41","新北市新莊區新泰路368號","121.444415","25.0427033333333","6500500","新莊區"
"242015","346-TH","2018/06/04 20:39:43","新北市新莊區中和街39號","121.4481","25.04427","6500500","新莊區"
"242021","348-TH","2018/06/04 20:39:49","新北市新莊區中華路一段110號","121.452335","25.04022","6500500","新莊區"
"242050","349-TH","2018/06/04 20:39:40","新北市新莊區西盛街280巷14號","121.427496666667","25.015375","6500500","新莊區"
"242019","350-TH","2018/06/04 20:39:47","新北市新莊區銘德街124號","121.455018333333","25.04316","6500500","新莊區"
"242013","351-TH","2018/06/04 20:39:40","新北市新莊區幸福路770號","121.447088333333","25.0490983333333","6500500","新莊區"
"221008","489-VK","2018/06/04 20:39:43","新北市汐止區康寧街861巷3號","121.645343333333","25.0761066666667","6501100","汐止區"
"221036","130-UY","2018/06/04 20:39:36","新北市汐止區新昌路24號","121.662145","25.0677316666667","6501100","汐止區"
"221015","131-UY","2018/06/04 20:39:40","新北市汐止區建成路34號","121.66412","25.07275","6501100","汐止區"
"221023","279-VK","2018/06/04 20:39:50","新北市汐止區民族二街5巷1號","121.635116666667","25.0718016666667","6501100","汐止區"
"221032","280-BY","2018/06/04 20:39:40","新北市汐止區弘道街53巷30弄2號","121.618918333333","25.0500216666667","6501100","汐止區"
"221027","281-BY","2018/06/04 20:39:37","新北市汐止區大同路二段567號","121.662898333333","25.0699183333333","6501100","汐止區"
"221029","298-VK","2018/06/04 20:39:33","新北市汐止區大同路一段421號","121.642581666667","25.0611416666667","6501100","汐止區"
"221021","299-VK","2018/06/04 20:39:34","新北市汐止區水源路一段284號","121.654285","25.058335","6501100","汐止區"
"221031","353-TW","2018/06/04 20:39:36","新北市汐止區中興路27巷21號","121.634076666667","25.060855","6501100","汐止區"
"221025","623-UM","2018/06/04 20:39:36","新北市汐止區水源路二段185號","121.65777","25.0535066666667","6501100","汐止區"
"221038","646-BX","2018/06/04 20:39:32","新北市汐止區大同路二段196號","121.652968333333","25.06423","6501100","汐止區"
"221033","647-BX","2018/06/04 20:39:33","台北市南港區合順街8巷7弄38號","121.620231666667","25.0418683333333","6501100","汐止區"
"221002","707-TV","2018/06/04 20:39:34","新北市汐止區福德二路121號","121.631251666667","25.0653066666667","6501100","汐止區"
"221018","753-BX","2018/06/04 20:39:49","新北市汐止區中華街57巷2號","121.667866666667","25.071465","6501100","汐止區"
"242002","KEA-2550","2018/06/04 20:39:36","新北市新莊區明中街25號","121.458321666667","25.0386083333333","6500500","新莊區"
"220083","286-VK","2018/06/04 20:39:50","新北市板橋區僑中二街116巷9-3號","121.445175","25.0064133333333","6500100","板橋區"
"242039","280-VK","2018/06/04 20:39:29","新北市新莊區民安路459號","121.434618333333","25.0225316666667","6500500","新莊區"
"220035","560-BX","2018/06/04 20:39:36","新北市樹林區中山路三段210-2號","121.381433333333","24.9656183333333","6500100","板橋區"
"220103","561-BX","2018/06/04 20:39:44","新北市板橋區漢生東路63巷1號","121.465833333333","25.0163233333333","6500100","板橋區"
"220070","AAC-253","2018/06/04 20:39:37","新北市樹林區八德街846號","121.392158333333","24.9686133333333","6500100","板橋區"
