"lineid","car","time","location","longitude","latitude","cityid","cityname"
"249004","303-UY","2018/06/04 21:09:50","新北市林口區太平里180號","121.368195","25.1339383333333","6502300","八里區"
"231059","046-UY","2018/06/04 21:09:51","新北市新店區僑義路30號","121.500656666667","24.9496633333333","6500600","新店區"
"231040","047-UY","2018/06/04 21:09:44","新北市新店區北新路一段351號","121.542008333333","24.9693316666667","6500600","新店區"
"231047","187-VK","2018/06/04 21:09:51","新北市新店區文化路39號","121.544008333333","24.9801866666667","6500600","新店區"
"231054","KEA-2219","2018/06/04 21:09:39","新北市新店區大新街7巷26號","121.54408","24.9679183333333","6500600","新店區"
"231042","268-BY","2018/06/04 21:09:46","新北市新店區寶興路60巷6號","121.549766666667","24.97179","6500600","新店區"
"231051","278-BY","2018/06/04 21:09:40","新北市新店區中正路700巷26號","121.535376666667","24.9909716666667","6500600","新店區"
"231050","AAD-862","2018/06/04 21:09:34","新北市新店區三民路29巷2弄2號","121.537805","24.970005","6500600","新店區"
"231066","4716-K9","2018/06/04 21:09:31","新北市新店區薏仁坑路自強巷1號","121.496781666667","24.9577466666667","6500600","新店區"
"231065","515-UM","2018/06/04 21:09:41","新北市新店區安祥路102巷117號","121.486365","24.964295","6500600","新店區"
"231061","619-UM","2018/06/04 21:09:48","新北市新店區永安街30號","121.517706666667","24.9866083333333","6500600","新店區"
"231063","641-BX","2018/06/04 21:09:37","新北市新店區玫瑰路66巷1號","121.49594","24.945205","6500600","新店區"
"231062","720-UM","2018/06/04 21:09:49","新北市新店區雙城路60巷16弄13號","121.491738333333","24.9478666666667","6500600","新店區"
"231060","897-TW","2018/06/04 21:09:50","新北市新店區薏仁坑路6號","121.500278333333","24.9580633333333","6500600","新店區"
"241011","013-R5","2018/06/04 21:09:45","新北市三重區龍濱路237號","121.50155","25.0722933333333","6500200","三重區"
"241028","022-UY","2018/06/04 21:09:33","新北市三重區正義南路60-1號","121.49827","25.0606433333333","6500200","三重區"
"241008","059-VK","2018/06/04 21:09:45","新北市三重區三和路三段8號","121.497081666667","25.0701266666667","6500200","三重區"
"241031","061-VK","2018/06/04 21:09:50","新北市三重區重新路五段428號","121.475233333333","25.047515","6500200","三重區"
"241015","062-VK","2018/06/04 21:09:44","新北市三重區龍濱路2號","121.50324","25.0667966666667","6500200","三重區"
"241017","063-VK","2018/06/04 21:09:43","新北市三重區大同北路132巷8號","121.492385","25.0646466666667","6500200","三重區"
"241024","065-VK","2018/06/04 21:09:39","新北市三重區國道路一段58巷13號","121.481396666667","25.0721216666667","6500200","三重區"
"241026","066-VK","2018/06/04 21:09:40","新北市三重區福德南路154號","121.500541666667","25.05847","6500200","三重區"
"241003","091-VK","2018/06/04 21:09:38","新北市三重區仁義街337-1號","121.494996666667","25.0847933333333","6500200","三重區"
"241013","742-BX","2018/06/04 21:09:49","新北市三重區仁愛街141巷18號","121.496343333333","25.07556","6500200","三重區"
"241005","262-UM","2018/06/04 21:09:40","新北市三重區五華街189號","121.48986","25.085335","6500200","三重區"
"241009","265-UM","2018/06/04 21:09:35","新北市三重區忠孝路二段126號","121.482943333333","25.06878","6500200","三重區"
"241016","266-UM","2018/06/04 21:09:50","新北市三重區信義西街138號","121.495693333333","25.0644383333333","6500200","三重區"
"241022","267-UM","2018/06/04 21:09:47","新北市三重區中正北路64巷24號","121.486083333333","25.06369","6500200","三重區"
"241018","268-UM","2018/06/04 21:09:36","新北市三重區正義北路340號","121.494335","25.070665","6500200","三重區"
"241025","271-UM","2018/06/04 21:09:36","新北市三重區忠孝路三段40巷6弄11號","121.482216666667","25.0669116666667","6500200","三重區"
"241007","398-BY","2018/06/04 21:09:43","新北市三重區三和路四段145巷81號","121.48643","25.0786183333333","6500200","三重區"
"241002","413-TH","2018/06/04 21:09:39","新北市三重區五華街1巷76號","121.496908333333","25.0804483333333","6500200","三重區"
"241004","475-VK","2018/06/04 21:09:40","新北市三重區仁愛街418號","121.490458333333","25.0813233333333","6500200","三重區"
"241020","478-VK","2018/06/04 21:09:50","新北市三重區忠孝路二段35號","121.485861666667","25.0710716666667","6500200","三重區"
"241030","480-VK","2018/06/04 21:09:34","新北市三重區五谷王北街20巷15弄1號","121.475045","25.0484233333333","6500200","三重區"
"241014","543-UM","2018/06/04 21:07:53","新北市三重區長安街120號","121.502958333333","25.0679033333333","6500200","三重區"
"241023","545-UM","2018/06/04 21:09:46","新北市三重區忠孝路三段84巷63號","121.482346666667","25.0636816666667","6500200","三重區"
"241001","547-UM","2018/06/04 21:09:33","新北市三重區福隆路10號","121.490106666667","25.0775266666667","6500200","三重區"
"241019","KEA-2593","2018/06/04 21:09:38","新北市三重區自強路二段74巷23-1號","121.487908333333","25.06979","6500200","三重區"
"241006","AAD-863","2018/06/04 21:09:47","新北市三重區明志街135號","121.489218333333","25.06329","6500200","三重區"
"241032","887-TS","2018/06/04 21:09:45","新北市三重區新北大道一段252號","121.480396666667","25.061625","6500200","三重區"
"241012","941-UM","2018/06/04 21:09:42","新北市三重區仁信街6號","121.501341666667","25.0755066666667","6500200","三重區"
"241029","942-UM","2018/06/04 21:09:48","新北市三重區正義南路111號","121.498276666667","25.05852","6500200","三重區"
"241033","AAC-255","2018/06/04 21:09:37","新北市三重區中興北街283號","121.469328333333","25.0616566666667","6500200","三重區"
"235040","150-BY","2018/06/04 21:09:42","新北市中和區中正路637巷52弄1號","121.485415","24.99358","6500300","中和區"
"247024","893-R6","2018/06/04 21:09:44","新北市蘆洲區長興路50巷1號","121.463746666667","25.08379","6501400","蘆洲區"
"247014","546-UM","2018/06/04 21:09:39","新北市蘆洲區中央路155號","121.472653333333","25.0847033333333","6501400","蘆洲區"
"247022","500-BY","2018/06/04 21:09:47","新北市蘆洲區中正路261號","121.467433333333","25.0872983333333","6501400","蘆洲區"
"247010","341-TH","2018/06/04 21:09:37","新北市蘆洲區鷺江街42號","121.477295","25.0831233333333","6501400","蘆洲區"
"247012","339-TH","2018/06/04 21:09:46","新北市蘆洲區三民路72號","121.475145","25.08389","6501400","蘆洲區"
"247004","337-TH","2018/06/04 21:09:45","新北市蘆洲區永安南路二段286號","121.457606666667","25.0813233333333","6501400","蘆洲區"
"247006","336-TH","2018/06/04 21:09:45","新北市蘆洲區九芎街15巷12號","121.467873333333","25.0778766666667","6501400","蘆洲區"
"247018","057-VK","2018/06/04 21:09:34","新北市蘆洲區民族路408巷7號","121.474745","25.091955","6501400","蘆洲區"
"247016","007-UY","2018/06/04 21:09:49","新北市蘆洲區中正路185巷80弄2號","121.465946666667","25.0841816666667","6501400","蘆洲區"
"247002","002-UY","2018/06/04 21:09:53","新北市蘆洲區永樂街38巷42弄6號","121.45881","25.0899333333333","6501400","蘆洲區"
"247020","001-UY","2018/06/04 21:09:49","新北市蘆洲區民族路488號","121.471151666667","25.0913383333333","6501400","蘆洲區"
"251009","008-UM","2018/06/04 21:09:43","新北市淡水區民族路112巷57號","121.462056666667","25.13432","6501000","淡水區"
"251005","010-UM","2018/06/04 21:09:40","新北市淡水區英專路2巷24號","121.446586666667","25.169165","6501000","淡水區"
"251001","011-UM","2018/06/04 21:09:33","新北市淡水區新市一路三段101巷16弄20號","121.446775","25.1840083333333","6501000","淡水區"
"251013","KEA-2871","2018/06/04 21:09:48","新北市淡水區行忠路328號","121.460493333333","25.1996066666667","6501000","淡水區"
"251016","179-VK","2018/06/04 21:09:39","新北市淡水區前洲子2號","121.444695","25.2167366666667","6501000","淡水區"
"251014","180-VK","2018/06/04 21:09:42","新北市淡水區六塊厝2-6號","121.449651666667","25.241695","6501000","淡水區"
"251015","182-VK","2018/06/04 21:09:43","新北市淡水區淡金路四段542巷60號","121.455058333333","25.2264383333333","6501000","淡水區"
"251010","413-VK","2018/06/04 21:09:35","新北市淡水區中正路一段102號","121.424266666667","25.1776916666667","6501000","淡水區"
"251012","441-VK","2018/06/04 21:09:39","新北市淡水區淡金路五段172號","121.4571","25.239955","6501000","淡水區"
"251007","442-VK","2018/06/04 21:09:39","新北市淡水區仁愛街5號","121.446003333333","25.1704733333333","6501000","淡水區"
"251011","650-BX","2018/06/04 21:09:47","新北市淡水區新民街222巷16弄5-25號","121.437376666667","25.179785","6501000","淡水區"
"251002","672-BX","2018/06/04 21:09:45","新北市淡水區學府路172巷21號","121.448448333333","25.17476","6501000","淡水區"
"251003","766-UM","2018/06/04 21:09:47","新北市淡水區新春街125巷51號","121.440536666667","25.18283","6501000","淡水區"
"242058","986-R7","2018/06/04 21:09:43","新北市樹林區八德街437-1號","121.405776666667","24.9693983333333","6500500","新莊區"
"220070","AAC-253","2018/06/04 21:09:37","新北市板橋區華東街1-8號","121.447945","24.9948283333333","6500100","板橋區"
