"lineid","car","time","location","longitude","latitude","cityid","cityname"
"231047","187-VK","2018/06/04 21:29:51","新北市新店區柴埕路116號","121.505348333333","24.96015","6500600","新店區"
"231050","AAD-862","2018/06/04 21:29:45","新北市新店區中正路284巷4弄3號","121.538483333333","24.9746866666667","6500600","新店區"
"231065","515-UM","2018/06/04 21:29:41","新北市新店區安祥路69巷54弄28號","121.48272","24.9587516666667","6500600","新店區"
"231063","641-BX","2018/06/04 21:29:37","新北市新店區如意街75號","121.4944","24.9471816666667","6500600","新店區"
"241024","065-VK","2018/06/04 21:29:39","新北市三重區中正北路115巷6號","121.483963333333","25.0677183333333","6500200","三重區"
"241003","091-VK","2018/06/04 21:29:38","新北市三重區集賢路87-1號","121.493621666667","25.0868666666667","6500200","三重區"
"241005","262-UM","2018/06/04 21:29:40","新北市三重區仁華街77號","121.48563","25.0829283333333","6500200","三重區"
"241007","398-BY","2018/06/04 21:29:43","新北市三重區正義北路110號","121.49696","25.0651733333333","6500200","三重區"
"241014","543-UM","2018/06/04 21:29:33","新北市三重區後埔街61-1號","121.480411666667","25.0473933333333","6500200","三重區"
"241032","887-TS","2018/06/04 21:29:05","新北市五股區中直路15-2號","121.423128333333","25.1112016666667","6500200","三重區"
"241033","AAC-255","2018/06/04 21:29:37","新北市三重區光復路二段88巷32號","121.470648333333","25.0573133333333","6500200","三重區"
"247024","893-R6","2018/06/04 21:29:24","新北市五股區中直路21號","121.42177","25.11174","6501400","蘆洲區"
"247010","341-TH","2018/06/04 21:29:37","新北市蘆洲區三民路26巷1弄1號","121.476076666667","25.0826916666667","6501400","蘆洲區"
"247006","336-TH","2018/06/04 21:29:45","新北市蘆洲區中原路55號","121.459086666667","25.0821866666667","6501400","蘆洲區"
"251009","008-UM","2018/06/04 21:29:43","新北市淡水區民族路33巷16-3號","121.463453333333","25.1359716666667","6501000","淡水區"
"251004","009-UM","2018/06/04 21:29:41","新北市淡水區民權路119號","121.459986666667","25.1368166666667","6501000","淡水區"
"251005","010-UM","2018/06/04 21:29:40","新北市淡水區水源街一段34巷9號","121.443265","25.171805","6501000","淡水區"
"251001","011-UM","2018/06/04 21:29:33","新北市淡水區新市二路三段22號","121.433133333333","25.1932816666667","6501000","淡水區"
"251013","KEA-2871","2018/06/04 21:29:48","新北市淡水區埤島60-1號","121.459173333333","25.195245","6501000","淡水區"
"251016","179-VK","2018/06/04 21:29:39","新北市淡水區前洲子28號","121.441031666667","25.2193","6501000","淡水區"
"251014","180-VK","2018/06/04 21:29:42","新北市淡水區六塊厝2-1號","121.450133333333","25.240465","6501000","淡水區"
"251015","182-VK","2018/06/04 21:29:43","新北市淡水區淡金路三段28號","121.447845","25.1988783333333","6501000","淡水區"
"251010","413-VK","2018/06/04 21:29:35","新北市淡水區中正路二段32巷16號","121.420426666667","25.1824033333333","6501000","淡水區"
"251012","441-VK","2018/06/04 21:29:39","新北市淡水區淡金路五段35巷46號","121.452498333333","25.23476","6501000","淡水區"
"251007","442-VK","2018/06/04 21:29:34","新北市淡水區淡金路一段69號","121.458258333333","25.1734283333333","6501000","淡水區"
"251006","561-UM","2018/06/04 21:29:33","新北市淡水區公明街55號","121.443496666667","25.1687016666667","6501000","淡水區"
"251008","575-R6","2018/06/04 21:29:35","新北市淡水區水源街二段122號","121.453011666667","25.17462","6501000","淡水區"
"251011","650-BX","2018/06/04 21:29:47","新北市淡水區新民街158號","121.437145","25.1783183333333","6501000","淡水區"
"251003","766-UM","2018/06/04 21:29:47","新北市淡水區崁頂15-5號","121.439008333333","25.1859116666667","6501000","淡水區"
"242058","986-R7","2018/06/04 21:29:43","新北市樹林區環河路600-2號","121.403571666667","24.9692766666667","6500500","新莊區"
"220070","AAC-253","2018/06/04 21:29:37","新北市板橋區華東街1-9號","121.44827","24.9948616666667","6500100","板橋區"
