"lineid","car","time","location","longitude","latitude","cityid","cityname"
"248005","653-BX","2018/06/05 07:29:30","新北市五股區明德路10號","121.433406666667","25.0717216666667","6501500","五股區"
"244002","248-BX","2018/06/05 07:29:30","新北市林口區忠福路342-1號","121.357235","25.0792233333333","6501700","林口區"
"222004","289-BY","2018/06/05 07:29:23","新北市深坑區文化街39巷1號","121.618896666667","25.001115","6501800","深坑區"
"235001","611-BX","2018/06/05 07:29:11","新北市中和區圓通路367巷6號","121.491516666667","24.9892533333333","6500300","中和區"
"226005","5620-A6","2018/06/05 07:29:11","新北市平溪區靜安路二段141號","121.722501666667","25.023065","6502400","平溪區"
"226002","7418-A5","2018/06/05 07:19:48","新北市平溪區望古里灰4-2號","121.763605","25.0285833333333","6502400","平溪區"
"226006","AGD-0702","2018/06/05 07:29:19","新北市平溪區嶺腳里嶺腳寮85號","121.749263333333","25.0353316666667","6502400","平溪區"
"223006","022-BY","2018/06/05 07:29:23","新北市坪林區北宜路八段387號","121.707675","24.9324383333333","6501900","石碇區"
"223002","KEA-2673","2018/06/05 07:29:11","新北市石碇區北宜路六段塗潭巷9號","121.648118333333","24.9305183333333","6501900","石碇區"
"223003","205-TH","2018/06/05 07:16:54","新北市石碇區蓬菜寮17號","121.649026666667","24.972085","6501900","石碇區"
"223008","406-TH","2018/06/05 07:29:27","新北市石碇區頭9號","121.706111666667","25.0005566666667","6501900","石碇區"
"223001","592-UM","2018/06/05 07:29:25","新北市石碇區蓬菜寮11-4號","121.651328333333","24.9735566666667","6501900","石碇區"
"223004","660-BX","2018/06/05 07:29:16","新北市石碇區八分寮47號","121.642638333333","25.0141766666667","6501900","石碇區"
"223007","661-BX","2018/06/05 07:29:29","新北市石碇區大溪墘11號","121.694926666667","25.00822","6501900","石碇區"
"223005","677-TV","2018/06/05 07:29:23","新北市石碇區八分寮47-1號","121.642478333333","25.0138616666667","6501900","石碇區"
"227006","282-VK","2018/06/05 07:29:11","新北市雙溪區新基里自強路5號","121.866326666667","25.038965","6502500","雙溪區"
"252005","073-UM","2018/06/05 07:29:21","新北市三芝區中山路二段50號","121.503166666667","25.2543616666667","6502100","三芝區"
"252004","249-BX","2018/06/05 07:29:13","新北市三芝區店子里龜子山16-2號","121.49958","25.2173633333333","6502100","三芝區"
"252007","AAC-283","2018/06/05 07:29:16","新北市三芝區古庄里古庄83號","121.489003333333","25.2701533333333","6502100","三芝區"
"236008","165-UM","2018/06/05 07:29:19","新北市土城區延壽路11號","121.47132","24.99047","6501300","土城區"
"236002","339-SR","2018/06/05 07:28:07","新北市土城區南天母路139號","121.45104","24.9509616666667","6501300","土城區"
"235025","KEA-2875","2018/06/05 07:25:02","新北市中和區員山路36巷16-2號","121.485286666667","24.991675","6500300","中和區"
