"lineid","car","time","location","longitude","latitude","cityid","cityname"
"248005","653-BX","2018/08/30 06:59:00","新北市五股區中興路二段163號","121.457626666667","25.0775183333333","6501500","五股區"
"232001","290-BY","2018/08/30 06:59:00","新北市坪林區桶盤嶼6號","121.711158333333","24.9543616666667","6502000","坪林區"
"232014","291-BY","2018/08/30 06:58:54","新北市坪林區仁里10-3號","121.692015","24.9318566666667","6502000","坪林區"
"232010","375-UM","2018/08/30 06:59:11","新北市坪林區北宜路八段301號","121.710956666667","24.9337916666667","6502000","坪林區"
"232018","705-BZ","2018/08/30 06:59:05","新北市坪林區大粗坑7-1號","121.727088333333","24.94787","6502000","坪林區"
"232007","758-BX","2018/08/30 06:58:56","新北市坪林區魚堀17號","121.703783333333","24.9175066666667","6502000","坪林區"
"235001","611-BX","2018/08/30 06:58:53","新北市中和區圓通路367巷6號","121.491496666667","24.9893266666667","6500300","中和區"
"223006","022-BY","2018/08/30 06:59:07","新北市石碇區八分寮55-1號","121.644716666667","25.017205","6501900","石碇區"
"223003","205-TH","2018/08/30 06:59:01","新北市石碇區石崁33號","121.658653333333","24.9915616666667","6501900","石碇區"
"223008","406-TH","2018/08/30 06:59:05","新北市石碇區十八重溪67號","121.673368333333","25.0132166666667","6501900","石碇區"
"223001","592-UM","2018/08/30 06:59:01","新北市石碇區石崁31號","121.658778333333","24.99138","6501900","石碇區"
"223004","660-BX","2018/08/30 06:59:06","新北市石碇區碇坪路一段56號","121.657035","24.991525","6501900","石碇區"
"223007","661-BX","2018/08/30 06:59:08","新北市石碇區十八重溪67號","121.673831666667","25.0133683333333","6501900","石碇區"
"223005","677-TV","2018/08/30 06:59:05","新北市石碇區碇坪路一段62號","121.657156666667","24.9914766666667","6501900","石碇區"
"227007","282-VK","2018/08/30 06:59:03","新北市雙溪區新基里自強路5-1號","121.86641","25.0390933333333","6502500","雙溪區"
"252004","249-BX","2018/08/30 06:59:04","新北市三芝區埔坪里埔頭坑41號","121.504503333333","25.264485","6502100","三芝區"
"252007","AAC-283","2018/08/30 06:59:15","新北市三芝區埔坪里埔頭坑107號","121.504601666667","25.2617333333333","6502100","三芝區"
