"lineid","car","time","location","longitude","latitude","cityid","cityname"
"248005","653-BX","2018/08/30 07:09:00","新北市五股區新五路二段89號","121.436751666667","25.0742933333333","6501500","五股區"
"232001","290-BY","2018/08/30 07:09:00","新北市坪林區桶盤嶼8-2號","121.707275","24.957535","6502000","坪林區"
"232014","291-BY","2018/08/30 07:08:55","新北市坪林區金瓜寮3-1號","121.680901666667","24.91826","6502000","坪林區"
"232010","375-UM","2018/08/30 07:08:51","新北市坪林區水聳淒坑16-1號","121.722736666667","24.9287333333333","6502000","坪林區"
"232018","705-BZ","2018/08/30 07:09:05","新北市坪林區坪雙路二段2號","121.735701666667","24.9606583333333","6502000","坪林區"
"232007","758-BX","2018/08/30 07:08:56","新北市坪林區魚堀55-5號","121.70655","24.9287066666667","6502000","坪林區"
"235001","611-BX","2018/08/30 07:09:13","新北市中和區圓通路367巷6號","121.491493333333","24.989225","6500300","中和區"
"226005","5620-A6","2018/08/30 07:09:09","新北市平溪區菁桐里菁桐街2號","121.728493333333","25.02465","6502400","平溪區"
"226007","7418-A5","2018/08/30 07:09:11","新北市平溪區石底里石筍尖3號","121.736338333333","25.0257033333333","6502400","平溪區"
"226003","AGD-0702","2018/08/30 07:08:59","新北市平溪區靜安路二段356號","121.737571666667","25.024535","6502400","平溪區"
"223006","022-BY","2018/08/30 07:09:07","新北市石碇區新興坑33號","121.64669","25.01589","6501900","石碇區"
"223003","205-TH","2018/08/30 07:09:01","新北市石碇區摸乳巷11號","121.661166666667","24.9816016666667","6501900","石碇區"
"223008","406-TH","2018/08/30 07:09:11","新北市石碇區番子坑25-1號","121.677566666667","25.0026083333333","6501900","石碇區"
"223001","592-UM","2018/08/30 07:09:01","新北市石碇區摸乳巷11號","121.661063333333","24.9815016666667","6501900","石碇區"
"223004","660-BX","2018/08/30 07:09:06","新北市石碇區碇坪路一段2號","121.651626666667","25.0062383333333","6501900","石碇區"
"223007","661-BX","2018/08/30 07:09:08","新北市石碇區番子坑14-2號","121.679851666667","25.0018933333333","6501900","石碇區"
"223005","677-TV","2018/08/30 07:09:05","新北市石碇區碇坪路一段10號","121.651703333333","25.006035","6501900","石碇區"
"227007","282-VK","2018/08/30 07:09:03","新北市雙溪區新基里自強路5號","121.866388333333","25.039085","6502500","雙溪區"
"252004","249-BX","2018/08/30 07:09:04","新北市三芝區錫板里小坑子20號","121.500898333333","25.2354266666667","6502100","三芝區"
"252007","AAC-283","2018/08/30 07:08:55","新北市三芝區古庄里山豬堀2號","121.499708333333","25.2502466666667","6502100","三芝區"
"236009","165-UM","2018/08/30 07:09:04","新北市土城區中央路三段87號","121.43781","24.968025","6501300","土城區"
"236003","339-SR","2018/08/30 07:09:02","新北市土城區和平路51-1號","121.443413333333","24.9718783333333","6501300","土城區"
