"lineid","car","time","location","longitude","latitude","cityid","cityname"
"248005","653-BX","2018/10/26 09:17:19","新北市五股區明德路10號","121.433428333333","25.0717433333333","6501500","五股區"
"222005","289-BY","2018/10/26 09:17:33","新北市深坑區土庫尖路75-1號","121.631145","25.0182133333333","6501800","深坑區"
"231007","189-VK","2018/10/26 09:17:27","新北市新店區新潭路三段231巷15號","121.505243333333","24.9041833333333","6500600","新店區"
"231009","192-VK","2018/10/26 09:17:15","新北市新店區平廣路一段125號","121.527145","24.8941916666667","6500600","新店區"
"235001","611-BX","2018/10/26 09:17:13","新北市中和區員山路162號","121.48133","24.9997","6500300","中和區"
"223006","022-BY","2018/10/26 09:07:37","新北市石碇區小粗坑(潭邊里)9-2號","121.678721666667","24.9858383333333","6501900","石碇區"
"223008","406-TH","2018/10/26 09:17:17","新北市石碇區玉桂嶺3號","121.70189","25.0104166666667","6501900","石碇區"
"223004","437-BY","2018/10/26 09:17:20","新北市石碇區磨石坑24號","121.690085","24.9721016666667","6501900","石碇區"
"223005","677-TV","2018/10/26 09:17:22","新北市石碇區磨石坑36-6號","121.691455","24.9659583333333","6501900","石碇區"
"227005","282-VK","2018/10/26 09:13:03","新北市雙溪區泰平里料角坑9號","121.812106666667","24.97336","6502500","雙溪區"
"237001","159-UY","2018/10/26 09:17:23","新北市三峽區大學路145號","121.374375","24.944095","6500900","三峽區"
"242001","233-RS","2018/10/26 09:17:22","新北市新莊區環河路636-7號","121.437593333333","25.0116583333333","6500500","新莊區"
