"lineid","car","time","location","longitude","latitude","cityid","cityname"
"248005","653-BX","2018/10/26 10:09:19","新北市五股區明德路12巷26弄5號","121.43285","25.072565","6501500","五股區"
"231007","189-VK","2018/10/26 10:09:07","新北市新店區新潭路三段215巷25號","121.508105","24.9040766666667","6500600","新店區"
"231009","192-VK","2018/10/26 10:09:15","新北市新店區松林路9號","121.547235","24.9110866666667","6500600","新店區"
"227005","282-VK","2018/10/26 10:09:23","新北市雙溪區泰平里灣潭路36號","121.811275","24.9288366666667","6502500","雙溪區"
"237001","159-UY","2018/10/26 10:09:23","新北市三峽區中山路459巷163-3號","121.348786666667","24.9330216666667","6500900","三峽區"
