"lineid","car","time","location","longitude","latitude","cityid","cityname"
"231007","189-VK","2018/10/26 10:49:31","新北市新店區新潭路三段43-1號","121.5084","24.9133716666667","6500600","新店區"
"231009","192-VK","2018/10/26 10:49:15","新北市新店區松林路83號","121.547155","24.9073933333333","6500600","新店區"
"224007","275-VK","2018/10/26 10:29:05","新北市瑞芳區大寮路356-1號","121.78463","25.1030883333333","6501200","瑞芳區"
"227005","282-VK","2018/10/26 10:49:23","新北市雙溪區泰平里溪尾寮46號","121.821448333333","24.967535","6502500","雙溪區"
"237001","159-UY","2018/10/26 10:49:23","新北市三峽區中山路459巷163-1號","121.349328333333","24.933495","6500900","三峽區"
