"lineid","car","time","location","longitude","latitude","cityid","cityname"
"234044","148-BY","2018/10/26 12:49:26","新北市永和區秀朗路二段165號","121.525298333333","25.0015866666667","6500400","永和區"
"234005","207-UY","2018/10/26 12:49:25","新北市永和區文化路22號","121.515271666667","25.015055","6500400","永和區"
"234078","298-R6","2018/10/26 12:49:35","新北市永和區永利路75巷8號","121.521926666667","25.004065","6500400","永和區"
"234036","336-UY","2018/10/26 12:49:28","新北市永和區成功路二段93號","121.526748333333","24.999225","6500400","永和區"
"234062","337-UY","2018/10/26 12:49:24","新北市永和區環河東路二段92號","121.524446666667","25.010625","6500400","永和區"
"234084","338-UY","2018/10/26 12:49:24","新北市永和區中正路61號","121.514703333333","24.99648","6500400","永和區"
"234068","552-UM","2018/10/26 12:49:25","新北市永和區豫溪街189巷1號","121.522593333333","25.0102716666667","6500400","永和區"
"234015","745-BX","2018/10/26 12:49:16","新北市永和區忠孝街26巷27弄1號","121.515236666667","25.016945","6500400","永和區"
"234028","746-BX","2018/10/26 12:49:28","新北市永和區得和路331號","121.523585","24.999665","6500400","永和區"
"234052","KEA-2590","2018/10/26 12:49:20","新北市永和區福和路1號","121.525973333333","25.009525","6500400","永和區"
"234012","KEA-2591","2018/10/26 12:49:23","新北市永和區保福路二段118號","121.50991","25.0138983333333","6500400","永和區"
"234060","AAD-866","2018/10/26 12:49:23","新北市永和區福和路307號","121.516248333333","25.0071283333333","6500400","永和區"
"234040","862-TW","2018/10/26 12:49:20","新北市永和區永貞路306號","121.511866666667","25.0048516666667","6500400","永和區"
"234048","863-TW","2018/10/26 12:49:18","新北市永和區豫溪街217巷21號","121.524856666667","25.0103183333333","6500400","永和區"
"234025","9371-KE","2018/10/26 12:49:19","新北市永和區豫溪街33號","121.516478333333","25.0099133333333","6500400","永和區"
"234010","9373-KE","2018/10/26 12:49:34","新北市永和區環河西路一段103號","121.511076666667","25.0176766666667","6500400","永和區"
"248019","225-UY","2018/10/26 12:49:26","新北市五股區中興路二段37巷28號","121.460166666667","25.07507","6501500","五股區"
"234022","9380-KE","2018/10/26 12:49:16","新北市永和區竹林路119巷45號","121.521848333333","25.0118616666667","6500400","永和區"
"234076","969-R7","2018/10/26 12:49:32","新北市中和區安樂路69號","121.512426666667","24.9937383333333","6500400","永和區"
"234066","AAC-212","2018/10/26 12:49:29","新北市永和區中和路625號","121.512926666667","25.0048966666667","6500400","永和區"
"234001","AAC-295","2018/10/26 12:49:27","新北市永和區中正路682號","121.51677","25.0093483333333","6500400","永和區"
"231028","046-UY","2018/10/26 12:49:19","新北市新店區安華路28-1號","121.519525","24.9609816666667","6500600","新店區"
"231010","107-UY","2018/10/26 12:49:22","新北市新店區安一路一段1-1號","121.519296666667","24.96124","6500600","新店區"
"231012","187-VK","2018/10/26 12:49:16","新北市新店區安一路一段1-1號","121.519565","24.96124","6500600","新店區"
"231003","268-BY","2018/10/26 12:49:18","新北市新店區安華路28-1號","121.5198","24.9610316666667","6500600","新店區"
"231016","AAD-862","2018/10/26 12:49:35","新北市新店區安一路一段1-1號","121.520056666667","24.9612483333333","6500600","新店區"
"231037","4716-K9","2018/10/26 12:49:34","新北市新店區安一路一段1-1號","121.519198333333","24.9611483333333","6500600","新店區"
"231036","512-UM","2018/10/26 12:49:35","新北市新店區安華路28-1號","121.519093333333","24.960955","6500600","新店區"
"231013","513-UM","2018/10/26 12:49:32","新北市新店區安一路一段1-1號","121.519643333333","24.9611816666667","6500600","新店區"
"231030","619-UM","2018/10/26 12:49:34","新北市新店區安一路一段1-1號","121.519611666667","24.96107","6500600","新店區"
"231034","641-BX","2018/10/26 12:49:27","新北市新店區安華路28-1號","121.519446666667","24.960765","6500600","新店區"
"231035","719-UM","2018/10/26 12:49:16","新北市新店區安一路一段1-1號","121.519313333333","24.9616483333333","6500600","新店區"
"231032","720-UM","2018/10/26 12:49:34","新北市新店區安一路一段1-1號","121.519583333333","24.962085","6500600","新店區"
"231024","AKT-0513","2018/10/26 12:49:21","新北市新店區安華路28-1號","121.519533333333","24.960675","6500600","新店區"
"235028","005-UY","2018/10/26 12:49:35","新北市中和區員山路36巷16-3號","121.485075","24.99137","6500300","中和區"
"235027","006-UY","2018/10/26 12:49:30","新北市中和區員山路36巷16-3號","121.484968333333","24.9914366666667","6500300","中和區"
"235029","098-UM","2018/10/26 12:49:17","新北市中和區中正路752號","121.48532","24.9985566666667","6500300","中和區"
"235002","185-VK","2018/10/26 12:49:25","新北市中和區中正路637巷52弄1號","121.485465","24.9933383333333","6500300","中和區"
"235031","255-BX","2018/10/26 12:49:32","新北市中和區中正路1155號","121.481881666667","25.0082816666667","6500300","中和區"
"235001","611-BX","2018/10/26 12:49:25","新北市中和區中山路三段118-8號","121.474871666667","25.0088133333333","6500300","中和區"
"235035","783-BX","2018/10/26 12:49:30","新北市中和區員山路36巷16-3號","121.48493","24.9914083333333","6500300","中和區"
"235016","805-TS","2018/10/26 12:49:30","新北市中和區員山路36巷16號","121.48437","24.991495","6500300","中和區"
"235023","AAC-215","2018/10/26 12:49:30","新北市中和區員山路36巷16-3號","121.484913333333","24.99136","6500300","中和區"
"207002","749-BX","2018/10/26 12:49:26","新北市萬里區雙興里二坪路32號","121.645","25.1686566666667","6502800","萬里區"
"207001","662-BX","2018/10/26 12:49:22","新北市萬里區萬里里瑪鋉路162號","121.690071666667","25.1796716666667","6502800","萬里區"
"237001","159-UY","2018/10/26 12:49:23","新北市三峽區中山路459巷163-3號","121.348991666667","24.9331166666667","6500900","三峽區"
"242001","233-RS","2018/10/26 12:49:27","新北市新莊區環河路636-7號","121.437613333333","25.01166","6500500","新莊區"
"221010","269-BY","2018/10/26 12:49:17","新北市汐止區康寧街484號","121.632476666667","25.06845","6501100","汐止區"
"221032","280-BY","2018/10/26 12:49:24","新北市汐止區汐萬路一段16號","121.656071666667","25.0674366666667","6501100","汐止區"
"221033","647-BX","2018/10/26 12:49:13","新北市汐止區汐萬路一段191號","121.652456666667","25.0716766666667","6501100","汐止區"
