"lineid","car","time","location","longitude","latitude","cityid","cityname"
"234044","148-BY","2018/10/26 13:59:17","新北市永和區成功路一段89號","121.5269","25.00286","6500400","永和區"
"234005","207-UY","2018/10/26 13:59:05","新北市永和區中和路435號","121.509546666667","25.0009666666667","6500400","永和區"
"234078","298-R6","2018/10/26 13:59:14","新北市永和區林森路112巷12弄34號","121.522863333333","25.0045733333333","6500400","永和區"
"234036","336-UY","2018/10/26 13:59:20","新北市永和區成功路二段76號","121.52655","24.9991333333333","6500400","永和區"
"234062","337-UY","2018/10/26 13:59:04","新北市永和區中正路352號","121.517765","25.0005316666667","6500400","永和區"
"234084","338-UY","2018/10/26 13:59:24","新北市永和區福和路96號","121.5224","25.007955","6500400","永和區"
"234068","552-UM","2018/10/26 13:59:05","新北市永和區國光路37號","121.519256666667","25.0083266666667","6500400","永和區"
"234015","745-BX","2018/10/26 13:59:17","新北市永和區文化路58號","121.514465","25.0151766666667","6500400","永和區"
"234028","746-BX","2018/10/26 13:59:08","新北市永和區民權路51號","121.520045","24.997065","6500400","永和區"
"234052","KEA-2590","2018/10/26 13:59:20","新北市永和區竹林路39巷42弄1號","121.520131666667","25.0152316666667","6500400","永和區"
"234012","KEA-2591","2018/10/26 13:59:23","新北市永和區保生路55號","121.504678333333","25.01033","6500400","永和區"
"234060","AAD-866","2018/10/26 13:59:23","新北市永和區中正路151巷14號","121.515565","24.9987933333333","6500400","永和區"
"234040","862-TW","2018/10/26 13:59:20","新北市永和區雙和街17巷22號","121.508861666667","25.0014133333333","6500400","永和區"
"234048","863-TW","2018/10/26 13:59:18","新北市永和區新生路271巷2號","121.505393333333","25.012965","6500400","永和區"
"234025","9371-KE","2018/10/26 13:59:19","新北市永和區自由街58號","121.513911666667","25.00602","6500400","永和區"
"234010","9373-KE","2018/10/26 13:59:13","新北市永和區仁愛路352巷112弄15號","121.50108","25.0086333333333","6500400","永和區"
"248019","225-UY","2018/10/26 13:59:05","新北市五股區凌雲路三段71-4號","121.423826666667","25.1229183333333","6501500","五股區"
"234022","9380-KE","2018/10/26 13:59:16","新北市永和區永和路二段216號","121.515626666667","25.0141116666667","6500400","永和區"
"234076","969-R7","2018/10/26 13:59:06","新北市永和區民族街43巷13號","121.51905","24.998405","6500400","永和區"
"234072","AAC-211","2018/10/26 13:59:21","新北市永和區豫溪街161-1號","121.521495","25.01043","6500400","永和區"
"234066","AAC-212","2018/10/26 13:59:09","新北市永和區永貞路358號","121.510161666667","25.0065983333333","6500400","永和區"
"234001","AAC-295","2018/10/26 13:59:20","新北市永和區福和路316號","121.51604","25.00735","6500400","永和區"
"244004","248-BX","2018/10/26 13:59:05","新北市林口區文化一路二段92號","121.381438333333","25.0788133333333","6501700","林口區"
"231002","001-UM","2018/10/26 13:59:04","新北市新店區中正路552號","121.53367","24.986795","6500600","新店區"
"231027","0293-UT","2018/10/26 13:59:10","新北市新店區北宜路一段39巷20號","121.538793333333","24.95836","6500600","新店區"
"231028","046-UY","2018/10/26 13:59:19","新北市新店區安和路三段37號","121.517755","24.981755","6500600","新店區"
"231001","047-UY","2018/10/26 13:59:03","新北市新店區三民路24號","121.537098333333","24.9710283333333","6500600","新店區"
"231010","107-UY","2018/10/26 13:59:22","新北市新店區環河路80巷1號","121.536758333333","24.96338","6500600","新店區"
"231022","108-UY","2018/10/26 13:59:20","新北市新店區自強路74巷8號","121.545415","24.9250666666667","6500600","新店區"
"231012","187-VK","2018/10/26 13:59:16","新北市新店區德正街27巷36號","121.545815","24.9713016666667","6500600","新店區"
"231023","KEA-2219","2018/10/26 13:59:12","新北市新店區文中路45號","121.539606666667","24.9566133333333","6500600","新店區"
"231026","256-BX","2018/10/26 13:59:07","新北市新店區環河路42-1號","121.536883333333","24.962295","6500600","新店區"
"231003","268-BY","2018/10/26 13:59:17","新北市新店區中興路一段59-1號","121.54013","24.9607416666667","6500600","新店區"
"231018","278-BY","2018/10/26 13:59:11","新北市新店區中央路208號","121.530321666667","24.9738733333333","6500600","新店區"
"231016","AAD-862","2018/10/26 13:59:15","新北市新店區郵政路70號","121.555358333333","24.9517533333333","6500600","新店區"
"231038","3712-VJ","2018/10/26 13:59:04","新北市新店區安華路30巷3號","121.519613333333","24.9592283333333","6500600","新店區"
"231037","4716-K9","2018/10/26 13:59:14","新北市新店區安康路三段355巷4號","121.484681666667","24.9505266666667","6500600","新店區"
"231025","4715-K9","2018/10/26 13:59:04","新北市新店區建安街33巷8號","121.538421666667","24.9755533333333","6500600","新店區"
"231036","512-UM","2018/10/26 13:59:08","新北市新店區安祥路109巷3弄62號","121.477363333333","24.9609733333333","6500600","新店區"
"231013","513-UM","2018/10/26 13:59:16","新北市新店區明德路115號","121.541363333333","24.97967","6500600","新店區"
"231006","617-UM","2018/10/26 13:59:14","新北市新店區北宜路二段209號","121.553171666667","24.953365","6500600","新店區"
"231005","618-UM","2018/10/26 13:59:07","新北市新店區中興路三段198號","121.543913333333","24.9818416666667","6500600","新店區"
"231030","619-UM","2018/10/26 13:59:14","新北市新店區安康路一段302號","121.51829","24.9640866666667","6500600","新店區"
"231034","641-BX","2018/10/26 13:59:07","新北市新店區達觀路8巷2號","121.50405","24.94277","6500600","新店區"
"231035","719-UM","2018/10/26 13:59:16","新北市新店區安康路二段102號","121.51348","24.9629316666667","6500600","新店區"
"231032","720-UM","2018/10/26 13:59:14","新北市新店區莒光路44巷21弄11-3號","121.518451666667","24.9522","6500600","新店區"
"231029","897-TW","2018/10/26 13:59:14","新北市新店區安康路二段80號","121.514056666667","24.96329","6500600","新店區"
"231004","899-TW","2018/10/26 13:59:09","新北市新店區北新路二段174號","121.542888333333","24.9759166666667","6500600","新店區"
"231024","AKT-0513","2018/10/26 13:59:21","新北市新店區新生街13巷14號","121.53941","24.965935","6500600","新店區"
"235030","003-UY","2018/10/26 13:59:14","新北市中和區保平路372號","121.50623","25.0033266666667","6500300","中和區"
"235028","005-UY","2018/10/26 13:59:16","新北市中和區中和路26巷5號","121.499553333333","25.001545","6500300","中和區"
"235027","006-UY","2018/10/26 13:59:10","新北市中和區中正路606號","121.485555","24.995405","6500300","中和區"
"235020","096-UM","2018/10/26 13:59:24","新北市板橋區三民路二段228號","121.478771666667","25.011355","6500300","中和區"
"235003","097-UM","2018/10/26 13:59:19","新北市中和區秀朗路三段179號","121.524465","24.9906866666667","6500300","中和區"
"235029","098-UM","2018/10/26 13:59:17","新北市中和區中山路二段136巷40號","121.501161666667","25.0044733333333","6500300","中和區"
"235004","150-BY","2018/10/26 13:59:17","新北市中和區保健路46巷24弄1號","121.508546666667","24.9955283333333","6500300","中和區"
"235022","151-BY","2018/10/26 13:59:11","新北市中和區員山路143巷9號","121.48038","24.995955","6500300","中和區"
"235019","183-VK","2018/10/26 13:59:19","新北市中和區德光路18號","121.471058333333","25.00449","6500300","中和區"
"235002","185-VK","2018/10/26 13:59:05","新北市中和區立人街24-5號","121.51882","24.9941616666667","6500300","中和區"
"235013","186-VK","2018/10/26 13:59:22","新北市中和區景安路167巷22號","121.506273333333","24.9947316666667","6500300","中和區"
"235031","255-BX","2018/10/26 13:59:12","新北市中和區新生街233巷10號","121.484386666667","24.9985216666667","6500300","中和區"
"235008","293-VK","2018/10/26 13:59:09","新北市中和區中興街178號","121.499598333333","24.990925","6500300","中和區"
"235036","301-VK","2018/10/26 13:59:06","新北市中和區中山路二段152號","121.501588333333","25.0029483333333","6500300","中和區"
"235007","352-BY","2018/10/26 13:59:04","新北市中和區成功路29號","121.526241666667","24.9933766666667","6500300","中和區"
"235014","4979-A6","2018/10/26 13:59:05","新北市中和區忠孝街2巷2-3號","121.509936666667","24.9827266666667","6500300","中和區"
"235033","4980-A6","2018/10/26 13:59:15","新北市中和區圓通路106號","121.499366666667","24.996735","6500300","中和區"
"235006","551-UM","2018/10/26 13:59:11","新北市中和區秀朗路三段128巷1弄4-5號","121.52438","24.992145","6500300","中和區"
"235034","558-UM","2018/10/26 13:59:05","新北市中和區中和路128號","121.503495","24.99965","6500300","中和區"
"235009","565-BX","2018/10/26 13:59:08","新北市中和區景新街467巷20弄17號","121.514863333333","24.9873066666667","6500300","中和區"
"235018","640-BX","2018/10/26 13:59:21","新北市中和區民享街5號","121.473903333333","25.0056916666667","6500300","中和區"
"235024","647-TV","2018/10/26 13:59:19","新北市中和區民治街9巷1號","121.475131666667","25.0045933333333","6500300","中和區"
"235011","732-UM","2018/10/26 13:59:12","新北市中和區興南路二段74巷8號","121.505178333333","24.9847716666667","6500300","中和區"
"235010","733-UM","2018/10/26 13:59:16","新北市中和區興南路一段135巷22弄16號","121.508906666667","24.986665","6500300","中和區"
"235035","783-BX","2018/10/26 13:59:10","新北市中和區立德街60號","121.488286666667","25.007545","6500300","中和區"
"235026","800-TS","2018/10/26 13:59:19","新北市中和區中山路二段362號","121.492468333333","25.0029116666667","6500300","中和區"
"235021","801-TS","2018/10/26 13:59:10","新北市中和區民利街99號","121.477705","24.9977633333333","6500300","中和區"
"235005","802-TS","2018/10/26 13:59:13","新北市中和區中安街8號","121.513653333333","25.00323","6500300","中和區"
"235016","805-TS","2018/10/26 13:59:10","新北市中和區興南路二段131-15號","121.504195","24.9801933333333","6500300","中和區"
"235012","896-TW","2018/10/26 13:59:07","新北市中和區華新街61號","121.507986666667","24.98422","6500300","中和區"
"235017","900-TW","2018/10/26 13:59:14","新北市中和區壽德街20-1號","121.466136666667","24.9948333333333","6500300","中和區"
"235015","157-BY","2018/10/26 13:59:24","新北市中和區忠孝街31巷33弄1號","121.50982","24.9845316666667","6500300","中和區"
"235001","AAC-213","2018/10/26 13:59:05","新北市中和區自立路12號","121.522396666667","24.9963466666667","6500300","中和區"
"235023","AAC-215","2018/10/26 13:59:10","新北市中和區圓通路367巷20弄23號","121.49143","24.98834","6500300","中和區"
"220013","072-UY","2018/10/26 13:59:05","新北市板橋區漢生東路324號","121.471756666667","25.0079283333333","6500100","板橋區"
"220034","073-UY","2018/10/26 13:59:14","新北市板橋區中正路236巷48號","121.457415","25.0192333333333","6500100","板橋區"
"220105","075-UY","2018/10/26 13:59:10","新北市板橋區莒光路42號","121.470431666667","25.0244533333333","6500100","板橋區"
"220017","AAD-861","2018/10/26 13:59:10","新北市板橋區華興街32-5號","121.458961666667","25.0047183333333","6500100","板橋區"
"247015","546-UM","2018/10/26 13:59:04","新北市蘆洲區光華路44號","121.468795","25.0830466666667","6501400","蘆洲區"
"247013","339-TH","2018/10/26 13:59:05","新北市蘆洲區中正路169號","121.468841666667","25.085195","6501400","蘆洲區"
"247005","337-TH","2018/10/26 13:59:04","新北市蘆洲區永安南路二段58-1號","121.465378333333","25.07787","6501400","蘆洲區"
"247007","336-TH","2018/10/26 13:59:14","新北市三重區永安北路一段15號","121.476265","25.0750333333333","6501400","蘆洲區"
"247019","057-VK","2018/10/26 13:59:10","新北市蘆洲區民族路418號","121.474215","25.0918733333333","6501400","蘆洲區"
"247009","056-VK","2018/10/26 13:59:12","新北市蘆洲區集賢路396號","121.480348333333","25.0823433333333","6501400","蘆洲區"
"247017","053-VK","2018/10/26 13:59:08","新北市蘆洲區民權路96巷15號","121.475511666667","25.089155","6501400","蘆洲區"
"247003","002-UY","2018/10/26 13:59:06","新北市蘆洲區中華街6巷6號","121.463215","25.0818466666667","6501400","蘆洲區"
"247021","001-UY","2018/10/26 13:59:07","新北市蘆洲區中正路263巷2號","121.467255","25.0873716666667","6501400","蘆洲區"
"207002","749-BX","2018/10/26 13:59:06","新北市萬里區溪底里溪底路9-1號","121.619605","25.14912","6502800","萬里區"
"207001","662-BX","2018/10/26 13:59:22","新北市萬里區磺潭里清水2-2號","121.640606666667","25.2021066666667","6502800","萬里區"
"236067","105-UM","2018/10/26 13:59:23","新北市土城區中正路22號","121.44303","24.9751666666667","6501300","土城區"
"236077","166-UM","2018/10/26 13:59:10","新北市土城區永寧路30-1號","121.429401666667","24.9607966666667","6501300","土城區"
"236029","253-BX","2018/10/26 13:59:07","新北市土城區城林路6巷80號","121.438498333333","24.9797833333333","6501300","土城區"
"236024","269-VK","2018/10/26 13:59:05","新北市土城區城林路6巷80號","121.438483333333","24.9797516666667","6501300","土城區"
"236013","270-VK","2018/10/26 13:59:10","新北市土城區城林路6巷80號","121.438533333333","24.979765","6501300","土城區"
"236032","271-VK","2018/10/26 13:59:10","新北市土城區城林路6巷80號","121.43842","24.97976","6501300","土城區"
"236016","401-BY","2018/10/26 13:59:08","新北市土城區城林路6巷80號","121.43854","24.9797166666667","6501300","土城區"
"236040","752-BX","2018/10/26 13:59:06","新北市土城區城林路6巷80號","121.438731666667","24.9796733333333","6501300","土城區"
"236057","912-UM","2018/10/26 13:59:08","新北市土城區中央路三段198號","121.430293333333","24.964935","6501300","土城區"
"236045","913-UM","2018/10/26 13:59:20","新北市土城區中央路二段278巷2號","121.440773333333","24.9743466666667","6501300","土城區"
"236060","915-UM","2018/10/26 13:59:16","新北市土城區城林路6巷80號","121.438501666667","24.979685","6501300","土城區"
"236054","AAC-216","2018/10/26 13:59:16","新北市土城區城林路6巷80號","121.438813333333","24.9797066666667","6501300","土城區"
"242001","233-RS","2018/10/26 13:59:07","新北市新莊區自強街37巷14弄2號","121.454236666667","25.0468466666667","6500500","新莊區"
"221010","269-BY","2018/10/26 13:59:17","新北市汐止區長青路210巷188號","121.61627","25.1132916666667","6501100","汐止區"
"221033","647-BX","2018/10/26 13:59:13","新北市新店區安康路二段382號","121.500386666667","24.9571433333333","6501100","汐止區"
"220027","145-BY","2018/10/26 13:59:18","新北市板橋區民權路202巷17弄1號","121.460735","25.0164233333333","6500100","板橋區"
"220028","200-UY","2018/10/26 13:59:18","新北市板橋區合宜路129號","121.447503333333","24.9981616666667","6500100","板橋區"
"220030","610-BX","2018/10/26 13:59:13","新北市板橋區溪北路16號","121.426625","24.9905033333333","6500100","板橋區"
"220004","276-BY","2018/10/26 13:59:04","新北市板橋區信義路138號","121.458718333333","24.99214","6500100","板橋區"
"220020","277-BY","2018/10/26 13:59:04","新北市板橋區大觀路三段50巷79號","121.43146","24.9964516666667","6500100","板橋區"
"220050","280-UM","2018/10/26 13:59:16","新北市板橋區莊敬路123號","121.47193","25.0254316666667","6500100","板橋區"
"220005","282-UM","2018/10/26 13:59:17","新北市板橋區館前東路43號","121.46104","25.0073916666667","6500100","板橋區"
"220043","283-UM","2018/10/26 13:59:09","新北市板橋區莒光路4號","121.469458333333","25.0248316666667","6500100","板橋區"
"220019","283-VK","2018/10/26 13:59:23","新北市板橋區重慶路243號","121.463156666667","25.000555","6500100","板橋區"
"220001","285-VK","2018/10/26 13:59:07","新北市板橋區中山路二段89巷42號","121.47378","25.0170366666667","6500100","板橋區"
"220031","286-VK","2018/10/26 13:59:18","新北市板橋區大觀路一段38巷180號","121.441571666667","25.00467","6500100","板橋區"
"220029","287-VK","2018/10/26 13:59:08","新北市板橋區光華街25號","121.453861666667","25.0124433333333","6500100","板橋區"
"220039","288-VK","2018/10/26 13:59:08","新北市板橋區互助街25巷9號","121.463248333333","25.02705","6500100","板橋區"
"220009","293-UM","2018/10/26 13:59:20","新北市板橋區富山街102號","121.476168333333","25.0219283333333","6500100","板橋區"
"220010","295-UM","2018/10/26 13:59:18","新北市板橋區三民路二段245巷39號","121.48045","25.0126583333333","6500100","板橋區"
"220032","296-UM","2018/10/26 13:59:11","新北市板橋區龍興街54號","121.443296666667","25.001165","6500100","板橋區"
"220023","303-R5","2018/10/26 13:59:00","新北市板橋區大智街25巷6號","121.454885","25.0147666666667","6500100","板橋區"
"220041","307-R5","2018/10/26 13:58:45","新北市板橋區文化路一段104巷1弄5號","121.465296666667","25.017955","6500100","板橋區"
"220047","317-R6","2018/10/26 13:59:22","新北市板橋區民有街49號","121.465561666667","25.0260016666667","6500100","板橋區"
"220012","486-VK","2018/10/26 13:59:09","新北市板橋區漢生東路170號","121.466993333333","25.01466","6500100","板橋區"
"220038","487-VK","2018/10/26 13:59:13","新北市板橋區文化路二段315號","121.47212","25.029785","6500100","板橋區"
"220037","491-VK","2018/10/26 13:59:09","新北市板橋區文化路二段9號","121.468648333333","25.0243133333333","6500100","板橋區"
"220104","560-BX","2018/10/26 13:59:21","新北市板橋區中正路375巷27號","121.453805","25.020175","6500100","板橋區"
"220052","561-BX","2018/10/26 13:59:01","新北市板橋區民生路二段121號","121.470703333333","25.018425","6500100","板橋區"
"220011","609-BX","2018/10/26 13:59:08","新北市板橋區中山路二段161號","121.475883333333","25.0167266666667","6500100","板橋區"
"220040","637-BX","2018/10/26 13:59:08","新北市板橋區大同街29號","121.477731666667","25.0271633333333","6500100","板橋區"
"220025","687-BX","2018/10/26 13:59:20","新北市板橋區大觀路二段174巷210號","121.442313333333","25.0042516666667","6500100","板橋區"
"220042","689-BX","2018/10/26 13:59:13","新北市板橋區民生路三段66號","121.466845","25.0255833333333","6500100","板橋區"
"220002","741-BX","2018/10/26 13:59:11","新北市板橋區成都街103號","121.463521666667","25.005495","6500100","板橋區"
"220051","KEA-2699","2018/10/26 13:59:12","新北市板橋區田單街2巷38號","121.481713333333","25.0275216666667","6500100","板橋區"
"220003","827-TW","2018/10/26 13:59:20","新北市板橋區中山路一段158巷31號","121.466728333333","25.011115","6500100","板橋區"
"220014","829-TW","2018/10/26 13:59:02","新北市板橋區三民路二段正隆巷21號","121.477421666667","25.01317","6500100","板橋區"
"220016","830-TW","2018/10/26 13:58:53","新北市板橋區中山路二段443巷54號","121.481121666667","25.0215483333333","6500100","板橋區"
"220045","831-TW","2018/10/26 13:59:09","新北市板橋區莊敬路132-3號","121.47092","25.0236533333333","6500100","板橋區"
"220022","895-R6","2018/10/26 13:59:06","新北市板橋區林園街2號","121.454335","25.0092","6500100","板橋區"
"220021","985-R7","2018/10/26 13:59:14","新北市板橋區林園街7-1號","121.453955","25.0091683333333","6500100","板橋區"
"220046","AAC-210","2018/10/26 13:59:16","新北市板橋區國光路191號","121.46152","25.0186066666667","6500100","板橋區"
"220018","AAC-253","2018/10/26 13:59:17","新北市板橋區四川路一段273號","121.4596","25.00203","6500100","板橋區"
"235032","KEA-2873","2018/10/26 13:58:54","新北市中和區連勝街38巷18號","121.497695","24.9981033333333","6500300","中和區"
"235025","KEA-2875","2018/10/26 13:59:02","新北市中和區員山路394巷10號","121.481211666667","25.0045683333333","6500300","中和區"
