"lineid","car","time","location","longitude","latitude","cityid","cityname"
"234044","148-BY","2018/10/26 14:29:20","新北市永和區永利路133號","121.524123333333","25.0031783333333","6500400","永和區"
"234005","207-UY","2018/10/26 14:29:05","新北市永和區中正路417號","121.517175","25.00476","6500400","永和區"
"234078","298-R6","2018/10/26 14:29:14","新北市永和區永貞路25號","121.521083333333","25.0068383333333","6500400","永和區"
"234036","336-UY","2018/10/26 14:29:08","新北市永和區環河東路四段36號","121.528768333333","24.9989933333333","6500400","永和區"
"234062","337-UY","2018/10/26 14:29:24","新北市永和區中正路419號","121.517065","25.005","6500400","永和區"
"234084","338-UY","2018/10/26 14:29:04","新北市永和區光復街21號","121.516476666667","25.0174483333333","6500400","永和區"
"234068","552-UM","2018/10/26 14:29:25","新北市永和區永亨路7號","121.519408333333","25.0057183333333","6500400","永和區"
"234052","KEA-2590","2018/10/26 14:29:20","新北市永和區環河東路一段42號","121.51858","25.0170366666667","6500400","永和區"
"234060","AAD-866","2018/10/26 14:29:03","新北市永和區安樂路194巷12號","121.516171666667","25.0008183333333","6500400","永和區"
"234040","862-TW","2018/10/26 14:29:20","新北市永和區安樂路348號","121.514401666667","25.006435","6500400","永和區"
"234048","863-TW","2018/10/26 14:29:18","新北市永和區保福路三段2-1號","121.508535","25.0155","6500400","永和區"
"234025","9371-KE","2018/10/26 14:29:19","新北市中和區安樂路251號","121.514071666667","24.9997266666667","6500400","永和區"
"248019","225-UY","2018/10/26 14:29:05","新北市五股區凌雲路三段57號","121.425288333333","25.125015","6501500","五股區"
"234072","AAC-211","2018/10/26 14:29:05","新北市永和區環河東路一段124號","121.520685","25.01538","6500400","永和區"
"234001","AAC-295","2018/10/26 14:29:22","新北市永和區大新街35號","121.515333333333","25.0084816666667","6500400","永和區"
"244004","248-BX","2018/10/26 14:29:13","新北市林口區竹林路266號","121.389625","25.080855","6501700","林口區"
"231002","001-UM","2018/10/26 14:29:04","新北市新店區中央路25號","121.533166666667","24.9780016666667","6500600","新店區"
"231027","0293-UT","2018/10/26 14:29:10","新北市新店區北新路二段228巷1號","121.542861666667","24.9775033333333","6500600","新店區"
"231028","046-UY","2018/10/26 14:29:20","新北市新店區安和路一段1號","121.516763333333","24.9638766666667","6500600","新店區"
"231001","047-UY","2018/10/26 14:29:03","新北市新店區中正路75巷71號","121.543098333333","24.9688716666667","6500600","新店區"
"231022","108-UY","2018/10/26 14:29:20","新北市新店區桂山路81巷3號","121.566675","24.8972566666667","6500600","新店區"
"231012","187-VK","2018/10/26 14:29:16","新北市新店區五峰路61巷6號","121.548133333333","24.9698066666667","6500600","新店區"
"231023","KEA-2219","2018/10/26 14:29:12","新北市新店區中興路一段72號","121.539453333333","24.9599233333333","6500600","新店區"
"231003","268-BY","2018/10/26 14:29:17","新北市新店區中興路一段266-6號","121.545126666667","24.96765","6500600","新店區"
"231018","278-BY","2018/10/26 14:29:11","新北市新店區中央路153號","121.529938333333","24.9731383333333","6500600","新店區"
"231016","AAD-862","2018/10/26 14:29:15","新北市石碇區北宜路1-26號","121.61043","24.958025","6500600","新店區"
"231038","3712-VJ","2018/10/26 14:29:04","新北市新店區溪洲路8巷124號","121.533203333333","24.9630166666667","6500600","新店區"
"231037","4716-K9","2018/10/26 14:29:14","新北市新店區車子路25號","121.50445","24.9523233333333","6500600","新店區"
"231036","512-UM","2018/10/26 14:29:08","新北市新店區安祥路109巷3弄18號","121.475625","24.9601216666667","6500600","新店區"
"231013","513-UM","2018/10/26 14:29:12","新北市新店區民權路90巷33號","121.536138333333","24.98403","6500600","新店區"
"231006","617-UM","2018/10/26 14:29:21","新北市新店區北宜路二段361-3號","121.558543333333","24.9542166666667","6500600","新店區"
"231005","618-UM","2018/10/26 14:29:07","新北市新店區順安街51號","121.540788333333","24.986135","6500600","新店區"
"231030","619-UM","2018/10/26 14:29:14","新北市新店區安民街81號","121.516523333333","24.9678533333333","6500600","新店區"
"231034","641-BX","2018/10/26 14:29:07","新北市新店區車子路11號","121.503018333333","24.95192","6500600","新店區"
"231035","719-UM","2018/10/26 14:28:16","新北市新店區安民街37號","121.5158","24.96546","6500600","新店區"
"231032","720-UM","2018/10/26 14:29:14","新北市新店區溪洲路182號","121.528551666667","24.9652816666667","6500600","新店區"
"231029","897-TW","2018/10/26 14:29:14","新北市新店區安康路二段458號","121.494366666667","24.9541983333333","6500600","新店區"
"231004","899-TW","2018/10/26 14:29:09","新北市新店區中正路263-5號","121.538116666667","24.9737833333333","6500600","新店區"
"231024","AKT-0513","2018/10/26 14:29:21","新北市新店區安民街115巷18號","121.515295","24.9678916666667","6500600","新店區"
"235030","003-UY","2018/10/26 14:29:14","新北市中和區景新街51-1號","121.504398333333","24.9991333333333","6500300","中和區"
"235028","005-UY","2018/10/26 14:29:16","新北市中和區南山路127巷4號","121.502371666667","24.99715","6500300","中和區"
"235027","006-UY","2018/10/26 14:29:10","新北市中和區連城路219巷17號","121.494866666667","24.996055","6500300","中和區"
"235020","096-UM","2018/10/26 14:29:04","新北市中和區員山路514巷2號","121.479426666667","25.0096483333333","6500300","中和區"
"235003","097-UM","2018/10/26 14:29:19","新北市中和區秀峰街103巷7弄4號","121.519413333333","24.9889833333333","6500300","中和區"
"235029","098-UM","2018/10/26 14:29:17","新北市中和區福祥路90巷5號","121.499553333333","25.0058916666667","6500300","中和區"
"235004","150-BY","2018/10/26 14:29:17","新北市中和區宜安路23巷15號","121.512446666667","24.9952783333333","6500300","中和區"
"235022","151-BY","2018/10/26 14:29:11","新北市中和區員山路142巷17號","121.482161666667","24.9965833333333","6500300","中和區"
"235019","183-VK","2018/10/26 14:29:19","新北市中和區莒光路84巷46號","121.471473333333","25.0031466666667","6500300","中和區"
"235002","185-VK","2018/10/26 14:29:05","新北市中和區自立路119號","121.521871666667","24.9943833333333","6500300","中和區"
"235013","186-VK","2018/10/26 14:29:22","新北市中和區安和路15號","121.511211666667","24.9939183333333","6500300","中和區"
"235031","255-BX","2018/10/26 14:29:12","新北市中和區新生街186巷1弄31號","121.48353","24.998545","6500300","中和區"
"235008","293-VK","2018/10/26 14:29:09","新北市中和區景安路194號","121.504368333333","24.9915983333333","6500300","中和區"
"235036","301-VK","2018/10/26 14:29:06","新北市中和區中山路二段3巷22弄3號","121.506331666667","25.005195","6500300","中和區"
"235007","352-BY","2018/10/26 14:29:24","新北市中和區景平路300號","121.51267","24.9926516666667","6500300","中和區"
"247011","KEA-2869","2018/10/26 14:29:18","新北市蘆洲區復興路235號","121.48025","25.0898016666667","6501400","蘆洲區"
"235014","4979-A6","2018/10/26 14:29:05","新北市中和區中正路406號","121.492518333333","24.994285","6500300","中和區"
"235033","4980-A6","2018/10/26 14:29:16","新北市中和區連城路134巷15號","121.495143333333","25.0001733333333","6500300","中和區"
"235006","551-UM","2018/10/26 14:29:11","新北市中和區保健路29巷7號","121.508851666667","24.99821","6500300","中和區"
"235034","558-UM","2018/10/26 14:29:04","新北市中和區景平路597號","121.497151666667","25.0006783333333","6500300","中和區"
"235009","565-BX","2018/10/26 14:29:08","新北市中和區景新街499號","121.513936666667","24.987","6500300","中和區"
"235018","640-BX","2018/10/26 14:29:20","新北市中和區國光街102巷10號","121.470458333333","25.0004366666667","6500300","中和區"
"235024","647-TV","2018/10/26 14:29:19","新北市中和區員山路266巷35號","121.482766666667","25.001765","6500300","中和區"
"235011","732-UM","2018/10/26 14:29:12","新北市中和區景平路259巷18號","121.507796666667","24.992705","6500300","中和區"
"235010","733-UM","2018/10/26 14:29:16","新北市中和區忠孝街37巷44號","121.510688333333","24.984675","6500300","中和區"
"235035","783-BX","2018/10/26 14:29:10","新北市中和區連城路469巷48號","121.483441666667","24.9944866666667","6500300","中和區"
"235026","800-TS","2018/10/26 14:29:19","新北市中和區中山路二段480號","121.48755","25.00492","6500300","中和區"
"235021","801-TS","2018/10/26 14:29:10","新北市中和區中山路三段37巷33號","121.479515","25.004765","6500300","中和區"
"235005","802-TS","2018/10/26 14:29:13","新北市中和區安和路216號","121.506301666667","24.999415","6500300","中和區"
"235016","805-TS","2018/10/26 14:29:10","新北市中和區華新街143巷70號","121.506348333333","24.9792366666667","6500300","中和區"
"235012","896-TW","2018/10/26 14:29:07","新北市中和區忠孝街60巷7號","121.511685","24.9837583333333","6500300","中和區"
"235017","900-TW","2018/10/26 14:29:14","新北市中和區民德路197-2號","121.468951666667","24.99861","6500300","中和區"
"235015","157-BY","2018/10/26 14:29:24","新北市中和區板南路154號","121.501881666667","24.9928083333333","6500300","中和區"
"235001","AAC-213","2018/10/26 14:29:04","新北市中和區秀朗路三段10巷14弄14號","121.524991666667","24.99659","6500300","中和區"
"235023","AAC-215","2018/10/26 14:29:10","新北市中和區圓通路317號","121.492831666667","24.9907733333333","6500300","中和區"
"220013","072-UY","2018/10/26 14:29:05","新北市板橋區實踐路93巷75號","121.467016666667","25.0052916666667","6500100","板橋區"
"220034","073-UY","2018/10/26 14:29:09","新北市板橋區國光路31號","121.45714","25.0175716666667","6500100","板橋區"
"220105","075-UY","2018/10/26 14:29:16","新北市板橋區江寧路三段57號","121.471906666667","25.03213","6500100","板橋區"
"220017","AAD-861","2018/10/26 14:29:10","新北市板橋區大明街20巷8號","121.457795","25.0039483333333","6500100","板橋區"
"247001","893-R6","2018/10/26 14:29:05","新北市蘆洲區永樂街38巷33弄18號","121.457328333333","25.08975","6501400","蘆洲區"
"247015","546-UM","2018/10/26 14:29:24","新北市蘆洲區中正路185巷76號","121.466213333333","25.084365","6501400","蘆洲區"
"247023","500-BY","2018/10/26 14:29:13","新北市蘆洲區中正路157號","121.469093333333","25.0850583333333","6501400","蘆洲區"
"247013","339-TH","2018/10/26 14:29:05","新北市蘆洲區中山二路141號","121.47173","25.0815033333333","6501400","蘆洲區"
"247005","337-TH","2018/10/26 14:29:24","新北市蘆洲區長安街66號","121.46279","25.080025","6501400","蘆洲區"
"247007","336-TH","2018/10/26 14:29:14","新北市蘆洲區民生街135號","121.472555","25.079205","6501400","蘆洲區"
"247019","057-VK","2018/10/26 14:29:10","新北市蘆洲區仁愛街37號","121.47225","25.092805","6501400","蘆洲區"
"247009","056-VK","2018/10/26 14:29:11","新北市蘆洲區信義路154號","121.479285","25.0833816666667","6501400","蘆洲區"
"247003","002-UY","2018/10/26 14:29:06","新北市蘆洲區長安街295號","121.458218333333","25.0846933333333","6501400","蘆洲區"
"247021","001-UY","2018/10/26 14:29:07","新北市蘆洲區中正路497-2號","121.461946666667","25.0964216666667","6501400","蘆洲區"
"207002","749-BX","2018/10/26 14:29:06","新北市萬里區溪底里香員林路16號","121.633955","25.160035","6502800","萬里區"
"207001","662-BX","2018/10/26 14:29:02","新北市萬里區磺潭里清水18-2號","121.63853","25.198355","6502800","萬里區"
"236067","105-UM","2018/10/26 14:29:03","新北市土城區永豐路255巷27弄33號","121.476463333333","24.973425","6501300","土城區"
"236040","KED-0685","2018/10/26 14:29:10","新北市土城區學成路97巷20號","121.449948333333","24.9880133333333","6501300","土城區"
"236077","166-UM","2018/10/26 14:29:10","新北市土城區大暖路60號","121.422986666667","24.95916","6501300","土城區"
"236029","253-BX","2018/10/26 14:29:07","新北市土城區水源街34號","121.440821666667","24.9757","6501300","土城區"
"236024","269-VK","2018/10/26 14:29:05","新北市土城區承天路18號","121.439355","24.963435","6501300","土城區"
"236013","270-VK","2018/10/26 14:29:10","新北市土城區青雲路39巷7號","121.460358333333","24.9875133333333","6501300","土城區"
"236032","271-VK","2018/10/26 14:29:10","新北市土城區明德路一段323號","121.458906666667","24.9769966666667","6501300","土城區"
"236016","401-BY","2018/10/26 14:29:08","新北市土城區永豐路135巷1號","121.466643333333","24.9834","6501300","土城區"
"236040","752-BX","2018/10/26 14:07:23","新北市土城區城林路6巷80號","121.438726666667","24.9796683333333","6501300","土城區"
"236057","912-UM","2018/10/26 14:29:22","新北市土城區中央路四段286-1號","121.414361666667","24.9563766666667","6501300","土城區"
"236045","913-UM","2018/10/26 14:29:10","新北市土城區青雲路603號","121.45963","24.9695816666667","6501300","土城區"
"236060","915-UM","2018/10/26 14:29:15","新北市土城區延壽路77巷6弄12號","121.46839","24.9930683333333","6501300","土城區"
"236054","AAC-216","2018/10/26 14:29:16","新北市土城區中華路二段1號","121.439638333333","24.979075","6501300","土城區"
"242001","233-RS","2018/10/26 14:29:07","新北市五股區成泰路一段98巷12號","121.438161666667","25.071595","6500500","新莊區"
"221010","269-BY","2018/10/26 14:29:17","新北市汐止區長青路210巷188號","121.61628","25.113295","6501100","汐止區"
"221033","647-BX","2018/10/26 14:29:13","新北市汐止區大同路一段312號","121.637168333333","25.058755","6501100","汐止區"
"220027","145-BY","2018/10/26 14:29:12","新北市板橋區復興街73號","121.459141666667","25.0177483333333","6500100","板橋區"
"220028","200-UY","2018/10/26 14:01:51","新北市板橋區大觀路二段3巷95號","121.450346666667","25.0032383333333","6500100","板橋區"
"220030","610-BX","2018/10/26 14:29:21","新北市板橋區大觀路三段201號","121.43171","24.99328","6500100","板橋區"
"220004","276-BY","2018/10/26 14:29:04","新北市板橋區和平路14巷5號","121.460798333333","24.992645","6500100","板橋區"
"220020","277-BY","2018/10/26 14:29:06","新北市板橋區溪北路158號","121.430555","24.9881966666667","6500100","板橋區"
"220050","280-UM","2018/10/26 14:29:15","新北市板橋區縣民大道三段99號","121.476216666667","25.0222766666667","6500100","板橋區"
"220005","282-UM","2018/10/26 14:29:23","新北市板橋區和平路159號","121.463608333333","24.9959133333333","6500100","板橋區"
"220043","283-UM","2018/10/26 14:29:09","新北市板橋區吳鳳路50巷21弄2號","121.46849","25.0304266666667","6500100","板橋區"
"220019","283-VK","2018/10/26 14:29:15","新北市板橋區四川路一段325巷4號","121.458805","25.000445","6500100","板橋區"
"220001","285-VK","2018/10/26 14:29:07","新北市板橋區富山街71巷6-3號","121.476825","25.0216733333333","6500100","板橋區"
"220031","286-VK","2018/10/26 14:29:21","新北市板橋區龍興街71巷12號","121.443263333333","25.0021133333333","6500100","板橋區"
"220029","287-VK","2018/10/26 14:29:08","新北市板橋區大觀路一段75巷17號","121.44799","25.00436","6500100","板橋區"
"220039","288-VK","2018/10/26 14:29:08","新北市板橋區長江路一段48巷19弄4號","121.459681666667","25.0279516666667","6500100","板橋區"
"220009","293-UM","2018/10/26 14:29:20","新北市板橋區中山路一段265巷1-1號","121.468366666667","25.0142133333333","6500100","板橋區"
"220010","295-UM","2018/10/26 14:29:22","新北市板橋區三民路二段123巷31號","121.480641666667","25.01569","6500100","板橋區"
"220032","296-UM","2018/10/26 14:29:11","新北市板橋區滿平街84巷120弄16號","121.42649","24.985885","6500100","板橋區"
"220023","303-R5","2018/10/26 14:29:20","新北市板橋區大勇街79號","121.452741666667","25.0164833333333","6500100","板橋區"
"220041","307-R5","2018/10/26 14:29:05","新北市板橋區文化路二段65號","121.469186666667","25.02574","6500100","板橋區"
"220047","317-R6","2018/10/26 14:29:22","新北市板橋區民生路三段299巷12號","121.462926666667","25.0302483333333","6500100","板橋區"
"220012","486-VK","2018/10/26 14:29:09","新北市板橋區館前西路3號","121.459178333333","25.0069333333333","6500100","板橋區"
"220038","487-VK","2018/10/26 14:29:13","新北市板橋區文化路一段81巷7號","121.460458333333","25.0142516666667","6500100","板橋區"
"220037","491-VK","2018/10/26 14:29:09","新北市板橋區雙十路二段33巷1-1號","121.476761666667","25.0256983333333","6500100","板橋區"
"220104","560-BX","2018/10/26 14:29:21","新北市板橋區新生街86號","121.458185","25.0215216666667","6500100","板橋區"
"220052","561-BX","2018/10/26 14:29:20","新北市板橋區文化路一段190號","121.466065","25.0196466666667","6500100","板橋區"
"220011","609-BX","2018/10/26 14:29:21","新北市板橋區三民路二段110號","121.47921","25.0167033333333","6500100","板橋區"
"220040","637-BX","2018/10/26 14:29:08","新北市板橋區文聖街133號","121.478388333333","25.0286316666667","6500100","板橋區"
"220025","687-BX","2018/10/26 14:29:19","新北市板橋區僑中二街50號","121.446851666667","25.0104366666667","6500100","板橋區"
"220042","689-BX","2018/10/26 14:29:05","新北市板橋區雨農路27巷2號","121.461226666667","25.0242066666667","6500100","板橋區"
"220002","741-BX","2018/10/26 14:29:11","新北市板橋區重慶路218號","121.462625","25.00222","6500100","板橋區"
"220051","KEA-2699","2018/10/26 14:29:12","新北市板橋區松柏街22巷36號","121.475051666667","25.0289083333333","6500100","板橋區"
"220003","827-TW","2018/10/26 14:29:19","新北市板橋區重慶路290巷2號","121.463188333333","24.9989266666667","6500100","板橋區"
"220014","829-TW","2018/10/26 14:29:22","新北市板橋區漢生東路338號","121.471831666667","25.0075116666667","6500100","板橋區"
"220016","830-TW","2018/10/26 14:29:14","新北市板橋區中山路二段505巷9號","121.48251","25.0213683333333","6500100","板橋區"
"220045","831-TW","2018/10/26 14:29:09","新北市板橋區民生路二段226巷10弄2號","121.47067","25.02181","6500100","板橋區"
"220022","895-R6","2018/10/26 14:29:06","新北市板橋區大東街12號","121.456568333333","25.0091316666667","6500100","板橋區"
"220021","985-R7","2018/10/26 14:29:14","新北市板橋區新生街94號","121.458243333333","25.0218816666667","6500100","板橋區"
"220046","AAC-210","2018/10/26 14:29:16","新北市板橋區漢生西路125號","121.462703333333","25.021265","6500100","板橋區"
"220018","AAC-253","2018/10/26 14:29:17","新北市板橋區四川路一段126號","121.459825","25.0040983333333","6500100","板橋區"
"235032","KEA-2873","2018/10/26 14:28:54","新北市中和區福美路245號","121.499198333333","25.0051083333333","6500300","中和區"
"235025","KEA-2875","2018/10/26 14:29:02","新北市中和區員山路226巷13弄1號","121.482136666667","25.000025","6500300","中和區"
