"lineid","car","time","location","longitude","latitude","cityid","cityname"
"234040","862-TW","2018/10/26 15:19:11","新北市永和區中山路一段329號","121.506041666667","25.0058766666667","6500400","永和區"
"248019","225-UY","2018/10/26 15:18:32","新北市五股區凌雲路二段14號","121.445408333333","25.10254","6501500","五股區"
"244004","248-BX","2018/10/26 15:18:53","新北市林口區竹林路278巷2號","121.390163333333","25.08177","6501700","林口區"
"231002","001-UM","2018/10/26 15:19:04","新北市新店區中正路700巷1號","121.53402","24.9913716666667","6500600","新店區"
"231028","046-UY","2018/10/26 15:18:59","新北市新店區僑信路126巷22號","121.499556666667","24.94571","6500600","新店區"
"231001","047-UY","2018/10/26 15:19:08","新北市新店區北新路一段263號","121.540965","24.96638","6500600","新店區"
"231022","108-UY","2018/10/26 15:19:00","新北市新店區永福路61號","121.558075","24.9288","6500600","新店區"
"231012","187-VK","2018/10/26 15:18:56","新北市新店區中興路三段324號","121.542078333333","24.9862733333333","6500600","新店區"
"231023","KEA-2219","2018/10/26 15:19:11","新北市新店區北新路一段64巷33號","121.542046666667","24.96587","6500600","新店區"
"231026","256-BX","2018/10/26 15:19:05","新北市新店區中正路263巷2號","121.538466666667","24.9734833333333","6500600","新店區"
"231003","268-BY","2018/10/26 15:18:57","新北市新店區寶橋路238號","121.551636666667","24.978915","6500600","新店區"
"231018","278-BY","2018/10/26 15:19:11","新北市新店區中央八街67號","121.52801","24.9766466666667","6500600","新店區"
"231016","AAD-862","2018/10/26 15:18:55","新北市新店區明山路45號","121.563821666667","24.9558083333333","6500600","新店區"
"231038","3712-VJ","2018/10/26 15:19:04","新北市新店區安華路28-1號","121.519716666667","24.9610483333333","6500600","新店區"
"231037","4716-K9","2018/10/26 15:18:54","新北市新店區安興路56號","121.516623333333","24.974895","6500600","新店區"
"231025","4715-K9","2018/10/26 15:18:24","新北市新店區環河路180-3號","121.535395","24.9691716666667","6500600","新店區"
"231036","512-UM","2018/10/26 15:19:08","新北市新店區安祥路69巷36號","121.481648333333","24.96044","6500600","新店區"
"231006","617-UM","2018/10/26 15:18:54","新北市新店區光明街314號","121.540838333333","24.9650766666667","6500600","新店區"
"231005","618-UM","2018/10/26 15:19:07","新北市新店區民族路63號","121.539781666667","24.9783366666667","6500600","新店區"
"231030","619-UM","2018/10/26 15:18:54","新北市新店區安民街341-1號","121.516745","24.9749466666667","6500600","新店區"
"231034","641-BX","2018/10/26 15:19:07","新北市新店區如意街3巷2號","121.495546666667","24.9492283333333","6500600","新店區"
"231039","718-UY","2018/10/26 15:19:07","新北市新店區寶元路一段61號","121.542175","24.9858833333333","6500600","新店區"
"231035","719-UM","2018/10/26 15:18:56","新北市新店區安和路三段77號","121.517688333333","24.983445","6500600","新店區"
"231032","720-UM","2018/10/26 15:18:54","新北市新店區安泰路125號","121.487683333333","24.9394466666667","6500600","新店區"
"231029","897-TW","2018/10/26 15:18:34","新北市新店區安康路三段740號","121.47385","24.9419283333333","6500600","新店區"
"231004","899-TW","2018/10/26 15:19:09","新北市新店區建國路31號","121.540235","24.9741283333333","6500600","新店區"
"231024","AKT-0513","2018/10/26 15:19:01","新北市新店區環河路18號","121.537241666667","24.9614283333333","6500600","新店區"
"241011","013-R5","2018/10/26 15:19:09","新北市三重區重新路四段121號","121.484735","25.0522016666667","6500200","三重區"
"241013","270-UM","2018/10/26 15:18:59","新北市三重區重新路四段121號","121.48486","25.0526116666667","6500200","三重區"
"235030","003-UY","2018/10/26 15:18:54","新北市中和區中山路二段3巷22弄12號","121.506045","25.0049366666667","6500300","中和區"
"247011","KEA-2869","2018/10/26 15:14:57","新北市林口區太平里180號","121.36687","25.1337716666667","6501400","蘆洲區"
"235014","4979-A6","2018/10/26 15:19:04","新北市中和區景平路466號","121.505643333333","24.99377","6500300","中和區"
"235033","4980-A6","2018/10/26 15:18:55","新北市中和區板南路247-1號","121.49638","24.9946966666667","6500300","中和區"
"235034","558-UM","2018/10/26 15:19:04","新北市中和區建八路116號","121.48802","24.9985033333333","6500300","中和區"
"235005","802-TS","2018/10/26 15:19:12","新北市中和區中正路90號","121.499925","24.9937066666667","6500300","中和區"
"235012","896-TW","2018/10/26 15:19:07","新北市中和區興南路一段64巷2號","121.510746666667","24.99027","6500300","中和區"
"235001","AAC-213","2018/10/26 15:19:04","新北市板橋區長江路一段17號","121.475196666667","25.0372483333333","6500300","中和區"
"235023","AAC-215","2018/10/26 15:19:10","新北市中和區圓通路435巷2-10號","121.487446666667","24.986715","6500300","中和區"
"207002","749-BX","2018/10/26 15:19:06","新北市萬里區崁腳里內中福路2號","121.66764","25.16491","6502800","萬里區"
"207001","662-BX","2018/10/26 15:19:02","新北市萬里區大鵬里萬里加投24-2號","121.64919","25.2074616666667","6502800","萬里區"
"236067","105-UM","2018/10/26 15:19:03","新北市土城區裕民路185巷36弄10號","121.454441666667","24.984495","6501300","土城區"
"236040","KED-0685","2018/10/26 15:19:10","新北市土城區金城路二段237號","121.455683333333","24.9824766666667","6501300","土城區"
"236077","166-UM","2018/10/26 15:18:54","新北市土城區中央路四段321巷28號","121.41139","24.9514516666667","6501300","土城區"
"236029","253-BX","2018/10/26 15:19:07","新北市土城區中央路一段250巷15號","121.443653333333","24.9848433333333","6501300","土城區"
"236024","269-VK","2018/10/26 15:19:05","新北市土城區員林街61巷2弄2號","121.444126666667","24.9777466666667","6501300","土城區"
"236013","270-VK","2018/10/26 15:19:10","新北市土城區廣福街69號","121.456785","24.9896133333333","6501300","土城區"
"236032","271-VK","2018/10/26 15:18:39","新北市土城區國際路156號","121.467848333333","24.9764916666667","6501300","土城區"
"236016","401-BY","2018/10/26 15:19:08","新北市土城區峰廷街3號","121.469028333333","24.9873166666667","6501300","土城區"
"236057","912-UM","2018/10/26 15:19:08","新北市土城區金城路一段19號","121.439615","24.9691916666667","6501300","土城區"
"236045","913-UM","2018/10/26 15:19:10","新北市土城區明德路一段43號","121.465148333333","24.9850816666667","6501300","土城區"
"236060","915-UM","2018/10/26 15:18:56","新北市土城區延和路94號","121.46656","24.98955","6501300","土城區"
"236054","AAC-216","2018/10/26 15:18:57","新北市土城區學府路一段2號","121.459795","24.98839","6501300","土城區"
"242001","233-RS","2018/10/26 15:19:07","新北市新莊區中平路377巷17弄56號","121.442076666667","25.0518783333333","6500500","新莊區"
"221010","269-BY","2018/10/26 15:18:57","新北市汐止區汐萬路一段256巷3號","121.652098333333","25.0747816666667","6501100","汐止區"
"220050","280-UM","2018/10/26 15:18:55","新北市板橋區漢生東路83巷1號","121.466478333333","25.0159233333333","6500100","板橋區"
"220019","283-VK","2018/10/26 15:13:06","新北市板橋區華東街1-9號","121.44805","24.994895","6500100","板橋區"
"220031","286-VK","2018/10/26 15:18:58","新北市板橋區僑中二街104巷48號","121.444228333333","25.0082466666667","6500100","板橋區"
"220009","293-UM","2018/10/26 15:19:00","新北市板橋區四川路一段286巷6號","121.458328333333","25.0009633333333","6500100","板橋區"
"220041","307-R5","2018/10/26 15:18:29","新北市板橋區文化路一段45巷1弄7號","121.460693333333","25.0139683333333","6500100","板橋區"
"220038","487-VK","2018/10/26 15:19:13","新北市板橋區四維路137巷17號","121.464291666667","25.0249283333333","6500100","板橋區"
"220052","561-BX","2018/10/26 15:19:01","新北市板橋區漢生西路40號","121.46327","25.01837","6500100","板橋區"
"220042","689-BX","2018/10/26 15:19:04","新北市板橋區英士路76號","121.460013333333","25.0244133333333","6500100","板橋區"
"220051","KEA-2699","2018/10/26 15:18:53","新北市板橋區文化路一段322-1號","121.467795","25.0224683333333","6500100","板橋區"
"220018","AAC-253","2018/10/26 15:18:57","新北市板橋區華東街1-10號","121.448663333333","24.9950583333333","6500100","板橋區"
