"lineid","car","time","location","longitude","latitude","cityid","cityname"
"234001","149-BY","2018/10/26 16:39:21","新北市永和區福和路1號","121.526468333333","25.0100533333333","6500400","永和區"
"249005","172-UM","2018/10/26 16:39:12","新北市八里區忠孝路488-1號","121.41424","25.1615133333333","6502300","八里區"
"249003","593-UM","2018/10/26 16:39:07","新北市八里區仁愛路10號","121.413271666667","25.1623266666667","6502300","八里區"
"231046","107-UY","2018/10/26 16:38:50","新北市新店區灣潭路15-15號","121.541155","24.941415","6500600","新店區"
"241011","013-R5","2018/10/26 16:39:09","新北市三重區仁愛街39號","121.496573333333","25.07165","6500200","三重區"
"241008","059-VK","2018/10/26 16:39:19","新北市三重區永安北路一段27巷33號","121.477516666667","25.0755016666667","6500200","三重區"
"241022","060-VK","2018/10/26 16:39:10","新北市三重區新北大道一段112號","121.484978333333","25.0616533333333","6500200","三重區"
"241031","061-VK","2018/10/26 16:39:24","新北市三重區重新路四段41巷5弄2號","121.487253333333","25.0586083333333","6500200","三重區"
"241015","062-VK","2018/10/26 16:39:19","新北市三重區文化北路41號","121.498898333333","25.0651816666667","6500200","三重區"
"241017","063-VK","2018/10/26 16:39:22","新北市三重區中正北路25巷9號","121.49267","25.0622466666667","6500200","三重區"
"241024","065-VK","2018/10/26 16:39:10","新北市三重區中正北路315巷6弄29號","121.475705","25.07203","6500200","三重區"
"241026","066-VK","2018/10/26 16:39:15","新北市三重區和平街18號","121.50082","25.0625333333333","6500200","三重區"
"241002","090-VK","2018/10/26 16:39:21","新北市三重區自強路五段95號","121.4955","25.0821783333333","6500200","三重區"
"241003","091-VK","2018/10/26 16:39:07","新北市三重區五華街87巷38號","121.493098333333","25.0842283333333","6500200","三重區"
"241005","262-UM","2018/10/26 16:39:12","新北市三重區仁華街122號","121.486133333333","25.0831183333333","6500200","三重區"
"241016","266-UM","2018/10/26 16:39:10","新北市三重區大智街5號","121.494775","25.0649233333333","6500200","三重區"
"241009","267-UM","2018/10/26 16:39:23","新北市三重區三和路四段203巷66號","121.483493333333","25.0798716666667","6500200","三重區"
"241018","268-UM","2018/10/26 16:39:16","新北市三重區六張街79號","121.493355","25.0700566666667","6500200","三重區"
"241032","269-UM","2018/10/26 16:39:28","新北市三重區三民街28號","121.485716666667","25.06123","6500200","三重區"
"241013","270-UM","2018/10/26 16:39:19","新北市三重區三和路三段101巷130號","121.498223333333","25.073565","6500200","三重區"
"241025","271-UM","2018/10/26 16:39:21","新北市三重區中正北路426號","121.474563333333","25.070825","6500200","三重區"
"241007","398-BY","2018/10/26 16:39:11","新北市三重區三和路四段167巷49號","121.485338333333","25.079455","6500200","三重區"
"241020","478-VK","2018/10/26 16:39:24","新北市三重區忠孝路二段35號","121.48585","25.0710633333333","6500200","三重區"
"241030","480-VK","2018/10/26 16:39:17","新北市三重區成功路50巷56號","121.487871666667","25.0494933333333","6500200","三重區"
"241014","543-UM","2018/10/26 16:39:25","新北市三重區龍濱路32號","121.502835","25.0680883333333","6500200","三重區"
"241023","545-UM","2018/10/26 16:39:22","新北市三重區忠孝路三段50巷45號","121.482886666667","25.06437","6500200","三重區"
"241001","547-UM","2018/10/26 16:39:13","新北市三重區仁政街95號","121.492523333333","25.077925","6500200","三重區"
"241019","KEA-2593","2018/10/26 16:39:17","新北市三重區力行路一段9號","121.488441666667","25.0666783333333","6500200","三重區"
"241006","AAD-863","2018/10/26 16:39:19","新北市三重區車路頭街138-4號","121.483761666667","25.0754333333333","6500200","三重區"
"241004","743-BX","2018/10/26 16:39:15","新北市三重區五福街44號","121.492018333333","25.08084","6500200","三重區"
"241028","887-TS","2018/10/26 16:39:23","新北市三重區重新路三段31-3號","121.493975","25.0615166666667","6500200","三重區"
"241012","941-UM","2018/10/26 16:39:21","新北市三重區三和路三段101巷152號","121.498976666667","25.07382","6500200","三重區"
"241029","942-UM","2018/10/26 16:39:21","新北市三重區集美街112巷25號","121.490006666667","25.0542716666667","6500200","三重區"
"241033","AAC-255","2018/10/26 16:39:26","新北市三重區光復路一段99巷15號","121.47313","25.0509683333333","6500200","三重區"
"235026","800-TS","2018/10/26 16:39:19","新北市中和區建八路130號","121.488991666667","24.998485","6500300","中和區"
"224008","285-BY","2018/10/26 16:39:25","新北市瑞芳區中山路253號","121.79746","25.1096933333333","6501200","瑞芳區"
"224007","275-VK","2018/10/26 16:39:20","新北市瑞芳區中央路48巷124號","121.758435","25.10394","6501200","瑞芳區"
"224005","271-BY","2018/10/26 16:39:12","新北市瑞芳區洞頂路295號","121.858738333333","25.1237133333333","6501200","瑞芳區"
"227003","642-TC","2018/10/26 16:39:21","新北市雙溪區外柑里外柑腳4號","121.814478333333","25.0201433333333","6502500","雙溪區"
"227011","400-TW","2018/10/26 16:39:12","新北市雙溪區牡丹里中正路67號","121.864743333333","25.04387","6502500","雙溪區"
"251008","181-VK","2018/10/26 16:39:19","台北市北投區中央北路四段30巷160號","121.474123333333","25.140455","6501000","淡水區"
"252002","178-VK","2018/10/26 16:39:05","新北市三芝區芝柏三街1號","121.511261666667","25.2565616666667","6502100","三芝區"
