"lineid","car","time","location","longitude","latitude","cityid","cityname"
"234001","149-BY","2018/10/26 16:49:22","新北市永和區福和路1號","121.526371666667","25.0099966666667","6500400","永和區"
"249005","172-UM","2018/10/26 16:49:12","新北市八里區大堀湖2-3號","121.422665","25.15372","6502300","八里區"
"249004","303-UY","2018/10/26 16:49:17","新北市八里區博物館路202巷38號","121.405528333333","25.159785","6502300","八里區"
"249003","593-UM","2018/10/26 16:49:07","新北市八里區中山路二段283號","121.401596666667","25.1486666666667","6502300","八里區"
"231046","107-UY","2018/10/26 16:49:09","新北市新店區灣潭路4-1號","121.536031666667","24.9471216666667","6500600","新店區"
"241011","013-R5","2018/10/26 16:49:17","新北市三重區仁愛街53巷192號","121.500418333333","25.0729566666667","6500200","三重區"
"241008","059-VK","2018/10/26 16:49:19","新北市三重區永安北路一段11巷24號","121.477628333333","25.0748633333333","6500200","三重區"
"241022","060-VK","2018/10/26 16:49:10","新北市三重區貴陽街47巷2號","121.484855","25.0628616666667","6500200","三重區"
"241031","061-VK","2018/10/26 16:49:24","新北市三重區過圳街16號","121.488788333333","25.0587983333333","6500200","三重區"
"241015","062-VK","2018/10/26 16:49:19","新北市三重區文化北路90號","121.498743333333","25.06578","6500200","三重區"
"241017","063-VK","2018/10/26 16:49:22","新北市三重區國隆路8巷29號","121.492763333333","25.0635016666667","6500200","三重區"
"241024","065-VK","2018/10/26 16:49:10","新北市三重區中正北路317巷1號","121.473903333333","25.0721883333333","6500200","三重區"
"241026","066-VK","2018/10/26 16:49:15","新北市三重區中央南路52號","121.501426666667","25.06183","6500200","三重區"
"241002","090-VK","2018/10/26 16:49:21","新北市三重區仁義街161-3號","121.496981666667","25.08129","6500200","三重區"
"241003","091-VK","2018/10/26 16:49:07","新北市三重區五華街141巷60號","121.493556666667","25.08677","6500200","三重區"
"241005","262-UM","2018/10/26 16:49:12","新北市三重區仁華街80巷27號","121.484418333333","25.08387","6500200","三重區"
"241016","266-UM","2018/10/26 16:49:10","新北市三重區大同北路167巷28號","121.49376","25.0652266666667","6500200","三重區"
"241009","267-UM","2018/10/26 16:49:23","新北市三重區三和路四段203巷264號","121.487535","25.0810783333333","6500200","三重區"
"241018","268-UM","2018/10/26 16:49:16","新北市三重區安樂街94號","121.494625","25.06926","6500200","三重區"
"241032","269-UM","2018/10/26 16:49:08","新北市三重區重陽路一段120巷22號","121.485768333333","25.0601","6500200","三重區"
"241013","270-UM","2018/10/26 16:49:19","新北市三重區仁和街40號","121.496833333333","25.0737266666667","6500200","三重區"
"241025","271-UM","2018/10/26 16:49:21","新北市三重區中正北路530巷27號","121.471983333333","25.070155","6500200","三重區"
"241007","398-BY","2018/10/26 16:49:11","新北市三重區仁美街90號","121.48585","25.0799783333333","6500200","三重區"
"241020","478-VK","2018/10/26 16:49:24","新北市三重區忠孝路二段34號","121.485761666667","25.07101","6500200","三重區"
"241030","480-VK","2018/10/26 16:49:17","新北市三重區中正南路279號","121.49255","25.0524633333333","6500200","三重區"
"241014","543-UM","2018/10/26 16:49:25","新北市三重區長榮路75號","121.502536666667","25.0690583333333","6500200","三重區"
"241023","545-UM","2018/10/26 16:49:22","新北市三重區新北大道一段206巷5號","121.482501666667","25.06214","6500200","三重區"
"241001","547-UM","2018/10/26 16:49:13","新北市三重區仁政街54巷40號","121.492136666667","25.07668","6500200","三重區"
"241019","KEA-2593","2018/10/26 16:49:12","新北市三重區忠孝路二段38巷16號","121.485706666667","25.0701333333333","6500200","三重區"
"241006","AAD-863","2018/10/26 16:49:19","新北市三重區力行路二段182-3號","121.48341","25.0774366666667","6500200","三重區"
"241004","743-BX","2018/10/26 16:49:15","新北市三重區五華街92巷6號","121.492575","25.0820116666667","6500200","三重區"
"241028","887-TS","2018/10/26 16:49:23","新北市三重區光興街143號","121.496381666667","25.0597816666667","6500200","三重區"
"241012","941-UM","2018/10/26 16:49:10","新北市三重區仁壽街218號","121.50181","25.0751083333333","6500200","三重區"
"241029","942-UM","2018/10/26 16:49:21","新北市三重區新興路53號","121.491436666667","25.0538116666667","6500200","三重區"
"241033","AAC-255","2018/10/26 16:49:26","新北市三重區光華路69號","121.466686666667","25.0599883333333","6500200","三重區"
"235026","800-TS","2018/10/26 16:49:19","新北市中和區連城路222巷2弄2號","121.491138333333","24.9968466666667","6500300","中和區"
"247006","337-TH","2018/10/26 16:49:26","新北市蘆洲區永安南路二段150號","121.462023333333","25.0787583333333","6501400","蘆洲區"
"247008","336-TH","2018/10/26 16:49:08","新北市蘆洲區中山二路291號","121.469205","25.07871","6501400","蘆洲區"
"247020","057-VK","2018/10/26 16:49:13","新北市蘆洲區民族路422巷9弄2號","121.474116666667","25.092135","6501400","蘆洲區"
"247022","001-UY","2018/10/26 16:49:26","新北市蘆洲區環堤大道365號","121.456196666667","25.0973966666667","6501400","蘆洲區"
"228003","097-TW","2018/10/26 16:49:11","新北市貢寮區貢寮里朝陽街1-2號","121.91242","25.0213233333333","6502600","貢寮區"
"228002","663-BX","2018/10/26 16:49:27","新北市貢寮區貢寮里長泰路24-2號","121.903493333333","25.0239433333333","6502600","貢寮區"
"224006","676-BX","2018/10/26 16:49:07","新北市瑞芳區大寮路356-1號","121.784831666667","25.1031766666667","6501200","瑞芳區"
"224008","285-BY","2018/10/26 16:49:25","新北市瑞芳區明燈路一段267號","121.816953333333","25.1084466666667","6501200","瑞芳區"
"224007","275-VK","2018/10/26 16:49:20","新北市瑞芳區瑞竹路109號","121.76276","25.1035583333333","6501200","瑞芳區"
"224009","273-VK","2018/10/26 16:49:20","新北市瑞芳區中山路153-2號","121.802306666667","25.1065016666667","6501200","瑞芳區"
"224005","271-BY","2018/10/26 16:49:12","新北市瑞芳區洞頂路116號","121.861313333333","25.123185","6501200","瑞芳區"
"227003","642-TC","2018/10/26 16:49:21","新北市雙溪區外柑里外柑腳71號","121.807111666667","25.0175916666667","6502500","雙溪區"
"227011","400-TW","2018/10/26 16:49:12","新北市雙溪區牡丹里石5-2號","121.862933333333","25.0506483333333","6502500","雙溪區"
"251008","181-VK","2018/10/26 16:49:19","台北市北投區中央北路四段30巷158號","121.4745","25.1408","6501000","淡水區"
"251012","441-VK","2018/10/26 16:49:12","新北市淡水區中正路二段31號","121.419358333333","25.1822966666667","6501000","淡水區"
"251007","577-R6","2018/10/26 16:49:23","新北市淡水區中正路二段31號","121.419558333333","25.1812916666667","6501000","淡水區"
"251011","650-BX","2018/10/26 16:49:21","新北市淡水區中正路二段31號","121.41936","25.18162","6501000","淡水區"
"252002","178-VK","2018/10/26 16:49:05","新北市三芝區茂長里陳厝坑64-1號","121.51151","25.2547633333333","6502100","三芝區"
"252001","292-VK","2018/10/26 16:49:18","新北市三芝區淡金路二段89-1號","121.50404","25.2607666666667","6502100","三芝區"
"236040","752-BX","2018/10/26 16:49:13","新北市土城區城林路6巷80號","121.438703333333","24.97968","6501300","土城區"
"242056","751-BX","2018/10/26 16:49:13","新北市新莊區三和路12-21號","121.442098333333","25.038735","6500500","新莊區"
"242023","362-BY","2018/10/26 16:49:26","新北市新莊區新泰路357巷3弄57號","121.441973333333","25.03914","6500500","新莊區"
"242019","175-VK","2018/10/26 16:49:21","新北市新莊區三和路12-21號","121.441973333333","25.0386683333333","6500500","新莊區"
"239007","AAC-297","2018/10/26 16:49:19","新北市鶯歌區二甲路13-16號","121.345008333333","24.934965","6500800","鶯歌區"
