"lineid","car","time","location","longitude","latitude","cityid","cityname"
"234001","149-BY","2018/10/26 17:03:47","新北市永和區福和路1號","121.526351666667","25.0099383333333","6500400","永和區"
"249005","172-UM","2018/10/26 17:29:12","新北市八里區荖阡坑路28-1號","121.404158333333","25.1307633333333","6502300","八里區"
"249001","173-UM","2018/10/26 17:29:21","新北市八里區中華路一段28號","121.422196666667","25.1581266666667","6502300","八里區"
"249004","303-UY","2018/10/26 17:29:17","新北市八里區賢三街145號","121.415071666667","25.1569233333333","6502300","八里區"
"249002","305-UY","2018/10/26 17:29:25","新北市八里區龍形一街33巷1-1號","121.449458333333","25.1301533333333","6502300","八里區"
"249003","593-UM","2018/10/26 17:29:22","新北市八里區中山路二段378號","121.400806666667","25.1479866666667","6502300","八里區"
"232011","375-UM","2018/10/26 17:29:12","新北市坪林區北宜路八段551號","121.717958333333","24.9107216666667","6502000","坪林區"
"244023","069-UM","2018/10/26 17:29:14","新北市林口區東明一街1巷8號","121.393195","25.0726766666667","6501700","林口區"
"244007","080-UY","2018/10/26 17:29:18","新北市林口區湖子5號","121.39104","25.0923716666667","6501700","林口區"
"244019","403-UM","2018/10/26 17:29:16","新北市林口區文化一路一段135巷5號","121.373456666667","25.0720216666667","6501700","林口區"
"244013","KEA-2802","2018/10/26 17:29:09","新北市林口區粉寮62號","121.407276666667","25.089085","6501700","林口區"
"244017","485-VK","2018/10/26 17:29:23","新北市林口區文化一路一段125-1號","121.37343","25.07138","6501700","林口區"
"244009","656-BX","2018/10/26 17:29:30","新北市林口區中北三街287號","121.382463333333","25.0829916666667","6501700","林口區"
"244011","701-TV","2018/10/26 17:29:26","新北市林口區仁愛路一段398號","121.387131666667","25.07671","6501700","林口區"
"244025","837-TS","2018/10/26 17:29:21","新北市林口區南勢街116號","121.363398333333","25.07444","6501700","林口區"
"244021","838-TS","2018/10/26 17:29:09","新北市林口區仁愛路一段223號","121.397858333333","25.07504","6501700","林口區"
"231046","107-UY","2018/10/26 17:29:09","新北市新店區直潭路92號","121.530926666667","24.9375883333333","6500600","新店區"
"241011","013-R5","2018/10/26 17:29:09","新北市三重區河邊北街122-1號","121.503586666667","25.0714033333333","6500200","三重區"
"241008","059-VK","2018/10/26 17:29:19","新北市三重區永福街175-1號","121.478888333333","25.07549","6500200","三重區"
"241015","062-VK","2018/10/26 17:29:19","新北市三重區開元街30號","121.503606666667","25.065805","6500200","三重區"
"241017","063-VK","2018/10/26 17:29:22","新北市三重區大同北路34巷48號","121.493713333333","25.0621166666667","6500200","三重區"
"241024","065-VK","2018/10/26 17:29:10","新北市三重區後竹圍街295號","121.478783333333","25.0698566666667","6500200","三重區"
"241003","091-VK","2018/10/26 17:29:07","新北市三重區五華街141巷60號","121.493581666667","25.086775","6500200","三重區"
"241005","262-UM","2018/10/26 17:29:12","新北市三重區永安北路二段5巷17號","121.482175","25.081","6500200","三重區"
"241016","266-UM","2018/10/26 17:29:20","新北市三重區信義西街41號","121.49529","25.0641183333333","6500200","三重區"
"241009","267-UM","2018/10/26 17:29:22","新北市三重區三和路四段143-1號","121.484211666667","25.0782216666667","6500200","三重區"
"241032","269-UM","2018/10/26 17:29:28","新北市三重區名源街46號","121.48248","25.0594616666667","6500200","三重區"
"241013","270-UM","2018/10/26 17:29:19","新北市三重區仁愛街125巷32號","121.49774","25.0760866666667","6500200","三重區"
"241025","271-UM","2018/10/26 17:29:21","新北市三重區中正北路430號","121.474398333333","25.0711916666667","6500200","三重區"
"241007","398-BY","2018/10/26 17:29:16","新北市三重區溪尾街110號","121.489435","25.078945","6500200","三重區"
"241020","478-VK","2018/10/26 17:29:24","","121.482523333333","25.0683633333333","6500200","三重區"
"241030","480-VK","2018/10/26 17:29:17","新北市三重區新興路51號","121.491456666667","25.0537466666667","6500200","三重區"
"241014","543-UM","2018/10/26 17:29:25","新北市三重區長壽街65號","121.501821666667","25.0685416666667","6500200","三重區"
"241023","545-UM","2018/10/26 17:29:22","新北市三重區三民街146巷11號","121.481313333333","25.06437","6500200","三重區"
"241019","KEA-2593","2018/10/26 17:29:12","新北市三重區六張街156號","121.489576666667","25.06882","6500200","三重區"
"241012","941-UM","2018/10/26 17:29:10","新北市三重區仁興街39巷22號","121.500296666667","25.0762716666667","6500200","三重區"
"241033","AAC-255","2018/10/26 17:29:26","新北市三重區興德路145-2號","121.469031666667","25.0529516666667","6500200","三重區"
"235064","005-UY","2018/10/26 17:21:33","新北市中和區員山路36巷16-3號","121.485095","24.9913133333333","6500300","中和區"
"247012","KEA-2869","2018/10/26 17:29:21","新北市蘆洲區民族路33巷2號","121.478025","25.0851916666667","6501400","蘆洲區"
"247002","893-R6","2018/10/26 17:29:07","新北市蘆洲區環堤大道204號","121.45707","25.091225","6501400","蘆洲區"
"247016","546-UM","2018/10/26 17:29:20","新北市蘆洲區光華路71號","121.468126666667","25.0826766666667","6501400","蘆洲區"
"247024","500-BY","2018/10/26 17:29:20","新北市蘆洲區長興路353號","121.461008333333","25.091395","6501400","蘆洲區"
"247014","339-TH","2018/10/26 17:29:09","新北市蘆洲區成功路164號","121.47149","25.083405","6501400","蘆洲區"
"247006","337-TH","2018/10/26 17:29:06","新北市蘆洲區長安街22巷39弄15號","121.464493333333","25.0806766666667","6501400","蘆洲區"
"247008","336-TH","2018/10/26 17:29:05","新北市蘆洲區民生街87號","121.4738","25.0779183333333","6501400","蘆洲區"
"247020","057-VK","2018/10/26 17:29:13","新北市蘆洲區水湳街115-3號","121.469501666667","25.091805","6501400","蘆洲區"
"247010","056-VK","2018/10/26 17:29:12","新北市蘆洲區集賢路406號","121.479863333333","25.0819533333333","6501400","蘆洲區"
"247018","053-VK","2018/10/26 17:29:22","新北市蘆洲區水湳街27號","121.472066666667","25.088005","6501400","蘆洲區"
"247004","002-UY","2018/10/26 17:29:16","新北市蘆洲區長安街231號","121.459316666667","25.08289","6501400","蘆洲區"
"247022","001-UY","2018/10/26 17:29:25","新北市蘆洲區三民路296號","121.466885","25.09047","6501400","蘆洲區"
"228003","097-TW","2018/10/26 17:29:11","新北市貢寮區仁理村研海街45號","121.926085","25.0416","6502600","貢寮區"
"228002","663-BX","2018/10/26 17:29:27","新北市貢寮區福隆里興隆街20號","121.94478","25.0167033333333","6502600","貢寮區"
"228001","670-TC","2018/10/26 17:29:11","新北市貢寮區仁理村仁愛路39號","121.92503","25.0532883333333","6502600","貢寮區"
"224010","AGQ-8101","2018/10/26 17:29:13","新北市瑞芳區逢甲路15號","121.809855","25.10865","6501200","瑞芳區"
"224006","676-BX","2018/10/26 17:29:07","新北市瑞芳區靜安路四段94號","121.793258333333","25.1102883333333","6501200","瑞芳區"
"224008","285-BY","2018/10/26 17:29:25","新北市瑞芳區九芎橋路17號","121.832803333333","25.0927433333333","6501200","瑞芳區"
"224009","273-VK","2018/10/26 17:29:20","新北市瑞芳區烏勢巷147號","121.846821666667","25.1076716666667","6501200","瑞芳區"
"224005","271-BY","2018/10/26 17:29:12","新北市瑞芳區洞頂路212-2號","121.861646666667","25.1248216666667","6501200","瑞芳區"
"227003","642-TC","2018/10/26 17:29:20","新北市雙溪區平林里梅竹蹊69號","121.844943333333","25.0304216666667","6502500","雙溪區"
"251005","010-UM","2018/10/26 17:29:07","新北市淡水區鄧公路31巷15號","121.451906666667","25.1707016666667","6501000","淡水區"
"251002","012-UM","2018/10/26 17:29:08","新北市淡水區中正路382號","121.430066666667","25.1752816666667","6501000","淡水區"
"251008","181-VK","2018/10/26 17:29:20","新北市淡水區大同路124巷18號","121.463583333333","25.1400066666667","6501000","淡水區"
"251010","413-VK","2018/10/26 17:29:17","新北市淡水區中正路二段211號","121.426198333333","25.1890866666667","6501000","淡水區"
"251012","441-VK","2018/10/26 17:29:12","新北市淡水區北新路111號","121.448116666667","25.17835","6501000","淡水區"
"251004","443-VK","2018/10/26 17:10:55","新北市淡水區中正東路二段88巷15號","121.459066666667","25.1504766666667","6501000","淡水區"
"251006","561-UM","2018/10/26 17:29:28","新北市淡水區大仁街19號","121.442463333333","25.1751566666667","6501000","淡水區"
"251009","575-R6","2018/10/26 17:29:21","新北市淡水區真理街2號","121.438815","25.1730083333333","6501000","淡水區"
"251007","577-R6","2018/10/26 17:29:22","新北市淡水區民生路47-4號","121.462085","25.13801","6501000","淡水區"
"251011","650-BX","2018/10/26 17:29:21","新北市淡水區坪頂路718號","121.482543333333","25.1584716666667","6501000","淡水區"
"251003","673-BX","2018/10/26 17:29:19","新北市淡水區中山路157號","121.440726666667","25.1728616666667","6501000","淡水區"
"207003","550-UM","2018/10/26 17:29:17","新北市萬里區龜吼里翡翠路17號","121.683443333333","25.18677","6502800","萬里區"
"207004","225-TW","2018/10/26 17:29:12","新北市萬里區萬里里景美路11-3號","121.685981666667","25.1729866666667","6502800","萬里區"
"252002","178-VK","2018/10/26 17:29:25","新北市三芝區忠孝街1-15號","121.505576666667","25.25395","6502100","三芝區"
"252001","292-VK","2018/10/26 17:29:18","新北市三芝區淡金路一段4-5號","121.49809","25.259685","6502100","三芝區"
"237012","275-BY","2018/10/26 17:29:27","新北市三峽區中山路459巷137號","121.349766666667","24.933665","6500900","三峽區"
"237015","649-BX","2018/10/26 17:29:20","新北市三峽區中山路331號","121.36037","24.93798","6500900","三峽區"
"242058","986-R7","2018/10/26 17:29:07","新北市新莊區中正路516-42號","121.432335","25.03203","6500500","新莊區"
"242056","751-BX","2018/10/26 17:29:13","新北市新莊區新泰路51號","121.449521666667","25.0338583333333","6500500","新莊區"
"242027","615-BX","2018/10/26 17:29:20","新北市新莊區思源路32號","121.460235","25.0403883333333","6500500","新莊區"
"242025","613-BX","2018/10/26 17:29:09","新北市新莊區復興路二段22號","121.454303333333","25.043855","6500500","新莊區"
"242029","612-BX","2018/10/26 17:29:15","新北市新莊區復興路二段191號","121.459315","25.0444883333333","6500500","新莊區"
"242044","566-BX","2018/10/26 17:29:24","新北市新莊區富國路101-1號","121.42127","25.0255483333333","6500500","新莊區"
"242048","497-BY","2018/10/26 17:29:24","新北市新莊區四維路210號","121.421375","25.0201183333333","6500500","新莊區"
"242054","441-UM","2018/10/26 17:29:23","新北市新莊區瓊林南路305巷3號","121.434853333333","25.0054983333333","6500500","新莊區"
"242039","415-TV","2018/10/26 17:29:09","新北市新莊區民安路268號","121.42748","25.0212633333333","6500500","新莊區"
"242009","413-TV","2018/10/26 17:29:26","新北市新莊區中原路239號","121.44948","25.0542483333333","6500500","新莊區"
"242046","400-BY","2018/10/26 17:29:20","新北市新莊區新樹路67巷2-10號","121.439443333333","25.0300533333333","6500500","新莊區"
"242023","362-BY","2018/10/26 17:29:26","新北市新莊區公園路150號","121.453176666667","25.040125","6500500","新莊區"
"242060","353-BY","2018/10/26 17:29:26","新北市新莊區瓊林南路42巷1-2號","121.43598","25.018","6500500","新莊區"
"242011","132-UY","2018/10/26 17:29:13","新北市新莊區中港路469號","121.452405","25.04906","6500500","新莊區"
"242041","133-UY","2018/10/26 17:29:14","新北市新莊區新樹路115號","121.43745","25.0266133333333","6500500","新莊區"
"242034","135-UY","2018/10/26 17:29:12","新北市新莊區新莊路372號","121.44931","25.0334983333333","6500500","新莊區"
"242050","172-VK","2018/10/26 17:29:18","新北市新莊區新樹路445號","121.432931666667","25.0134783333333","6500500","新莊區"
"242013","173-VK","2018/10/26 17:29:14","新北市新莊區中誠街128號","121.449105","25.047595","6500500","新莊區"
"242019","175-VK","2018/10/26 17:29:27","新北市新莊區中港路105號","121.455373333333","25.0396","6500500","新莊區"
"242007","176-VK","2018/10/26 17:29:22","新北市新莊區自強街50號","121.454728333333","25.0466883333333","6500500","新莊區"
"242017","346-TH","2018/10/26 17:29:23","新北市新莊區復興路一段193號","121.451871666667","25.0435316666667","6500500","新莊區"
"242015","347-TH","2018/10/26 17:29:25","新北市新莊區新泰路193號","121.447218333333","25.0378766666667","6500500","新莊區"
"242032","348-TH","2018/10/26 17:29:12","新北市新莊區新泰路381巷38號","121.442461666667","25.0437383333333","6500500","新莊區"
"242005","349-TH","2018/10/26 17:29:15","新北市新莊區中港路297號","121.452873333333","25.0443683333333","6500500","新莊區"
"242021","350-TH","2018/10/26 17:29:05","新北市新莊區中港路20號","121.455023333333","25.037175","6500500","新莊區"
"238015","755-BX","2018/10/26 17:29:07","新北市樹林區大安路269號","121.418961666667","24.99365","6500700","樹林區"
"238019","599-UM","2018/10/26 17:29:27","新北市樹林區太平路19號","121.419143333333","24.9834283333333","6500700","樹林區"
"238018","571-TV","2018/10/26 17:29:09","新北市樹林區博愛街248號","121.424235","24.9887416666667","6500700","樹林區"
"238024","5061-A6","2018/10/26 17:29:24","新北市樹林區博愛街209號","121.424048333333","24.9875433333333","6500700","樹林區"
"238022","KEA-2213","2018/10/26 17:29:24","新北市樹林區仁愛街37號","121.422198333333","24.9820183333333","6500700","樹林區"
"238021","KEA-2539","2018/10/26 17:29:27","新北市樹林區西圳街一段203巷35號","121.394998333333","24.95784","6500700","樹林區"
"238025","303-VK","2018/10/26 17:29:16","新北市樹林區保安街一段278號","121.419448333333","24.9970783333333","6500700","樹林區"
"238017","283-BY","2018/10/26 17:29:11","新北市樹林區光武街35號","121.4166","25.00657","6500700","樹林區"
"238014","282-BY","2018/10/26 17:29:19","新北市樹林區保安街一段243號","121.419746666667","24.9963516666667","6500700","樹林區"
"238020","268-VK","2018/10/26 17:29:23","新北市樹林區俊英街48-2號","121.428551666667","25.0032433333333","6500700","樹林區"
"238026","172-UY","2018/10/26 17:29:22","新北市樹林區東豐街145號","121.40465","24.9742533333333","6500700","樹林區"
"238016","169-UY","2018/10/26 17:28:06","新北市樹林區長壽街18-2號","121.423151666667","24.9936333333333","6500700","樹林區"
"239007","AAC-297","2018/10/26 17:29:19","新北市鶯歌區光明街232號","121.341351666667","24.95593","6500800","鶯歌區"
"239006","891-R6","2018/10/26 17:29:07","新北市鶯歌區鳳鳴路73號","121.33406","24.9658133333333","6500800","鶯歌區"
"239008","527-UM","2018/10/26 17:29:12","新北市鶯歌區大湖路578號","121.336265","24.9734483333333","6500800","鶯歌區"
"239005","526-UM","2018/10/26 17:29:28","新北市鶯歌區鶯桃路640號","121.329435","24.9689433333333","6500800","鶯歌區"
"239001","417-VK","2018/10/26 17:29:25","新北市鶯歌區中正三路136號","121.336463333333","24.9400583333333","6500800","鶯歌區"
"239003","360-BY","2018/10/26 17:29:24","新北市鶯歌區德昌街1號","121.33409","24.9607716666667","6500800","鶯歌區"
"239002","359-BY","2018/10/26 17:29:16","新北市鶯歌區育才街30-2號","121.348776666667","24.9550583333333","6500800","鶯歌區"
"239004","193-VK","2018/10/26 17:29:10","新北市鶯歌區三鶯路29巷34號","121.353615","24.9392266666667","6500800","鶯歌區"
"221008","489-VK","2018/10/26 17:29:16","新北市汐止區康寧街901號","121.65141","25.074975","6501100","汐止區"
"221010","269-BY","2018/10/26 17:29:17","新北市汐止區汐萬路一段256巷3號","121.65211","25.0747733333333","6501100","汐止區"
"242002","281-VK","2018/10/26 17:29:17","新北市新莊區思明街5號","121.455495","25.0353866666667","6500500","新莊區"
