"lineid","car","time","location","longitude","latitude","cityid","cityname"
"234046","148-BY","2018/10/26 18:29:14","新北市永和區福和路1號","121.525708333333","25.00943","6500400","永和區"
"234007","207-UY","2018/10/26 18:29:27","新北市永和區環河西路二段217巷3號","121.501608333333","25.01005","6500400","永和區"
"234081","298-R6","2018/10/26 18:29:06","新北市永和區福和路1號","121.52651","25.00992","6500400","永和區"
"234086","338-UY","2018/10/26 18:29:24","新北市永和區中正路491號","121.516926666667","25.0066666666667","6500400","永和區"
"234030","746-BX","2018/10/26 18:29:12","新北市永和區福和路1號","121.526245","25.0096583333333","6500400","永和區"
"234013","KEA-2591","2018/10/26 18:29:20","新北市永和區福和路1號","121.526175","25.00933","6500400","永和區"
"234042","862-TW","2018/10/26 18:29:12","新北市永和區福和路197號","121.519553333333","25.0075266666667","6500400","永和區"
"234026","9371-KE","2018/10/26 18:29:22","新北市永和區中正路623號","121.515921666667","25.0099233333333","6500400","永和區"
"234011","9373-KE","2018/10/26 18:29:19","新北市永和區保福路二段158巷1號","121.509173333333","25.0150566666667","6500400","永和區"
"249005","172-UM","2018/10/26 18:29:12","新北市八里區中華路三段98-1號","121.392606666667","25.13738","6502300","八里區"
"249001","173-UM","2018/10/26 18:29:18","新北市八里區龍米路一段132號","121.453036666667","25.1254966666667","6502300","八里區"
"249004","303-UY","2018/10/26 18:29:16","新北市八里區忠孝路29號","121.428733333333","25.1600783333333","6502300","八里區"
"249002","305-UY","2018/10/26 18:29:20","新北市八里區龍形三街26號","121.448156666667","25.131625","6502300","八里區"
"248014","025-BX","2018/10/26 18:29:26","新北市五股區自強路142號","121.432205","25.070955","6501500","五股區"
"248016","026-BX","2018/10/26 18:29:23","新北市五股區凌雲路一段83巷22弄1號","121.44988","25.1007333333333","6501500","五股區"
"248006","077-UY","2018/10/26 18:29:20","新北市五股區四維路23號","121.467061666667","25.070595","6501500","五股區"
"248008","095-VK","2018/10/26 18:29:09","新北市五股區中興路二段78-5號","121.461638333333","25.0785266666667","6501500","五股區"
"248018","225-UY","2018/10/26 18:29:19","新北市五股區御史路277-1號","121.420728333333","25.10606","6501500","五股區"
"248012","247-BX","2018/10/26 18:29:22","新北市五股區御史路27號","121.44198","25.0913283333333","6501500","五股區"
"248010","272-BY","2018/10/26 18:29:14","新北市五股區明德路8號","121.433353333333","25.0716733333333","6501500","五股區"
"248004","677-BX","2018/10/26 18:29:13","新北市五股區成泰路二段87號","121.438245","25.0841616666667","6501500","五股區"
"248002","678-BX","2018/10/26 18:29:15","新北市五股區西雲路116-6號","121.444661666667","25.0936883333333","6501500","五股區"
"234077","969-R7","2018/10/26 18:29:24","新北市永和區福和路1號","121.525048333333","25.0090516666667","6500400","永和區"
"244023","069-UM","2018/10/26 18:29:14","新北市林口區仁愛路二段106巷9號","121.383351666667","25.0752233333333","6501700","林口區"
"244007","080-UY","2018/10/26 18:29:18","新北市林口區後湖4-2號","121.389595","25.09777","6501700","林口區"
"244019","403-UM","2018/10/26 18:29:16","新北市林口區忠孝路52號","121.37845","25.067715","6501700","林口區"
"244013","KEA-2802","2018/10/26 18:29:09","新北市林口區中正路438號","121.384005","25.0776783333333","6501700","林口區"
"244017","485-VK","2018/10/26 18:29:22","新北市林口區八德路78號","121.365476666667","25.0655683333333","6501700","林口區"
"244009","656-BX","2018/10/26 18:29:30","新北市林口區竹林路278巷1號","121.390495","25.08211","6501700","林口區"
"244011","701-TV","2018/10/26 18:29:26","新北市林口區中山路154-1號","121.390908333333","25.0787466666667","6501700","林口區"
"244025","837-TS","2018/10/26 18:29:21","新北市林口區源泉街43號","121.35734","25.0723683333333","6501700","林口區"
"244021","838-TS","2018/10/26 18:29:22","新北市林口區工六路2號","121.397536666667","25.0793916666667","6501700","林口區"
"243013","AAD-798","2018/10/26 18:26:42","新北市泰山區明志路三段206巷3號","121.4233","25.0379366666667","6501600","泰山區"
"243012","646-TV","2018/10/26 18:29:21","新北市泰山區泰林路二段429號","121.426336666667","25.064135","6501600","泰山區"
"222003","436-BY","2018/10/26 18:29:19","新北市深坑區北深路一段288號","121.62814","25.007625","6501800","深坑區"
"222002","659-BX","2018/10/26 18:29:10","新北市深坑區雲鄉路152號","121.623183333333","24.9979833333333","6501800","深坑區"
"231041","001-UM","2018/10/26 18:29:29","新北市新店區安華路28-1號","121.519426666667","24.9609483333333","6500600","新店區"
"231059","046-UY","2018/10/26 18:29:15","新北市新店區安華路28-1號","121.519655","24.9608833333333","6500600","新店區"
"231040","047-UY","2018/10/26 18:29:25","新北市新店區安華路28-1號","121.519205","24.9608766666667","6500600","新店區"
"231046","107-UY","2018/10/26 18:29:09","新北市新店區直潭七街60號","121.53225","24.9398483333333","6500600","新店區"
"231053","108-UY","2018/10/26 18:29:10","新北市新店區新烏路一段50-2號","121.545628333333","24.9491533333333","6500600","新店區"
"231048","187-VK","2018/10/26 18:29:25","新北市新店區安一路一段1-1號","121.51957","24.9612","6500600","新店區"
"231054","KEA-2219","2018/10/26 18:29:14","新北市新店區安一路一段1-1號","121.52007","24.9611616666667","6500600","新店區"
"231057","256-BX","2018/10/26 18:29:21","新北市新店區北新路一段89號","121.538605","24.9616583333333","6500600","新店區"
"231042","268-BY","2018/10/26 18:29:14","新北市新店區安華路1-1號","121.519323333333","24.9605166666667","6500600","新店區"
"231050","AAD-862","2018/10/26 18:29:12","新北市新店區安一路一段1-1號","121.519685","24.9611733333333","6500600","新店區"
"231058","3713-VJ","2018/10/26 18:29:25","新北市新店區北新路一段43號","121.538045","24.9594033333333","6500600","新店區"
"231066","4716-K9","2018/10/26 18:29:25","新北市新店區安一路一段1-1號","121.519388333333","24.96122","6500600","新店區"
"231056","4715-K9","2018/10/26 18:29:20","新北市新店區二十張路66號","121.536601666667","24.9800266666667","6500600","新店區"
"231067","4772-VM","2018/10/26 18:29:25","新北市新店區安華路28-1號","121.519306666667","24.9606166666667","6500600","新店區"
"231065","512-UM","2018/10/26 18:29:18","新北市新店區安一路一段1-1號","121.519376666667","24.9612283333333","6500600","新店區"
"231049","513-UM","2018/10/26 18:29:19","新北市新店區安一路一段1-1號","121.519755","24.9611933333333","6500600","新店區"
"231045","617-UM","2018/10/26 18:08:47","新北市新店區安華路28-1號","121.519501666667","24.9609916666667","6500600","新店區"
"231061","619-UM","2018/10/26 18:29:23","新北市新店區安華路28-1號","121.519496666667","24.96074","6500600","新店區"
"231063","641-BX","2018/10/26 18:29:25","新北市新店區安華路28-1號","121.519665","24.960735","6500600","新店區"
"231064","719-UM","2018/10/26 18:29:20","新北市新店區安一路一段1-1號","121.51949","24.9612133333333","6500600","新店區"
"231062","720-UM","2018/10/26 18:29:14","新北市新店區安一路一段1-1號","121.519335","24.961195","6500600","新店區"
"231060","897-TW","2018/10/26 18:29:23","新北市新店區安華路28-1號","121.519533333333","24.9606866666667","6500600","新店區"
"231043","899-TW","2018/10/26 18:29:17","新北市新店區安華路28-1號","121.519186666667","24.96088","6500600","新店區"
"231055","AKT-0513","2018/10/26 18:29:17","新北市新店區中正路128巷10號","121.542446666667","24.9718066666667","6500600","新店區"
"235066","003-UY","2018/10/26 18:29:24","新北市中和區中山路二段120號","121.502716666667","25.0037366666667","6500300","中和區"
"235064","005-UY","2018/10/26 18:29:23","新北市中和區連城路139巷11號","121.496105","24.9984733333333","6500300","中和區"
"235063","006-UY","2018/10/26 18:29:20","新北市中和區連城路347巷16弄1號","121.488483333333","24.9948516666667","6500300","中和區"
"235056","096-UM","2018/10/26 18:29:22","新北市中和區員山路611巷1號","121.47788","25.0112066666667","6500300","中和區"
"235039","097-UM","2018/10/26 18:29:18","新北市中和區安平路161號","121.512465","24.9984033333333","6500300","中和區"
"235065","098-UM","2018/10/26 18:29:16","新北市中和區莊敬路49巷20弄20號","121.502686666667","25.00582","6500300","中和區"
"235058","151-BY","2018/10/26 18:29:10","新北市中和區圓通路369巷30弄54號","121.488611666667","24.984605","6500300","中和區"
"235055","183-VK","2018/10/26 18:29:22","新北市中和區民享街86巷31號","121.472728333333","25.0003983333333","6500300","中和區"
"235038","185-VK","2018/10/26 18:29:23","新北市中和區秀朗路三段128巷17弄43號","121.522816666667","24.9931433333333","6500300","中和區"
"235049","186-VK","2018/10/26 18:29:13","新北市中和區景平路486號","121.504951666667","24.9938983333333","6500300","中和區"
"235067","255-BX","2018/10/26 18:29:19","新北市中和區新生街132號","121.483578333333","25.001105","6500300","中和區"
"235072","301-VK","2018/10/26 18:29:20","新北市中和區連城路169號","121.49556","24.9982583333333","6500300","中和區"
"235043","352-BY","2018/10/26 18:29:23","新北市中和區景平路303號","121.506598333333","24.99319","6500300","中和區"
"235050","4979-A6","2018/10/26 18:29:26","新北市中和區興南路一段25號","121.511228333333","24.9908516666667","6500300","中和區"
"235069","4980-A6","2018/10/26 18:29:20","新北市中和區連城路127巷29號","121.497193333333","24.9974916666667","6500300","中和區"
"235042","551-UM","2018/10/26 18:29:26","新北市中和區成功路127巷12弄3號","121.526935","24.9906166666667","6500300","中和區"
"235070","558-UM","2018/10/26 18:29:24","新北市中和區景新街129號","121.505845","24.99729","6500300","中和區"
"235045","565-BX","2018/10/26 18:29:12","新北市中和區南山路236巷24弄48號","121.504641666667","24.988655","6500300","中和區"
"235054","640-BX","2018/10/26 18:29:24","新北市中和區民享街86巷2號","121.474441666667","25.0009933333333","6500300","中和區"
"235060","647-TV","2018/10/26 18:29:11","新北市中和區中山路二段555號","121.480931666667","25.0055766666667","6500300","中和區"
"235047","732-UM","2018/10/26 18:29:14","新北市中和區南山路250巷1號","121.507643333333","24.9890816666667","6500300","中和區"
"235046","733-UM","2018/10/26 18:29:19","新北市中和區圓通路141巷48弄15號","121.49805","24.99377","6500300","中和區"
"235062","800-TS","2018/10/26 18:29:19","新北市中和區景平路999巷2號","121.495413333333","25.0060133333333","6500300","中和區"
"235057","801-TS","2018/10/26 18:29:26","新北市中和區民安街38號","121.480058333333","25.0004683333333","6500300","中和區"
"235041","802-TS","2018/10/26 18:29:23","新北市中和區景安路102號","121.505425","24.9955316666667","6500300","中和區"
"235052","805-TS","2018/10/26 18:29:09","新北市中和區興南路二段94號","121.505206666667","24.9842916666667","6500300","中和區"
"235048","896-TW","2018/10/26 18:29:13","新北市中和區中正路83號","121.500641666667","24.9934316666667","6500300","中和區"
"235053","900-TW","2018/10/26 18:29:20","新北市中和區民享街457號","121.470363333333","24.9931866666667","6500300","中和區"
"235051","157-BY","2018/10/26 18:29:16","新北市中和區興南路二段114巷10弄1號","121.50392","24.9850783333333","6500300","中和區"
"235037","AAC-213","2018/10/26 18:29:16","新北市中和區景德街97號","121.515658333333","24.99131","6500300","中和區"
"235059","AAC-215","2018/10/26 18:29:22","新北市中和區員山路36巷16-3號","121.484961666667","24.99142","6500300","中和區"
"220065","072-UY","2018/10/26 18:29:19","新北市板橋區遠東路1號","121.456498333333","24.9992366666667","6500100","板橋區"
"220086","073-UY","2018/10/26 18:29:22","新北市板橋區南雅南路二段140號","121.45172","24.9962233333333","6500100","板橋區"
"226004","205-ST","2018/10/26 18:29:21","新北市平溪區靜安路二段250號","121.72498","25.021965","6502400","平溪區"
"228003","097-TW","2018/10/26 18:29:11","新北市貢寮區和美里和美街37號","121.912308333333","25.08735","6502600","貢寮區"
"228002","663-BX","2018/10/26 18:29:27","新北市貢寮區福連里福連街37號","121.988795","25.0108616666667","6502600","貢寮區"
"228001","670-TC","2018/10/26 18:29:11","新北市貢寮區仁理村仁和路162號","121.923226666667","25.0520316666667","6502600","貢寮區"
"224006","676-BX","2018/10/26 18:29:26","新北市瑞芳區明燈路二段69號","121.810605","25.1078433333333","6501200","瑞芳區"
"224002","639-TC","2018/10/26 18:29:19","新北市瑞芳區三爪子坑路25號","121.813461666667","25.1075333333333","6501200","瑞芳區"
"224008","285-BY","2018/10/26 18:29:25","新北市瑞芳區逢甲路159巷2號","121.806323333333","25.110105","6501200","瑞芳區"
"224007","275-VK","2018/10/26 18:29:28","新北市瑞芳區大埔路國宅新村62號","121.764868333333","25.1003266666667","6501200","瑞芳區"
"224009","273-VK","2018/10/26 18:29:20","新北市瑞芳區五號路126號","121.854941666667","25.1108566666667","6501200","瑞芳區"
"224005","271-BY","2018/10/26 18:29:12","新北市瑞芳區瑞濱路149號","121.818775","25.1185883333333","6501200","瑞芳區"
"227003","642-TC","2018/10/26 18:29:23","新北市雙溪區魚行里坤溪22號","121.870438333333","25.0294766666667","6502500","雙溪區"
"227011","400-TW","2018/10/26 18:29:17","新北市雙溪區牡丹里牡丹131號","121.850936666667","25.0591033333333","6502500","雙溪區"
"253006","032-BX","2018/10/26 18:29:24","新北市石門區公地20-1號","121.54575","25.2901716666667","6502200","石門區"
"253005","295-VK","2018/10/26 18:29:13","新北市石門區老崩山2-1號","121.55378","25.291675","6502200","石門區"
"222001","KEA-2212","2018/10/26 18:29:20","新北市深坑區北深路一段199號","121.631026666667","25.0096883333333","6501800","深坑區"
"208002","KEA-2872","2018/10/26 18:29:19","新北市金山區磺港里磺港路169號","121.642571666667","25.2245833333333","6502700","金山區"
"208003","665-BX","2018/10/26 18:29:16","新北市金山區中山路245號","121.63721","25.22201","6502700","金山區"
"208001","761-BX","2018/10/26 18:29:17","新北市金山區文化二路6號","121.636788333333","25.2246483333333","6502700","金山區"
"251005","010-UM","2018/10/26 18:29:28","新北市淡水區中正東路35巷6號","121.446298333333","25.168465","6501000","淡水區"
"251002","012-UM","2018/10/26 18:29:08","新北市淡水區竿蓁二街19巷20弄1號","121.453058333333","25.1636516666667","6501000","淡水區"
"251008","181-VK","2018/10/26 18:29:19","新北市淡水區北投子87-3號","121.468826666667","25.1787783333333","6501000","淡水區"
"251010","413-VK","2018/10/26 18:29:17","新北市淡水區沙崙路181巷1號","121.42415","25.1842516666667","6501000","淡水區"
"251012","441-VK","2018/10/26 18:29:12","新北市淡水區北新路一段55號","121.456225","25.1817383333333","6501000","淡水區"
"251004","443-VK","2018/10/26 18:29:22","新北市淡水區民族路31巷29號","121.462281666667","25.1365066666667","6501000","淡水區"
"251001","559-UM","2018/10/26 18:29:21","新北市淡水區自強路122-2號","121.464841666667","25.1333916666667","6501000","淡水區"
"251006","561-UM","2018/10/26 18:29:08","新北市淡水區新生街51巷22號","121.440645","25.1755916666667","6501000","淡水區"
"251011","650-BX","2018/10/26 18:29:21","新北市淡水區中正東路34-2號","121.44852","25.166065","6501000","淡水區"
"251003","673-BX","2018/10/26 18:29:19","新北市淡水區北新路169巷14號","121.44978","25.1802983333333","6501000","淡水區"
"207003","550-UM","2018/10/26 18:29:17","新北市萬里區野柳里港東路73號","121.688183333333","25.20497","6502800","萬里區"
"207004","225-TW","2018/10/26 18:29:18","新北市萬里區萬里里瑪鋉路252號","121.689003333333","25.1806566666667","6502800","萬里區"
"252002","178-VK","2018/10/26 18:29:25","新北市三芝區中山路二段37號","121.502885","25.2551566666667","6502100","三芝區"
"252003","249-BX","2018/10/26 18:29:18","新北市三芝區後厝里北勢子45-22號","121.468515","25.250465","6502100","三芝區"
"252001","292-VK","2018/10/26 18:29:18","新北市三芝區中興街二段2號","121.498393333333","25.256625","6502100","三芝區"
"237004","KEA-2597","2018/10/26 18:29:27","新北市三峽區金敏5號","121.3845","24.8750666666667","6500900","三峽區"
"237007","153-BY","2018/10/26 18:29:22","新北市三峽區中正路三段132號","121.353813333333","24.90374","6500900","三峽區"
"237009","210-TH","2018/10/26 18:29:29","新北市三峽區大同路259號","121.366561666667","24.9259316666667","6500900","三峽區"
"237013","252-BX","2018/10/26 18:29:26","新北市三峽區光明路69巷25號","121.376565","24.9291316666667","6500900","三峽區"
"237012","275-BY","2018/10/26 18:29:27","新北市三峽區三樹路176號","121.378838333333","24.9412133333333","6500900","三峽區"
"237008","302-VK","2018/10/26 18:29:23","新北市三峽區白雞129-1號","121.3963","24.9082","6500900","三峽區"
"237014","433-BY","2018/10/26 18:29:24","新北市三峽區文化路111號","121.370455","24.936025","6500900","三峽區"
"237006","5529-G3","2018/10/26 18:29:14","新北市三峽區溪東路315巷90號","121.411925","24.9316183333333","6500900","三峽區"
"237011","KEA-2596","2018/10/26 18:29:25","新北市三峽區溪東路375號","121.411785","24.9291316666667","6500900","三峽區"
"237015","649-BX","2018/10/26 18:29:20","新北市三峽區紫微南路36號","121.421096666667","24.91453","6500900","三峽區"
"237010","706-TV","2018/10/26 18:29:24","新北市三峽區復興路489號","121.361255","24.9384283333333","6500900","三峽區"
"236069","105-UM","2018/10/26 18:29:16","新北市土城區永豐路255巷21弄3號","121.47505","24.9740966666667","6501300","土城區"
"236079","166-UM","2018/10/26 18:29:11","新北市土城區大暖路36號","121.423345","24.959505","6501300","土城區"
"236030","253-BX","2018/10/26 18:29:21","新北市土城區水源街30號","121.440908333333","24.97557","6501300","土城區"
"236026","269-VK","2018/10/26 18:29:25","新北市土城區南天母路135巷18號","121.448526666667","24.9546633333333","6501300","土城區"
"236014","270-VK","2018/10/26 18:29:27","新北市土城區青雲路39巷7號","121.460318333333","24.9874583333333","6501300","土城區"
"236039","271-VK","2018/10/26 18:29:10","新北市土城區明德路一段323號","121.458918333333","24.9768766666667","6501300","土城區"
"236020","401-BY","2018/10/26 18:29:17","新北市土城區永豐路202巷14號","121.466208333333","24.9834983333333","6501300","土城區"
"236042","752-BX","2018/10/26 18:29:27","新北市土城區學成路97巷20號","121.449928333333","24.9878883333333","6501300","土城區"
"236059","912-UM","2018/10/26 18:29:26","新北市土城區中央路四段176號","121.416645","24.9579083333333","6501300","土城區"
"236048","913-UM","2018/10/26 18:29:18","新北市土城區青雲路461號","121.458718333333","24.97437","6501300","土城區"
"236063","915-UM","2018/10/26 18:29:16","新北市土城區延壽路23號","121.471176666667","24.9908716666667","6501300","土城區"
"236055","AAC-216","2018/10/26 18:29:25","新北市土城區中華路一段277號","121.440255","24.9802966666667","6501300","土城區"
"242058","986-R7","2018/10/26 18:29:27","新北市新莊區中正路816號","121.40994","25.0208716666667","6500500","新莊區"
"242025","613-BX","2018/10/26 18:29:09","新北市新莊區昌平街346號","121.45465","25.0607683333333","6500500","新莊區"
"242044","566-BX","2018/10/26 18:29:24","新北市新莊區中正路887-19號","121.415951666667","25.02407","6500500","新莊區"
"242054","441-UM","2018/10/26 18:29:22","新北市板橋區大觀路三段50巷63號","121.4317","24.996135","6500500","新莊區"
"242009","413-TV","2018/10/26 18:29:07","新北市新莊區新泰路357巷3弄1號","121.442486666667","25.0413683333333","6500500","新莊區"
"242046","400-BY","2018/10/26 18:29:20","新北市新莊區中正路807號","121.42122","25.0284166666667","6500500","新莊區"
"242060","353-BY","2018/10/26 18:29:26","新北市新莊區富國路176巷1號","121.424211666667","25.0243383333333","6500500","新莊區"
"242011","132-UY","2018/10/26 18:29:13","新北市新莊區立信一街53號","121.442908333333","25.04973","6500500","新莊區"
"242041","133-UY","2018/10/26 18:29:29","新北市新莊區天祥街92巷14號","121.415663333333","25.0300066666667","6500500","新莊區"
"242013","173-VK","2018/10/26 18:04:35","新北市新莊區三和路12-21號","121.442063333333","25.0386616666667","6500500","新莊區"
"242007","176-VK","2018/10/26 18:29:22","新北市新莊區新泰路368號","121.444436666667","25.04275","6500500","新莊區"
"238015","755-BX","2018/10/26 18:29:25","新北市樹林區大安路519號","121.414256666667","24.9861233333333","6500700","樹林區"
"238023","601-UM","2018/10/26 18:29:16","新北市樹林區三福街114號","121.406426666667","25.016275","6500700","樹林區"
"238019","599-UM","2018/10/26 18:29:15","新北市樹林區中華路190號","121.411911666667","24.9805933333333","6500700","樹林區"
"238018","571-TV","2018/10/26 18:29:28","新北市樹林區樹新路88號","121.429415","24.9974933333333","6500700","樹林區"
"238024","5061-A6","2018/10/26 18:29:23","新北市樹林區中山路一段145號","121.422248333333","24.9895066666667","6500700","樹林區"
"238025","303-VK","2018/10/26 18:29:16","新北市樹林區大安路553號","121.412266666667","24.9839916666667","6500700","樹林區"
"238017","283-BY","2018/10/26 18:29:14","新北市樹林區保安街二段211號","121.413278333333","25.0040133333333","6500700","樹林區"
"238014","282-BY","2018/10/26 18:29:19","新北市樹林區大安路111巷25號","121.42318","24.9976133333333","6500700","樹林區"
"238020","268-VK","2018/10/26 18:29:23","新北市樹林區中正路668號","121.409583333333","25.0168683333333","6500700","樹林區"
"238026","172-UY","2018/10/26 18:29:22","新北市樹林區佳園路一段75巷14弄10號","121.395158333333","24.9699833333333","6500700","樹林區"
"238016","169-UY","2018/10/26 18:29:07","新北市樹林區文化街17號","121.419538333333","24.9873983333333","6500700","樹林區"
"239007","AAC-297","2018/10/26 18:29:19","新北市鶯歌區中正一路478號","121.365775","24.9568033333333","6500800","鶯歌區"
"239006","891-R6","2018/10/26 18:29:06","新北市鶯歌區鶯桃路296巷53號","121.335843333333","24.9613166666667","6500800","鶯歌區"
"239008","527-UM","2018/10/26 18:29:12","新北市鶯歌區國際一路179號","121.336213333333","24.976455","6500800","鶯歌區"
"239005","526-UM","2018/10/26 18:29:27","新北市鶯歌區鳳吉二街150號","121.328706666667","24.975055","6500800","鶯歌區"
"239001","417-VK","2018/10/26 18:29:04","新北市鶯歌區光照街21號","121.337565","24.9399783333333","6500800","鶯歌區"
"239003","360-BY","2018/10/26 18:29:24","新北市鶯歌區永和街116號","121.334525","24.96911","6500800","鶯歌區"
"239002","359-BY","2018/10/26 18:29:16","新北市鶯歌區中正一路阿四巷7-1號","121.368801666667","24.9576016666667","6500800","鶯歌區"
"239004","193-VK","2018/10/26 18:29:10","新北市鶯歌區中正三路247巷67弄8號","121.33416","24.9363816666667","6500800","鶯歌區"
"221008","489-VK","2018/10/26 18:29:16","新北市汐止區康寧街901號","121.651408333333","25.0749716666667","6501100","汐止區"
"221036","130-UY","2018/10/26 18:29:10","新北市汐止區南昌街27號","121.663195","25.06925","6501100","汐止區"
"221015","131-UY","2018/10/26 18:29:13","新北市汐止區鄉友街48號","121.669141666667","25.0817416666667","6501100","汐止區"
"221010","269-BY","2018/10/26 18:29:17","新北市汐止區汐萬路三段233號","121.643758333333","25.1049183333333","6501100","汐止區"
"221012","278-VK","2018/10/26 18:29:17","新北市汐止區保長路51巷20號","121.674551666667","25.0789416666667","6501100","汐止區"
"221023","279-VK","2018/10/26 18:29:16","新北市汐止區康寧街474巷9號","121.63217","25.0678983333333","6501100","汐止區"
"221032","280-BY","2018/10/26 18:29:22","新北市汐止區民權街二段125號","121.61823","25.0459233333333","6501100","汐止區"
"221027","281-BY","2018/10/26 18:29:10","新北市汐止區和平街84號","121.661403333333","25.0708066666667","6501100","汐止區"
"221029","298-VK","2018/10/26 18:29:25","新北市汐止區樟樹一路272-7號","121.642771666667","25.0690316666667","6501100","汐止區"
"221021","299-VK","2018/10/26 18:29:25","新北市汐止區復興路53巷1號","121.656821666667","25.0627316666667","6501100","汐止區"
"221031","353-TW","2018/10/26 18:29:25","新北市汐止區大同路一段405-1號","121.641496666667","25.0602166666667","6501100","汐止區"
"221035","622-UM","2018/10/26 18:29:17","新北市汐止區大同路二段169巷32號","121.650816666667","25.0650033333333","6501100","汐止區"
"221025","623-UM","2018/10/26 18:29:25","新北市汐止區仁愛路122巷18號","121.66351","25.0631766666667","6501100","汐止區"
"221038","646-BX","2018/10/26 18:29:28","新北市汐止區汐萬路一段115巷1號","121.654338333333","25.0706383333333","6501100","汐止區"
"221033","647-BX","2018/10/26 18:29:12","台北市南港區舊莊街一段199巷16弄10號","121.623653333333","25.0390333333333","6501100","汐止區"
"221002","707-TV","2018/10/26 18:29:22","新北市汐止區福德一路152號","121.63655","25.0667316666667","6501100","汐止區"
"221018","753-BX","2018/10/26 18:29:18","新北市汐止區茄苳路224巷3弄18號","121.671096666667","25.06808","6501100","汐止區"
"220080","200-UY","2018/10/26 18:29:19","新北市板橋區大觀路二段153巷39號","121.447115","25.0003066666667","6500100","板橋區"
"220082","610-BX","2018/10/26 18:29:28","新北市板橋區華東街1-9號","121.44823","24.9948966666667","6500100","板橋區"
"220056","276-BY","2018/10/26 18:29:19","新北市板橋區華東街1-9號","121.448161666667","24.9949216666667","6500100","板橋區"
"220077","282-UM","2018/10/26 18:29:16","新北市板橋區華東街1-9號","121.448246666667","24.9948683333333","6500100","板橋區"
"220071","283-VK","2018/10/26 18:29:09","新北市板橋區華東街1-9號","121.448046666667","24.9949466666667","6500100","板橋區"
"220083","286-VK","2018/10/26 18:29:17","新北市板橋區華東街1-10號","121.448325","24.99507","6500100","板橋區"
"220081","287-VK","2018/10/26 18:29:13","新北市板橋區華東街1-10號","121.448258333333","24.9949916666667","6500100","板橋區"
"220084","296-UM","2018/10/26 18:29:07","新北市板橋區華東街1-10號","121.448661666667","24.99501","6500100","板橋區"
"220075","303-R5","2018/10/26 18:29:19","新北市板橋區華東街1-10號","121.44824","24.9949633333333","6500100","板橋區"
"220064","486-VK","2018/10/26 18:29:15","新北市板橋區大觀路二段77號","121.446436666667","25.00208","6500100","板橋區"
"220035","560-BX","2018/10/26 18:29:18","新北市板橋區南雅南路二段11-5號","121.453998333333","25.0023816666667","6500100","板橋區"
"220077","687-BX","2018/10/26 18:29:27","新北市板橋區華東街1-10號","121.448311666667","24.994975","6500100","板橋區"
"220054","741-BX","2018/10/26 18:29:20","新北市板橋區華東街1-9號","121.448088333333","24.9949216666667","6500100","板橋區"
"220055","827-TW","2018/10/26 18:29:12","新北市板橋區華東街1-9號","121.448195","24.99481","6500100","板橋區"
"220073","985-R7","2018/10/26 18:29:22","新北市板橋區華東街1-10號","121.448298333333","24.994905","6500100","板橋區"
"220070","AAC-253","2018/10/26 18:29:17","新北市板橋區華東街1-9號","121.448216666667","24.9948666666667","6500100","板橋區"
"235068","KEA-2873","2018/10/26 18:29:16","新北市中和區圓通路284號","121.491488333333","24.9906033333333","6500300","中和區"
"235025","KEA-2875","2018/10/26 18:29:16","新北市中和區民治街29巷2弄6號","121.475556666667","25.000645","6500300","中和區"
