"lineid","car","time","location","longitude","latitude","cityid","cityname"
"234046","148-BY","2018/10/26 19:19:20","新北市永和區得和路375號","121.524706666667","24.9994633333333","6500400","永和區"
"234007","207-UY","2018/10/26 19:19:27","新北市永和區中山路一段215-1號","121.50824","25.00812","6500400","永和區"
"234081","298-R6","2018/10/26 19:19:27","新北市永和區福和路41-1號","121.523496666667","25.0080933333333","6500400","永和區"
"234038","336-UY","2018/10/26 19:19:12","新北市永和區民樂街45巷2號","121.527451666667","24.9993016666667","6500400","永和區"
"234064","337-UY","2018/10/26 19:19:13","新北市永和區永元路17巷6弄1號","121.521443333333","25.0007683333333","6500400","永和區"
"234086","338-UY","2018/10/26 19:19:24","新北市永和區永利路2號","121.517368333333","25.005825","6500400","永和區"
"234070","552-UM","2018/10/26 19:19:16","新北市永和區豫溪街55號","121.51715","25.0098833333333","6500400","永和區"
"234017","745-BX","2018/10/26 19:19:25","新北市永和區環河西路一段95巷19弄4號","121.51169","25.017055","6500400","永和區"
"234030","746-BX","2018/10/26 19:19:27","新北市永和區四維街69號","121.525576666667","24.9979916666667","6500400","永和區"
"234054","KEA-2590","2018/10/26 19:19:16","新北市永和區中興街18號","121.515996666667","25.01185","6500400","永和區"
"234013","KEA-2591","2018/10/26 19:19:21","新北市永和區信義路57-1號","121.512798333333","25.0126616666667","6500400","永和區"
"234061","AAD-866","2018/10/26 19:19:11","新北市永和區秀朗路一段175號","121.517003333333","25.0036616666667","6500400","永和區"
"234042","862-TW","2018/10/26 19:19:12","新北市永和區保平路151巷17號","121.51064","25.00509","6500400","永和區"
"234050","863-TW","2018/10/26 19:19:17","新北市永和區保福路二段88巷28號","121.511985","25.0136283333333","6500400","永和區"
"234026","9371-KE","2018/10/26 19:19:25","新北市永和區安樂路144巷25號","121.514986666667","24.9998983333333","6500400","永和區"
"234011","9373-KE","2018/10/26 19:19:19","新北市永和區保福路二段23巷19號","121.510106666667","25.0111033333333","6500400","永和區"
"249005","172-UM","2018/10/26 19:19:12","新北市八里區中華路三段165-3號","121.392338333333","25.1304216666667","6502300","八里區"
"249001","173-UM","2018/10/26 19:19:17","新北市八里區中山路二段6號","121.410115","25.1572466666667","6502300","八里區"
"249003","593-UM","2018/10/26 19:19:28","新北市八里區中山路二段466巷8號","121.398808333333","25.1474733333333","6502300","八里區"
"248016","026-BX","2018/10/26 19:19:23","新北市五股區成洲五路12號","121.452311666667","25.1015666666667","6501500","五股區"
"248008","095-VK","2018/10/26 19:19:29","新北市五股區中興路二段83巷26-6號","121.460133333333","25.0752466666667","6501500","五股區"
"248018","225-UY","2018/10/26 19:19:19","新北市五股區民義路二段16號","121.420771666667","25.09649","6501500","五股區"
"248012","247-BX","2018/10/26 19:19:22","新北市五股區中興路四段48巷16號","121.438591666667","25.083435","6501500","五股區"
"248010","272-BY","2018/10/26 19:19:14","新北市五股區水碓一路23號","121.43072","25.0713783333333","6501500","五股區"
"248004","677-BX","2018/10/26 19:19:28","新北市五股區五福路69號","121.432665","25.0901583333333","6501500","五股區"
"248002","678-BX","2018/10/26 19:19:15","新北市五股區凌雲路一段158巷14-1號","121.447866666667","25.1034383333333","6501500","五股區"
"234023","9380-KE","2018/10/26 19:19:05","新北市永和區竹林路91巷12號","121.520136666667","25.0122416666667","6500400","永和區"
"234077","969-R7","2018/10/26 19:19:24","新北市永和區民族街44號","121.51837","24.9987933333333","6500400","永和區"
"234074","AAC-211","2018/10/26 19:19:24","新北市永和區竹林路90號","121.51952","25.0122916666667","6500400","永和區"
"234067","AAC-212","2018/10/26 19:19:23","新北市永和區保平路59號","121.51161","25.007","6500400","永和區"
"234003","AAC-295","2018/10/26 19:19:31","新北市永和區中山路一段117巷2號","121.51093","25.0103","6500400","永和區"
"244023","069-UM","2018/10/26 19:19:14","新北市林口區文化三路一段617巷16號","121.371101666667","25.0775166666667","6501700","林口區"
"244019","403-UM","2018/10/26 19:19:16","新北市林口區中山路598號","121.375503333333","25.0860183333333","6501700","林口區"
"244013","KEA-2802","2018/10/26 19:19:29","新北市林口區四維路102號","121.376603333333","25.0786866666667","6501700","林口區"
"244017","485-VK","2018/10/26 19:19:22","新北市林口區文林六街18號","121.370891666667","25.08037","6501700","林口區"
"244011","701-TV","2018/10/26 19:19:26","新北市林口區中正路264巷12號","121.388653333333","25.078345","6501700","林口區"
"244025","837-TS","2018/10/26 19:19:21","新北市林口區文化三路一段555巷50號","121.369873333333","25.0769233333333","6501700","林口區"
"243013","AAD-798","2018/10/26 19:19:27","新北市泰山區明志路三段145巷2弄8號","121.425198333333","25.0397233333333","6501600","泰山區"
"243009","297-R6","2018/10/26 19:19:16","新北市泰山區明志路一段19巷14號","121.434438333333","25.0656","6501600","泰山區"
"243016","KEA-2801","2018/10/26 19:19:20","新北市泰山區明志路三段159號","121.424756666667","25.0396866666667","6501600","泰山區"
"243015","421-VK","2018/10/26 19:19:23","新北市泰山區公園路6號","121.42985","25.054035","6501600","泰山區"
"243011","KEA-2215","2018/10/26 19:19:16","新北市泰山區貴子路15巷4弄2號","121.42657","25.0421766666667","6501600","泰山區"
"243010","KEA-2216","2018/10/26 19:19:22","新北市泰山區明志路二段32巷1號","121.429241666667","25.0534283333333","6501600","泰山區"
"243012","646-TV","2018/10/26 19:19:28","新北市泰山區仁武街139巷11號","121.43254","25.0540083333333","6501600","泰山區"
"243014","680-BX","2018/10/26 19:19:29","新北市泰山區泰林路二段154號","121.434033333333","25.0601333333333","6501600","泰山區"
"222003","436-BY","2018/10/26 19:19:19","新北市深坑區深南路204號","121.626581666667","25.0160133333333","6501800","深坑區"
"222002","659-BX","2018/10/26 19:19:30","新北市深坑區北深路一段177號","121.632563333333","25.01089","6501800","深坑區"
"231041","001-UM","2018/10/26 19:19:29","新北市新店區溪園路247號","121.52566","24.9835533333333","6500600","新店區"
"231059","046-UY","2018/10/26 19:19:15","新北市新店區安和路二段156號","121.519815","24.9733183333333","6500600","新店區"
"231040","047-UY","2018/10/26 19:19:25","新北市新店區中華路147號","121.538093333333","24.9704416666667","6500600","新店區"
"231046","107-UY","2018/10/26 19:19:09","新北市新店區華城路5-3號","121.529376666667","24.9582983333333","6500600","新店區"
"231053","108-UY","2018/10/26 19:19:10","新北市新店區新烏路二段200巷11號","121.547711666667","24.9165583333333","6500600","新店區"
"231048","187-VK","2018/10/26 19:19:25","新北市新店區中興路二段57巷23號","121.545488333333","24.97094","6500600","新店區"
"231054","KEA-2219","2018/10/26 19:19:09","新北市新店區國校路44號","121.538205","24.954215","6500600","新店區"
"231042","268-BY","2018/10/26 19:19:20","新北市新店區中興路一段115號","121.541415","24.9628033333333","6500600","新店區"
"231051","278-BY","2018/10/26 19:19:23","新北市新店區中央路133巷4號","121.530535","24.9737033333333","6500600","新店區"
"231050","AAD-862","2018/10/26 19:19:12","新北市新店區竹林路28號","121.552138333333","24.95135","6500600","新店區"
"231058","3713-VJ","2018/10/26 19:19:25","新北市新店區光明街286巷4號","121.540625","24.9638133333333","6500600","新店區"
"231066","4716-K9","2018/10/26 19:19:05","新北市新店區安康路三段177號","121.488453333333","24.9517683333333","6500600","新店區"
"231056","4715-K9","2018/10/26 19:19:19","新北市新店區安康路二段414巷2號","121.4959","24.9577966666667","6500600","新店區"
"231065","512-UM","2018/10/26 19:19:18","新北市新店區安祥路128號","121.47443","24.9562966666667","6500600","新店區"
"231049","513-UM","2018/10/26 19:19:19","新北市新店區明德路72號","121.541335","24.979775","6500600","新店區"
"231045","617-UM","2018/10/26 19:19:29","新北市新店區北宜路一段260號","121.545661666667","24.9527316666667","6500600","新店區"
"231044","618-UM","2018/10/26 19:19:24","新北市新店區寶慶街71號","121.541856666667","24.9864866666667","6500600","新店區"
"231061","619-UM","2018/10/26 19:19:23","新北市新店區安康路一段20號","121.53101","24.96104","6500600","新店區"
"231063","641-BX","2018/10/26 19:19:25","新北市新店區達觀路14巷3號","121.50324","24.9418266666667","6500600","新店區"
"231064","719-UM","2018/10/26 19:19:20","新北市新店區安忠路57巷26弄3號","121.513103333333","24.9587366666667","6500600","新店區"
"231062","720-UM","2018/10/26 19:19:14","新北市新店區莒光路85巷16號","121.523738333333","24.9558016666667","6500600","新店區"
"231060","897-TW","2018/10/26 19:19:23","新北市新店區安康路二段130號","121.512681666667","24.962335","6500600","新店區"
"231043","899-TW","2018/10/26 19:19:17","新北市新店區北新路二段107號","121.542963333333","24.9744116666667","6500600","新店區"
"241022","060-VK","2018/10/26 19:19:25","新北市三重區重陽路二段50號","121.487165","25.0634033333333","6500200","三重區"
"241031","061-VK","2018/10/26 19:19:24","新北市三重區重新路一段206-1號","121.485941666667","25.0547416666667","6500200","三重區"
"241017","063-VK","2018/10/26 19:19:22","新北市三重區大同北路217號","121.491563333333","25.0659733333333","6500200","三重區"
"241026","066-VK","2018/10/26 19:19:28","新北市三重區光興街61號","121.498751666667","25.0603316666667","6500200","三重區"
"241009","267-UM","2018/10/26 19:19:16","新北市三重區溪尾街230巷44號","121.486043333333","25.0810916666667","6500200","三重區"
"241032","269-UM","2018/10/26 19:19:25","新北市三重區新生街96號","121.483466666667","25.0593633333333","6500200","三重區"
"241025","271-UM","2018/10/26 19:19:21","新北市三重區中正北路404號","121.475378333333","25.0704083333333","6500200","三重區"
"241035","462-BY","2018/10/26 19:19:15","新北市三重區信義西街138號","121.495443333333","25.064405","6500200","三重區"
"241020","478-VK","2018/10/26 19:19:13","新北市三重區大智街181號","121.489678333333","25.072775","6500200","三重區"
"241030","480-VK","2018/10/26 19:19:16","新北市三重區新興路42號","121.49142","25.0533116666667","6500200","三重區"
"241006","AAD-863","2018/10/26 19:19:18","新北市三重區車路頭街164號","121.483771666667","25.076705","6500200","三重區"
"241029","942-UM","2018/10/26 19:19:16","新北市三重區重安街66號","121.491256666667","25.057145","6500200","三重區"
"235066","003-UY","2018/10/26 19:19:24","新北市中和區中和路163號","121.502885","24.9999","6500300","中和區"
"235064","005-UY","2018/10/26 19:19:23","新北市中和區南山路81巷19號","121.50249","24.9980566666667","6500300","中和區"
"235063","006-UY","2018/10/26 19:19:21","新北市中和區連城路249巷26弄4號","121.494448333333","24.99554","6500300","中和區"
"235056","096-UM","2018/10/26 19:19:22","新北市中和區中山路二段555號","121.480908333333","25.0056166666667","6500300","中和區"
"235039","097-UM","2018/10/26 19:19:18","新北市中和區秀峰街119巷2弄1號","121.51989","24.9904033333333","6500300","中和區"
"235065","098-UM","2018/10/26 19:19:16","新北市中和區中山路二段64巷14弄26號","121.5039","25.0061666666667","6500300","中和區"
"235040","150-BY","2018/10/26 19:19:28","新北市中和區保健路50巷47號","121.509751666667","24.9958533333333","6500300","中和區"
"235058","151-BY","2018/10/26 19:19:09","新北市中和區員山路36巷16-2號","121.48528","24.9916066666667","6500300","中和區"
"235055","183-VK","2018/10/26 19:19:22","新北市中和區莒光路2號","121.47187","25.0047316666667","6500300","中和區"
"235038","185-VK","2018/10/26 19:19:23","新北市中和區大仁街10巷50號","121.520306666667","24.9926216666667","6500300","中和區"
"235049","186-VK","2018/10/26 19:19:13","新北市中和區景新街237號","121.508173333333","24.99452","6500300","中和區"
"235067","255-BX","2018/10/26 19:19:19","新北市中和區中正路717號","121.485145","24.9986383333333","6500300","中和區"
"235044","293-VK","2018/10/26 19:19:14","新北市中和區中興街263-1號","121.500056666667","24.9887516666667","6500300","中和區"
"235072","301-VK","2018/10/26 19:19:20","新北市中和區連城路263號","121.491735","24.9964516666667","6500300","中和區"
"235043","352-BY","2018/10/26 19:19:23","新北市中和區景平路428號","121.50733","24.993285","6500300","中和區"
"235050","4979-A6","2018/10/26 19:19:25","新北市中和區景安路208巷6號","121.503625","24.9911316666667","6500300","中和區"
"235069","4980-A6","2018/10/26 19:19:20","新北市中和區福祥路79號","121.499148333333","25.0055916666667","6500300","中和區"
"235042","551-UM","2018/10/26 19:19:26","新北市中和區中安街222號","121.512158333333","24.9987983333333","6500300","中和區"
"235070","558-UM","2018/10/26 19:19:23","新北市中和區中山路二段228號","121.498901666667","25.0026916666667","6500300","中和區"
"235045","565-BX","2018/10/26 19:19:12","新北市中和區景新街383巷28號","121.513523333333","24.9905783333333","6500300","中和區"
"235054","640-BX","2018/10/26 19:19:24","新北市中和區國光街109巷7號","121.469841666667","25.0000616666667","6500300","中和區"
"235060","647-TV","2018/10/26 19:19:11","新北市中和區員山路395號","121.481151666667","25.003075","6500300","中和區"
"235047","732-UM","2018/10/26 19:19:14","新北市中和區景平路239巷65號","121.508465","24.9921366666667","6500300","中和區"
"235046","733-UM","2018/10/26 19:19:19","新北市中和區忠孝街2巷13弄2號","121.510401666667","24.981895","6500300","中和區"
"235071","783-BX","2018/10/26 19:19:13","新北市中和區中正路637巷48號","121.485536666667","24.9942216666667","6500300","中和區"
"235062","800-TS","2018/10/26 19:19:19","新北市板橋區民治街71巷60弄1號","121.481595","25.0341316666667","6500300","中和區"
"235057","801-TS","2018/10/26 19:19:26","新北市中和區員山路423巷16號","121.480366666667","25.00271","6500300","中和區"
"235041","802-TS","2018/10/26 19:19:23","新北市中和區中和路298號","121.508688333333","24.9997733333333","6500300","中和區"
"235052","805-TS","2018/10/26 19:19:14","新北市中和區興南路二段128巷1弄3號","121.50389","24.9835933333333","6500300","中和區"
"235048","896-TW","2018/10/26 19:19:13","新北市中和區忠孝街104號","121.512093333333","24.9847933333333","6500300","中和區"
"235053","900-TW","2018/10/26 19:19:20","新北市中和區華安街32巷3-3號","121.467346666667","24.997475","6500300","中和區"
"235051","157-BY","2018/10/26 19:19:16","新北市中和區景平路239巷3號","121.509978333333","24.99261","6500300","中和區"
"235037","AAC-213","2018/10/26 19:19:16","新北市中和區秀朗路三段50巷12弄8號","121.524055","24.995375","6500300","中和區"
"235059","AAC-215","2018/10/26 19:19:22","新北市中和區錦和路195巷8號","121.491135","24.9908283333333","6500300","中和區"
"220065","072-UY","2018/10/26 19:19:19","新北市板橋區民族路170號","121.46744","25.0076566666667","6500100","板橋區"
"220086","073-UY","2018/10/26 19:19:22","新北市板橋區中正路216巷23號","121.456718333333","25.018695","6500100","板橋區"
"220106","075-UY","2018/10/26 19:19:15","新北市板橋區長江路二段280-1號","121.469953333333","25.032875","6500100","板橋區"
"220069","AAD-861","2018/10/26 19:19:20","新北市板橋區華興街31巷16號","121.458355","25.003925","6500100","板橋區"
"226004","205-ST","2018/10/26 19:19:21","新北市平溪區靜安路三段180號","121.775063333333","25.0386166666667","6502400","平溪區"
"228003","097-TW","2018/10/26 19:19:30","新北市貢寮區和美里和美街22-1號","121.912793333333","25.0826283333333","6502600","貢寮區"
"228002","663-BX","2018/10/26 19:19:27","新北市貢寮區龍門里復興街14號","121.92653","25.0259533333333","6502600","貢寮區"
"228001","670-TC","2018/10/26 19:19:31","新北市貢寮區真理里新港街10號","121.925533333333","25.054355","6502600","貢寮區"
"224010","AGQ-8101","2018/10/26 19:19:12","新北市瑞芳區基山街53號","121.845355","25.1087016666667","6501200","瑞芳區"
"224008","285-BY","2018/10/26 19:19:25","新北市瑞芳區一坑路173-4號","121.801316666667","25.1080983333333","6501200","瑞芳區"
"227003","642-TC","2018/10/26 19:19:23","新北市雙溪區平林里梅竹蹊66-1號","121.860158333333","25.0358066666667","6502500","雙溪區"
"227011","400-TW","2018/10/26 19:19:17","新北市雙溪區新基里新基北街40號","121.868546666667","25.0380316666667","6502500","雙溪區"
"253006","032-BX","2018/10/26 19:19:24","新北市石門區崁子腳25-2號","121.535078333333","25.29082","6502200","石門區"
"253005","295-VK","2018/10/26 19:19:13","新北市石門區阿里荖4-7號","121.612535","25.2790933333333","6502200","石門區"
"222001","KEA-2212","2018/10/26 19:19:20","新北市深坑區北深路二段103號","121.61753","25.0034516666667","6501800","深坑區"
"208002","KEA-2872","2018/10/26 19:19:29","新北市金山區中華路144號","121.633016666667","25.2211766666667","6502700","金山區"
"208003","665-BX","2018/10/26 19:19:16","新北市金山區忠孝一路76號","121.637093333333","25.2208033333333","6502700","金山區"
"208001","761-BX","2018/10/26 19:19:17","新北市金山區民生路69號","121.640201666667","25.2198116666667","6502700","金山區"
"251005","010-UM","2018/10/26 19:19:27","新北市淡水區水源街一段29號","121.443211666667","25.1724033333333","6501000","淡水區"
"251008","181-VK","2018/10/26 19:19:18","新北市淡水區中正路二段31號","121.419273333333","25.1816583333333","6501000","淡水區"
"251010","413-VK","2018/10/26 19:19:17","新北市淡水區沙崙路30號","121.421528333333","25.1814466666667","6501000","淡水區"
"251001","559-UM","2018/10/26 19:19:22","新北市淡水區自強路201巷39號","121.46213","25.1268166666667","6501000","淡水區"
"251006","561-UM","2018/10/26 19:19:08","新北市淡水區大信街33號","121.442031666667","25.17733","6501000","淡水區"
"251009","575-R6","2018/10/26 19:19:21","新北市淡水區中正路28號","121.444305","25.1691066666667","6501000","淡水區"
"251007","577-R6","2018/10/26 19:19:22","新北市淡水區民生路182號","121.465365","25.1387533333333","6501000","淡水區"
"251003","673-BX","2018/10/26 19:19:18","新北市淡水區中山北路一段168號","121.444466666667","25.17879","6501000","淡水區"
"207003","550-UM","2018/10/26 19:19:17","新北市萬里區大鵬里萬里加投79-3號","121.647335","25.2123633333333","6502800","萬里區"
"207004","225-TW","2018/10/26 19:19:22","新北市萬里區萬里里成功新村44號","121.687731666667","25.17462","6502800","萬里區"
"252002","178-VK","2018/10/26 19:19:25","新北市三芝區淡金路二段18-1號","121.502695","25.2595266666667","6502100","三芝區"
"252001","292-VK","2018/10/26 19:19:18","新北市三芝區長勤街9巷16號","121.501671666667","25.2552383333333","6502100","三芝區"
"237004","KEA-2597","2018/10/26 19:19:27","新北市三峽區有木205-1號","121.439065","24.8514483333333","6500900","三峽區"
"237007","153-BY","2018/10/26 19:19:22","新北市三峽區二鬮路150號","121.359713333333","24.9075366666667","6500900","三峽區"
"237009","210-TH","2018/10/26 19:19:29","新北市三峽區民生街247號","121.370793333333","24.93487","6500900","三峽區"
"237013","252-BX","2018/10/26 19:19:26","新北市三峽區大同路39巷45號","121.378366666667","24.9275233333333","6500900","三峽區"
"237012","275-BY","2018/10/26 19:19:27","新北市三峽區三樹路222巷131號","121.385606666667","24.942845","6500900","三峽區"
"237008","302-VK","2018/10/26 19:19:23","新北市三峽區中正路一段177號","121.372648333333","24.92813","6500900","三峽區"
"237014","433-BY","2018/10/26 19:19:24","新北市三峽區中山路274號","121.361428333333","24.93777","6500900","三峽區"
"237006","5529-G3","2018/10/26 19:19:14","新北市三峽區大同路137號","121.37175","24.9267433333333","6500900","三峽區"
"237011","KEA-2596","2018/10/26 19:19:24","新北市三峽區介壽路三段107號","121.395468333333","24.9393","6500900","三峽區"
"237015","649-BX","2018/10/26 19:19:20","新北市三峽區建安25-3號","121.445366666667","24.9273283333333","6500900","三峽區"
"237010","706-TV","2018/10/26 19:19:24","新北市三峽區復興路36-8號","121.3739","24.9366966666667","6500900","三峽區"
"236069","105-UM","2018/10/26 19:19:16","新北市土城區學成路76巷1號","121.45119","24.9883366666667","6501300","土城區"
"236079","166-UM","2018/10/26 19:19:11","新北市土城區中州路3巷31弄1號","121.413886666667","24.9567316666667","6501300","土城區"
"236026","269-VK","2018/10/26 19:19:25","新北市土城區中央路二段61巷26號","121.443283333333","24.9786883333333","6501300","土城區"
"236014","270-VK","2018/10/26 19:19:26","新北市土城區學府路一段23巷6號","121.458288333333","24.987625","6501300","土城區"
"236020","401-BY","2018/10/26 19:19:17","新北市土城區峰廷街8號","121.468611666667","24.9877516666667","6501300","土城區"
"236042","752-BX","2018/10/26 19:19:27","新北市土城區學府路一段239號","121.4504","24.9833816666667","6501300","土城區"
"236059","912-UM","2018/10/26 19:19:26","新北市土城區中央路二段219-6號","121.440916666667","24.973855","6501300","土城區"
"236048","913-UM","2018/10/26 19:19:10","新北市土城區明德路一段365-1號","121.453636666667","24.9791","6501300","土城區"
"236063","915-UM","2018/10/26 19:19:16","新北市土城區金城路三段202-3號","121.469476666667","24.9885266666667","6501300","土城區"
"242013","173-VK","2018/10/26 19:19:16","新北市新莊區新泰路255巷83號","121.44205","25.03887","6500500","新莊區"
"242007","176-VK","2018/10/26 19:19:22","新北市新莊區三和路12-21號","121.441973333333","25.0386983333333","6500500","新莊區"
"238015","755-BX","2018/10/26 19:19:10","新北市樹林區備內街99-3號","121.40752","24.98932","6500700","樹林區"
"238023","601-UM","2018/10/26 19:19:16","新北市樹林區三福街4-1號","121.408868333333","25.01682","6500700","樹林區"
"238019","599-UM","2018/10/26 19:19:14","新北市樹林區鎮前街347巷1弄22號","121.417161666667","24.9839416666667","6500700","樹林區"
"238018","571-TV","2018/10/26 19:19:09","新北市樹林區太元街2巷9號","121.417085","24.9808216666667","6500700","樹林區"
"238024","5061-A6","2018/10/26 19:19:23","新北市樹林區福德街48號","121.399198333333","24.9750066666667","6500700","樹林區"
"238022","KEA-2213","2018/10/26 19:19:24","新北市樹林區中山路二段121號","121.408493333333","24.980055","6500700","樹林區"
"238021","KEA-2539","2018/10/26 19:19:16","新北市樹林區學府路208號","121.377481666667","24.9502216666667","6500700","樹林區"
"238025","303-VK","2018/10/26 19:19:16","新北市樹林區中山路二段121-6號","121.408","24.97974","6500700","樹林區"
"238017","283-BY","2018/10/26 19:19:11","新北市樹林區光興街276號","121.40681","25.0052533333333","6500700","樹林區"
"238014","282-BY","2018/10/26 19:19:19","新北市樹林區千歲街35號","121.425113333333","24.99586","6500700","樹林區"
"238020","268-VK","2018/10/26 19:19:23","新北市樹林區俊英街111巷1-4號","121.424365","25.009605","6500700","樹林區"
"238026","172-UY","2018/10/26 19:19:22","新北市樹林區西圳街一段118巷16號","121.394241666667","24.9662666666667","6500700","樹林區"
"238016","169-UY","2018/10/26 19:19:27","新北市樹林區中山路二段34-2號","121.416991666667","24.98537","6500700","樹林區"
"239007","AAC-297","2018/10/26 19:19:19","新北市鶯歌區大湖路340號","121.346163333333","24.9712283333333","6500800","鶯歌區"
"239006","891-R6","2018/10/26 19:19:26","新北市鶯歌區鶯桃路91巷31弄2衖3號","121.337813333333","24.9519316666667","6500800","鶯歌區"
"239005","526-UM","2018/10/26 19:19:07","新北市鶯歌區中湖街315巷31號","121.345576666667","24.9774133333333","6500800","鶯歌區"
"239001","417-VK","2018/10/26 19:19:24","新北市鶯歌區建國路371號","121.338995","24.9497","6500800","鶯歌區"
"239003","360-BY","2018/10/26 19:19:24","新北市鶯歌區中正一路460號","121.364718333333","24.9564466666667","6500800","鶯歌區"
"239002","359-BY","2018/10/26 19:19:16","新北市鶯歌區大湖路185巷2號","121.344365","24.9695883333333","6500800","鶯歌區"
"221008","489-VK","2018/10/26 19:19:16","新北市汐止區康寧街310號","121.626683333333","25.06725","6501100","汐止區"
"221036","130-UY","2018/10/26 19:19:29","新北市汐止區康寧街901號","121.651481666667","25.0749716666667","6501100","汐止區"
"221015","131-UY","2018/10/26 19:19:12","新北市汐止區康寧街901號","121.650981666667","25.07519","6501100","汐止區"
"221010","269-BY","2018/10/26 19:19:17","新北市汐止區康寧街901號","121.651465","25.0749916666667","6501100","汐止區"
"221012","278-VK","2018/10/26 19:19:17","新北市汐止區汐萬路一段160號","121.652605","25.0716116666667","6501100","汐止區"
"221023","279-VK","2018/10/26 19:19:16","新北市汐止區康寧街901號","121.65172","25.074925","6501100","汐止區"
"221027","281-BY","2018/10/26 19:19:10","新北市汐止區汐萬路一段312號","121.650561666667","25.0753583333333","6501100","汐止區"
"221021","299-VK","2018/10/26 19:19:25","新北市汐止區康寧街901號","121.651506666667","25.0750316666667","6501100","汐止區"
"221031","353-TW","2018/10/26 19:19:25","新北市汐止區康寧街901號","121.65086","25.075255","6501100","汐止區"
"221035","622-UM","2018/10/26 19:19:17","新北市汐止區康寧街901號","121.651091666667","25.0751616666667","6501100","汐止區"
"221025","623-UM","2018/10/26 19:19:25","新北市汐止區康寧街901號","121.651601666667","25.0749833333333","6501100","汐止區"
"221038","646-BX","2018/10/26 19:19:28","新北市汐止區汐萬路一段312號","121.650688333333","25.075275","6501100","汐止區"
"221002","707-TV","2018/10/26 19:19:18","新北市汐止區大同路一段343號","121.6387","25.0594866666667","6501100","汐止區"
"221018","753-BX","2018/10/26 19:19:18","新北市汐止區康寧街901號","121.650858333333","25.0752216666667","6501100","汐止區"
"220079","145-BY","2018/10/26 19:19:22","新北市板橋區民權路202巷17弄28號","121.459603333333","25.0164933333333","6500100","板橋區"
"220082","610-BX","2018/10/26 19:19:29","新北市板橋區金門街297號","121.430221666667","24.9866033333333","6500100","板橋區"
"220056","276-BY","2018/10/26 19:19:24","新北市板橋區信義路152號","121.459171666667","24.9916333333333","6500100","板橋區"
"220072","277-BY","2018/10/26 19:19:07","新北市板橋區篤行路二段161巷19號","121.430118333333","24.9874016666667","6500100","板橋區"
"220101","280-UM","2018/10/26 19:19:24","新北市板橋區莊敬路25巷4弄14號","121.473753333333","25.027135","6500100","板橋區"
"220057","282-UM","2018/10/26 19:19:16","新北市板橋區和平路178號","121.463431666667","24.9954266666667","6500100","板橋區"
"220094","283-UM","2018/10/26 19:19:20","新北市板橋區吳鳳路81巷1號","121.466885","25.0312983333333","6500100","板橋區"
"220071","283-VK","2018/10/26 19:19:29","新北市板橋區仁愛路73巷8號","121.461085","25.00014","6500100","板橋區"
"220053","285-VK","2018/10/26 19:19:17","新北市板橋區富山街40號","121.477825","25.0218433333333","6500100","板橋區"
"220083","286-VK","2018/10/26 19:19:16","新北市板橋區大觀路二段174巷186弄14號","121.442855","25.0034233333333","6500100","板橋區"
"220081","287-VK","2018/10/26 19:19:24","新北市板橋區南雅西路一段122號","121.452701666667","25.00668","6500100","板橋區"
"220090","288-VK","2018/10/26 19:19:23","新北市板橋區長江路一段106巷13弄20號","121.460815","25.02947","6500100","板橋區"
"220061","293-UM","2018/10/26 19:19:13","新北市板橋區中山路二段318巷18號","121.48042","25.0188166666667","6500100","板橋區"
"220062","295-UM","2018/10/26 19:19:18","新北市板橋區三民路二段153巷30弄35號","121.481165","25.014645","6500100","板橋區"
"220084","296-UM","2018/10/26 19:19:26","新北市板橋區滿平街108號","121.428383333333","24.9885816666667","6500100","板橋區"
"220075","303-R5","2018/10/26 19:19:19","新北市板橋區僑中一街124巷70-5號","121.449753333333","25.01677","6500100","板橋區"
"220092","307-R5","2018/10/26 19:19:16","新北市板橋區文化路二段225巷60弄61號","121.46903","25.029815","6500100","板橋區"
"220098","317-R6","2018/10/26 19:19:21","新北市板橋區民有街89巷7號","121.46447","25.0274516666667","6500100","板橋區"
"220064","486-VK","2018/10/26 19:19:20","新北市板橋區板新路238號","121.468258333333","25.01606","6500100","板橋區"
"220089","487-VK","2018/10/26 19:19:22","新北市板橋區文化路一段413號","121.467603333333","25.022285","6500100","板橋區"
"220088","491-VK","2018/10/26 19:19:28","新北市板橋區雙十路一段1號","121.478275","25.0239066666667","6500100","板橋區"
"220035","560-BX","2018/10/26 19:19:22","新北市板橋區中正路358號","121.454641666667","25.0237566666667","6500100","板橋區"
"220103","561-BX","2018/10/26 19:19:21","新北市板橋區文化路一段188巷7弄14號","121.467621666667","25.0197033333333","6500100","板橋區"
"220063","609-BX","2018/10/26 19:19:08","新北市板橋區三民路二段136-3號","121.479176666667","25.01616","6500100","板橋區"
"220091","637-BX","2018/10/26 19:19:11","新北市板橋區文聖街159號","121.478898333333","25.027445","6500100","板橋區"
"220077","687-BX","2018/10/26 19:19:26","新北市板橋區僑中二街90巷1號","121.446353333333","25.0090233333333","6500100","板橋區"
"220093","689-BX","2018/10/26 19:19:24","新北市板橋區漢生西路79巷2號","121.46271","25.0193233333333","6500100","板橋區"
"220054","741-BX","2018/10/26 19:19:28","新北市板橋區實踐路116號","121.463963333333","25.0042183333333","6500100","板橋區"
"220102","KEA-2699","2018/10/26 19:19:17","新北市板橋區文聖街121號","121.477913333333","25.02894","6500100","板橋區"
"220055","827-TW","2018/10/26 19:19:16","新北市板橋區館前東路156巷19號","121.46428","25.007015","6500100","板橋區"
"220067","829-TW","2018/10/26 19:19:16","新北市板橋區民生路一段35號","121.475691666667","25.01288","6500100","板橋區"
"220068","830-TW","2018/10/26 19:19:27","新北市板橋區三民路一段1巷54號","121.480725","25.0247333333333","6500100","板橋區"
"220096","831-TW","2018/10/26 19:19:31","新北市板橋區大同街32號","121.478311666667","25.0274016666667","6500100","板橋區"
"220074","895-R6","2018/10/26 19:19:29","新北市板橋區中正路1巷18-1號","121.45511","25.01167","6500100","板橋區"
"220073","985-R7","2018/10/26 19:19:22","新北市板橋區瑞安街58號","121.455385","25.0216283333333","6500100","板橋區"
"220097","AAC-210","2018/10/26 19:19:22","新北市板橋區幸福路60巷41號","121.460493333333","25.02114","6500100","板橋區"
"220070","AAC-253","2018/10/26 19:19:17","新北市板橋區忠孝路142號","121.463778333333","25.0023883333333","6500100","板橋區"
"235068","KEA-2873","2018/10/26 19:19:15","新北市中和區連勝街21號","121.498596666667","24.9980833333333","6500300","中和區"
"235025","KEA-2875","2018/10/26 19:19:16","新北市中和區員山路314巷5-4號","121.482031666667","25.0028216666667","6500300","中和區"
