"lineid","car","time","location","longitude","latitude","cityid","cityname"
"234046","148-BY","2018/10/26 19:29:06","新北市永和區秀朗路二段231號","121.526496666667","25.0002416666667","6500400","永和區"
"234007","207-UY","2018/10/26 19:29:27","新北市永和區永和路一段188號","121.514326666667","25.009145","6500400","永和區"
"234081","298-R6","2018/10/26 19:29:26","新北市永和區環河東路三段52巷8號","121.52631","25.0059466666667","6500400","永和區"
"234038","336-UY","2018/10/26 19:29:12","新北市永和區成功路二段1巷4號","121.52716","25.00143","6500400","永和區"
"234064","337-UY","2018/10/26 19:29:13","新北市永和區中正路368巷1弄75號","121.520416666667","25.0007733333333","6500400","永和區"
"234086","338-UY","2018/10/26 19:29:24","新北市永和區永元路126號","121.522913333333","25.0029516666667","6500400","永和區"
"234070","552-UM","2018/10/26 19:29:16","新北市永和區警光街5-1號","121.519733333333","25.009495","6500400","永和區"
"234017","745-BX","2018/10/26 19:29:25","新北市永和區環河西路一段63號","121.51338","25.0180966666667","6500400","永和區"
"234030","746-BX","2018/10/26 19:29:12","新北市永和區民權路1巷18號","121.521308333333","24.9982666666667","6500400","永和區"
"234054","KEA-2590","2018/10/26 19:29:21","新北市永和區復興街18號","121.515853333333","25.0128816666667","6500400","永和區"
"234013","KEA-2591","2018/10/26 19:29:20","新北市永和區中山路一段138-1號","121.510281666667","25.00984","6500400","永和區"
"234061","AAD-866","2018/10/26 19:29:12","新北市永和區中正路526號","121.517306666667","25.0050416666667","6500400","永和區"
"234042","862-TW","2018/10/26 19:29:12","新北市永和區水源街31號","121.510961666667","25.0044416666667","6500400","永和區"
"234050","863-TW","2018/10/26 19:29:17","新北市永和區信義路90號","121.512516666667","25.013595","6500400","永和區"
"234026","9371-KE","2018/10/26 19:29:22","新北市永和區安樂路30號","121.514526666667","24.9966233333333","6500400","永和區"
"234011","9373-KE","2018/10/26 19:29:18","新北市永和區保福路二段61號","121.510891666667","25.0122316666667","6500400","永和區"
"249003","593-UM","2018/10/26 19:29:27","新北市八里區中山路二段448號","121.399343333333","25.1473066666667","6502300","八里區"
"248014","025-BX","2018/10/26 19:29:25","新北市五股區民義路一段157-22號","121.431055","25.08675","6501500","五股區"
"248016","026-BX","2018/10/26 19:29:23","新北市五股區凌雲路一段39號","121.451866666667","25.1007216666667","6501500","五股區"
"248008","095-VK","2018/10/26 19:29:29","新北市五股區中興路一段95巷15號","121.466616666667","25.07225","6501500","五股區"
"248018","225-UY","2018/10/26 19:23:59","新北市五股區壟路16號","121.415148333333","25.0854283333333","6501500","五股區"
"248012","247-BX","2018/10/26 19:29:22","新北市五股區成泰路二段97號","121.43793","25.08431","6501500","五股區"
"248010","272-BY","2018/10/26 19:29:14","新北市五股區水碓一路23號","121.430621666667","25.0713","6501500","五股區"
"248004","677-BX","2018/10/26 19:29:13","新北市五股區五福路34號","121.433971666667","25.0891466666667","6501500","五股區"
"248002","678-BX","2018/10/26 19:29:15","新北市五股區凌雲路一段158巷14-1號","121.447916666667","25.103465","6501500","五股區"
"234077","969-R7","2018/10/26 19:29:24","新北市永和區民權路56號","121.52002","24.9981966666667","6500400","永和區"
"234074","AAC-211","2018/10/26 19:29:24","新北市永和區環河東路一段122號","121.52057","25.0156366666667","6500400","永和區"
"234067","AAC-212","2018/10/26 19:29:26","新北市永和區永貞路319號","121.509863333333","25.0067066666667","6500400","永和區"
"234003","AAC-295","2018/10/26 19:29:11","新北市永和區福和路385號","121.51432","25.0075866666667","6500400","永和區"
"244023","069-UM","2018/10/26 19:29:14","新北市林口區民有街71-3號","121.372878333333","25.0772383333333","6501700","林口區"
"244019","403-UM","2018/10/26 19:29:16","新北市林口區嘉寶里42號","121.333511666667","25.1223483333333","6501700","林口區"
"244013","KEA-2802","2018/10/26 19:29:09","新北市林口區嘉溪雅坑6-1號","121.341908333333","25.1047966666667","6501700","林口區"
"243013","AAD-798","2018/10/26 19:29:13","新北市泰山區貴子路36巷3弄1號","121.425951666667","25.0414066666667","6501600","泰山區"
"243009","297-R6","2018/10/26 19:29:16","新北市泰山區美寧街60號","121.430945","25.0647033333333","6501600","泰山區"
"243016","KEA-2801","2018/10/26 19:29:20","新北市泰山區明志路三段221號","121.423785","25.0381366666667","6501600","泰山區"
"243015","421-VK","2018/10/26 19:29:23","新北市泰山區民權街53號","121.428988333333","25.0504133333333","6501600","泰山區"
"243011","KEA-2215","2018/10/26 19:29:16","新北市泰山區貴子路140號","121.428686666667","25.0404333333333","6501600","泰山區"
"243010","KEA-2216","2018/10/26 19:29:22","新北市泰山區民生路31巷2號","121.430411666667","25.052325","6501600","泰山區"
"243012","646-TV","2018/10/26 19:29:21","新北市泰山區仁愛路6號","121.430721666667","25.05397","6501600","泰山區"
"243014","680-BX","2018/10/26 19:29:22","新北市泰山區仁愛路6巷28號","121.431703333333","25.052955","6501600","泰山區"
"222003","436-BY","2018/10/26 19:29:19","新北市深坑區深南路51-1號","121.62117","25.00994","6501800","深坑區"
"222002","659-BX","2018/10/26 19:29:10","新北市深坑區北深路一段177號","121.632558333333","25.0108766666667","6501800","深坑區"
"231041","001-UM","2018/10/26 19:29:24","新北市新店區中正路602號","121.533881666667","24.9881566666667","6500600","新店區"
"231059","046-UY","2018/10/26 19:29:15","新北市新店區安和路三段11-1號","121.51796","24.9807283333333","6500600","新店區"
"231040","047-UY","2018/10/26 19:29:25","新北市新店區北新路一段52號","121.541063333333","24.9662933333333","6500600","新店區"
"231046","107-UY","2018/10/26 19:29:09","新北市新店區中央路175-1號","121.53463","24.9698333333333","6500600","新店區"
"231053","108-UY","2018/10/26 19:29:10","新北市新店區廣興路80號","121.539015","24.9128333333333","6500600","新店區"
"231048","187-VK","2018/10/26 19:29:25","新北市新店區五峰路121號","121.545011666667","24.9664566666667","6500600","新店區"
"231054","KEA-2219","2018/10/26 19:29:13","新北市新店區文中路40號","121.539683333333","24.9565983333333","6500600","新店區"
"231057","256-BX","2018/10/26 19:29:11","新北市新店區花園一路三段57號","121.549678333333","24.9330033333333","6500600","新店區"
"231042","268-BY","2018/10/26 19:29:14","新北市新店區中興路一段66號","121.53933","24.9597683333333","6500600","新店區"
"231051","278-BY","2018/10/26 19:29:31","新北市新店區中央三街87號","121.525766666667","24.975675","6500600","新店區"
"231050","AAD-862","2018/10/26 19:29:12","新北市新店區竹林路90號","121.554055","24.9501566666667","6500600","新店區"
"231058","3713-VJ","2018/10/26 19:29:25","新北市新店區北新路二段228巷5號","121.543135","24.97737","6500600","新店區"
"231066","4716-K9","2018/10/26 19:29:25","新北市新店區安康路三段466-2號","121.484045","24.95085","6500600","新店區"
"231056","4715-K9","2018/10/26 19:29:19","新北市新店區安民街35巷9弄12號","121.51483","24.965565","6500600","新店區"
"231065","512-UM","2018/10/26 19:29:18","新北市新店區安祥路109巷1弄83號","121.478661666667","24.96043","6500600","新店區"
"231049","513-UM","2018/10/26 19:29:18","新北市新店區二十張路1巷2弄3號","121.540141666667","24.9819616666667","6500600","新店區"
"231045","617-UM","2018/10/26 19:29:29","新北市新店區北宜路二段209號","121.553193333333","24.95331","6500600","新店區"
"231044","618-UM","2018/10/26 19:29:20","新北市新店區中興路三段151號","121.544453333333","24.980035","6500600","新店區"
"231061","619-UM","2018/10/26 19:29:23","新北市新店區安康路一段351-1號","121.51938","24.96406","6500600","新店區"
"231063","641-BX","2018/10/26 19:29:25","新北市新店區達觀路16號","121.503285","24.9406033333333","6500600","新店區"
"231064","719-UM","2018/10/26 19:29:20","新北市新店區安康路二段85巷11-1號","121.513751666667","24.9622266666667","6500600","新店區"
"231062","720-UM","2018/10/26 19:29:14","新北市新店區莒光路20號","121.523983333333","24.9594233333333","6500600","新店區"
"231060","897-TW","2018/10/26 19:29:23","新北市新店區安康路二段71號","121.513773333333","24.9630633333333","6500600","新店區"
"231043","899-TW","2018/10/26 19:29:17","新北市新店區北新路二段200號","121.543028333333","24.976745","6500600","新店區"
"241008","059-VK","2018/10/26 19:29:25","新北市三重區永福街135巷40號","121.477026666667","25.077185","6500200","三重區"
"241022","060-VK","2018/10/26 19:29:21","新北市三重區三民街165巷2號","121.48375","25.06517","6500200","三重區"
"241031","061-VK","2018/10/26 19:29:24","新北市三重區集美街61號","121.488446666667","25.0543116666667","6500200","三重區"
"241017","063-VK","2018/10/26 19:29:22","新北市三重區中正北路25巷6號","121.493271666667","25.06283","6500200","三重區"
"241026","066-VK","2018/10/26 19:29:28","新北市三重區文化南路40-2號","121.50049","25.060775","6500200","三重區"
"241003","091-VK","2018/10/26 19:29:10","新北市三重區五華街141巷60號","121.493415","25.0866416666667","6500200","三重區"
"241009","267-UM","2018/10/26 19:29:16","新北市三重區溪尾街242巷33號","121.486801666667","25.0816916666667","6500200","三重區"
"241032","269-UM","2018/10/26 19:29:25","新北市三重區三陽路64號","121.483981666667","25.058785","6500200","三重區"
"241013","270-UM","2018/10/26 19:29:19","新北市三重區仁愛街101號","121.495643333333","25.0739183333333","6500200","三重區"
"241025","271-UM","2018/10/26 19:29:21","新北市三重區頂崁街210巷28弄9號","121.47584","25.067155","6500200","三重區"
"241007","398-BY","2018/10/26 19:29:23","新北市三重區慈愛街149號","121.489376666667","25.079445","6500200","三重區"
"241035","462-BY","2018/10/26 19:29:15","新北市三重區信義西街1巷3號","121.498041666667","25.06498","6500200","三重區"
"241020","478-VK","2018/10/26 19:29:13","新北市三重區三和路四段42號","121.490295","25.0743766666667","6500200","三重區"
"241030","480-VK","2018/10/26 19:29:16","新北市三重區成功路41巷1號","121.49021","25.0513066666667","6500200","三重區"
"241006","AAD-863","2018/10/26 19:29:07","新北市三重區車路頭街76號","121.484328333333","25.0738983333333","6500200","三重區"
"241028","887-TS","2018/10/26 19:29:23","新北市三重區中正南路97巷20號","121.49364","25.0576733333333","6500200","三重區"
"241029","942-UM","2018/10/26 19:29:16","新北市三重區重安街103號","121.49391","25.055135","6500200","三重區"
"235066","003-UY","2018/10/26 19:29:24","新北市中和區景新街48號","121.503901666667","24.9992133333333","6500300","中和區"
"235064","005-UY","2018/10/26 19:29:23","新北市中和區南山路129號","121.502198333333","24.997145","6500300","中和區"
"235063","006-UY","2018/10/26 19:29:21","新北市中和區連勝街175號","121.494025","24.996995","6500300","中和區"
"235056","096-UM","2018/10/26 19:29:22","新北市中和區民富街9號","121.476515","25.0072633333333","6500300","中和區"
"235039","097-UM","2018/10/26 19:29:18","新北市中和區秀峰街103巷1弄2號","121.520663333333","24.990185","6500300","中和區"
"235065","098-UM","2018/10/26 19:29:16","新北市中和區福美路269號","121.498155","25.0050433333333","6500300","中和區"
"235040","150-BY","2018/10/26 19:29:08","新北市中和區保健路46巷26弄2號","121.508553333333","24.995485","6500300","中和區"
"235058","151-BY","2018/10/26 19:29:29","新北市中和區連城路376號","121.481421666667","24.99526","6500300","中和區"
"235055","183-VK","2018/10/26 19:29:22","新北市中和區國光街34號","121.47131","25.0002433333333","6500300","中和區"
"235038","185-VK","2018/10/26 19:29:23","新北市中和區自立路107號","121.522015","24.9947283333333","6500300","中和區"
"235049","186-VK","2018/10/26 19:29:13","新北市中和區景新街285巷17號","121.510351666667","24.9936066666667","6500300","中和區"
"235067","255-BX","2018/10/26 19:29:19","新北市中和區新生街288號","121.483521666667","24.996565","6500300","中和區"
"235044","293-VK","2018/10/26 19:29:26","新北市中和區南山路160號","121.504448333333","24.9918","6500300","中和區"
"235072","301-VK","2018/10/26 19:29:20","新北市中和區連城路265巷12弄2號","121.491723333333","24.9952","6500300","中和區"
"235043","352-BY","2018/10/26 19:29:23","新北市中和區景安路85號","121.506343333333","24.99689","6500300","中和區"
"235050","4979-A6","2018/10/26 19:29:25","新北市中和區錦和路113號","121.4903","24.9949466666667","6500300","中和區"
"235042","551-UM","2018/10/26 19:29:26","新北市中和區中和路262巷24弄5號","121.509868333333","24.99912","6500300","中和區"
"235070","558-UM","2018/10/26 19:29:23","新北市中和區景平路509號","121.499566666667","24.9987233333333","6500300","中和區"
"235045","565-BX","2018/10/26 19:29:12","新北市中和區景新街385-3號","121.512648333333","24.9903216666667","6500300","中和區"
"235054","640-BX","2018/10/26 19:29:24","新北市中和區國光街102巷11弄11號","121.470651666667","25.0011683333333","6500300","中和區"
"235060","647-TV","2018/10/26 19:29:11","新北市中和區新生街112巷18號","121.482553333333","25.002995","6500300","中和區"
"235047","732-UM","2018/10/26 19:29:14","新北市中和區景平路259巷30號","121.507106666667","24.9927816666667","6500300","中和區"
"235046","733-UM","2018/10/26 19:29:19","新北市中和區興南路一段105巷20弄35號","121.51057","24.9848183333333","6500300","中和區"
"235071","783-BX","2018/10/26 19:29:13","新北市中和區中正路637巷18弄20號","121.484335","24.9950533333333","6500300","中和區"
"235057","801-TS","2018/10/26 19:29:26","新北市中和區員山路453號","121.480593333333","25.0042733333333","6500300","中和區"
"235041","802-TS","2018/10/26 19:29:23","新北市中和區中安街78號","121.51214","25.001895","6500300","中和區"
"235052","805-TS","2018/10/26 19:29:29","新北市中和區華新街143巷67弄35號","121.50759","24.9793183333333","6500300","中和區"
"235048","896-TW","2018/10/26 19:29:13","新北市中和區忠孝街113巷4號","121.512526666667","24.98759","6500300","中和區"
"235053","900-TW","2018/10/26 19:29:20","新北市中和區華順街16號","121.467175","24.9986483333333","6500300","中和區"
"235051","157-BY","2018/10/26 19:29:16","新北市中和區南華路5號","121.502076666667","24.995455","6500300","中和區"
"235037","AAC-213","2018/10/26 19:29:16","新北市中和區秀朗路三段10巷14弄30號","121.524751666667","24.9965666666667","6500300","中和區"
"235059","AAC-215","2018/10/26 19:29:22","新北市中和區圓通路252巷6-2號","121.49276","24.9918766666667","6500300","中和區"
"220065","072-UY","2018/10/26 19:29:19","新北市板橋區國泰街75巷28弄9號","121.467688333333","25.00522","6500100","板橋區"
"220086","073-UY","2018/10/26 19:29:22","新北市板橋區中正路236巷53號","121.45807","25.01944","6500100","板橋區"
"220106","075-UY","2018/10/26 19:29:15","新北市板橋區江寧路三段115-4號","121.473151666667","25.032965","6500100","板橋區"
"220069","AAD-861","2018/10/26 19:29:18","新北市板橋區大明街20巷8號","121.457816666667","25.003875","6500100","板橋區"
"247004","002-UY","2018/10/26 19:29:16","新北市蘆洲區長安街237號","121.45933","25.0829516666667","6501400","蘆洲區"
"226004","205-ST","2018/10/26 19:29:21","新北市平溪區十分里十分街157號","121.777726666667","25.0433616666667","6502400","平溪區"
"228003","097-TW","2018/10/26 19:29:11","新北市貢寮區和美里和美街22-1號","121.912805","25.0826183333333","6502600","貢寮區"
"228002","663-BX","2018/10/26 19:29:27","新北市貢寮區龍門里龍門街76號","121.93134","25.027025","6502600","貢寮區"
"228001","670-TC","2018/10/26 19:29:11","新北市貢寮區真理里延平街68-2號","121.925356666667","25.0574783333333","6502600","貢寮區"
"224010","AGQ-8101","2018/10/26 19:29:12","新北市瑞芳區基山街146號","121.84345","25.1081516666667","6501200","瑞芳區"
"227003","642-TC","2018/10/26 19:29:25","新北市雙溪區雙溪里光復街14號","121.865001666667","25.0354066666667","6502500","雙溪區"
"227011","400-TW","2018/10/26 19:29:17","新北市雙溪區新基里新基北街43號","121.868111666667","25.03968","6502500","雙溪區"
"253006","032-BX","2018/10/26 19:29:24","新北市石門區楓林28-2號","121.541906666667","25.2888666666667","6502200","石門區"
"222001","KEA-2212","2018/10/26 19:29:20","新北市深坑區深坑街10號","121.616061666667","25.0028033333333","6501800","深坑區"
"208002","KEA-2872","2018/10/26 19:29:19","新北市金山區中正路31號","121.635226666667","25.2220983333333","6502700","金山區"
"208003","665-BX","2018/10/26 19:29:16","新北市金山區仁愛路37-23號","121.635563333333","25.22049","6502700","金山區"
"208001","761-BX","2018/10/26 19:29:17","新北市金山區中正路168號","121.630551666667","25.2211633333333","6502700","金山區"
"251005","010-UM","2018/10/26 19:29:27","新北市淡水區水源街一段71巷11號","121.444403333333","25.17289","6501000","淡水區"
"251008","181-VK","2018/10/26 19:29:18","新北市淡水區中正路一段102號","121.423993333333","25.1777766666667","6501000","淡水區"
"251010","413-VK","2018/10/26 19:29:17","新北市淡水區中正路二段142-10號","121.422776666667","25.1876566666667","6501000","淡水區"
"251012","441-VK","2018/10/26 19:28:52","新北市淡水區中山北路三段164號","121.44573","25.1965766666667","6501000","淡水區"
"251001","559-UM","2018/10/26 19:29:21","新北市淡水區民權路179號","121.459786666667","25.135185","6501000","淡水區"
"251006","561-UM","2018/10/26 19:29:28","新北市淡水區大義街40號","121.442111666667","25.1783583333333","6501000","淡水區"
"251009","575-R6","2018/10/26 19:29:21","新北市淡水區大忠街5巷8號","121.44336","25.1765216666667","6501000","淡水區"
"251007","577-R6","2018/10/26 19:29:22","新北市淡水區八勢路20號","121.460886666667","25.1536266666667","6501000","淡水區"
"251011","650-BX","2018/10/26 19:29:13","新北市淡水區中正東路二段143巷2弄1號","121.460723333333","25.1473016666667","6501000","淡水區"
"207003","550-UM","2018/10/26 19:29:24","新北市萬里區大鵬里萬里加投249號","121.644311666667","25.215575","6502800","萬里區"
"207004","225-TW","2018/10/26 19:29:12","新北市萬里區萬里里瑪鋉路127-8號","121.688898333333","25.17773","6502800","萬里區"
"252002","178-VK","2018/10/26 19:29:25","新北市三芝區淡金路二段18-1號","121.502658333333","25.259545","6502100","三芝區"
"252001","292-VK","2018/10/26 19:29:18","新北市三芝區長勤街63-1號","121.500061666667","25.2561233333333","6502100","三芝區"
"237004","KEA-2597","2018/10/26 19:29:27","新北市三峽區有木206號","121.439175","24.8514833333333","6500900","三峽區"
"237007","153-BY","2018/10/26 19:29:22","新北市三峽區二鬮路136巷20弄83號","121.358223333333","24.9091416666667","6500900","三峽區"
"237009","210-TH","2018/10/26 19:29:29","新北市三峽區中山路61號","121.367383333333","24.9347866666667","6500900","三峽區"
"237013","252-BX","2018/10/26 19:29:28","新北市三峽區介壽路一段309號","121.381223333333","24.9304983333333","6500900","三峽區"
"237012","275-BY","2018/10/26 19:29:27","新北市三峽區民生街2號","121.376385","24.9368833333333","6500900","三峽區"
"237008","302-VK","2018/10/26 19:29:23","新北市三峽區大同路132巷12號","121.373823333333","24.9273116666667","6500900","三峽區"
"237014","433-BY","2018/10/26 19:29:24","新北市三峽區大同路202-2號","121.367955","24.9274033333333","6500900","三峽區"
"237006","5529-G3","2018/10/26 19:29:14","新北市三峽區中正路一段336巷15弄2號","121.369956666667","24.9249433333333","6500900","三峽區"
"237011","KEA-2596","2018/10/26 19:29:24","新北市三峽區介壽路一段496-1號","121.38547","24.93225","6500900","三峽區"
"237015","649-BX","2018/10/26 19:29:20","新北市三峽區成福路156號","121.422891666667","24.92892","6500900","三峽區"
"236069","105-UM","2018/10/26 19:29:16","新北市土城區裕民路185巷36弄10號","121.454378333333","24.9845233333333","6501300","土城區"
"236079","166-UM","2018/10/26 19:29:11","新北市土城區中州路29號","121.413633333333","24.9578066666667","6501300","土城區"
"236026","269-VK","2018/10/26 19:29:25","新北市土城區中央路二段61巷26號","121.443291666667","24.9786716666667","6501300","土城區"
"236020","401-BY","2018/10/26 19:29:17","新北市土城區峰廷街8號","121.468605","24.9877533333333","6501300","土城區"
"236042","752-BX","2018/10/26 19:29:07","新北市土城區學府路一段239號","121.450418333333","24.9833766666667","6501300","土城區"
"236048","913-UM","2018/10/26 19:29:10","新北市土城區清水路186號","121.460225","24.98176","6501300","土城區"
"236063","915-UM","2018/10/26 19:29:16","新北市土城區金城路三段185-1號","121.469766666667","24.9887716666667","6501300","土城區"
"242048","497-BY","2018/10/26 19:29:24","新北市新莊區後港一路3號","121.424128333333","25.02632","6500500","新莊區"
"242023","362-BY","2018/10/26 19:29:27","新北市新莊區新泰路496號","121.442615","25.0461883333333","6500500","新莊區"
"242013","173-VK","2018/10/26 19:29:16","新北市新莊區三和路12-11號","121.44223","25.036955","6500500","新莊區"
"242007","176-VK","2018/10/26 19:29:22","新北市新莊區新泰路500號","121.442388333333","25.0458616666667","6500500","新莊區"
"242032","348-TH","2018/10/26 19:29:11","新北市新莊區新泰路213巷30號","121.445858333333","25.038975","6500500","新莊區"
"238015","755-BX","2018/10/26 19:29:30","新北市樹林區大安路523號","121.413946666667","24.985935","6500700","樹林區"
"238023","601-UM","2018/10/26 19:29:15","新北市樹林區三福街166號","121.404746666667","25.0159716666667","6500700","樹林區"
"238019","599-UM","2018/10/26 19:29:27","新北市樹林區鎮前街347巷1弄36號","121.417796666667","24.9842616666667","6500700","樹林區"
"238018","571-TV","2018/10/26 19:29:29","新北市樹林區中華路211號","121.419683333333","24.9813816666667","6500700","樹林區"
"238024","5061-A6","2018/10/26 19:29:23","新北市樹林區中山路三段155巷10號","121.395863333333","24.972545","6500700","樹林區"
"238022","KEA-2213","2018/10/26 19:29:24","新北市樹林區名園街20號","121.419321666667","24.9792866666667","6500700","樹林區"
"238021","KEA-2539","2018/10/26 19:29:16","新北市樹林區佳園路三段181巷54號","121.388848333333","24.9475133333333","6500700","樹林區"
"238025","303-VK","2018/10/26 19:29:16","新北市樹林區中山路一段39號","121.424081666667","24.9924283333333","6500700","樹林區"
"238017","283-BY","2018/10/26 19:29:30","新北市樹林區光榮街79號","121.412046666667","25.003","6500700","樹林區"
"238014","282-BY","2018/10/26 19:29:19","新北市樹林區保安二街64巷5弄1號","121.424455","24.99593","6500700","樹林區"
"238020","268-VK","2018/10/26 19:29:23","新北市樹林區俊英街33-1號","121.428178333333","25.0036966666667","6500700","樹林區"
"238026","172-UY","2018/10/26 19:29:22","新北市樹林區佳園路三段83號","121.387631666667","24.952505","6500700","樹林區"
"238016","169-UY","2018/10/26 19:29:27","新北市樹林區復興路408號","121.414561666667","24.984915","6500700","樹林區"
"239006","891-R6","2018/10/26 19:29:26","新北市鶯歌區建國路510號","121.340801666667","24.9506266666667","6500800","鶯歌區"
"239001","417-VK","2018/10/26 19:29:25","新北市鶯歌區鶯桃路31-4號","121.343195","24.950655","6500800","鶯歌區"
"239002","359-BY","2018/10/26 19:29:16","新北市鶯歌區中正一路434號","121.361688333333","24.9569883333333","6500800","鶯歌區"
"221008","489-VK","2018/10/26 19:29:16","新北市汐止區康寧街145號","121.621881666667","25.0666716666667","6501100","汐止區"
"221036","130-UY","2018/10/26 19:29:09","新北市汐止區康寧街901號","121.651438333333","25.07499","6501100","汐止區"
"221015","131-UY","2018/10/26 19:29:12","新北市汐止區康寧街901號","121.65097","25.075185","6501100","汐止區"
"221010","269-BY","2018/10/26 19:29:17","新北市汐止區連峰街3巷1號","121.6475","25.0761616666667","6501100","汐止區"
"221012","278-VK","2018/10/26 19:29:17","新北市汐止區大同路三段279號","121.674928333333","25.0758866666667","6501100","汐止區"
"221023","279-VK","2018/10/26 19:29:16","新北市汐止區翠峰街21巷3弄20號","121.644438333333","25.0757933333333","6501100","汐止區"
"221027","281-BY","2018/10/26 19:29:30","新北市汐止區忠孝東路9號","121.658295","25.06592","6501100","汐止區"
"221021","299-VK","2018/10/26 19:29:25","新北市汐止區康寧街901號","121.651438333333","25.0750533333333","6501100","汐止區"
"221031","353-TW","2018/10/26 19:29:25","新北市汐止區康寧街901號","121.650841666667","25.075235","6501100","汐止區"
"221035","622-UM","2018/10/26 19:29:17","新北市汐止區康寧街901號","121.651101666667","25.0751483333333","6501100","汐止區"
"221025","623-UM","2018/10/26 19:29:25","新北市汐止區秀峰路60號","121.659443333333","25.0654783333333","6501100","汐止區"
"221038","646-BX","2018/10/26 19:29:28","新北市汐止區大同路二段387號","121.657693333333","25.0672383333333","6501100","汐止區"
"221002","707-TV","2018/10/26 19:29:18","新北市汐止區大同路一段331號","121.638311666667","25.059295","6501100","汐止區"
"221018","753-BX","2018/10/26 19:29:18","新北市汐止區康寧街901號","121.650875","25.0752283333333","6501100","汐止區"
"220079","145-BY","2018/10/26 19:29:22","新北市板橋區民權路259號","121.457026666667","25.0160583333333","6500100","板橋區"
"220082","610-BX","2018/10/26 19:29:29","新北市板橋區大觀路三段261號","121.429201666667","24.9921016666667","6500100","板橋區"
"220056","276-BY","2018/10/26 19:29:19","新北市板橋區國慶路49巷25號","121.459636666667","24.9964316666667","6500100","板橋區"
"220072","277-BY","2018/10/26 19:29:07","新北市板橋區金門街253巷12號","121.432931666667","24.9882533333333","6500100","板橋區"
"220101","280-UM","2018/10/26 19:29:24","新北市板橋區縣民大道三段127巷24號","121.47701","25.0237233333333","6500100","板橋區"
"220057","282-UM","2018/10/26 19:29:17","新北市板橋區和平路178號","121.463475","24.9956733333333","6500100","板橋區"
"220094","283-UM","2018/10/26 19:29:00","新北市板橋區吳鳳路50巷7號","121.467858333333","25.0305133333333","6500100","板橋區"
"220071","283-VK","2018/10/26 19:29:29","新北市板橋區四川路一段325巷6號","121.458828333333","25.0003716666667","6500100","板橋區"
"220053","285-VK","2018/10/26 19:29:17","新北市板橋區富山街53巷1弄12號","121.477891666667","25.0206283333333","6500100","板橋區"
"220083","286-VK","2018/10/26 19:29:17","新北市板橋區龍興街73巷41號","121.442218333333","25.002785","6500100","板橋區"
"220081","287-VK","2018/10/26 19:29:13","新北市板橋區南雅西路一段116號","121.452318333333","25.0063483333333","6500100","板橋區"
"220090","288-VK","2018/10/26 19:29:23","新北市板橋區裕民街74號","121.460893333333","25.0283616666667","6500100","板橋區"
"220061","293-UM","2018/10/26 19:29:13","新北市板橋區中山路二段265號","121.477786666667","25.0177233333333","6500100","板橋區"
"220062","295-UM","2018/10/26 19:29:18","新北市板橋區三民路二段123巷20號","121.480205","25.0155916666667","6500100","板橋區"
"220084","296-UM","2018/10/26 19:29:26","新北市板橋區滿平街84巷120弄29號","121.426206666667","24.9854816666667","6500100","板橋區"
"220075","303-R5","2018/10/26 19:29:19","新北市板橋區中正路253巷38號","121.454246666667","25.0177866666667","6500100","板橋區"
"220092","307-R5","2018/10/26 19:29:16","新北市板橋區文化路二段125巷23號","121.46975","25.0275116666667","6500100","板橋區"
"220098","317-R6","2018/10/26 19:29:11","新北市板橋區民生路三段263巷4弄2號","121.46376","25.0297333333333","6500100","板橋區"
"220064","486-VK","2018/10/26 19:29:15","新北市板橋區重慶路24號","121.46101","25.0077716666667","6500100","板橋區"
"220089","487-VK","2018/10/26 19:29:22","新北市板橋區文化路一段31號","121.460225","25.0129516666667","6500100","板橋區"
"220088","491-VK","2018/10/26 19:29:19","新北市板橋區文化路二段331號","121.472588333333","25.0302533333333","6500100","板橋區"
"220035","560-BX","2018/10/26 19:29:25","新北市板橋區中正路330號","121.454356666667","25.0217033333333","6500100","板橋區"
"220103","561-BX","2018/10/26 19:29:21","新北市板橋區文化路一段210號","121.466426666667","25.0201883333333","6500100","板橋區"
"220063","609-BX","2018/10/26 19:29:28","新北市板橋區翠華街7巷1號","121.480223333333","25.0241116666667","6500100","板橋區"
"220091","637-BX","2018/10/26 19:29:11","新北市板橋區文聖街135巷25號","121.479","25.0289766666667","6500100","板橋區"
"220077","687-BX","2018/10/26 19:29:27","新北市板橋區僑中三街33號","121.445475","25.0048133333333","6500100","板橋區"
"220093","689-BX","2018/10/26 19:29:24","新北市板橋區英士路70號","121.460576666667","25.02452","6500100","板橋區"
"220054","741-BX","2018/10/26 19:29:23","新北市板橋區忠孝路190號","121.46499","25.0026416666667","6500100","板橋區"
"220102","KEA-2699","2018/10/26 19:29:17","新北市板橋區松柏街22巷36號","121.475068333333","25.0288666666667","6500100","板橋區"
"220055","827-TW","2018/10/26 19:29:25","新北市板橋區重慶路278巷7號","121.462595","24.9996383333333","6500100","板橋區"
"220067","829-TW","2018/10/26 19:29:17","新北市板橋區長安街138巷7弄44號","121.47401","25.0089533333333","6500100","板橋區"
"220068","830-TW","2018/10/26 19:29:27","新北市板橋區翠華街6巷68號","121.481671666667","25.02518","6500100","板橋區"
"220096","831-TW","2018/10/26 19:29:11","新北市板橋區萬板路165號","121.474055","25.0236916666667","6500100","板橋區"
"220074","895-R6","2018/10/26 19:29:29","新北市板橋區後菜園街4號","121.457705","25.0105116666667","6500100","板橋區"
"220073","985-R7","2018/10/26 19:29:23","新北市板橋區中正路211號","121.456183333333","25.0175233333333","6500100","板橋區"
"220097","AAC-210","2018/10/26 19:29:23","新北市板橋區漢生西路137號","121.462911666667","25.0215516666667","6500100","板橋區"
"220070","AAC-253","2018/10/26 19:29:17","新北市板橋區四川路一段35號","121.459558333333","25.006615","6500100","板橋區"
"235068","KEA-2873","2018/10/26 19:29:16","新北市中和區圓通路158巷24號","121.498306666667","24.9969766666667","6500300","中和區"
"235025","KEA-2875","2018/10/26 19:29:16","新北市中和區員山路143巷40弄3號","121.478975","24.99561","6500300","中和區"
