"lineid","car","time","location","longitude","latitude","cityid","cityname"
"234064","337-UY","2018/10/26 20:38:53","新北市永和區新生路28巷16號","121.508288333333","25.0164733333333","6500400","永和區"
"234086","338-UY","2018/10/26 20:38:44","新北市永和區光復街21號","121.51649","25.0173866666667","6500400","永和區"
"234061","AAD-866","2018/10/26 20:38:51","新北市永和區秀朗路一段175號","121.517043333333","25.0037033333333","6500400","永和區"
"234042","862-TW","2018/10/26 20:38:51","新北市永和區安樂路348號","121.514475","25.0064083333333","6500400","永和區"
"249001","173-UM","2018/10/26 20:38:55","新北市八里區下罟子23號","121.37669","25.1386983333333","6502300","八里區"
"249004","303-UY","2018/10/26 20:38:48","新北市八里區中山路一段121號","121.413573333333","25.1594583333333","6502300","八里區"
"249003","593-UM","2018/10/26 20:38:28","新北市八里區中山路三段409號","121.368776666667","25.1358533333333","6502300","八里區"
"234074","AAC-211","2018/10/26 20:38:44","新北市永和區竹林路119巷3號","121.520263333333","25.0115133333333","6500400","永和區"
"243011","KEA-2215","2018/10/26 20:38:56","新北市泰山區公園路65號","121.427116666667","25.05505","6501600","泰山區"
"222003","436-BY","2018/10/26 20:38:50","新北市深坑區文山路二段30巷31號","121.615533333333","24.9990333333333","6501800","深坑區"
"222002","659-BX","2018/10/26 20:38:50","新北市深坑區萬福路43號","121.599388333333","25.006775","6501800","深坑區"
"231041","001-UM","2018/10/26 20:38:49","新北市新店區中正路696號","121.534066666667","24.9905316666667","6500600","新店區"
"231059","046-UY","2018/10/26 20:38:55","新北市新店區僑信路92號","121.49981","24.9478916666667","6500600","新店區"
"231040","047-UY","2018/10/26 20:38:45","新北市新店區中正路251號","121.538968333333","24.9734666666667","6500600","新店區"
"231053","108-UY","2018/10/26 20:38:50","新北市新店區廣興路7-10號","121.545703333333","24.9116866666667","6500600","新店區"
"231048","187-VK","2018/10/26 20:38:45","新北市新店區寶慶街47號","121.542548333333","24.9865733333333","6500600","新店區"
"231054","KEA-2219","2018/10/26 20:38:54","新北市新店區行政街47號","121.542993333333","24.96548","6500600","新店區"
"231057","256-BX","2018/10/26 20:38:51","新北市新店區花園六路二段9-2號","121.555766666667","24.932835","6500600","新店區"
"231042","268-BY","2018/10/26 20:38:54","新北市新店區寶橋路230號","121.551531666667","24.9788983333333","6500600","新店區"
"231051","278-BY","2018/10/26 20:38:43","新北市新店區民生路158巷83號","121.526526666667","24.98097","6500600","新店區"
"231050","AAD-862","2018/10/26 20:38:51","新北市新店區中正路256號","121.539256666667","24.9733133333333","6500600","新店區"
"231058","3713-VJ","2018/10/26 20:38:45","新北市新店區自由街27-1號","121.534963333333","24.9742616666667","6500600","新店區"
"231066","4716-K9","2018/10/26 20:38:44","新北市新店區安興路112號","121.514613333333","24.977655","6500600","新店區"
"231056","4715-K9","2018/10/26 20:38:39","新北市新店區中央五街66號","121.527311666667","24.9756966666667","6500600","新店區"
"231067","4772-VM","2018/10/26 20:38:45","新北市新店區安華路28-1號","121.519691666667","24.961015","6500600","新店區"
"231065","512-UM","2018/10/26 20:38:58","新北市新店區安祥路102巷117號","121.486395","24.96424","6500600","新店區"
"231049","513-UM","2018/10/26 20:38:58","新北市新店區永業路81巷5弄16號","121.530676666667","24.9493283333333","6500600","新店區"
"231045","617-UM","2018/10/26 20:38:49","新北市新店區長春路557-1號","121.552648333333","24.9599966666667","6500600","新店區"
"231044","618-UM","2018/10/26 20:38:40","新北市新店區建國路291巷2號","121.536743333333","24.9859633333333","6500600","新店區"
"231061","619-UM","2018/10/26 20:38:43","新北市新店區新和街34號","121.51926","24.9848666666667","6500600","新店區"
"231063","641-BX","2018/10/26 20:38:45","新北市新店區玫瑰路4-1號","121.49362","24.9513566666667","6500600","新店區"
"231068","718-UY","2018/10/26 20:38:43","新北市新店區中興路三段328號","121.542125","24.9863683333333","6500600","新店區"
"231064","719-UM","2018/10/26 20:38:40","新北市新店區安和路三段173號","121.515873333333","24.9861883333333","6500600","新店區"
"231062","720-UM","2018/10/26 20:38:54","新北市新店區安泰路60巷134弄66號","121.483468333333","24.9434733333333","6500600","新店區"
"231060","897-TW","2018/10/26 20:38:43","新北市新店區安康路三段740號","121.473785","24.9419683333333","6500600","新店區"
"231043","899-TW","2018/10/26 20:38:57","新北市新店區建國路13號","121.53991","24.97354","6500600","新店區"
"241011","013-R5","2018/10/26 20:38:49","新北市三重區龍門路190號","121.499485","25.0733366666667","6500200","三重區"
"241008","059-VK","2018/10/26 20:38:45","新北市三重區下竹圍街42-1號","121.481028333333","25.0748933333333","6500200","三重區"
"241022","060-VK","2018/10/26 20:38:45","新北市三重區新北大道一段46巷16號","121.48814","25.061975","6500200","三重區"
"241031","061-VK","2018/10/26 20:38:44","新北市三重區重陽路一段43巷30號","121.488145","25.058655","6500200","三重區"
"241015","062-VK","2018/10/26 20:38:51","新北市三重區雙園街1號","121.497825","25.06839","6500200","三重區"
"241017","063-VK","2018/10/26 20:39:02","新北市三重區安慶街270號","121.490728333333","25.0675516666667","6500200","三重區"
"241024","065-VK","2018/10/26 20:38:50","新北市三重區忠孝路三段75巷13號","121.479988333333","25.0660133333333","6500200","三重區"
"241026","066-VK","2018/10/26 20:38:48","新北市三重區文化南路3號","121.500083333333","25.0624183333333","6500200","三重區"
"241002","090-VK","2018/10/26 20:39:01","新北市三重區仁義街180號","121.496858333333","25.0813716666667","6500200","三重區"
"241003","091-VK","2018/10/26 20:38:51","新北市三重區集賢路87-1號","121.49374","25.0869333333333","6500200","三重區"
"241005","262-UM","2018/10/26 20:38:52","新北市三重區碧華街381號","121.492761666667","25.0855583333333","6500200","三重區"
"241016","266-UM","2018/10/26 20:38:55","新北市三重區長壽西街143-3號","121.494373333333","25.06658","6500200","三重區"
"241009","267-UM","2018/10/26 20:38:55","新北市三重區碧華街57號","121.484765","25.081285","6500200","三重區"
"241018","268-UM","2018/10/26 20:38:40","新北市三重區重陽路三段115號","121.490843333333","25.0688066666667","6500200","三重區"
"241032","269-UM","2018/10/26 20:38:45","新北市三重區重陽路一段120巷48號","121.485041666667","25.0601516666667","6500200","三重區"
"241013","270-UM","2018/10/26 20:38:59","新北市三重區三和路四段1號","121.491613333333","25.074165","6500200","三重區"
"241025","271-UM","2018/10/26 20:39:00","新北市三重區頂崁街206巷40號","121.475755","25.0664666666667","6500200","三重區"
"241007","398-BY","2018/10/26 20:38:43","新北市三重區自強路四段4號","121.488293333333","25.0760833333333","6500200","三重區"
"241035","462-BY","2018/10/26 20:38:54","新北市三重區正義北路326號","121.494845","25.070465","6500200","三重區"
"241020","478-VK","2018/10/26 20:38:53","新北市三重區忠孝路一段75號","121.490588333333","25.0719983333333","6500200","三重區"
"241030","480-VK","2018/10/26 20:38:57","新北市三重區成功路73巷12號","121.489386666667","25.0518616666667","6500200","三重區"
"241014","543-UM","2018/10/26 20:38:44","新北市三重區介壽路11號","121.498981666667","25.06927","6500200","三重區"
"241023","545-UM","2018/10/26 20:39:02","新北市三重區自由街35巷2號","121.478941666667","25.0668766666667","6500200","三重區"
"241001","547-UM","2018/10/26 20:38:50","新北市三重區自強路三段110巷29號","121.485713333333","25.0745683333333","6500200","三重區"
"241019","KEA-2593","2018/10/26 20:39:00","新北市三重區大智街129-1號","121.491285","25.0703966666667","6500200","三重區"
"241006","AAD-863","2018/10/26 20:38:58","新北市三重區車路頭街135-1號","121.484245","25.0758766666667","6500200","三重區"
"241004","743-BX","2018/10/26 20:38:57","新北市三重區仁愛街423-1號","121.49037","25.0815083333333","6500200","三重區"
"241028","887-TS","2018/10/26 20:38:43","新北市三重區光興街91號","121.49739","25.0599","6500200","三重區"
"241012","941-UM","2018/10/26 20:38:49","新北市三重區龍濱路243巷12號","121.501993333333","25.0727966666667","6500200","三重區"
"241029","942-UM","2018/10/26 20:38:56","新北市三重區集美街126巷27號","121.490098333333","25.0537566666667","6500200","三重區"
"241033","AAC-255","2018/10/26 20:38:40","新北市三重區光復路二段3-1號","121.473865","25.0536116666667","6500200","三重區"
"247012","KEA-2869","2018/10/26 20:38:54","新北市蘆洲區民族路204巷12號","121.480905","25.08782","6501400","蘆洲區"
"235069","4980-A6","2018/10/26 20:39:00","新北市中和區連城路347巷16弄11號","121.4881","24.99483","6500300","中和區"
"247002","893-R6","2018/10/26 20:39:01","新北市蘆洲區永樂街46號","121.457718333333","25.0883833333333","6501400","蘆洲區"
"247016","546-UM","2018/10/26 20:38:52","新北市蘆洲區中山二路275號","121.469351666667","25.079145","6501400","蘆洲區"
"247024","500-BY","2018/10/26 20:38:45","新北市蘆洲區長樂路80號","121.462636666667","25.0870466666667","6501400","蘆洲區"
"247014","339-TH","2018/10/26 20:38:48","新北市蘆洲區中山一路211號","121.473971666667","25.0809433333333","6501400","蘆洲區"
"247006","337-TH","2018/10/26 20:38:42","新北市蘆洲區和平路124號","121.46742","25.08016","6501400","蘆洲區"
"247008","336-TH","2018/10/26 20:38:49","新北市三重區仁愛街755號","121.481135","25.0804533333333","6501400","蘆洲區"
"247020","057-VK","2018/10/26 20:38:53","新北市蘆洲區民族路331號","121.473781666667","25.09177","6501400","蘆洲區"
"247018","053-VK","2018/10/26 20:38:59","新北市蘆洲區民權路70號","121.474906666667","25.0873083333333","6501400","蘆洲區"
"247004","002-UY","2018/10/26 20:38:56","新北市蘆洲區長安街297號","121.45804","25.0848883333333","6501400","蘆洲區"
"247022","001-UY","2018/10/26 20:38:54","新北市蘆洲區中正路261號","121.46734","25.087295","6501400","蘆洲區"
"222001","KEA-2212","2018/10/26 20:39:00","新北市深坑區北深路三段234號","121.600678333333","25.0040166666667","6501800","深坑區"
"251002","012-UM","2018/10/26 20:38:48","新北市淡水區中正路38-1號","121.44374","25.16922","6501000","淡水區"
"251008","181-VK","2018/10/26 20:38:58","新北市淡水區中正路二段397號","121.42488","25.1914883333333","6501000","淡水區"
"251010","413-VK","2018/10/26 20:38:57","新北市淡水區沙崙路181巷15號","121.423875","25.1843533333333","6501000","淡水區"
"251012","441-VK","2018/10/26 20:38:52","新北市淡水區興仁路105號","121.451541666667","25.21815","6501000","淡水區"
"251001","559-UM","2018/10/26 20:39:01","新北市淡水區淡金路164號","121.45903","25.1658033333333","6501000","淡水區"
"251006","561-UM","2018/10/26 20:38:48","新北市淡水區商工路184號","121.449918333333","25.18848","6501000","淡水區"
"251009","575-R6","2018/10/26 20:39:01","新北市淡水區民權路187巷17號","121.460335","25.1334066666667","6501000","淡水區"
"251007","577-R6","2018/10/26 20:38:42","新北市淡水區忠愛街4-1號","121.459271666667","25.1719416666667","6501000","淡水區"
"251003","673-BX","2018/10/26 20:38:59","新北市淡水區新民街152巷6弄22號","121.43873","25.1784983333333","6501000","淡水區"
"252002","178-VK","2018/10/26 20:38:45","新北市三芝區淡金路二段47-2號","121.503675","25.26052","6502100","三芝區"
"252001","292-VK","2018/10/26 20:38:58","新北市三芝區中山路一段40號","121.501376666667","25.2568933333333","6502100","三芝區"
"242037","AAC-296","2018/10/26 20:38:53","新北市新莊區建福路32號","121.426335","25.0285866666667","6500500","新莊區"
"242058","986-R7","2018/10/26 20:38:56","新北市新莊區四維路129-1號","121.42289","25.0226533333333","6500500","新莊區"
"242056","751-BX","2018/10/26 20:38:52","新北市新莊區瓊泰路25號","121.444196666667","25.0285533333333","6500500","新莊區"
"242027","615-BX","2018/10/26 20:38:41","新北市新莊區思源路103號","121.460125","25.04181","6500500","新莊區"
"242025","613-BX","2018/10/26 20:38:43","新北市新莊區五權一路13-3號","121.459636666667","25.06876","6500500","新莊區"
"242029","612-BX","2018/10/26 20:38:51","新北市新莊區中華路二段26-1號","121.453531666667","25.04514","6500500","新莊區"
"242044","566-BX","2018/10/26 20:38:56","新北市新莊區龍安路108號","121.418316666667","25.020405","6500500","新莊區"
"242048","497-BY","2018/10/26 20:38:43","新北市新莊區中正路639號","121.430941666667","25.0314433333333","6500500","新莊區"
"242054","441-UM","2018/10/26 20:38:42","新北市新莊區西盛街324巷41號","121.426658333333","25.0147583333333","6500500","新莊區"
"242039","415-TV","2018/10/26 20:38:49","新北市新莊區民安路453號","121.434403333333","25.0225216666667","6500500","新莊區"
"242009","413-TV","2018/10/26 20:38:58","新北市新莊區幸福路64巷10號","121.457128333333","25.049885","6500500","新莊區"
"242046","400-BY","2018/10/26 20:39:00","新北市新莊區裕民街101號","121.418333333333","25.0230916666667","6500500","新莊區"
"242023","362-BY","2018/10/26 20:38:59","新北市新莊區復興路三段46號","121.461618333333","25.0444333333333","6500500","新莊區"
"242060","353-BY","2018/10/26 20:38:56","新北市新莊區新樹路258巷3號","121.432128333333","25.01559","6500500","新莊區"
"242011","132-UY","2018/10/26 20:38:46","新北市新莊區中榮街104巷23號","121.44688","25.0537633333333","6500500","新莊區"
"242034","135-UY","2018/10/26 20:38:55","新北市新莊區中正路307號","121.448225","25.0352366666667","6500500","新莊區"
"242050","172-VK","2018/10/26 20:38:46","新北市新莊區民安西路110號","121.426901666667","25.0189216666667","6500500","新莊區"
"242013","173-VK","2018/10/26 20:38:56","新北市新莊區中和街175巷7號","121.447396666667","25.0506033333333","6500500","新莊區"
"242019","175-VK","2018/10/26 20:39:01","新北市新莊區中正路147-7號","121.45768","25.0371183333333","6500500","新莊區"
"242007","176-VK","2018/10/26 20:38:54","新北市新莊區福壽街54號","121.458331666667","25.04879","6500500","新莊區"
"242015","347-TH","2018/10/26 20:38:44","新北市新莊區和興街25號","121.447278333333","25.0394466666667","6500500","新莊區"
"242032","348-TH","2018/10/26 20:38:51","新北市新莊區中正路589號","121.434253333333","25.03248","6500500","新莊區"
"242005","349-TH","2018/10/26 20:38:54","新北市三重區光復路二段170號","121.47216","25.0612","6500500","新莊區"
"242021","350-TH","2018/10/26 20:38:59","新北市新莊區公園路100號","121.450706666667","25.0398683333333","6500500","新莊區"
"221008","489-VK","2018/10/26 20:38:56","新北市汐止區康寧街861巷5號","121.645335","25.07614","6501100","汐止區"
"221036","130-UY","2018/10/26 20:38:49","新北市汐止區仁愛路329號","121.664178333333","25.06794","6501100","汐止區"
"221015","131-UY","2018/10/26 20:38:52","新北市汐止區建成路17號","121.664473333333","25.0725583333333","6501100","汐止區"
"221023","279-VK","2018/10/26 20:38:56","新北市汐止區明峰街13號","121.635091666667","25.0713166666667","6501100","汐止區"
"221032","280-BY","2018/10/26 20:38:43","新北市汐止區橫科路221巷19-1號","121.621395","25.0496033333333","6501100","汐止區"
"221027","281-BY","2018/10/26 20:38:50","新北市汐止區大同路二段563-1號","121.662856666667","25.069905","6501100","汐止區"
"221029","298-VK","2018/10/26 20:38:44","新北市汐止區大同路一段421號","121.642598333333","25.061145","6501100","汐止區"
"221021","299-VK","2018/10/26 20:38:45","新北市汐止區水源路一段297號","121.654313333333","25.0581333333333","6501100","汐止區"
"221035","622-UM","2018/10/26 20:38:57","新北市汐止區長江街101-5號","121.65873","25.0731616666667","6501100","汐止區"
"221025","623-UM","2018/10/26 20:38:45","新北市汐止區水源路二段189號","121.657796666667","25.0533333333333","6501100","汐止區"
"221038","646-BX","2018/10/26 20:38:48","新北市汐止區新江北路30巷15號","121.652786666667","25.068765","6501100","汐止區"
"221033","647-BX","2018/10/26 20:38:52","新北市汐止區合順街18巷8弄5號","121.62034","25.041925","6501100","汐止區"
"221002","707-TV","2018/10/26 20:38:58","新北市汐止區福德二路140號","121.630713333333","25.0652533333333","6501100","汐止區"
"221018","753-BX","2018/10/26 20:38:58","新北市汐止區中華街75號","121.668266666667","25.0709283333333","6501100","汐止區"
"220083","286-VK","2018/10/26 20:38:56","新北市板橋區僑中二街108巷7號","121.445448333333","25.0072216666667","6500100","板橋區"
"242002","281-VK","2018/10/26 20:38:54","新北市新莊區中正路92號","121.455308333333","25.036715","6500500","新莊區"
"220103","561-BX","2018/10/26 20:38:41","新北市板橋區漢生東路73巷26號","121.467235","25.0169416666667","6500100","板橋區"
"220070","AAC-253","2018/10/26 20:38:57","新北市八里區商港路120號","121.392848333333","25.1500516666667","6500100","板橋區"
