"lineid","car","time","location","longitude","latitude","cityid","cityname"
"241025","271-UM","2018/10/26 21:49:00","新北市林口區太平里180號","121.36775","25.1337083333333","6500200","三重區"
"247012","KEA-2869","2018/10/26 21:48:53","新北市八里區中山路三段409號","121.36868","25.13563","6501400","蘆洲區"
"235010","733-UM","2018/10/26 21:40:23","新北市中和區員山路36巷13號","121.484171666667","24.9907683333333","6500300","中和區"
"251005","010-UM","2018/10/26 21:48:47","新北市淡水區鄧公路30巷14號","121.453101666667","25.16979","6501000","淡水區"
"251002","012-UM","2018/10/26 21:48:48","新北市淡水區學府路210號","121.447938333333","25.17636","6501000","淡水區"
"251008","181-VK","2018/10/26 21:48:58","新北市淡水區學府路104號","121.4498","25.17183","6501000","淡水區"
"251010","413-VK","2018/10/26 21:48:57","新北市淡水區中正路二段206號","121.426148333333","25.1889533333333","6501000","淡水區"
"251012","441-VK","2018/10/26 21:48:52","新北市淡水區下圭柔山431-1號","121.449903333333","25.2105366666667","6501000","淡水區"
"251004","443-VK","2018/10/26 21:48:53","新北市淡水區自強路201巷39號","121.462121666667","25.126835","6501000","淡水區"
"251006","561-UM","2018/10/26 21:48:48","新北市淡水區中正路11巷3號","121.43783","25.1707366666667","6501000","淡水區"
"251009","575-R6","2018/10/26 21:49:01","新北市淡水區民族路35巷17號","121.464801666667","25.136845","6501000","淡水區"
"251007","577-R6","2018/10/26 21:49:02","新北市淡水區水源街二段179號","121.455265","25.17594","6501000","淡水區"
"251011","650-BX","2018/10/26 21:48:53","新北市淡水區新民街322巷9號","121.436411666667","25.182885","6501000","淡水區"
"251003","673-BX","2018/10/26 21:48:59","新北市淡水區新春街83號","121.438803333333","25.1824616666667","6501000","淡水區"
"220070","AAC-253","2018/10/26 21:48:57","新北市板橋區華東街1-9號","121.44824","24.9948433333333","6500100","板橋區"
