"lineid","car","time","location","longitude","latitude","cityid","cityname"
"232004","290-BY","2018/10/27 06:48:04","新北市坪林區九芎林19-5號","121.708243333333","24.9272666666667","6502000","坪林區"
"232016","291-BY","2018/10/27 06:48:08","新北市坪林區北宜路八段349號","121.710401666667","24.9334966666667","6502000","坪林區"
"232009","758-BX","2018/10/27 06:47:54","新北市坪林區九芎林37號","121.702881666667","24.9209366666667","6502000","坪林區"
"244005","248-BX","2018/10/27 06:48:04","新北市林口區粉寮路二段88巷100-10號","121.408943333333","25.0902766666667","6501700","林口區"
"235001","611-BX","2018/10/27 06:47:57","新北市中和區圓通路367巷6號","121.491448333333","24.989255","6500300","中和區"
"226005","5620-A6","2018/10/27 06:47:58","新北市平溪區石底里公園街18-3號","121.733463333333","25.025745","6502400","平溪區"
"223006","022-BY","2018/10/27 06:48:04","新北市石碇區楓子林61號","121.644733333333","25.0108566666667","6501900","石碇區"
"223002","KEA-2673","2018/10/27 06:48:04","新北市石碇區烏塗窟12號","121.655536666667","24.9747983333333","6501900","石碇區"
"223003","205-TH","2018/10/27 06:47:59","新北市石碇區湳窟34-2號","121.665298333333","24.9939983333333","6501900","石碇區"
"223008","406-TH","2018/10/27 06:47:58","新北市石碇區靜安路一段102號","121.648048333333","25.00889","6501900","石碇區"
"223004","437-BY","2018/10/27 06:48:07","新北市石碇區碇坪路一段89號","121.662173333333","24.9903733333333","6501900","石碇區"
"223001","592-UM","2018/10/27 06:48:11","新北市石碇區湳窟37-1號","121.66285","24.995685","6501900","石碇區"
"223007","661-BX","2018/10/27 06:48:03","新北市石碇區雙溪84-1號","121.661361666667","25.0088866666667","6501900","石碇區"
"223005","677-TV","2018/10/27 06:48:06","新北市石碇區碇坪路一段89號","121.662156666667","24.9903","6501900","石碇區"
"227006","282-VK","2018/10/27 06:48:02","新北市雙溪區新基里自強路5號","121.866361666667","25.0390466666667","6502500","雙溪區"
