"lineid","car","time","location","longitude","latitude","cityid","cityname"
"232001","290-BY","2018/07/02 06:38:58","新北市坪林區鶯子瀨1-2號","121.708415","24.9189166666667","6502000","坪林區"
"232012","291-BY","2018/07/02 06:39:17","新北市坪林區北宜路八段553號","121.715923333333","24.9110966666667","6502000","坪林區"
"232010","375-UM","2018/07/02 06:39:15","新北市坪林區魚堀55-1號","121.708371666667","24.929455","6502000","坪林區"
"232017","705-BZ","2018/07/02 06:39:28","新北市坪林區北宜路八段558號","121.717993333333","24.9093883333333","6502000","坪林區"
"232005","758-BX","2018/07/02 06:39:16","新北市坪林區北宜路八段367號","121.70948","24.9323816666667","6502000","坪林區"
"223006","022-BY","2018/07/02 06:39:28","新北市石碇區下橫坪11-3號","121.667286666667","24.9854866666667","6501900","石碇區"
"223002","KEA-2673","2018/07/02 06:39:29","新北市石碇區碇坪路一段130號","121.659401666667","24.99125","6501900","石碇區"
"223003","205-TH","2018/07/02 06:39:20","新北市石碇區碇坪路一段115號","121.66471","24.9878283333333","6501900","石碇區"
"223008","406-TH","2018/07/02 06:39:17","新北市石碇區小粗坑(潭邊里)14-1號","121.681691666667","24.981775","6501900","石碇區"
"223007","661-BX","2018/07/02 06:39:22","新北市石碇區碇坪路一段150號","121.660321666667","24.9913033333333","6501900","石碇區"
"227005","282-VK","2018/07/02 06:39:13","新北市雙溪區牡丹里中正路70號","121.86422","25.0443866666667","6502500","雙溪區"
