"lineid","car","time","location","longitude","latitude","cityid","cityname"
"232001","290-BY","2018/07/02 06:49:18","新北市坪林區坪雙路一段88號","121.717931666667","24.9458983333333","6502000","坪林區"
"232012","291-BY","2018/07/02 06:49:17","新北市坪林區北宜路七段306號","121.694848333333","24.9356933333333","6502000","坪林區"
"232017","705-BZ","2018/07/02 06:49:27","新北市坪林區坪林街16-1號","121.71251","24.9365","6502000","坪林區"
"232005","758-BX","2018/07/02 06:49:16","新北市坪林區北宜路八段260號","121.70955","24.9350583333333","6502000","坪林區"
"244001","248-BX","2018/07/02 06:49:11","新北市林口區粉寮路二段149號","121.403913333333","25.0875783333333","6501700","林口區"
"235043","352-BY","2018/07/02 06:49:22","新北市中和區信義街2-5號","121.510841666667","24.989655","6500300","中和區"
"223006","022-BY","2018/07/02 06:49:09","新北市石碇區楓子林55-5號","121.642845","25.0081716666667","6501900","石碇區"
"223002","KEA-2673","2018/07/02 06:49:10","新北市石碇區烏塗窟34號","121.653976666667","24.9724016666667","6501900","石碇區"
"223003","205-TH","2018/07/02 06:49:20","新北市石碇區湳窟41號","121.663305","24.9959116666667","6501900","石碇區"
"223008","406-TH","2018/07/02 06:49:17","新北市石碇區石崁1號","121.651433333333","25.002505","6501900","石碇區"
"223001","592-UM","2018/07/02 06:49:23","新北市石碇區湳窟32號","121.66405","24.9928833333333","6501900","石碇區"
"223007","661-BX","2018/07/02 06:49:22","新北市石碇區雙溪33-6號","121.649905","25.0083133333333","6501900","石碇區"
"223005","677-TV","2018/07/02 06:49:21","新北市石碇區碇坪路一段107號","121.663521666667","24.9889816666667","6501900","石碇區"
"227005","282-VK","2018/07/02 06:49:13","新北市雙溪區新基里自強路5號","121.866506666667","25.0390283333333","6502500","雙溪區"
"252006","073-UM","2018/07/02 06:49:15","新北市三芝區埔坪里埔頭坑41號","121.504548333333","25.2646033333333","6502100","三芝區"
