"lineid","car","time","location","longitude","latitude","cityid","cityname"
"248005","653-BX","2018/07/02 07:39:22","新北市五股區明德路12巷6號","121.433401666667","25.0717783333333","6501500","五股區"
"232001","290-BY","2018/07/02 07:39:18","新北市坪林區上坑子口4號","121.698403333333","24.958335","6502000","坪林區"
"232012","291-BY","2018/07/02 07:39:17","新北市坪林區金瓜寮10-1號","121.681488333333","24.91642","6502000","坪林區"
"232010","375-UM","2018/07/02 07:39:17","新北市坪林區苦苓腳3-2號","121.714265","24.938605","6502000","坪林區"
"232017","705-BZ","2018/07/02 07:39:27","新北市平溪區東勢里芊蓁林28號","121.732528333333","24.9758216666667","6502000","坪林區"
"232005","758-BX","2018/07/02 07:39:16","新北市坪林區魚堀49號","121.701441666667","24.9299","6502000","坪林區"
"244001","248-BX","2018/07/02 07:39:11","新北市林口區頂福里77-3號","121.337048333333","25.096","6501700","林口區"
"244022","483-VK","2018/07/02 07:39:23","新北市林口區粉寮路二段160巷28號","121.405111666667","25.0907616666667","6501700","林口區"
"235043","352-BY","2018/07/02 07:39:22","新北市中和區和平街29-1號","121.50756","24.991055","6500300","中和區"
"226005","5620-A6","2018/07/02 07:39:22","新北市平溪區靜安路二段292號","121.729715","25.0224316666667","6502400","平溪區"
"226001","7418-A5","2018/07/02 07:39:27","新北市平溪區南山里南山坪20號","121.77228","25.0372433333333","6502400","平溪區"
"226003","AGD-0702","2018/07/02 07:39:21","新北市平溪區嶺腳里嶺腳寮79號","121.74784","25.03313","6502400","平溪區"
"223006","022-BY","2018/07/02 07:39:12","新北市石碇區碇坪路一段2號","121.65156","25.0062533333333","6501900","石碇區"
"223002","KEA-2673","2018/07/02 07:39:10","新北市石碇區北宜路五段土巷11號","121.629881666667","24.9469116666667","6501900","石碇區"
"223003","205-TH","2018/07/02 07:39:20","新北市石碇區中楒子腳2-5號","121.637533333333","24.9725216666667","6501900","石碇區"
"223008","406-TH","2018/07/02 07:39:19","新北市石碇區大溪墘2-4號","121.6992","25.0122683333333","6501900","石碇區"
"223001","592-UM","2018/07/02 07:39:23","新北市石碇區中楒子腳2-1號","121.63842","24.9720733333333","6501900","石碇區"
"223004","660-BX","2018/07/02 07:39:27","新北市石碇區靜安路一段31號","121.642406666667","25.0118566666667","6501900","石碇區"
"223007","661-BX","2018/07/02 07:39:22","新北市石碇區大溪墘9-1號","121.697966666667","25.00836","6501900","石碇區"
"223005","677-TV","2018/07/02 07:39:21","新北市石碇區八分寮47-1號","121.642473333333","25.0138733333333","6501900","石碇區"
"227005","282-VK","2018/07/02 07:39:13","新北市雙溪區雙溪里太平路54號","121.864823333333","25.0355183333333","6502500","雙溪區"
"252006","073-UM","2018/07/02 07:39:15","新北市三芝區古庄里茂興店63號","121.488541666667","25.266145","6502100","三芝區"
"252004","249-BX","2018/07/02 07:39:26","新北市三芝區店子里菜公坑77-1號","121.510983333333","25.206155","6502100","三芝區"
"237001","159-UY","2018/07/02 07:39:21","新北市三峽區三樹路88號","121.377936666667","24.938665","6500900","三峽區"
"236007","165-UM","2018/07/02 07:39:22","新北市土城區金城路三段287巷11弄17號","121.473123333333","24.991795","6501300","土城區"
"236001","339-SR","2018/07/02 07:39:13","新北市土城區南天母路139-1號","121.447843333333","24.9536033333333","6501300","土城區"
"242057","986-R7","2018/07/02 07:39:18","新北市新莊區新泰路255巷83號","121.442265","25.039065","6500500","新莊區"
"242052","751-BX","2018/07/02 07:39:30","新北市新莊區新泰路357巷3弄49號","121.44194","25.0400966666667","6500500","新莊區"
"242026","615-BX","2018/07/02 07:39:09","新北市新莊區新泰路255巷83號","121.442201666667","25.0388566666667","6500500","新莊區"
"242024","613-BX","2018/07/02 07:39:23","新北市新莊區新泰路357巷3弄57號","121.44205","25.03913","6500500","新莊區"
"242028","612-BX","2018/07/02 07:39:09","新北市新莊區新泰路255巷83號","121.442251666667","25.0390583333333","6500500","新莊區"
"242040","566-BX","2018/07/02 07:39:18","新北市新莊區新泰路357巷3弄57號","121.44206","25.039125","6500500","新莊區"
"242045","497-BY","2018/07/02 07:39:15","新北市泰山區磚雅厝3號","121.442276666667","25.0417233333333","6500500","新莊區"
"242049","442-UM","2018/07/02 07:39:18","新北市新莊區中正路400號","121.441976666667","25.0344233333333","6500500","新莊區"
"242035","415-TV","2018/07/02 07:39:21","新北市新莊區新泰路357巷3弄57號","121.442083333333","25.0393566666667","6500500","新莊區"
"242006","413-TV","2018/07/02 07:39:29","新北市新莊區新泰路357巷3弄57號","121.44187","25.0394783333333","6500500","新莊區"
"242043","400-BY","2018/07/02 07:39:20","新北市新莊區新泰路357巷3弄51號","121.44233","25.0399466666667","6500500","新莊區"
"242022","362-BY","2018/07/02 07:39:22","新北市新莊區新泰路255巷83號","121.442305","25.038835","6500500","新莊區"
"242059","353-BY","2018/07/02 07:39:18","新北市新莊區新泰路255巷83號","121.44224","25.03877","6500500","新莊區"
"242038","133-UY","2018/07/02 07:39:20","新北市新莊區新泰路357巷3弄1號","121.442406666667","25.0412983333333","6500500","新莊區"
"242030","135-UY","2018/07/02 07:39:24","新北市新莊區三和路12-21號","121.442026666667","25.03881","6500500","新莊區"
"242047","172-VK","2018/07/02 07:39:24","新北市新莊區中正路400號","121.441571666667","25.0338516666667","6500500","新莊區"
"242016","175-VK","2018/07/02 07:39:18","新北市新莊區三和路12-21號","121.442108333333","25.0386666666667","6500500","新莊區"
"242003","176-VK","2018/07/02 07:39:17","新北市新莊區三和路12-21號","121.4421","25.0387183333333","6500500","新莊區"
"242020","348-TH","2018/07/02 07:39:19","新北市新莊區新泰路357巷3弄1號","121.442441666667","25.0411883333333","6500500","新莊區"
"242012","351-TH","2018/07/02 07:39:28","新北市泰山區泰林路一段24號","121.439925","25.0502366666667","6500500","新莊區"
"242055","280-VK","2018/07/02 07:39:16","新北市新莊區三和路12-21號","121.442063333333","25.03829","6500500","新莊區"
