"lineid","car","time","location","longitude","latitude","cityid","cityname"
"248005","653-BX","2018/02/05 07:09:33","新北市五股區新五路二段83號","121.436715","25.0737533333333","6501500","五股區"
"232001","290-BY","2018/02/05 07:09:52","新北市坪林區桶盤嶼8-2號","121.707161666667","24.957255","6502000","坪林區"
"232012","291-BY","2018/02/05 07:09:33","新北市坪林區黃舉皮寮14-1號","121.688358333333","24.9345866666667","6502000","坪林區"
"232010","375-UM","2018/02/05 07:09:40","新北市坪林區水聳淒坑24號","121.717773333333","24.9236733333333","6502000","坪林區"
"232017","705-BZ","2018/02/05 07:09:53","新北市坪林區九芎坑3-2號","121.728156666667","24.9626616666667","6502000","坪林區"
"232005","758-BX","2018/02/05 07:09:34","新北市坪林區九芎林25-2號","121.703256666667","24.9263383333333","6502000","坪林區"
"244001","248-BX","2018/02/05 07:09:45","新北市林口區頭湖83-10號","121.369868333333","25.083245","6501700","林口區"
"222005","289-BY","2018/02/05 07:09:36","新北市深坑區萬福路57號","121.59992","25.0070783333333","6501800","深坑區"
"235001","611-BX","2018/02/05 07:09:32","新北市中和區圓通路367巷4號","121.491336666667","24.9892333333333","6500300","中和區"
"226005","5620-A6","2018/02/05 07:09:47","新北市平溪區菁桐里菁桐街159號","121.7232","25.023735","6502400","平溪區"
"226001","7418-A5","2018/02/05 07:09:48","新北市平溪區石底里公園街18-3號","121.734311666667","25.0255133333333","6502400","平溪區"
"226003","AGD-0702","2018/02/05 07:09:40","新北市平溪區菁桐里菁桐街165號","121.723046666667","25.0237","6502400","平溪區"
"223006","022-BY","2018/02/05 07:09:45","新北市石碇區深按1號","121.656233333333","25.0160516666667","6501900","石碇區"
"223008","406-TH","2018/02/05 07:09:38","新北市石碇區十八重溪16-1號","121.67669","25.0114866666667","6501900","石碇區"
"223001","437-BY","2018/02/05 07:09:33","新北市石碇區摸乳巷6-1號","121.661046666667","24.9831233333333","6501900","石碇區"
"223007","592-UM","2018/02/05 07:09:37","新北市石碇區十八重溪16-2號","121.677336666667","25.0113466666667","6501900","石碇區"
"223004","660-BX","2018/02/05 07:09:47","新北市石碇區雙溪47號","121.651793333333","25.0071683333333","6501900","石碇區"
"223005","677-TV","2018/02/05 07:09:50","新北市石碇區碇坪路一段10號","121.65167","25.0059866666667","6501900","石碇區"
"227005","282-VK","2018/02/05 07:09:43","新北市雙溪區新基里自強路5號","121.866341666667","25.0391016666667","6502500","雙溪區"
"252006","073-UM","2018/02/05 07:09:39","新北市三芝區福德里埔尾9-2號","121.50251","25.2423633333333","6502100","三芝區"
"252004","249-BX","2018/02/05 07:09:43","新北市三芝區錫板里小坑子9-1號","121.50269","25.2396966666667","6502100","三芝區"
"236007","165-UM","2018/02/05 07:09:37","新北市土城區中央路三段50號","121.437183333333","24.96751","6501300","土城區"
"236001","339-SR","2018/02/05 07:09:47","新北市土城區中央路三段85-4號","121.437966666667","24.9680033333333","6501300","土城區"
"242045","172-VK","2018/02/05 07:09:43","新北市新莊區三和路12-21號","121.441928333333","25.0388633333333","6500500","新莊區"
"220064","282-UM","2018/02/05 07:09:33","新北市板橋區國光路49巷2號","121.458068333333","25.0180366666667","6500100","板橋區"
