"lineid","car","time","location","longitude","latitude","cityid","cityname"
"248005","653-BX","2018/02/05 07:19:33","新北市五股區明德路10號","121.433358333333","25.0717633333333","6501500","五股區"
"232001","290-BY","2018/02/05 07:19:32","新北市坪林區桶盤嶼8-2號","121.706353333333","24.9570733333333","6502000","坪林區"
"232012","291-BY","2018/02/05 07:19:33","新北市坪林區仁里10-2號","121.69194","24.93164","6502000","坪林區"
"232010","375-UM","2018/02/05 07:19:40","新北市坪林區水聳淒坑6號","121.725598333333","24.9263883333333","6502000","坪林區"
"232017","705-BZ","2018/02/05 07:19:33","新北市坪林區九芎坑3號","121.724631666667","24.9656116666667","6502000","坪林區"
"232005","758-BX","2018/02/05 07:19:34","新北市坪林區魚堀38-1號","121.698388333333","24.9314783333333","6502000","坪林區"
"244001","248-BX","2018/02/05 07:19:45","新北市林口區頂福里71-30號","121.356923333333","25.0775166666667","6501700","林口區"
"222005","289-BY","2018/02/05 07:19:36","新北市深坑區萬福路52號","121.605371666667","25.0135216666667","6501800","深坑區"
"235001","611-BX","2018/02/05 07:19:52","新北市中和區圓通路367巷4號","121.491365","24.98924","6500300","中和區"
"226005","5620-A6","2018/02/05 07:19:47","新北市平溪區菁桐里菁桐街70號","121.721793333333","25.0234983333333","6502400","平溪區"
"226001","7418-A5","2018/02/05 07:19:41","新北市平溪區靜安路二段462巷17號","121.74123","25.0249533333333","6502400","平溪區"
"226003","AGD-0702","2018/02/05 07:19:40","新北市平溪區白石里中埔227-2號","121.721953333333","25.020525","6502400","平溪區"
"223006","022-BY","2018/02/05 07:19:45","新北市石碇區碇坪路一段12號","121.651628333333","25.0059466666667","6501900","石碇區"
"223008","406-TH","2018/02/05 07:19:38","新北市石碇區番子坑23號","121.674805","25.0020916666667","6501900","石碇區"
"223001","437-BY","2018/02/05 07:19:53","新北市石碇區烏塗窟29-1號","121.655886666667","24.9749766666667","6501900","石碇區"
"223007","592-UM","2018/02/05 07:19:37","新北市石碇區番子坑9-2號","121.68359","24.9997733333333","6501900","石碇區"
"223004","660-BX","2018/02/05 07:19:47","新北市石碇區新興坑1號","121.654098333333","25.015655","6501900","石碇區"
"223005","677-TV","2018/02/05 07:19:50","新北市石碇區新興坑1-1號","121.654676666667","25.0142633333333","6501900","石碇區"
"227005","282-VK","2018/02/05 07:19:43","新北市雙溪區新基里自強路5號","121.866303333333","25.03899","6502500","雙溪區"
"252006","073-UM","2018/02/05 07:19:39","新北市三芝區錫板里海尾25號","121.485493333333","25.2553066666667","6502100","三芝區"
"252004","249-BX","2018/02/05 07:19:43","新北市三芝區福德里大湖10號","121.504603333333","25.2235283333333","6502100","三芝區"
"236007","165-UM","2018/02/05 07:19:37","新北市土城區中華路一段48巷18號","121.445483333333","24.990055","6501300","土城區"
"236001","339-SR","2018/02/05 07:19:47","新北市土城區和平路95-1號","121.450368333333","24.9694983333333","6501300","土城區"
"242059","362-BY","2018/02/05 07:19:35","新北市新莊區三和路12-21號","121.442118333333","25.0387433333333","6500500","新莊區"
"242045","172-VK","2018/02/05 07:19:43","新北市新莊區三和路12-21號","121.442021666667","25.0384783333333","6500500","新莊區"
"242010","351-TH","2018/02/05 07:19:43","新北市新莊區新泰路357巷3弄57號","121.441956666667","25.0394383333333","6500500","新莊區"
"220064","282-UM","2018/02/05 07:19:28","新北市板橋區國光路49巷2號","121.458121666667","25.0180283333333","6500100","板橋區"
