"lineid","car","time","location","longitude","latitude","cityid","cityname"
"248005","653-BX","2018/02/05 07:49:33","新北市五股區明德路12巷6號","121.43341","25.0718166666667","6501500","五股區"
"232001","290-BY","2018/02/05 07:49:32","新北市坪林區下坑子口18-2號","121.709315","24.94654","6502000","坪林區"
"232012","291-BY","2018/02/05 07:49:33","新北市坪林區金瓜寮19-2號","121.680883333333","24.913835","6502000","坪林區"
"232010","375-UM","2018/02/05 07:49:40","新北市坪林區磨壁潭10號","121.722463333333","24.93837","6502000","坪林區"
"232017","705-BZ","2018/02/05 07:47:34","新北市坪林區乾溪2-2號","121.74104","24.9761183333333","6502000","坪林區"
"232005","758-BX","2018/02/05 07:49:34","新北市坪林區魚堀49號","121.7014","24.92986","6502000","坪林區"
"244001","248-BX","2018/02/05 07:49:45","新北市林口區頂福20-18號","121.353908333333","25.0925416666667","6501700","林口區"
"244018","402-UM","2018/02/05 07:49:41","新北市林口區粉寮69號","121.404995","25.0908016666667","6501700","林口區"
"222005","289-BY","2018/02/05 07:49:36","新北市深坑區萬福路52號","121.60538","25.0135216666667","6501800","深坑區"
"235001","611-BX","2018/02/05 07:49:32","新北市中和區圓通路367巷6號","121.491463333333","24.989255","6500300","中和區"
"235017","900-TW","2018/02/05 07:49:40","新北市中和區員山路36巷16-2號","121.485056666667","24.991705","6500300","中和區"
"226005","5620-A6","2018/02/05 07:49:47","新北市平溪區嶺腳里嶺腳寮74-1號","121.74771","25.0324833333333","6502400","平溪區"
"226001","7418-A5","2018/02/05 07:49:40","新北市平溪區平湖里大湖19-1號","121.780246666667","25.0223966666667","6502400","平溪區"
"226003","AGD-0702","2018/02/05 07:49:40","新北市平溪區嶺腳里嶺腳寮106-3號","121.74615","25.0376183333333","6502400","平溪區"
"223006","022-BY","2018/02/05 07:49:45","新北市石碇區靜安路一段292巷8號","121.691851666667","25.005865","6501900","石碇區"
"223008","406-TH","2018/02/05 07:49:38","新北市石碇區靜安路一段337號","121.699015","25.0145233333333","6501900","石碇區"
"223001","437-BY","2018/02/05 07:48:53","新北市石碇區樟空子2號","121.664456666667","24.9626833333333","6501900","石碇區"
"223007","592-UM","2018/02/05 07:49:37","新北市石碇區靜安路一段337號","121.698878333333","25.014665","6501900","石碇區"
"223004","660-BX","2018/02/05 07:49:46","新北市石碇區楓子林36-3號","121.642345","25.0095466666667","6501900","石碇區"
"223005","677-TV","2018/02/05 07:49:49","新北市石碇區楓子林34號","121.642205","25.0102666666667","6501900","石碇區"
"227005","282-VK","2018/02/05 07:49:43","新北市雙溪區雙溪里太平路54號","121.864728333333","25.03551","6502500","雙溪區"
"252006","073-UM","2018/02/05 07:49:39","新北市三芝區古庄里四棧橋48-1號","121.48259","25.2641016666667","6502100","三芝區"
"252004","249-BX","2018/02/05 07:49:43","新北市三芝區店子里菜公坑99-3號","121.512456666667","25.2057666666667","6502100","三芝區"
"237001","159-UY","2018/02/05 07:49:49","新北市三峽區國慶路144號","121.375623333333","24.9398183333333","6500900","三峽區"
"236007","165-UM","2018/02/05 07:49:37","新北市土城區金城路三段10號","121.464725","24.9860766666667","6501300","土城區"
"236001","339-SR","2018/02/05 07:49:47","新北市土城區南天母路121號","121.447961666667","24.95117","6501300","土城區"
"242030","AAC-296","2018/02/05 07:49:34","新北市新莊區新泰路421-1號","121.443116666667","25.0448266666667","6500500","新莊區"
"242028","986-R7","2018/02/05 07:49:42","新北市新莊區幸福路20號","121.458918333333","25.04952","6500500","新莊區"
"242024","615-BX","2018/02/05 07:49:39","新北市新莊區中港一街143號","121.447878333333","25.045065","6500500","新莊區"
"242022","613-BX","2018/02/05 07:49:37","新北市新莊區中港一街87號","121.449488333333","25.0452733333333","6500500","新莊區"
"242026","612-BX","2018/02/05 07:49:40","新北市新莊區復興路一段103號","121.449088333333","25.0429433333333","6500500","新莊區"
"242038","566-BX","2018/02/05 07:49:46","新北市新莊區民安路393號","121.43236","25.0229266666667","6500500","新莊區"
"242043","442-UM","2018/02/05 07:49:38","新北市新莊區富國路101-1號","121.421366666667","25.0254983333333","6500500","新莊區"
"242052","440-UM","2018/02/05 07:49:51","新北市新莊區環河路506號","121.438585","25.016465","6500500","新莊區"
"242003","413-TV","2018/02/05 07:49:34","新北市新莊區新泰路488號","121.442451666667","25.045875","6500500","新莊區"
"242040","400-BY","2018/02/05 07:49:42","新北市新莊區新樹路13號","121.440796666667","25.0329716666667","6500500","新莊區"
"242059","362-BY","2018/02/05 07:49:35","新北市新莊區新泰路357巷3弄31號","121.441978333333","25.0405533333333","6500500","新莊區"
"242057","353-BY","2018/02/05 07:49:49","新北市新莊區新泰路357巷3弄49號","121.441966666667","25.0400983333333","6500500","新莊區"
"242006","132-UY","2018/02/05 07:49:39","新北市新莊區中和街59號","121.447333333333","25.0468466666667","6500500","新莊區"
"242020","135-UY","2018/02/05 07:49:33","新北市新莊區中港路286號","121.45302","25.0442666666667","6500500","新莊區"
"242045","172-VK","2018/02/05 07:49:43","新北市新莊區新樹路6號","121.440615","25.0327783333333","6500500","新莊區"
"242014","175-VK","2018/02/05 07:49:42","新北市新莊區新泰路480號","121.442711666667","25.0456066666667","6500500","新莊區"
"242001","176-VK","2018/02/05 07:49:47","新北市新莊區新泰路500號","121.442538333333","25.0459566666667","6500500","新莊區"
"242049","347-TH","2018/02/05 07:49:48","新北市新莊區瓊林南路73-27號","121.43508","25.01514","6500500","新莊區"
"242018","348-TH","2018/02/05 07:49:37","新北市新莊區中港一街151號","121.447636666667","25.045075","6500500","新莊區"
"242016","350-TH","2018/02/05 07:49:42","新北市新莊區中港路286號","121.453003333333","25.044235","6500500","新莊區"
"242010","351-TH","2018/02/05 07:49:43","新北市新莊區中港一街153號","121.447561666667","25.0450583333333","6500500","新莊區"
"220064","282-UM","2018/02/05 07:49:40","新北市板橋區府中路15號","121.459545","25.0094816666667","6500100","板橋區"
"242016","281-VK","2018/02/05 07:49:38","新北市新莊區龍安路253號","121.419691666667","25.0200516666667","6500500","新莊區"
"242035","280-VK","2018/02/05 07:49:46","新北市泰山區磚雅厝3號","121.441938333333","25.0418166666667","6500500","新莊區"
