"lineid","car","time","location","longitude","latitude","cityid","cityname"
"244022","069-UM","2018/11/29 09:59:46","新北市林口區民權路151號","121.37357","25.083285","6501700","林口區"
"244003","248-BX","2018/11/29 09:59:49","新北市林口區中湖40-9號","121.383218333333","25.0912183333333","6501700","林口區"
"244018","402-UM","2018/11/29 09:59:27","新北市林口區中山路2-2號","121.396575","25.0787516666667","6501700","林口區"
"244016","485-VK","2018/11/29 09:59:33","新北市林口區民族路302-99號","121.370613333333","25.0794133333333","6501700","林口區"
"222006","289-BY","2018/11/29 09:59:31","新北市深坑區王軍寮1-5號","121.622368333333","24.9863516666667","6501800","深坑區"
"231008","192-VK","2018/11/29 09:59:30","新北市新店區小坑一路21-1號","121.531256666667","24.9117183333333","6500600","新店區"
"231007","515-UM","2018/11/29 09:59:43","新北市新店區北宜路一段178號","121.540775","24.9529916666667","6500600","新店區"
"247012","402-BY","2018/11/29 09:59:44","新北市蘆洲區民族路31-12號","121.47794","25.0850633333333","6501400","蘆洲區"
"223008","406-TH","2018/11/29 09:59:39","新北市石碇區小粗坑(潭邊里)9-2號","121.678908333333","24.9861166666667","6501900","石碇區"
"252004","249-BX","2018/11/29 09:59:32","新北市三芝區福德里土地公埔47號","121.515251666667","25.2265333333333","6502100","三芝區"
"252007","AAC-283","2018/11/29 09:59:43","新北市三芝區新庄里新庄子51-25號","121.507483333333","25.2780966666667","6502100","三芝區"
"237001","159-UY","2018/11/29 09:59:48","新北市三峽區大學路156號","121.373533333333","24.9455516666667","6500900","三峽區"
"242024","613-BX","2018/11/29 09:49:19","新北市新莊區新泰路255巷83號","121.442296666667","25.0391083333333","6500500","新莊區"
"242052","441-UM","2018/11/29 09:59:43","新北市板橋區金門街215巷111弄24號","121.434418333333","24.9874766666667","6500500","新莊區"
"242022","362-BY","2018/11/29 09:59:34","新北市樹林區中山路三段214號","121.380365","24.967915","6500500","新莊區"
"242003","349-TH","2018/11/29 09:59:33","新北市新莊區瓊林路13-3號","121.449241666667","25.0306083333333","6500500","新莊區"
