"lineid","car","time","location","longitude","latitude","cityid","cityname"
"248011","655-BX","2018/11/29 10:52:04","新北市五股區中興路二段83巷26-6號","121.46005","25.0752483333333","6501500","五股區"
"231069","189-VK","2018/11/29 11:09:43","新北市新店區新潭路一段202號","121.528913333333","24.9300866666667","6500600","新店區"
"231008","192-VK","2018/11/29 11:09:30","新北市新店區頂石厝路72號","121.535325","24.9184283333333","6500600","新店區"
"235029","098-UM","2018/11/29 11:09:32","新北市中和區員山路36巷16-2號","121.485211666667","24.991435","6500300","中和區"
"247012","402-BY","2018/11/29 11:09:44","新北市五股區中興路三段3-6號","121.449388333333","25.0790483333333","6501400","蘆洲區"
