"lineid","car","time","location","longitude","latitude","cityid","cityname"
"234044","148-BY","2018/11/29 13:19:44","新北市永和區得和路373巷5號","121.524725","24.9997833333333","6500400","永和區"
"234005","207-UY","2018/11/29 13:19:47","新北市永和區中山路一段331號","121.506141666667","25.0063183333333","6500400","永和區"
"234078","298-R6","2018/11/29 13:19:32","新北市永和區福和路7巷7號","121.525293333333","25.0078433333333","6500400","永和區"
"234036","336-UY","2018/11/29 13:19:38","新北市永和區民樂街60巷1號","121.527468333333","24.9989683333333","6500400","永和區"
"234062","337-UY","2018/11/29 13:19:39","新北市永和區永元路17巷6弄1號","121.521488333333","25.00074","6500400","永和區"
"234068","552-UM","2018/11/29 13:19:45","新北市永和區豫溪街53號","121.517103333333","25.0099083333333","6500400","永和區"
"234015","745-BX","2018/11/29 13:19:48","新北市永和區環河西路一段95巷19弄4號","121.511693333333","25.0169883333333","6500400","永和區"
"234028","746-BX","2018/11/29 13:19:36","新北市永和區厚德街89號","121.523935","24.9987733333333","6500400","永和區"
"234052","KEA-2590","2018/11/29 13:19:51","新北市永和區中興街10巷1號","121.51569","25.0118783333333","6500400","永和區"
"234012","KEA-2591","2018/11/29 13:19:44","新北市永和區信義路85號","121.512311666667","25.0135833333333","6500400","永和區"
"234060","AAD-866","2018/11/29 13:19:33","新北市永和區秀朗路一段114號","121.516968333333","25.003585","6500400","永和區"
"234084","748-BX","2018/11/29 13:19:38","新北市永和區永利路42號","121.518755","25.0054833333333","6500400","永和區"
"234040","862-TW","2018/11/29 13:19:51","新北市永和區保平路151巷6弄11號","121.50982","25.004955","6500400","永和區"
"234048","863-TW","2018/11/29 13:19:14","新北市永和區仁愛路152號","121.510681666667","25.012925","6500400","永和區"
"234022","9372-KE","2018/11/29 13:19:35","新北市永和區竹林路91巷15弄9號","121.520345","25.012385","6500400","永和區"
"234025","9371-KE","2018/11/29 13:19:35","新北市永和區大新街25號","121.515071666667","25.00858","6500400","永和區"
"234010","9373-KE","2018/11/29 13:19:05","新北市永和區文化路90巷32弄1號","121.513475","25.016615","6500400","永和區"
"248013","025-BX","2018/11/29 13:19:41","新北市五股區自強路19巷5-1號","121.434721666667","25.0738933333333","6501500","五股區"
"248015","026-BX","2018/11/29 13:19:44","新北市五股區西雲路293號","121.449215","25.0994983333333","6501500","五股區"
"248005","077-UY","2018/11/29 13:19:48","新北市五股區中興路一段161號","121.464923333333","25.0736716666667","6501500","五股區"
"248007","095-VK","2018/11/29 13:19:33","新北市五股區更洲路32巷8弄17號","121.459316666667","25.0795216666667","6501500","五股區"
"248017","225-UY","2018/11/29 13:19:44","新北市五股區御史路164號","121.42874","25.1038666666667","6501500","五股區"
"248011","655-BX","2018/11/29 13:19:53","新北市五股區御成路12號","121.4418","25.0911866666667","6501500","五股區"
"248003","677-BX","2018/11/29 13:19:44","新北市五股區成泰路二段250號","121.440063333333","25.0870416666667","6501500","五股區"
"248001","678-BX","2018/11/29 13:19:50","新北市五股區西雲路103號","121.443753333333","25.0924483333333","6501500","五股區"
"248009","682-TV","2018/11/29 13:19:44","新北市五股區成泰路一段189巷10號","121.434488333333","25.0766966666667","6501500","五股區"
"234076","969-R7","2018/11/29 13:19:36","新北市永和區民有街25巷2號","121.517128333333","24.9962416666667","6500400","永和區"
"234072","AAC-211","2018/11/29 13:19:39","新北市永和區復興街91號","121.517686666667","25.0141433333333","6500400","永和區"
"234066","AAC-212","2018/11/29 13:19:46","新北市永和區保平路50巷8弄12號","121.511521666667","25.00769","6500400","永和區"
"234001","AAC-295","2018/11/29 13:19:50","新北市永和區保福路一段100號","121.511898333333","25.01057","6500400","永和區"
"244003","248-BX","2018/11/29 13:19:33","新北市林口區寶斗厝坑54號","121.339906666667","25.11782","6501700","林口區"
"243005","AAD-798","2018/11/29 13:19:31","新北市泰山區明志路三段196巷54號","121.4215","25.0399966666667","6501600","泰山區"
"231002","002-UM","2018/11/29 13:19:51","新北市新店區安一路一段1-1號","121.519606666667","24.96148","6500600","新店區"
"231027","0293-UT","2018/11/29 13:19:53","新北市新店區安康路一段355-10號","121.520683333333","24.9638983333333","6500600","新店區"
"231028","046-UY","2018/11/29 13:19:52","新北市新店區安華路28-1號","121.519563333333","24.960855","6500600","新店區"
"231001","047-UY","2018/11/29 13:19:44","新北市新店區安一路一段1-1號","121.519481666667","24.9612416666667","6500600","新店區"
"231005","106-UY","2018/11/29 13:19:38","新北市新店區安華路28-1號","121.51959","24.9608716666667","6500600","新店區"
"231010","107-UY","2018/11/29 13:19:46","新北市新店區安康路一段107-2號","121.528901666667","24.9616333333333","6500600","新店區"
"231021","108-UY","2018/11/29 13:19:35","新北市新店區安一路一段1-1號","121.519613333333","24.9612333333333","6500600","新店區"
"231011","187-VK","2018/11/29 13:19:38","新北市新店區安康路一段355-10號","121.520468333333","24.963855","6500600","新店區"
"231023","KEA-2219","2018/11/29 13:19:39","新北市新店區安一路一段1-1號","121.519531666667","24.961355","6500600","新店區"
"231026","256-BX","2018/11/29 13:19:44","新北市新店區安一路一段1-1號","121.519571666667","24.9611516666667","6500600","新店區"
"231003","268-BY","2018/11/29 13:19:51","新北市新店區安一路一段1-1號","121.519855","24.9610916666667","6500600","新店區"
"231017","AAD-862","2018/11/29 13:19:45","新北市新店區環河路29巷1-1號","121.535716666667","24.96102","6500600","新店區"
"231037","4716-K9","2018/11/29 13:19:42","新北市新店區安華路28-1號","121.519745","24.9607066666667","6500600","新店區"
"231025","4715-K9","2018/11/29 13:19:49","新北市新店區中央七街58號","121.528005","24.97611","6500600","新店區"
"231036","512-UM","2018/11/29 13:18:05","新北市新店區安康路二段362號","121.501741666667","24.957395","6500600","新店區"
"231013","513-UM","2018/11/29 13:19:34","新北市新店區安一路一段1-1號","121.519615","24.9611883333333","6500600","新店區"
"231034","616-UM","2018/11/29 13:19:39","新北市新店區安華路1-1號","121.519441666667","24.9605016666667","6500600","新店區"
"231006","617-UM","2018/11/29 13:19:46","新北市新店區安華路28-1號","121.519518333333","24.9609733333333","6500600","新店區"
"231030","619-UM","2018/11/29 13:19:35","新北市新店區安華路28-1號","121.519715","24.9608383333333","6500600","新店區"
"231035","719-UM","2018/11/29 13:19:33","新北市新店區安一路一段1-1號","121.519453333333","24.9611916666667","6500600","新店區"
"231018","719-UY","2018/11/29 13:19:47","新北市新店區環河路111-10號","121.53065","24.9705866666667","6500600","新店區"
"231031","720-UM","2018/11/29 13:19:34","新北市新店區安忠路57巷11弄14號","121.515396666667","24.95796","6500600","新店區"
"231029","897-TW","2018/11/29 13:19:34","新北市新店區安華路28-1號","121.51964","24.9608583333333","6500600","新店區"
"231004","899-TW","2018/11/29 13:19:46","新北市新店區安華路28-1號","121.519261666667","24.9608516666667","6500600","新店區"
"231024","AKT-0513","2018/11/29 13:19:33","新北市新店區安康路一段9-2號","121.533665","24.9605383333333","6500600","新店區"
"235030","003-UY","2018/11/29 13:19:38","新北市中和區中山路二段122號","121.502656666667","25.0036666666667","6500300","中和區"
"235027","006-UY","2018/11/29 13:19:47","新北市中和區中正路589巷1號","121.485813333333","24.9944633333333","6500300","中和區"
"235020","096-UM","2018/11/29 13:19:34","新北市中和區中正路637巷52弄1號","121.485458333333","24.9933433333333","6500300","中和區"
"235003","097-UM","2018/11/29 13:19:46","新北市中和區安平路59號","121.509656666667","24.9949933333333","6500300","中和區"
"235029","098-UM","2018/11/29 13:19:51","新北市中和區莊敬路49巷20弄20號","121.502638333333","25.0057983333333","6500300","中和區"
"235004","150-BY","2018/11/29 13:19:38","新北市中和區景安路70號","121.50577","24.9966716666667","6500300","中和區"
"235022","151-BY","2018/11/29 13:15:17","新北市中和區圓通路369巷55弄1號","121.490715","24.98407","6500300","中和區"
"235019","183-VK","2018/11/29 13:19:45","新北市中和區中正路637巷52弄7號","121.48503","24.99372","6500300","中和區"
"235002","185-VK","2018/11/29 13:19:36","新北市中和區大智街111號","121.523523333333","24.9924866666667","6500300","中和區"
"235013","186-VK","2018/11/29 13:19:49","新北市中和區錦和路350-1號","121.490288333333","24.99359","6500300","中和區"
"235031","255-BX","2018/11/29 13:19:38","新北市中和區新生街191號","121.483933333333","25.000245","6500300","中和區"
"235007","352-BY","2018/11/29 13:19:38","新北市中和區景平路381號","121.503901666667","24.9932816666667","6500300","中和區"
"235014","4979-A6","2018/11/29 13:19:39","新北市中和區捷運路100-1號","121.506233333333","24.9911816666667","6500300","中和區"
"235033","4980-A6","2018/11/29 13:19:51","新北市中和區中正路503號","121.4887","24.9941283333333","6500300","中和區"
"235034","558-UM","2018/11/29 13:19:41","新北市中和區圓通路72號","121.500151666667","24.9972783333333","6500300","中和區"
"235009","565-BX","2018/11/29 13:19:32","新北市中和區景安路200巷4弄2號","121.503721666667","24.9915316666667","6500300","中和區"
"235018","640-BX","2018/11/29 13:19:45","新北市中和區國光街112巷1弄5號","121.469456666667","25.0009466666667","6500300","中和區"
"235024","647-TV","2018/11/29 13:19:51","新北市中和區員山路109號","121.480886666667","24.9946616666667","6500300","中和區"
"235011","732-UM","2018/11/29 13:19:46","新北市中和區南山路487號","121.507896666667","24.9880033333333","6500300","中和區"
"235035","783-BX","2018/11/29 13:19:45","新北市中和區中板路18巷2弄2號","121.484085","25.0122216666667","6500300","中和區"
"235026","800-TS","2018/11/29 13:19:39","新北市中和區橋和路172號","121.494926666667","25.0064416666667","6500300","中和區"
"235021","801-TS","2018/11/29 13:19:38","新北市中和區民安街83號","121.477795","24.9996033333333","6500300","中和區"
"235005","802-TS","2018/11/29 13:19:42","新北市中和區景安路55號","121.507211666667","24.9982266666667","6500300","中和區"
"235012","896-TW","2018/11/29 13:19:39","新北市中和區員山路36巷16-2號","121.484995","24.991875","6500300","中和區"
"235017","900-TW","2018/11/29 13:19:44","新北市中和區中正路637巷60弄61號","121.48547","24.9932566666667","6500300","中和區"
"235015","157-BY","2018/11/29 13:19:49","新北市中和區仁愛街89號","121.511931666667","24.9870433333333","6500300","中和區"
"235001","AAC-213","2018/11/29 13:19:42","新北市中和區景德街55號","121.517483333333","24.99134","6500300","中和區"
"235023","AAC-215","2018/11/29 13:19:49","新北市中和區員山路36巷16-3號","121.485011666667","24.99133","6500300","中和區"
"220013","072-UY","2018/11/29 13:19:48","新北市板橋區華東街1-9號","121.448108333333","24.994955","6500100","板橋區"
"247009","056-VK","2018/11/29 13:19:47","新北市五股區中興路三段2巷10號","121.449046666667","25.0809416666667","6501400","蘆洲區"
"228005","097-TW","2018/11/29 13:19:44","新北市貢寮區美豐里丹裡街18號","121.912803333333","25.0572233333333","6502600","貢寮區"
"228004","212-TW","2018/11/29 13:19:44","新北市貢寮區吉林里內寮街23號","121.901856666667","24.98424","6502600","貢寮區"
"253003","6232-TK","2018/11/29 13:19:39","新北市石門區石崩山19號","121.566318333333","25.2661566666667","6502200","石門區"
"253004","6251-TK","2018/11/29 13:19:13","新北市石門區阿里荖69號","121.61217","25.2712516666667","6502200","石門區"
"253002","637-UY","2018/11/29 13:19:34","新北市石門區九芎林17號","121.553801666667","25.2697933333333","6502200","石門區"
"253001","KEC-0718","2018/11/29 13:19:47","新北市石門區八甲1-9號","121.521115","25.2838516666667","6502200","石門區"
"207002","749-BX","2018/11/29 13:19:49","新北市萬里區崁腳里崁腳路166號","121.645071666667","25.1558083333333","6502800","萬里區"
"207001","662-BX","2018/11/29 13:19:34","新北市萬里區龜吼里玉田路29號","121.681071666667","25.1955566666667","6502800","萬里區"
"252005","AAC-283","2018/11/29 13:19:35","新北市三芝區福德里土地公埔67-6號","121.519236666667","25.2274766666667","6502100","三芝區"
"242049","172-VK","2018/11/29 13:19:45","新北市新莊區中正路887-14號","121.416253333333","25.02434","6500500","新莊區"
"221033","647-BX","2018/11/29 13:19:37","新北市汐止區新台五路一段260-3號","121.658033333333","25.06425","6501100","汐止區"
"220022","895-R6","2018/11/29 13:19:34","新北市板橋區華東街1-10號","121.448203333333","24.9950616666667","6500100","板橋區"
"220021","985-R7","2018/11/29 13:19:49","新北市板橋區華東街1-10號","121.448273333333","24.9950083333333","6500100","板橋區"
"235032","KEA-2873","2018/11/29 13:19:43","新北市中和區員山路36巷16-3號","121.484988333333","24.9913416666667","6500300","中和區"
"235025","KEA-2875","2018/11/29 13:19:48","新北市中和區國光街54號","121.470655","25.00034","6500300","中和區"
"235028","KEA-2876","2018/11/29 13:19:47","新北市中和區圓通路169號","121.497608333333","24.9953883333333","6500300","中和區"
