"lineid","car","time","location","longitude","latitude","cityid","cityname"
"234044","148-BY","2018/11/29 13:39:24","新北市永和區秀朗路二段68號","121.522778333333","25.0016716666667","6500400","永和區"
"234005","207-UY","2018/11/29 13:39:07","新北市永和區永和路二段35號","121.514481666667","25.0103783333333","6500400","永和區"
"234078","298-R6","2018/11/29 13:39:16","新北市永和區國中路104巷8弄12號","121.525061666667","25.0065483333333","6500400","永和區"
"234036","336-UY","2018/11/29 13:39:19","新北市永和區民樂街37巷7號","121.528125","25.0008","6500400","永和區"
"234062","337-UY","2018/11/29 13:39:19","新北市永和區秀朗路二段24巷28弄8號","121.51986","25.00194","6500400","永和區"
"234068","552-UM","2018/11/29 13:39:05","新北市永和區永和路二段237-1號","121.51568","25.0145033333333","6500400","永和區"
"234015","745-BX","2018/11/29 13:39:20","新北市永和區永和路二段395-1號","121.515346666667","25.0169083333333","6500400","永和區"
"234028","746-BX","2018/11/29 13:39:19","新北市永和區民權路1巷22號","121.521446666667","24.99838","6500400","永和區"
"234052","KEA-2590","2018/11/29 13:39:11","新北市永和區竹林路39巷24弄9號","121.51923","25.0142166666667","6500400","永和區"
"234012","KEA-2591","2018/11/29 13:39:04","新北市永和區永平路224-1號","121.509066666667","25.010745","6500400","永和區"
"234060","AAD-866","2018/11/29 13:39:14","新北市永和區中正路404號","121.517475","25.0018333333333","6500400","永和區"
"234084","748-BX","2018/11/29 13:39:19","新北市永和區永亨路157號","121.525866666667","25.0039516666667","6500400","永和區"
"234040","862-TW","2018/11/29 13:39:15","新北市永和區中和路373號","121.50834","24.9998666666667","6500400","永和區"
"234048","863-TW","2018/11/29 13:39:13","新北市永和區保安路33號","121.509885","25.0162333333333","6500400","永和區"
"234022","9372-KE","2018/11/29 13:39:15","新北市永和區中正路704號","121.516268333333","25.0100016666667","6500400","永和區"
"234025","9371-KE","2018/11/29 13:39:15","新北市永和區中山路一段147號","121.510246666667","25.00952","6500400","永和區"
"234010","9373-KE","2018/11/29 13:39:17","新北市永和區保福路二段15巷29號","121.510131666667","25.0109983333333","6500400","永和區"
"248013","025-BX","2018/11/29 13:39:20","新北市五股區成泰路二段51號","121.43751","25.0831616666667","6501500","五股區"
"248015","026-BX","2018/11/29 13:39:04","新北市五股區凌雲路一段149巷42號","121.448593333333","25.1009383333333","6501500","五股區"
"248005","077-UY","2018/11/29 13:39:13","新北市五股區中興路一段50號","121.468043333333","25.0726316666667","6501500","五股區"
"248007","095-VK","2018/11/29 13:39:13","新北市五股區中興路一段151巷1弄1號","121.465056666667","25.07332","6501500","五股區"
"248017","225-UY","2018/11/29 13:39:03","新北市五股區民義路二段43號","121.410528333333","25.10431","6501500","五股區"
"248011","655-BX","2018/11/29 13:39:09","新北市五股區成泰路二段195巷1號","121.440458333333","25.08744","6501500","五股區"
"248003","677-BX","2018/11/29 13:39:24","新北市五股區民義路一段282號","121.425468333333","25.0930133333333","6501500","五股區"
"248001","678-BX","2018/11/29 13:39:10","新北市五股區西雲路221號","121.44875","25.0969783333333","6501500","五股區"
"248009","682-TV","2018/11/29 13:39:04","新北市五股區水碓三路143號","121.431688333333","25.07366","6501500","五股區"
"234076","969-R7","2018/11/29 13:39:16","新北市永和區得和路168號","121.519473333333","25.0001316666667","6500400","永和區"
"234072","AAC-211","2018/11/29 13:39:19","新北市永和區竹林路213巷33號","121.522905","25.0091","6500400","永和區"
"234066","AAC-212","2018/11/29 13:39:06","新北市永和區中山路一段191巷9弄6號","121.50985","25.0080616666667","6500400","永和區"
"234001","AAC-295","2018/11/29 13:39:10","新北市永和區秀朗路一段15號","121.513901666667","25.0073183333333","6500400","永和區"
"244003","248-BX","2018/11/29 13:38:53","新北市林口區瑞平里49-2號","121.354258333333","25.1169133333333","6501700","林口區"
"243005","AAD-798","2018/11/29 13:26:35","新北市泰山區明志路三段206巷3號","121.423295","25.0379266666667","6501600","泰山區"
"243008","KEA-2801","2018/11/29 13:39:05","新北市泰山區泰林路二段364號","121.428683333333","25.063835","6501600","泰山區"
"243004","646-TV","2018/11/29 13:39:14","新北市泰山區明志路一段191號","121.432913333333","25.0618083333333","6501600","泰山區"
"231002","002-UM","2018/11/29 13:39:11","新北市新店區中央三街127號","121.524063333333","24.9769283333333","6500600","新店區"
"231027","0293-UT","2018/11/29 13:39:17","新北市新店區國校路70號","121.538391666667","24.9531783333333","6500600","新店區"
"231028","046-UY","2018/11/29 13:39:12","新北市新店區安和路一段2-3號","121.51719","24.96441","6500600","新店區"
"231001","047-UY","2018/11/29 13:39:04","新北市新店區中央路7號","121.53348","24.9785966666667","6500600","新店區"
"231005","106-UY","2018/11/29 13:39:17","新北市新店區寶中路72號","121.547876666667","24.9806116666667","6500600","新店區"
"231010","107-UY","2018/11/29 13:39:21","新北市新店區平等街46巷15號","121.535741666667","24.9734766666667","6500600","新店區"
"231021","108-UY","2018/11/29 13:39:15","新北市新店區永興路88-1號","121.544036666667","24.933845","6500600","新店區"
"231011","187-VK","2018/11/29 13:39:20","新北市新店區德正街23巷2號","121.544211666667","24.9719366666667","6500600","新店區"
"231023","KEA-2219","2018/11/29 13:39:19","新北市新店區新店路123號","121.537131666667","24.9542933333333","6500600","新店區"
"231026","256-BX","2018/11/29 13:39:03","新北市新店區中正路205號","121.540171666667","24.972595","6500600","新店區"
"231003","268-BY","2018/11/29 13:39:12","新北市新店區中正路56-1號","121.544691666667","24.96999","6500600","新店區"
"231017","AAD-862","2018/11/29 13:39:04","新北市新店區竹林路30巷10號","121.551496666667","24.951035","6500600","新店區"
"231038","3712-VJ","2018/11/29 13:39:06","新北市新店區安華路28-1號","121.519165","24.9605583333333","6500600","新店區"
"231037","4716-K9","2018/11/29 13:39:22","新北市新店區薏仁坑路57號","121.491056666667","24.9640916666667","6500600","新店區"
"231025","4715-K9","2018/11/29 13:39:09","新北市新店區中央七街56號","121.528128333333","24.9760016666667","6500600","新店區"
"231036","512-UM","2018/11/29 13:39:15","新北市新店區安祥路151號","121.473981666667","24.95546","6500600","新店區"
"231013","513-UM","2018/11/29 13:39:13","新北市新店區中正路454-5號","121.534421666667","24.9790516666667","6500600","新店區"
"231034","616-UM","2018/11/29 13:39:19","新北市新店區車子路110號","121.505205","24.9520933333333","6500600","新店區"
"231006","617-UM","2018/11/29 13:39:06","新北市新店區光明街17號","121.538185","24.95946","6500600","新店區"
"231030","619-UM","2018/11/29 13:39:15","新北市新店區安康路一段238號","121.522096666667","24.963815","6500600","新店區"
"231035","719-UM","2018/11/29 13:39:13","新北市新店區安忠路36號","121.514381666667","24.9612616666667","6500600","新店區"
"231018","719-UY","2018/11/29 13:39:07","新北市新店區百忍街33號","121.533678333333","24.9757833333333","6500600","新店區"
"231031","720-UM","2018/11/29 13:39:14","新北市新店區莒光路20號","121.523881666667","24.9594716666667","6500600","新店區"
"231029","897-TW","2018/11/29 13:39:14","新北市新店區安康路二段330號","121.503965","24.9578683333333","6500600","新店區"
"231004","899-TW","2018/11/29 13:39:06","新北市新店區北新路二段18號","121.542776666667","24.97131","6500600","新店區"
"231024","AKT-0513","2018/11/29 13:39:13","新北市新店區中華路47巷2弄2號","121.539731666667","24.9676","6500600","新店區"
"235030","003-UY","2018/11/29 13:39:18","新北市中和區水源路39號","121.504626666667","25.0035883333333","6500300","中和區"
"235027","006-UY","2018/11/29 13:39:07","新北市中和區連城路401號","121.486171666667","24.99607","6500300","中和區"
"235020","096-UM","2018/11/29 13:39:14","新北市中和區新民街12-3號","121.481875","25.007425","6500300","中和區"
"235003","097-UM","2018/11/29 13:39:22","新北市中和區大勇街25巷29弄1號","121.515183333333","24.9937933333333","6500300","中和區"
"235029","098-UM","2018/11/29 13:39:11","新北市中和區中山路二段2巷81弄1號","121.501071666667","25.007695","6500300","中和區"
"235004","150-BY","2018/11/29 13:39:18","新北市中和區保健路50巷66號","121.509276666667","24.9952166666667","6500300","中和區"
"235022","151-BY","2018/11/29 13:39:15","新北市中和區連城路565號","121.479541666667","24.9944183333333","6500300","中和區"
"235019","183-VK","2018/11/29 13:39:04","新北市中和區國光街38號","121.47111","25.0002766666667","6500300","中和區"
"235002","185-VK","2018/11/29 13:39:16","新北市中和區大勇街110號","121.518098333333","24.9949666666667","6500300","中和區"
"235013","186-VK","2018/11/29 13:39:09","新北市中和區明義街11巷10弄1號","121.503845","24.994865","6500300","中和區"
"235031","255-BX","2018/11/29 13:39:18","新北市中和區新生街220巷4號","121.482961666667","24.9986216666667","6500300","中和區"
"235008","293-VK","2018/11/29 13:39:23","新北市中和區復興路280巷1弄2號","121.502238333333","24.9907","6500300","中和區"
"235007","352-BY","2018/11/29 13:39:18","新北市中和區景平路171號","121.512173333333","24.9925716666667","6500300","中和區"
"235014","4979-A6","2018/11/29 13:39:19","新北市中和區忠孝街109號","121.512278333333","24.9870266666667","6500300","中和區"
"235033","4980-A6","2018/11/29 13:39:11","新北市中和區連城路97號","121.496598333333","24.9999433333333","6500300","中和區"
"235034","558-UM","2018/11/29 13:39:21","新北市中和區景平路612-1號","121.500673333333","24.99688","6500300","中和區"
"235009","565-BX","2018/11/29 13:39:16","新北市中和區復興路12號","121.505895","24.9897716666667","6500300","中和區"
"235018","640-BX","2018/11/29 13:39:11","新北市中和區民享街32巷26號","121.472553333333","25.0032416666667","6500300","中和區"
"235024","647-TV","2018/11/29 13:39:11","新北市中和區中山路二段525號","121.48166","25.0053316666667","6500300","中和區"
"235011","732-UM","2018/11/29 13:39:07","新北市中和區興南路二段32巷10號","121.507036666667","24.9861483333333","6500300","中和區"
"235035","783-BX","2018/11/29 13:39:05","新北市中和區光環路二段309號","121.487343333333","25.0138816666667","6500300","中和區"
"235026","800-TS","2018/11/29 13:39:19","新北市中和區中山路二段312巷8號","121.49561","25.002865","6500300","中和區"
"235021","801-TS","2018/11/29 13:39:18","新北市中和區員山路327巷18號","121.480783333333","25.001365","6500300","中和區"
"235005","802-TS","2018/11/29 13:39:22","新北市中和區和城路一段271巷1號","121.485421666667","24.9917266666667","6500300","中和區"
"235016","805-TS","2018/11/29 13:39:13","新北市中和區興南路三段52巷1-3號","121.494091666667","24.9759616666667","6500300","中和區"
"235012","896-TW","2018/11/29 13:39:19","新北市中和區中正路23號","121.502713333333","24.9933866666667","6500300","中和區"
"235017","900-TW","2018/11/29 13:39:04","新北市中和區民享街484號","121.46945","24.9923966666667","6500300","中和區"
"235015","157-BY","2018/11/29 13:39:09","新北市中和區華新街143巷33號","121.506273333333","24.9806916666667","6500300","中和區"
"235001","AAC-213","2018/11/29 13:39:22","新北市中和區景德街141號","121.514483333333","24.990985","6500300","中和區"
"235023","AAC-215","2018/11/29 13:39:10","新北市中和區中正路525號","121.48789","24.9936716666667","6500300","中和區"
"220016","013-TV","2018/11/29 13:39:15","新北市板橋區民生路二段161巷1號","121.47003","25.0200883333333","6500100","板橋區"
"220013","072-UY","2018/11/29 13:39:08","新北市板橋區漢生東路280號","121.470401666667","25.0100533333333","6500100","板橋區"
"220034","073-UY","2018/11/29 13:39:19","新北市板橋區南雅南路二段120-7號","121.452155","24.999465","6500100","板橋區"
"220105","075-UY","2018/11/29 13:39:02","新北市板橋區民生路二段120號","121.470331666667","25.0196583333333","6500100","板橋區"
"220017","AAD-861","2018/11/29 13:39:18","新北市板橋區華東街1-10號","121.448396666667","24.994945","6500100","板橋區"
"247012","402-BY","2018/11/29 13:39:24","新北市五股區中興路三段3-6號","121.449375","25.0788983333333","6501400","蘆洲區"
"247009","056-VK","2018/11/29 13:39:08","新北市五股區中興路三段163號","121.44943","25.0803283333333","6501400","蘆洲區"
"247021","001-UY","2018/11/29 13:39:15","新北市五股區中興路三段2巷10號","121.449153333333","25.080855","6501400","蘆洲區"
"228005","097-TW","2018/11/29 13:39:04","新北市貢寮區美豐里文秀坑8號","121.90263","25.05052","6502600","貢寮區"
"228004","212-TW","2018/11/29 13:39:04","新北市貢寮區龍崗里嵩陽街17號","121.906861666667","25.0115633333333","6502600","貢寮區"
"253003","6232-TK","2018/11/29 13:39:19","新北市石門區內石門17-1號","121.57419","25.2750883333333","6502200","石門區"
"253004","6251-TK","2018/11/29 13:38:13","新北市石門區五爪崙9號","121.605826666667","25.262475","6502200","石門區"
"253002","637-UY","2018/11/29 13:39:14","新北市石門區九芎林35-1號","121.567196666667","25.2560733333333","6502200","石門區"
"207002","749-BX","2018/11/29 13:39:10","新北市萬里區崁腳里崁腳路166號","121.645056666667","25.155835","6502800","萬里區"
"207001","662-BX","2018/11/29 13:39:14","新北市萬里區大鵬里萬里加投29-11號","121.646973333333","25.2084766666667","6502800","萬里區"
"252005","AAC-283","2018/11/29 13:39:15","新北市三芝區圓山里內柑宅25-1號","121.535941666667","25.2234216666667","6502100","三芝區"
"236074","166-UM","2018/11/29 13:39:19","新北市土城區城林路6巷80號","121.438235","24.9795683333333","6501300","土城區"
"236029","253-BX","2018/11/29 13:39:08","新北市土城區城林路6巷80號","121.438548333333","24.9797633333333","6501300","土城區"
"236032","271-VK","2018/11/29 13:39:22","新北市土城區城林路6巷80號","121.438495","24.979775","6501300","土城區"
"236017","752-BX","2018/11/29 13:39:14","新北市土城區城林路6巷80號","121.438516666667","24.979715","6501300","土城區"
"242049","172-VK","2018/11/29 13:39:05","新北市新莊區民安西路388號","121.428185","25.01031","6500500","新莊區"
"221033","647-BX","2018/11/29 13:38:57","新北市新店區安忠路57巷13號","121.513715","24.957505","6501100","汐止區"
"220027","145-BY","2018/11/29 13:39:14","新北市板橋區大智街71巷28弄15號","121.452276666667","25.0148133333333","6500100","板橋區"
"220028","200-UY","2018/11/29 13:39:24","新北市板橋區大觀路二段265巷76弄32號","121.441236666667","24.9968233333333","6500100","板橋區"
"220030","610-BX","2018/11/29 13:39:16","新北市板橋區大觀路二段443-2號","121.440911666667","24.995025","6500100","板橋區"
"220004","276-BY","2018/11/29 13:39:05","新北市板橋區四川路二段橋頭6號","121.448145","24.99376","6500100","板橋區"
"220020","277-BY","2018/11/29 13:39:07","新北市板橋區大觀路二段265巷7-7號","121.444061666667","24.9946316666667","6500100","板橋區"
"220019","283-VK","2018/11/29 13:39:18","新北市板橋區四川路二段14號","121.455978333333","24.9963966666667","6500100","板橋區"
"220043","285-UM","2018/11/29 13:39:19","新北市板橋區民生路二段161巷1號","121.469881666667","25.0198483333333","6500100","板橋區"
"220031","286-VK","2018/11/29 13:39:18","新北市板橋區板城路271號","121.449875","24.997885","6500100","板橋區"
"220029","287-VK","2018/11/29 13:39:21","新北市板橋區大觀路二段179巷33號","121.44659","24.9995183333333","6500100","板橋區"
"220032","296-UM","2018/11/29 13:39:09","新北市板橋區合安一路49-5號","121.447638333333","24.9990016666667","6500100","板橋區"
"220023","303-R5","2018/11/29 13:39:09","新北市板橋區華東街298號","121.452735","25.002675","6500100","板橋區"
"220010","305-R5","2018/11/29 13:39:09","新北市板橋區民生路二段120號","121.470485","25.0199716666667","6500100","板橋區"
"220047","317-R6","2018/11/29 13:39:12","新北市板橋區民生路二段56-6號","121.47097","25.0191383333333","6500100","板橋區"
"220104","560-BX","2018/11/29 13:39:24","新北市板橋區南雅西路二段145巷6號","121.451595","25.0118533333333","6500100","板橋區"
"220052","561-BX","2018/11/29 13:39:22","新北市板橋區民生路二段120號","121.470431666667","25.019585","6500100","板橋區"
"220005","686-BX","2018/11/29 13:39:10","新北市板橋區華東街1-9號","121.448166666667","24.994985","6500100","板橋區"
"220025","687-BX","2018/11/29 13:39:07","新北市板橋區大觀路三段198巷1號","121.430956666667","24.9926316666667","6500100","板橋區"
"220002","741-BX","2018/11/29 13:39:15","新北市板橋區華東街11號","121.45048","24.9976216666667","6500100","板橋區"
"220012","806-UM","2018/11/29 13:39:23","新北市板橋區縣民大道一段295號","121.4611","25.0105516666667","6500100","板橋區"
"220022","895-R6","2018/11/29 13:39:15","新北市板橋區南雅南路一段77號","121.455656666667","25.0055533333333","6500100","板橋區"
"220021","985-R7","2018/11/29 13:39:09","新北市板橋區華東街300號","121.452805","25.0028716666667","6500100","板橋區"
"220018","AAC-253","2018/11/29 13:39:02","新北市板橋區華東街1-9號","121.44801","24.9949083333333","6500100","板橋區"
"235032","KEA-2873","2018/11/29 13:39:13","新北市中和區中正路211巷13弄3號","121.497166666667","24.9930383333333","6500300","中和區"
"235025","KEA-2875","2018/11/29 13:39:18","新北市中和區民享街92巷2號","121.474875","25.0000766666667","6500300","中和區"
"235028","KEA-2876","2018/11/29 13:39:17","新北市中和區連城路107號","121.49645","24.9994","6500300","中和區"
