"lineid","car","time","location","longitude","latitude","cityid","cityname"
"234044","148-BY","2018/11/29 13:59:04","新北市永和區林森路29巷2號","121.526053333333","25.0051183333333","6500400","永和區"
"234005","207-UY","2018/11/29 13:59:07","新北市中和區中和路356號","121.510325","25.001655","6500400","永和區"
"234078","298-R6","2018/11/29 13:59:20","新北市永和區林森路112巷12弄8號","121.52254","25.0044066666667","6500400","永和區"
"234036","336-UY","2018/11/29 13:59:18","新北市永和區成功路二段134號","121.526566666667","24.9973783333333","6500400","永和區"
"234062","337-UY","2018/11/29 13:59:19","新北市永和區中正路368巷1弄51號","121.519281666667","25.0011016666667","6500400","永和區"
"234068","552-UM","2018/11/29 13:59:05","新北市永和區國光路39-1號","121.51904","25.0082016666667","6500400","永和區"
"234015","745-BX","2018/11/29 13:59:08","新北市永和區文化路82號","121.514023333333","25.01519","6500400","永和區"
"234028","746-BX","2018/11/29 13:59:23","新北市永和區民生路47巷25號","121.524693333333","24.9977383333333","6500400","永和區"
"234052","KEA-2590","2018/11/29 13:59:11","新北市永和區竹林路39巷46號","121.520246666667","25.0153016666667","6500400","永和區"
"234012","KEA-2591","2018/11/29 13:59:24","新北市永和區永平路316號","121.507025","25.0127116666667","6500400","永和區"
"234060","AAD-866","2018/11/29 13:59:13","新北市永和區中正路283巷82號","121.515523333333","24.9989","6500400","永和區"
"234084","748-BX","2018/11/29 13:59:24","新北市永和區福和路90號","121.522541666667","25.0081466666667","6500400","永和區"
"234040","862-TW","2018/11/29 13:59:15","新北市永和區中和路335巷18弄1號","121.507533333333","25.00034","6500400","永和區"
"234048","863-TW","2018/11/29 13:59:14","新北市永和區保安路264號","121.505875","25.0123033333333","6500400","永和區"
"234022","9372-KE","2018/11/29 13:59:15","新北市永和區永和路二段233號","121.515568333333","25.014165","6500400","永和區"
"234025","9371-KE","2018/11/29 13:59:15","新北市永和區安樂路300號","121.5144","25.0049166666667","6500400","永和區"
"234010","9373-KE","2018/11/29 13:59:05","新北市永和區仁愛路352巷92弄28號","121.50141","25.0084733333333","6500400","永和區"
"248015","026-BX","2018/11/29 13:59:04","新北市五股區成泰路三段543巷18號","121.450881666667","25.1022083333333","6501500","五股區"
"248007","095-VK","2018/11/29 13:59:13","新北市五股區中興路一段116號","121.46595","25.073635","6501500","五股區"
"248017","225-UY","2018/11/29 13:59:03","新北市五股區民義路一段287巷2-8號","121.42343","25.0902383333333","6501500","五股區"
"248011","655-BX","2018/11/29 13:59:09","新北市五股區成泰路二段195巷1號","121.440401666667","25.0873866666667","6501500","五股區"
"248003","677-BX","2018/11/29 13:59:23","新北市五股區民義路二段50-5號","121.41068","25.104165","6501500","五股區"
"248001","678-BX","2018/11/29 13:59:18","新北市五股區天乙路1號","121.448588333333","25.1027033333333","6501500","五股區"
"248009","682-TV","2018/11/29 13:59:24","新北市五股區水碓一路23號","121.430618333333","25.071315","6501500","五股區"
"234076","969-R7","2018/11/29 13:59:16","新北市永和區民治街40號","121.519325","24.9977916666667","6500400","永和區"
"234072","AAC-211","2018/11/29 13:59:24","新北市永和區豫溪街169巷2-1號","121.522015","25.0104433333333","6500400","永和區"
"234066","AAC-212","2018/11/29 13:59:06","新北市永和區永貞路313號","121.510131666667","25.0065033333333","6500400","永和區"
"234001","AAC-295","2018/11/29 13:59:10","新北市永和區福和路320號","121.5157","25.00738","6500400","永和區"
"244003","248-BX","2018/11/29 13:59:13","新北市林口區太平里11鄰40號","121.360013333333","25.1318083333333","6501700","林口區"
"243005","AAD-798","2018/11/29 13:59:15","新北市泰山區明志路三段237號","121.423516666667","25.0377833333333","6501600","泰山區"
"243008","KEA-2801","2018/11/29 13:59:05","新北市泰山區明志路二段137號","121.42761","25.050725","6501600","泰山區"
"243007","421-VK","2018/11/29 13:59:22","新北市泰山區泰林路二段222號","121.432571666667","25.0619616666667","6501600","泰山區"
"243003","KEA-2215","2018/11/29 13:59:17","新北市泰山區明志路二段235號","121.42723","25.0482","6501600","泰山區"
"243002","KEA-2216","2018/11/29 13:59:03","新北市泰山區辭修路28號","121.429015","25.0582166666667","6501600","泰山區"
"243004","646-TV","2018/11/29 13:59:14","新北市泰山區仁德路110號","121.432753333333","25.0568733333333","6501600","泰山區"
"243006","680-BX","2018/11/29 13:59:07","新北市泰山區黎明路2-5號","121.420851666667","25.0626516666667","6501600","泰山區"
"231002","002-UM","2018/11/29 13:59:11","新北市新店區中正路707號","121.533838333333","24.9911683333333","6500600","新店區"
"231027","0293-UT","2018/11/29 13:59:13","新北市新店區中興路一段24-2號","121.538531666667","24.958315","6500600","新店區"
"231028","046-UY","2018/11/29 13:59:12","新北市新店區安和路三段7號","121.518106666667","24.9805016666667","6500600","新店區"
"231001","047-UY","2018/11/29 13:59:15","新北市新店區三民路57號","121.536726666667","24.9710916666667","6500600","新店區"
"231005","106-UY","2018/11/29 13:58:58","新北市新店區中興路三段170號","121.544258333333","24.9809483333333","6500600","新店區"
"231010","107-UY","2018/11/29 13:59:06","新北市新店區環河路106號","121.536785","24.9641816666667","6500600","新店區"
"231021","108-UY","2018/11/29 13:59:15","新北市新店區新烏路二段42-1號","121.546526666667","24.9290383333333","6500600","新店區"
"231011","187-VK","2018/11/29 13:59:18","新北市新店區中興路二段69號","121.546691666667","24.9708433333333","6500600","新店區"
"231023","KEA-2219","2018/11/29 13:59:19","新北市新店區文中路45號","121.539593333333","24.9566516666667","6500600","新店區"
"231003","268-BY","2018/11/29 13:59:11","新北市新店區中興路一段95號","121.540901666667","24.9622683333333","6500600","新店區"
"231017","AAD-862","2018/11/29 13:59:25","新北市新店區郵政路1巷2號","121.557355","24.952215","6500600","新店區"
"231038","3712-VJ","2018/11/29 13:59:06","新北市新店區安華路30巷1號","121.519573333333","24.9592483333333","6500600","新店區"
"231037","4716-K9","2018/11/29 13:59:22","新北市新店區安康路三段355巷3號","121.484495","24.950675","6500600","新店區"
"231025","4715-K9","2018/11/29 13:59:09","新北市新店區中正路328巷43號","121.537961666667","24.97634","6500600","新店區"
"231036","512-UM","2018/11/29 13:59:23","新北市新店區安祥路110巷25號","121.473581666667","24.9562733333333","6500600","新店區"
"231013","513-UM","2018/11/29 13:59:13","新北市新店區明德路64號","121.541558333333","24.9794566666667","6500600","新店區"
"231034","616-UM","2018/11/29 13:59:20","新北市新店區達觀路41號","121.502523333333","24.9388833333333","6500600","新店區"
"231006","617-UM","2018/11/29 13:59:06","新北市新店區北宜路二段211號","121.553188333333","24.9534083333333","6500600","新店區"
"231030","619-UM","2018/11/29 13:59:15","新北市新店區安康路一段250號","121.521068333333","24.9639916666667","6500600","新店區"
"231035","719-UM","2018/11/29 13:59:13","新北市新店區安康路二段85巷17號","121.514406666667","24.9617066666667","6500600","新店區"
"231018","719-UY","2018/11/29 13:59:07","新北市新店區中央路133巷27弄3號","121.531688333333","24.9732433333333","6500600","新店區"
"231031","720-UM","2018/11/29 13:59:14","新北市新店區華城路18-1號","121.52908","24.957","6500600","新店區"
"231029","897-TW","2018/11/29 13:59:13","新北市新店區安康路二段130號","121.512665","24.96238","6500600","新店區"
"231004","899-TW","2018/11/29 13:59:06","新北市新店區北新路二段137號","121.542845","24.9756233333333","6500600","新店區"
"231024","AKT-0513","2018/11/29 13:59:13","新北市新店區新生街13巷42號","121.53895","24.9665416666667","6500600","新店區"
"235030","003-UY","2018/11/29 13:59:18","新北市中和區中山路二段131巷5弄3號","121.502816666667","25.0029083333333","6500300","中和區"
"235027","006-UY","2018/11/29 13:59:07","新北市中和區中正路552號","121.486973333333","24.99453","6500300","中和區"
"235020","096-UM","2018/11/29 13:59:14","新北市中和區員山路506-2號","121.480001666667","25.0087266666667","6500300","中和區"
"235003","097-UM","2018/11/29 13:59:06","新北市中和區自立路60號","121.523673333333","24.9915683333333","6500300","中和區"
"235029","098-UM","2018/11/29 13:59:11","新北市中和區勝利路5號","121.499881666667","25.008125","6500300","中和區"
"235004","150-BY","2018/11/29 13:59:18","新北市中和區保健路48巷46號","121.50927","24.9961966666667","6500300","中和區"
"235022","151-BY","2018/11/29 13:59:14","新北市中和區連城路428巷7-3號","121.47993","24.9953533333333","6500300","中和區"
"235019","183-VK","2018/11/29 13:59:04","新北市中和區中山路三段206號","121.471636666667","25.0065183333333","6500300","中和區"
"235002","185-VK","2018/11/29 13:59:16","新北市中和區立人街24-5號","121.518751666667","24.994195","6500300","中和區"
"235013","186-VK","2018/11/29 13:59:09","新北市中和區景安路167巷17號","121.506448333333","24.9949166666667","6500300","中和區"
"235031","255-BX","2018/11/29 13:59:18","新北市中和區新生街264號","121.483506666667","24.9972133333333","6500300","中和區"
"235008","293-VK","2018/11/29 13:59:03","新北市中和區中興街161巷6弄2號","121.500658333333","24.9908866666667","6500300","中和區"
"235036","301-VK","2018/11/29 13:59:08","新北市中和區中山路二段44號","121.504303333333","25.0049583333333","6500300","中和區"
"235007","352-BY","2018/11/29 13:59:18","新北市中和區秀朗路三段97號","121.52658","24.9949816666667","6500300","中和區"
"235014","4979-A6","2018/11/29 13:59:19","新北市中和區忠孝街58巷13號","121.512206666667","24.98324","6500300","中和區"
"235033","4980-A6","2018/11/29 13:59:11","新北市中和區中和路143號","121.502116666667","24.9996716666667","6500300","中和區"
"235005","551-UM","2018/11/29 13:59:22","新北市永和區中和路419號","121.509296666667","25.0005816666667","6500300","中和區"
"235034","558-UM","2018/11/29 13:59:21","新北市中和區中和路174號","121.504745","24.9997316666667","6500300","中和區"
"235009","565-BX","2018/11/29 13:59:12","新北市中和區景新街467巷20弄166號","121.514508333333","24.98769","6500300","中和區"
"235018","640-BX","2018/11/29 13:59:05","新北市中和區民享街30巷1號","121.473963333333","25.0034516666667","6500300","中和區"
"235024","647-TV","2018/11/29 13:59:11","新北市中和區民治街128巷2號","121.475168333333","25.00303","6500300","中和區"
"235011","732-UM","2018/11/29 13:59:19","新北市中和區興南路二段74巷10號","121.505175","24.984895","6500300","中和區"
"235010","733-UM","2018/11/29 13:59:18","新北市中和區興南路一段135巷22弄16號","121.508908333333","24.9866783333333","6500300","中和區"
"235035","783-BX","2018/11/29 13:59:05","新北市中和區立德街17號","121.489251666667","25.0069883333333","6500300","中和區"
"235026","800-TS","2018/11/29 13:59:19","新北市中和區中山路二段340巷40號","121.49332","25.003995","6500300","中和區"
"235021","801-TS","2018/11/29 13:59:17","新北市中和區民利街100巷3弄2號","121.47736","24.9980516666667","6500300","中和區"
"235005","802-TS","2018/11/29 13:59:17","新北市中和區和城路一段271巷1號","121.485486666667","24.9917716666667","6500300","中和區"
"235016","805-TS","2018/11/29 13:59:11","新北市中和區興南路二段261巷7-1號","121.503156666667","24.9798633333333","6500300","中和區"
"235012","896-TW","2018/11/29 13:59:19","新北市中和區華新街91號","121.508565","24.9833283333333","6500300","中和區"
"235017","900-TW","2018/11/29 13:59:04","新北市中和區壽德街20-1號","121.466208333333","24.9947633333333","6500300","中和區"
"235015","157-BY","2018/11/29 13:59:09","新北市中和區忠孝街13號","121.509976666667","24.9828366666667","6500300","中和區"
"235001","AAC-213","2018/11/29 13:59:22","新北市中和區自立路99巷13號","121.522595","24.99476","6500300","中和區"
"235023","AAC-215","2018/11/29 13:59:10","新北市中和區圓通路369巷5弄12號","121.491401666667","24.988465","6500300","中和區"
"220016","013-TV","2018/11/29 13:59:15","新北市板橋區中山路二段465巷76號","121.481196666667","25.0221533333333","6500100","板橋區"
"220013","072-UY","2018/11/29 13:59:08","新北市板橋區民族路287巷24-3號","121.470946666667","25.0076083333333","6500100","板橋區"
"220034","073-UY","2018/11/29 13:59:19","新北市板橋區中正路236巷25號","121.457045","25.0193033333333","6500100","板橋區"
"220105","075-UY","2018/11/29 13:59:22","新北市板橋區莒光路48-1號","121.470701666667","25.0243816666667","6500100","板橋區"
"220017","AAD-861","2018/11/29 13:59:18","新北市板橋區大華街94號","121.45922","25.00554","6500100","板橋區"
"247001","893-R6","2018/11/29 13:59:05","新北市蘆洲區永平街32巷64弄2號","121.46014","25.0931416666667","6501400","蘆洲區"
"247015","546-UM","2018/11/29 13:59:16","新北市蘆洲區光華路44號","121.46878","25.083055","6501400","蘆洲區"
"247012","402-BY","2018/11/29 13:59:09","新北市蘆洲區永樂街38巷57弄2號","121.458466666667","25.0901716666667","6501400","蘆洲區"
"247005","337-TH","2018/11/29 13:59:17","新北市蘆洲區永安南路二段44-2號","121.46622","25.0774983333333","6501400","蘆洲區"
"247007","336-TH","2018/11/29 13:59:06","新北市蘆洲區重陽街29號","121.481256666667","25.08316","6501400","蘆洲區"
"247019","057-VK","2018/11/29 13:59:20","新北市蘆洲區民族路422巷44號","121.473895","25.0929233333333","6501400","蘆洲區"
"247009","056-VK","2018/11/29 13:59:08","新北市蘆洲區集賢路224巷24號","121.48172","25.0872016666667","6501400","蘆洲區"
"247013","053-VK","2018/11/29 13:59:09","新北市蘆洲區中正路187號","121.46863","25.085715","6501400","蘆洲區"
"247017","007-UY","2018/11/29 13:59:08","新北市蘆洲區民族路255巷22號","121.475943333333","25.08935","6501400","蘆洲區"
"247003","002-UY","2018/11/29 13:59:12","新北市蘆洲區中華街6號","121.463543333333","25.081735","6501400","蘆洲區"
"247021","001-UY","2018/11/29 13:59:15","新北市蘆洲區中正路263巷2號","121.467361666667","25.0874583333333","6501400","蘆洲區"
"228005","097-TW","2018/11/29 13:54:04","新北市貢寮區美豐里土地公嶺24號","121.89084","25.0645016666667","6502600","貢寮區"
"228004","212-TW","2018/11/29 13:59:04","新北市貢寮區龍崗里嵩陽街53號","121.907075","25.0166183333333","6502600","貢寮區"
"253003","6232-TK","2018/11/29 13:59:19","新北市石門區尖子鹿51號","121.58063","25.2731683333333","6502200","石門區"
"253004","6251-TK","2018/11/29 13:59:13","新北市石門區小坑43-2號","121.600313333333","25.2644683333333","6502200","石門區"
"253002","637-UY","2018/11/29 13:59:14","新北市石門區七股33-1號","121.552715","25.2612483333333","6502200","石門區"
"253001","KEC-0718","2018/11/29 13:59:21","新北市石門區八甲55號","121.523981666667","25.2737616666667","6502200","石門區"
"207002","749-BX","2018/11/29 13:58:49","新北市萬里區溪底里烏塗炭3-1號","121.636401666667","25.151245","6502800","萬里區"
"207001","662-BX","2018/11/29 13:59:14","新北市萬里區磺潭里清水5-1號","121.641178333333","25.2006383333333","6502800","萬里區"
"252005","AAC-283","2018/11/29 13:59:15","新北市三芝區橫山里橫山31-1號","121.544238333333","25.2578516666667","6502100","三芝區"
"236068","105-UM","2018/11/29 13:59:24","新北市土城區金城路一段88巷24號","121.44575","24.9730116666667","6501300","土城區"
"236040","KED-0685","2018/11/29 13:59:05","新北市土城區城林路6巷80號","121.43859","24.97975","6501300","土城區"
"236074","166-UM","2018/11/29 13:59:20","新北市土城區永寧路32巷10弄37號","121.428366666667","24.9611933333333","6501300","土城區"
"236029","253-BX","2018/11/29 13:59:08","新北市土城區城林路6巷80號","121.438578333333","24.9798066666667","6501300","土城區"
"236024","269-VK","2018/11/29 13:59:18","新北市土城區承天路23號","121.436343333333","24.9656933333333","6501300","土城區"
"236012","270-VK","2018/11/29 13:59:17","新北市土城區城林路6巷80號","121.438538333333","24.97975","6501300","土城區"
"236032","271-VK","2018/11/29 13:59:22","新北市土城區城林路6巷80號","121.43847","24.9797433333333","6501300","土城區"
"236017","752-BX","2018/11/29 13:59:14","新北市土城區城林路6巷80號","121.438328333333","24.9797966666667","6501300","土城區"
"236057","912-UM","2018/11/29 13:59:15","新北市土城區中央路三段254-2號","121.42745","24.9641316666667","6501300","土城區"
"236045","913-UM","2018/11/29 13:59:08","新北市土城區城林路6巷80號","121.43848","24.979755","6501300","土城區"
"236060","915-UM","2018/11/29 13:59:09","新北市土城區中央路二段280號","121.44084","24.9741016666667","6501300","土城區"
"236054","970-R7","2018/11/29 13:59:10","新北市土城區城林路6巷80號","121.438803333333","24.9796633333333","6501300","土城區"
"221033","647-BX","2018/11/29 13:59:17","新北市新店區車子路115-11號","121.507133333333","24.9544783333333","6501100","汐止區"
"220027","145-BY","2018/11/29 13:59:14","新北市板橋區民權路209號","121.458001666667","25.0149883333333","6500100","板橋區"
"220028","200-UY","2018/11/29 13:59:24","新北市板橋區大觀路二段文和巷102號","121.445013333333","24.998005","6500100","板橋區"
"220030","610-BX","2018/11/29 13:59:17","新北市板橋區溪北路134號","121.429236666667","24.9888166666667","6500100","板橋區"
"220050","245-BX","2018/11/29 13:58:39","新北市板橋區文化路二段182巷7弄1號","121.471725","25.0267583333333","6500100","板橋區"
"220004","276-BY","2018/11/29 13:59:05","新北市板橋區信義路116號","121.4584","24.992575","6500100","板橋區"
"220020","277-BY","2018/11/29 13:59:07","新北市樹林區樹新路106巷1號","121.42995","24.9977266666667","6500100","板橋區"
"220019","283-VK","2018/11/29 13:59:20","新北市板橋區重慶路269巷65號","121.465218333333","24.9988433333333","6500100","板橋區"
"220043","285-UM","2018/11/29 13:59:19","新北市板橋區光武街10號","121.467886666667","25.0250766666667","6500100","板橋區"
"220001","285-VK","2018/11/29 13:59:11","新北市板橋區中山路二段89巷44號","121.473735","25.017105","6500100","板橋區"
"220031","286-VK","2018/11/29 13:59:18","新北市板橋區大觀路一段38巷170弄1號","121.441948333333","25.0046","6500100","板橋區"
"220029","287-VK","2018/11/29 13:59:20","新北市板橋區光華街19巷2號","121.453928333333","25.0122383333333","6500100","板橋區"
"220039","288-VK","2018/11/29 13:59:22","新北市板橋區四維路177巷4弄10號","121.463538333333","25.02635","6500100","板橋區"
"220009","295-UM","2018/11/29 13:59:05","新北市板橋區富山街85巷2弄2號","121.476616666667","25.02172","6500100","板橋區"
"220032","296-UM","2018/11/29 13:59:09","新北市板橋區大觀路二段138-1號","121.442755","24.9992383333333","6500100","板橋區"
"220023","303-R5","2018/11/29 13:59:09","新北市板橋區南雅西路二段156巷2號","121.451715","25.0133633333333","6500100","板橋區"
"220010","305-R5","2018/11/29 13:59:09","新北市板橋區三民路二段245巷29號","121.480258333333","25.0125983333333","6500100","板橋區"
"220041","307-R5","2018/11/29 13:59:08","新北市板橋區文化路一段104巷19號","121.464985","25.0179416666667","6500100","板橋區"
"220047","317-R6","2018/11/29 13:59:12","新北市板橋區民有街44號","121.46577","25.025785","6500100","板橋區"
"220038","487-VK","2018/11/29 13:59:11","新北市板橋區仁化街65號","121.47551","25.0318483333333","6500100","板橋區"
"220104","560-BX","2018/11/29 13:59:04","新北市板橋區中正路341巷6號","121.454576666667","25.0204066666667","6500100","板橋區"
"220052","561-BX","2018/11/29 13:59:22","新北市板橋區民生路二段121號","121.470823333333","25.018335","6500100","板橋區"
"220011","609-BX","2018/11/29 13:59:15","新北市板橋區中山路二段229號","121.476836666667","25.0173116666667","6500100","板橋區"
"220040","637-BX","2018/11/29 13:59:12","新北市板橋區文聖街207號","121.479778333333","25.0264933333333","6500100","板橋區"
"220005","686-BX","2018/11/29 13:59:10","新北市板橋區公園街64號","121.461955","25.0076366666667","6500100","板橋區"
"220025","687-BX","2018/11/29 13:59:07","新北市板橋區大觀路二段443-2號","121.440401666667","24.99488","6500100","板橋區"
"220042","689-BX","2018/11/29 13:59:25","新北市板橋區民生路三段106號","121.466441666667","25.0261883333333","6500100","板橋區"
"220002","741-BX","2018/11/29 13:59:15","新北市板橋區重慶路127巷16號","121.463521666667","25.004915","6500100","板橋區"
"220051","KEA-2699","2018/11/29 13:59:21","新北市板橋區萬板路710號","121.481815","25.0272666666667","6500100","板橋區"
"220012","806-UM","2018/11/29 13:59:23","新北市板橋區板新路159號","121.469673333333","25.0157183333333","6500100","板橋區"
"220003","827-TW","2018/11/29 13:59:11","新北市板橋區中山路一段158巷35號","121.466711666667","25.0110183333333","6500100","板橋區"
"220014","830-TW","2018/11/29 13:59:17","新北市板橋區三民路二段正泰7巷12號","121.478116666667","25.0129283333333","6500100","板橋區"
"220045","831-TW","2018/11/29 13:59:12","新北市板橋區莒光路146號","121.473385","25.0238566666667","6500100","板橋區"
"220037","833-TW","2018/11/29 13:59:21","新北市板橋區民生路二段232號","121.468971666667","25.0220516666667","6500100","板橋區"
"220022","895-R6","2018/11/29 13:59:15","新北市板橋區南雅南路一段82號","121.45526","25.0049816666667","6500100","板橋區"
"220021","985-R7","2018/11/29 13:59:09","新北市板橋區南雅西路二段4號","121.453703333333","25.00914","6500100","板橋區"
"220046","AAC-210","2018/11/29 13:59:13","新北市板橋區國光路212巷4號","121.462221666667","25.018325","6500100","板橋區"
"220018","AAC-253","2018/11/29 13:59:13","新北市板橋區四川路一段276號","121.458925","25.0010066666667","6500100","板橋區"
"235032","KEA-2873","2018/11/29 13:59:09","新北市中和區連勝街36號","121.498065","24.9977466666667","6500300","中和區"
"235025","KEA-2875","2018/11/29 13:59:18","新北市中和區民有街4號","121.475456666667","25.0057466666667","6500300","中和區"
"235028","KEA-2876","2018/11/29 13:59:17","新北市中和區連城路47巷1號","121.498295","25.00161","6500300","中和區"
