"lineid","car","time","location","longitude","latitude","cityid","cityname"
"234005","207-UY","2018/11/29 14:29:07","新北市永和區中正路644號","121.516948333333","25.0083366666667","6500400","永和區"
"234078","298-R6","2018/11/29 14:29:12","新北市永和區永亨路66號","121.520841666667","25.0058733333333","6500400","永和區"
"234062","337-UY","2018/11/29 14:29:19","新北市永和區中正路433號","121.517098333333","25.0050616666667","6500400","永和區"
"234068","552-UM","2018/11/29 14:29:05","新北市永和區永亨路7號","121.519395","25.0056866666667","6500400","永和區"
"234028","746-BX","2018/11/29 14:29:16","新北市永和區民有街11號","121.51639","24.9969183333333","6500400","永和區"
"234052","KEA-2590","2018/11/29 14:29:11","新北市永和區環河東路一段82號","121.519615","25.0163933333333","6500400","永和區"
"234060","AAD-866","2018/11/29 14:29:14","新北市永和區秀安街7號","121.515426666667","25.0030066666667","6500400","永和區"
"234084","748-BX","2018/11/29 14:29:19","新北市永和區光復街21號","121.516518333333","25.01747","6500400","永和區"
"234040","862-TW","2018/11/29 14:29:15","新北市永和區安樂路336號","121.51438","25.0060816666667","6500400","永和區"
"234048","863-TW","2018/11/29 14:29:13","新北市永和區保安路138號","121.508678333333","25.0151566666667","6500400","永和區"
"234025","9371-KE","2018/11/29 14:29:15","新北市永和區安樂路58巷2號","121.51506","24.998005","6500400","永和區"
"248013","025-BX","2018/11/29 14:29:08","新北市五股區民義路一段183巷5號","121.430843333333","25.0872316666667","6501500","五股區"
"248015","026-BX","2018/11/29 14:29:04","新北市五股區成泰路四段26號","121.454966666667","25.1082733333333","6501500","五股區"
"248007","095-VK","2018/11/29 14:29:13","新北市五股區中興路一段95巷15號","121.466573333333","25.0723066666667","6501500","五股區"
"248017","225-UY","2018/11/29 14:27:23","新北市五股區外寮路13-1號","121.424386666667","25.0809383333333","6501500","五股區"
"248011","655-BX","2018/11/29 14:29:09","新北市五股區成泰路一段235-2號","121.436201666667","25.0795566666667","6501500","五股區"
"248003","677-BX","2018/11/29 14:29:23","新北市五股區五福路36號","121.433996666667","25.0892216666667","6501500","五股區"
"248001","678-BX","2018/11/29 14:29:13","新北市五股區凌雲路一段48號","121.451713333333","25.100855","6501500","五股區"
"248009","682-TV","2018/11/29 14:29:24","新北市五股區水碓一路23號","121.430628333333","25.0713416666667","6501500","五股區"
"234076","969-R7","2018/11/29 14:29:16","新北市永和區民權路55號","121.520173333333","24.996655","6500400","永和區"
"234072","AAC-211","2018/11/29 14:29:19","新北市永和區竹林路39巷3號","121.518058333333","25.0144216666667","6500400","永和區"
"234001","AAC-295","2018/11/29 14:29:10","新北市永和區大新街6號","121.514563333333","25.0085633333333","6500400","永和區"
"244003","248-BX","2018/11/29 14:28:33","新北市林口區寶斗厝坑79-1號","121.332478333333","25.1174333333333","6501700","林口區"
"243005","AAD-798","2018/11/29 14:29:15","新北市泰山區貴子路9巷8號","121.425586666667","25.042475","6501600","泰山區"
"243001","297-R6","2018/11/29 14:29:21","新北市泰山區半山雅12號","121.431465","25.0674383333333","6501600","泰山區"
"243008","KEA-2801","2018/11/29 14:29:25","新北市泰山區明志路三段359號","121.421733333333","25.0349416666667","6501600","泰山區"
"243007","421-VK","2018/11/29 14:29:22","新北市泰山區文程路18巷18號","121.4281","25.048705","6501600","泰山區"
"243003","KEA-2215","2018/11/29 14:29:17","新北市泰山區貴子路67巷1號","121.430611666667","25.039805","6501600","泰山區"
"243002","KEA-2216","2018/11/29 14:29:03","新北市泰山區明志路二段47號","121.429523333333","25.05275","6501600","泰山區"
"243004","646-TV","2018/11/29 14:29:14","新北市泰山區全興路18巷20號","121.431943333333","25.058535","6501600","泰山區"
"243006","680-BX","2018/11/29 14:29:25","新北市泰山區仁愛路6巷4弄1號","121.431318333333","25.0536233333333","6501600","泰山區"
"231002","002-UM","2018/11/29 14:29:23","新北市新店區中央路192號","121.530871666667","24.9746183333333","6500600","新店區"
"231027","0293-UT","2018/11/29 14:29:13","新北市新店區北新路二段228巷11號","121.543385","24.9772216666667","6500600","新店區"
"231028","046-UY","2018/11/29 14:29:12","新北市新店區安和路二段1號","121.517835","24.9670216666667","6500600","新店區"
"231001","047-UY","2018/11/29 14:29:04","新北市新店區中正路75巷71號","121.543175","24.96884","6500600","新店區"
"231005","106-UY","2018/11/29 14:29:17","新北市新店區北新路三段23號","121.542055","24.9797166666667","6500600","新店區"
"231021","108-UY","2018/11/29 14:29:15","新北市新店區桂山路81巷1號","121.567471666667","24.8993233333333","6500600","新店區"
"231011","187-VK","2018/11/29 14:29:18","新北市新店區五峰路59-7號","121.547446666667","24.9700983333333","6500600","新店區"
"231023","KEA-2219","2018/11/29 14:29:19","新北市新店區光明街73號","121.538965","24.9606033333333","6500600","新店區"
"231003","268-BY","2018/11/29 14:29:11","新北市新店區中興路一段266號","121.544863333333","24.9672666666667","6500600","新店區"
"231017","AAD-862","2018/11/29 14:29:04","新北市新店區北宜路三段221號","121.592395","24.95325","6500600","新店區"
"231038","3712-VJ","2018/11/29 14:29:06","新北市新店區溪洲路8巷40號","121.53341","24.9621316666667","6500600","新店區"
"231037","4716-K9","2018/11/29 14:29:22","新北市新店區車子路27號","121.504358333333","24.952225","6500600","新店區"
"231036","512-UM","2018/11/29 14:29:23","新北市新店區安祥路109巷151弄10號","121.478155","24.9589533333333","6500600","新店區"
"231013","513-UM","2018/11/29 14:29:13","新北市新店區民權路88-5號","121.53622","24.9834883333333","6500600","新店區"
"231034","616-UM","2018/11/29 14:29:19","新北市新店區車子路11號","121.503088333333","24.952125","6500600","新店區"
"231006","617-UM","2018/11/29 14:29:06","新北市新店區北宜路二段212號","121.55951","24.9544066666667","6500600","新店區"
"231030","619-UM","2018/11/29 14:29:15","新北市新店區安民街85-1號","121.516451666667","24.967655","6500600","新店區"
"231035","719-UM","2018/11/29 14:29:13","新北市新店區吉安街31號","121.516038333333","24.9659066666667","6500600","新店區"
"231018","719-UY","2018/11/29 14:29:07","新北市新店區中央三街56號","121.52719","24.974725","6500600","新店區"
"231031","720-UM","2018/11/29 14:29:14","新北市新店區安業街215巷9號","121.523116666667","24.9729916666667","6500600","新店區"
"231029","897-TW","2018/11/29 14:29:13","新北市新店區安豐路25號","121.501281666667","24.957235","6500600","新店區"
"231004","899-TW","2018/11/29 14:29:06","新北市新店區中正路263-1號","121.538526666667","24.97374","6500600","新店區"
"235030","003-UY","2018/11/29 14:29:18","新北市中和區景新街43號","121.504138333333","24.9991283333333","6500300","中和區"
"235027","006-UY","2018/11/29 14:29:07","新北市中和區連城路203巷7號","121.495015","24.9975533333333","6500300","中和區"
"235020","096-UM","2018/11/29 14:29:14","新北市中和區員山路581巷2弄7-2號","121.477888333333","25.0097183333333","6500300","中和區"
"235003","097-UM","2018/11/29 14:29:26","新北市中和區秀峰街103巷7弄4號","121.519436666667","24.9890433333333","6500300","中和區"
"235029","098-UM","2018/11/29 14:29:11","新北市中和區福祥路30號","121.499486666667","25.0037033333333","6500300","中和區"
"235004","150-BY","2018/11/29 14:29:18","新北市中和區宜安路1巷27號","121.51255","24.99419","6500300","中和區"
"235022","151-BY","2018/11/29 14:29:18","新北市中和區員山路124巷8號","121.481838333333","24.9959516666667","6500300","中和區"
"235019","183-VK","2018/11/29 14:29:24","新北市中和區中山路三段181巷18弄11號","121.472676666667","25.0048583333333","6500300","中和區"
"235002","185-VK","2018/11/29 14:29:16","新北市中和區自立路107號","121.521956666667","24.9947283333333","6500300","中和區"
"235013","186-VK","2018/11/29 14:29:09","新北市中和區景新街285巷29號","121.510845","24.99379","6500300","中和區"
"235031","255-BX","2018/11/29 14:29:11","新北市中和區連城路340巷10弄3號","121.482818333333","24.996575","6500300","中和區"
"235008","293-VK","2018/11/29 14:29:03","新北市中和區捷運路177號","121.505785","24.99141","6500300","中和區"
"235036","301-VK","2018/11/29 14:29:08","新北市中和區中山路二段3巷22弄35號","121.505875","25.0040783333333","6500300","中和區"
"235007","352-BY","2018/11/29 14:29:18","新北市中和區景平路300號","121.512631666667","24.9928166666667","6500300","中和區"
"235014","4979-A6","2018/11/29 14:29:19","新北市中和區中正路545巷1號","121.487313333333","24.99383","6500300","中和區"
"235033","4980-A6","2018/11/29 14:29:11","新北市中和區連城路134巷16-1號","121.49543","24.9997533333333","6500300","中和區"
"235005","551-UM","2018/11/29 14:29:22","新北市中和區永貞路221號","121.513723333333","25.0034883333333","6500300","中和區"
"235034","558-UM","2018/11/29 14:29:21","新北市中和區景平路634-10號","121.498686666667","24.9997383333333","6500300","中和區"
"235009","565-BX","2018/11/29 14:29:12","新北市中和區景新街432號","121.512986666667","24.9884183333333","6500300","中和區"
"235018","640-BX","2018/11/29 14:29:24","新北市中和區國光街102巷8號","121.470403333333","25.0004616666667","6500300","中和區"
"235024","647-TV","2018/11/29 14:29:11","新北市中和區新生街114巷24號","121.48249","25.0023733333333","6500300","中和區"
"235011","732-UM","2018/11/29 14:29:07","新北市中和區景平路259巷20號","121.50763","24.9927066666667","6500300","中和區"
"235010","733-UM","2018/11/29 14:29:18","新北市中和區興南路一段105巷20弄36號","121.510765","24.98495","6500300","中和區"
"235035","783-BX","2018/11/29 14:29:08","新北市中和區連城路469巷52號","121.483478333333","24.994405","6500300","中和區"
"235026","800-TS","2018/11/29 14:29:19","新北市中和區中山路二段488-1號","121.487476666667","25.0049483333333","6500300","中和區"
"235021","801-TS","2018/11/29 14:29:17","新北市中和區員山路324號","121.481271666667","25.0031383333333","6500300","中和區"
"235005","802-TS","2018/11/29 14:02:46","新北市中和區和城路一段271巷1號","121.485446666667","24.9916883333333","6500300","中和區"
"235016","805-TS","2018/11/29 14:29:11","新北市中和區華新街143巷67弄19號","121.507241666667","24.9790633333333","6500300","中和區"
"235012","896-TW","2018/11/29 14:29:19","新北市中和區忠孝街79號","121.512145","24.9851916666667","6500300","中和區"
"235017","900-TW","2018/11/29 14:29:04","新北市中和區華順街30巷3號","121.467005","24.99898","6500300","中和區"
"235015","157-BY","2018/11/29 14:29:24","新北市中和區中興街132巷1號","121.49962","24.992165","6500300","中和區"
"235001","AAC-213","2018/11/29 14:29:22","新北市中和區秀朗路三段10巷14弄16號","121.52499","24.9966533333333","6500300","中和區"
"235023","AAC-215","2018/11/29 14:29:10","新北市中和區圓通路252-3號","121.493681666667","24.9911516666667","6500300","中和區"
"220016","013-TV","2018/11/29 14:29:16","新北市板橋區萬安街25號","121.484456666667","25.0229983333333","6500100","板橋區"
"220013","072-UY","2018/11/29 14:29:21","新北市中和區民生街91號","121.468638333333","25.0047833333333","6500100","板橋區"
"220034","073-UY","2018/11/29 14:29:19","新北市板橋區國光路183號","121.460955","25.0184566666667","6500100","板橋區"
"220105","075-UY","2018/11/29 14:29:22","新北市板橋區文化路二段417巷6號","121.474581666667","25.0333266666667","6500100","板橋區"
"220017","AAD-861","2018/11/29 14:29:17","新北市板橋區貴興路37號","121.45758","25.003795","6500100","板橋區"
"247001","893-R6","2018/11/29 14:29:25","新北市蘆洲區永樂街38巷33弄12號","121.457573333333","25.0896233333333","6501400","蘆洲區"
"247015","546-UM","2018/11/29 14:29:16","新北市蘆洲區中正路185巷68弄13號","121.46636","25.0851","6501400","蘆洲區"
"247023","500-BY","2018/11/29 14:29:13","新北市蘆洲區中正路263巷2號","121.467238333333","25.0876216666667","6501400","蘆洲區"
"247012","402-BY","2018/11/29 14:29:17","新北市蘆洲區中正路172號","121.468518333333","25.086445","6501400","蘆洲區"
"247005","337-TH","2018/11/29 14:29:17","新北市蘆洲區長安街70號","121.462711666667","25.0801416666667","6501400","蘆洲區"
"247007","336-TH","2018/11/29 14:29:26","新北市蘆洲區信義路74號","121.47622","25.079295","6501400","蘆洲區"
"247019","057-VK","2018/11/29 14:29:20","新北市蘆洲區仁愛街102-7號","121.469951666667","25.0949633333333","6501400","蘆洲區"
"247009","056-VK","2018/11/29 14:29:08","新北市蘆洲區鷺江街45號","121.478208333333","25.0824016666667","6501400","蘆洲區"
"247013","053-VK","2018/11/29 14:29:08","新北市蘆洲區中山二路150號","121.471228333333","25.0812916666667","6501400","蘆洲區"
"247017","007-UY","2018/11/29 14:29:08","新北市蘆洲區復興路231號","121.479996666667","25.089715","6501400","蘆洲區"
"247003","002-UY","2018/11/29 14:29:12","新北市蘆洲區永康街1巷15號","121.459808333333","25.0854883333333","6501400","蘆洲區"
"247021","001-UY","2018/11/29 14:29:15","新北市蘆洲區三民路128巷11號","121.470615","25.0884233333333","6501400","蘆洲區"
"228005","097-TW","2018/11/29 14:29:04","新北市貢寮區美豐里巫里岸9-1號","121.901965","25.07007","6502600","貢寮區"
"228004","212-TW","2018/11/29 14:29:04","新北市貢寮區雙玉里田寮洋街33-1號","121.932166666667","25.0138183333333","6502600","貢寮區"
"253003","6232-TK","2018/11/29 14:29:19","新北市石門區內石門67-3號","121.575351666667","25.25566","6502200","石門區"
"253004","6251-TK","2018/11/29 14:29:13","新北市石門區內阿里磅31-2號","121.586565","25.2404433333333","6502200","石門區"
"253002","637-UY","2018/11/29 14:25:53","新北市三芝區橫山里橫山39-9號","121.545843333333","25.2545666666667","6502200","石門區"
"253001","KEC-0718","2018/11/29 14:29:20","新北市石門區八甲13-1號","121.523161666667","25.2807216666667","6502200","石門區"
"207002","749-BX","2018/11/29 14:29:10","新北市萬里區溪底里富士坪路10-1號","121.622463333333","25.154645","6502800","萬里區"
"207001","662-BX","2018/11/29 14:29:14","新北市萬里區磺潭里清水12號","121.639806666667","25.1995166666667","6502800","萬里區"
"252005","AAC-283","2018/11/29 14:29:15","新北市三芝區埔坪里埔頭坑142-1號","121.513001666667","25.247755","6502100","三芝區"
"236068","105-UM","2018/11/29 14:29:24","新北市土城區永豐路255巷27弄21號","121.476131666667","24.9730383333333","6501300","土城區"
"236040","KED-0685","2018/11/29 14:29:05","新北市土城區學成路99巷11號","121.450066666667","24.9883683333333","6501300","土城區"
"236074","166-UM","2018/11/29 14:29:20","新北市土城區中央路四段25-10號","121.424453333333","24.9624183333333","6501300","土城區"
"236029","253-BX","2018/11/29 14:29:08","新北市土城區順風路6號","121.439993333333","24.9764083333333","6501300","土城區"
"236024","269-VK","2018/11/29 14:29:18","新北市土城區承天路18號","121.439505","24.963515","6501300","土城區"
"236012","270-VK","2018/11/29 14:29:17","新北市土城區青雲路39巷7號","121.460343333333","24.9875216666667","6501300","土城區"
"236032","271-VK","2018/11/29 14:29:22","新北市土城區青山路3巷1號","121.461031666667","24.97691","6501300","土城區"
"236017","752-BX","2018/11/29 14:29:14","新北市土城區永豐路202巷14號","121.46618","24.9835016666667","6501300","土城區"
"236057","912-UM","2018/11/29 14:29:15","新北市土城區中央路四段159-3號","121.41522","24.9568916666667","6501300","土城區"
"236045","913-UM","2018/11/29 14:29:16","新北市土城區明德路一段319號","121.459188333333","24.97711","6501300","土城區"
"236060","915-UM","2018/11/29 14:29:09","新北市土城區延壽路77巷6弄9號","121.468481666667","24.9927383333333","6501300","土城區"
"236054","970-R7","2018/11/29 14:29:10","新北市土城區中華路二段1號","121.439621666667","24.9791283333333","6501300","土城區"
"221033","647-BX","2018/11/29 14:29:17","新北市汐止區中興路98號","121.634456666667","25.06243","6501100","汐止區"
"220027","145-BY","2018/11/29 14:29:14","新北市板橋區民權路202巷13弄4號","121.459536666667","25.0162616666667","6500100","板橋區"
"220028","200-UY","2018/11/29 14:29:19","新北市板橋區大觀路二段3巷95號","121.450385","25.003245","6500100","板橋區"
"220030","610-BX","2018/11/29 14:29:16","新北市板橋區金門街299號","121.430021666667","24.98654","6500100","板橋區"
"220050","245-BX","2018/11/29 14:29:19","新北市板橋區縣民大道三段133巷3號","121.477556666667","25.0233716666667","6500100","板橋區"
"220004","276-BY","2018/11/29 14:29:05","新北市板橋區和平路25號","121.459493333333","24.9953816666667","6500100","板橋區"
"220020","277-BY","2018/11/29 14:29:07","新北市板橋區篤行路二段141巷25號","121.430686666667","24.987725","6500100","板橋區"
"220019","283-VK","2018/11/29 14:29:18","新北市板橋區信義路52號","121.457091666667","24.9941233333333","6500100","板橋區"
"220043","285-UM","2018/11/29 14:29:19","新北市板橋區吳鳳路50巷73號","121.46983","25.030355","6500100","板橋區"
"220001","285-VK","2018/11/29 14:29:05","新北市板橋區富山街60號","121.477226666667","25.0220033333333","6500100","板橋區"
"220031","286-VK","2018/11/29 14:29:18","新北市板橋區龍興街71巷37號","121.442221666667","25.00242","6500100","板橋區"
"220029","287-VK","2018/11/29 14:29:20","新北市板橋區大觀路一段75巷18號","121.447935","25.0043366666667","6500100","板橋區"
"220039","288-VK","2018/11/29 14:29:13","新北市板橋區長江路一段106巷20弄12號","121.46016","25.02832","6500100","板橋區"
"220009","295-UM","2018/11/29 14:29:05","新北市板橋區中山路一段265巷36弄1號","121.469113333333","25.0152433333333","6500100","板橋區"
"220032","296-UM","2018/11/29 14:29:12","新北市板橋區滿平街84巷100弄10號","121.426195","24.9863883333333","6500100","板橋區"
"220023","303-R5","2018/11/29 14:29:05","新北市板橋區中正路252號","121.455568333333","25.01929","6500100","板橋區"
"220010","305-R5","2018/11/29 14:29:09","新北市板橋區三民路二段181巷5號","121.479853333333","25.0144","6500100","板橋區"
"220041","307-R5","2018/11/29 14:29:06","新北市板橋區光武街2巷14號","121.468443333333","25.0251016666667","6500100","板橋區"
"220047","317-R6","2018/11/29 14:29:12","新北市板橋區民生路三段263巷2弄2號","121.463965","25.029405","6500100","板橋區"
"220038","487-VK","2018/11/29 14:29:18","新北市板橋區文化路一段113號","121.461736666667","25.01483","6500100","板橋區"
"220104","560-BX","2018/11/29 14:29:24","新北市板橋區中正路375巷30號","121.453536666667","25.0206983333333","6500100","板橋區"
"220052","561-BX","2018/11/29 14:29:22","新北市板橋區文化路一段266號","121.467285","25.0205683333333","6500100","板橋區"
"220011","609-BX","2018/11/29 14:29:05","新北市板橋區三民路二段204號","121.478903333333","25.0121916666667","6500100","板橋區"
"220040","637-BX","2018/11/29 14:29:23","新北市板橋區文聖街149巷35號","121.479985","25.0289216666667","6500100","板橋區"
"220005","686-BX","2018/11/29 14:29:16","新北市板橋區五權街12號","121.46435","24.9940633333333","6500100","板橋區"
"220025","687-BX","2018/11/29 14:29:08","新北市板橋區大觀路二段235號","121.443783333333","24.9992283333333","6500100","板橋區"
"220042","689-BX","2018/11/29 14:29:20","新北市板橋區雨農路32號","121.461258333333","25.024415","6500100","板橋區"
"220002","741-BX","2018/11/29 14:29:15","新北市板橋區四川路一段196號","121.45968","25.0025133333333","6500100","板橋區"
"220051","KEA-2699","2018/11/29 14:29:21","新北市板橋區松柏街22巷43號","121.475088333333","25.0289183333333","6500100","板橋區"
"220012","806-UM","2018/11/29 14:29:23","新北市板橋區館前西路3號","121.45916","25.0070466666667","6500100","板橋區"
"220003","827-TW","2018/11/29 14:29:07","新北市板橋區忠孝路120號","121.463","25.0023216666667","6500100","板橋區"
"220014","830-TW","2018/11/29 14:29:19","新北市板橋區漢生東路313巷13號","121.472298333333","25.0084166666667","6500100","板橋區"
"220045","831-TW","2018/11/29 14:29:12","新北市板橋區民生路二段226巷35號","121.471313333333","25.02225","6500100","板橋區"
"220037","833-TW","2018/11/29 14:29:21","新北市板橋區雙十路一段3號","121.478096666667","25.023995","6500100","板橋區"
"220022","895-R6","2018/11/29 14:29:20","新北市板橋區大東街50號","121.456335","25.0083133333333","6500100","板橋區"
"220021","985-R7","2018/11/29 14:29:22","新北市板橋區英士路190巷2號","121.458118333333","25.0223716666667","6500100","板橋區"
"220046","AAC-210","2018/11/29 14:29:13","新北市板橋區陽明街29巷42號","121.46313","25.022945","6500100","板橋區"
"220018","AAC-253","2018/11/29 14:29:23","新北市板橋區四川路一段223號","121.460065","25.0034166666667","6500100","板橋區"
"235032","KEA-2873","2018/11/29 14:29:13","新北市中和區永和路8巷21號","121.50095","25.00361","6500300","中和區"
"235025","KEA-2875","2018/11/29 14:29:18","新北市中和區員山路226巷5弄3號","121.481703333333","25.0008066666667","6500300","中和區"
"235028","KEA-2876","2018/11/29 14:29:17","新北市中和區南山路81巷61-1號","121.504248333333","24.99788","6500300","中和區"
