"lineid","car","time","location","longitude","latitude","cityid","cityname"
"248007","095-VK","2018/11/29 15:09:13","新北市五股區中興路一段1巷20號","121.46973","25.0710233333333","6501500","五股區"
"248017","225-UY","2018/11/29 15:08:23","新北市五股區登林路107號","121.407315","25.0798166666667","6501500","五股區"
"248012","655-BX","2018/11/29 15:09:09","新北市五股區中興路二段83巷26-3號","121.459981666667","25.0754366666667","6501500","五股區"
"248003","677-BX","2018/11/29 15:09:25","新北市五股區成泰路二段78號","121.437375","25.082125","6501500","五股區"
"244003","248-BX","2018/11/29 15:09:13","新北市林口區竹林路266號","121.389673333333","25.0808183333333","6501700","林口區"
"243001","297-R6","2018/11/29 15:09:21","新北市泰山區泰林路二段542巷3弄4號","121.423323333333","25.0643283333333","6501600","泰山區"
"243008","KEA-2801","2018/11/29 15:09:25","新北市泰山區新生路11號","121.426756666667","25.0457216666667","6501600","泰山區"
"243007","421-VK","2018/11/29 15:09:22","新北市泰山區泰林路二段208號","121.433276666667","25.0614633333333","6501600","泰山區"
"243004","646-TV","2018/11/29 15:09:14","新北市泰山區憲訓路1號","121.428833333333","25.0640316666667","6501600","泰山區"
"243006","680-BX","2018/11/29 15:09:07","新北市泰山區泰林路三段745巷145號","121.405453333333","25.0677033333333","6501600","泰山區"
"231002","002-UM","2018/11/29 15:09:26","新北市新店區中正路543-2號","121.533538333333","24.9871883333333","6500600","新店區"
"231028","046-UY","2018/11/29 15:09:12","新北市新店區僑信路94號","121.499918333333","24.9476583333333","6500600","新店區"
"231001","047-UY","2018/11/29 15:09:04","新北市新店區中正路276號","121.538866666667","24.97371","6500600","新店區"
"231005","106-UY","2018/11/29 15:09:17","新北市新店區民權路26號","121.540981666667","24.9830233333333","6500600","新店區"
"231021","108-UY","2018/11/29 15:09:15","新北市新店區永福路54-2號","121.558098333333","24.9287083333333","6500600","新店區"
"231011","187-VK","2018/11/29 15:09:18","新北市新店區寶元路一段65號","121.542223333333","24.9858233333333","6500600","新店區"
"231023","KEA-2219","2018/11/29 15:09:19","新北市新店區檳榔路105號","121.544631666667","24.9616216666667","6500600","新店區"
"231026","256-BX","2018/11/29 15:09:12","新北市新店區建國路58號","121.54062","24.9755966666667","6500600","新店區"
"231003","268-BY","2018/11/29 15:09:11","新北市新店區中興路二段235號","121.54738","24.9751666666667","6500600","新店區"
"231017","AAD-862","2018/11/29 15:07:04","新北市新店區明山路115號","121.566425","24.9609783333333","6500600","新店區"
"231038","3712-VJ","2018/11/29 15:09:06","新北市新店區安華路28-1號","121.519586666667","24.960945","6500600","新店區"
"231025","4715-K9","2018/11/29 15:09:09","新北市新店區二十張路46巷37弄21-1號","121.535698333333","24.9814233333333","6500600","新店區"
"231036","512-UM","2018/11/29 15:09:22","新北市新店區安祥路104巷11弄15號","121.480873333333","24.9632933333333","6500600","新店區"
"231034","616-UM","2018/11/29 15:09:20","新北市新店區玫瑰路4-1號","121.493583333333","24.9514766666667","6500600","新店區"
"231006","617-UM","2018/11/29 15:09:26","新北市新店區新坡一街18巷5弄23號","121.550746666667","24.96186","6500600","新店區"
"231030","619-UM","2018/11/29 15:09:15","新北市新店區安民街341-1號","121.516803333333","24.9749333333333","6500600","新店區"
"231039","718-UY","2018/11/29 15:09:04","新北市新店區民權路8號","121.542495","24.9829866666667","6500600","新店區"
"231035","719-UM","2018/11/29 15:09:13","新北市新店區永安街56巷5號","121.518566666667","24.9865233333333","6500600","新店區"
"231018","719-UY","2018/11/29 15:09:07","新北市新店區中央七街115號","121.525473333333","24.97788","6500600","新店區"
"231031","720-UM","2018/11/29 15:09:18","新北市新店區安泰路60巷37號","121.483721666667","24.9462","6500600","新店區"
"231029","897-TW","2018/11/29 15:09:13","新北市新店區安康路三段738號","121.473781666667","24.9420983333333","6500600","新店區"
"231004","899-TW","2018/11/29 15:09:26","新北市新店區建國路40號","121.540528333333","24.9749216666667","6500600","新店區"
"231024","AKT-0513","2018/11/29 15:09:13","新北市新店區北新路一段297巷21號","121.540711666667","24.9679683333333","6500600","新店區"
"241013","270-UM","2018/11/29 15:09:17","新北市三重區重新路四段121號","121.485045","25.0521883333333","6500200","三重區"
"235030","003-UY","2018/11/29 15:09:18","新北市中和區中山路二段3巷34號","121.507266666667","25.0050283333333","6500300","中和區"
"235003","097-UM","2018/11/29 15:09:06","新北市中和區安樂路217巷14號","121.513878333333","24.9987433333333","6500300","中和區"
"235029","098-UM","2018/11/29 15:09:11","新北市中和區景平路756號","121.496491666667","25.0047533333333","6500300","中和區"
"235004","150-BY","2018/11/29 15:09:18","新北市中和區安和路95號","121.50735","24.99568","6500300","中和區"
"235007","352-BY","2018/11/29 15:09:18","新北市中和區興南路二段159巷18號","121.505253333333","24.9830383333333","6500300","中和區"
"235014","4979-A6","2018/11/29 15:09:26","新北市中和區安樂路8-1號","121.511748333333","24.9918416666667","6500300","中和區"
"235033","4980-A6","2018/11/29 15:09:11","新北市中和區景新街64巷11弄12號","121.50446","24.9980966666667","6500300","中和區"
"235034","558-UM","2018/11/29 15:09:21","新北市中和區中正路360號","121.493548333333","24.994285","6500300","中和區"
"235018","640-BX","2018/11/29 15:09:04","新北市中和區民享街35巷8弄15號","121.474648333333","25.0035633333333","6500300","中和區"
"235035","783-BX","2018/11/29 15:09:05","新北市中和區建三路57號","121.486151666667","25.00177","6500300","中和區"
"235012","896-TW","2018/11/29 15:09:19","新北市中和區興南路一段142-6號","121.508501666667","24.9871533333333","6500300","中和區"
"235001","AAC-213","2018/11/29 15:09:22","新北市中和區自立路38-1號","121.522768333333","24.9924933333333","6500300","中和區"
"235023","AAC-215","2018/11/29 15:09:10","新北市中和區圓通路335巷33弄11號","121.49314","24.9891766666667","6500300","中和區"
"220016","013-TV","2018/11/29 15:09:15","新北市板橋區光復街230號","121.484778333333","25.0214","6500100","板橋區"
"220105","075-UY","2018/11/29 15:09:22","新北市板橋區仁化街141號","121.477476666667","25.0330283333333","6500100","板橋區"
"220017","AAD-861","2018/11/29 15:09:18","新北市板橋區大明街25巷4弄4號","121.457818333333","25.0021133333333","6500100","板橋區"
"247012","402-BY","2018/11/29 15:09:08","新北市蘆洲區三民路96號","121.47372","25.0861816666667","6501400","蘆洲區"
"228004","212-TW","2018/11/29 15:09:24","新北市貢寮區雙玉里田寮洋街16-2號","121.921826666667","25.0251383333333","6502600","貢寮區"
"253003","6232-TK","2018/11/29 15:09:19","新北市石門區小坑12-1號","121.595488333333","25.2841683333333","6502200","石門區"
"253004","6251-TK","2018/11/29 15:08:41","新北市石門區小坑29-1號","121.598136666667","25.2722816666667","6502200","石門區"
"253002","637-UY","2018/11/29 15:09:13","新北市石門區尖子鹿103-1號","121.581041666667","25.2958183333333","6502200","石門區"
"253001","KEC-0718","2018/11/29 15:09:20","新北市石門區老崩山2-1號","121.55486","25.2917766666667","6502200","石門區"
"207002","749-BX","2018/11/29 15:09:09","新北市萬里區崁腳里內中福路64號","121.655018333333","25.1673166666667","6502800","萬里區"
"207001","662-BX","2018/11/29 15:09:14","新北市萬里區雙興里麗水路5號","121.652681666667","25.1839033333333","6502800","萬里區"
"236068","105-UM","2018/11/29 15:09:04","新北市土城區學成路76巷1號","121.451196666667","24.9883116666667","6501300","土城區"
"236040","KED-0685","2018/11/29 15:09:25","新北市土城區裕民路256巷2弄2號","121.454316666667","24.9827766666667","6501300","土城區"
"236074","166-UM","2018/11/29 15:09:20","新北市土城區中州路3巷43號","121.413366666667","24.9563716666667","6501300","土城區"
"236029","253-BX","2018/11/29 15:09:17","新北市土城區福祥街47號","121.440803333333","24.979865","6501300","土城區"
"236024","269-VK","2018/11/29 15:09:18","新北市土城區中央路二段177巷15-2號","121.443388333333","24.97624","6501300","土城區"
"236012","270-VK","2018/11/29 15:09:17","新北市土城區學府路一段75巷1弄2號","121.45729","24.9877383333333","6501300","土城區"
"236032","271-VK","2018/11/29 15:09:22","新北市土城區國際路54號","121.466573333333","24.9777616666667","6501300","土城區"
"236017","752-BX","2018/11/29 15:09:14","新北市土城區延峰街28號","121.469183333333","24.9854066666667","6501300","土城區"
"236057","912-UM","2018/11/29 15:09:15","新北市土城區千歲路3巷6弄14號","121.441618333333","24.9699816666667","6501300","土城區"
"236045","913-UM","2018/11/29 15:09:11","新北市土城區清水路237號","121.461325","24.9829766666667","6501300","土城區"
"236060","915-UM","2018/11/29 15:09:09","新北市土城區延平街58號","121.467881666667","24.992515","6501300","土城區"
"236054","970-R7","2018/11/29 15:09:13","新北市土城區學府路一段196號","121.453131666667","24.9859133333333","6501300","土城區"
"238002","755-BX","2018/11/29 15:09:09","新北市樹林區新興街20-12號","121.398416666667","24.972745","6500700","樹林區"
"238010","601-UM","2018/11/29 15:09:07","新北市樹林區大安路249巷1號","121.419506666667","24.994395","6500700","樹林區"
"238006","599-UM","2018/11/29 15:09:16","新北市樹林區八德街257號","121.421715","24.97822","6500700","樹林區"
"238005","571-TV","2018/11/29 15:09:11","新北市板橋區大觀路三段6-1號","121.434946666667","24.9958666666667","6500700","樹林區"
"238011","5061-A6","2018/11/29 15:09:03","新北市樹林區博愛一街29巷64號","121.425995","24.991665","6500700","樹林區"
"238009","KEA-2213","2018/11/29 15:09:22","新北市樹林區忠孝街31號","121.423675","24.9822133333333","6500700","樹林區"
"238008","KEA-2539","2018/11/29 15:09:23","新北市樹林區西圳街一段165巷20弄11號","121.395638333333","24.96023","6500700","樹林區"
"238012","303-VK","2018/11/29 15:09:14","新北市樹林區中山路一段296號","121.42037","24.98645","6500700","樹林區"
"238004","283-BY","2018/11/29 15:09:24","新北市樹林區啟智街172號","121.414495","24.9872766666667","6500700","樹林區"
"238007","268-VK","2018/11/29 15:09:14","新北市樹林區大安路211號","121.420386666667","24.99541","6500700","樹林區"
"238013","172-UY","2018/11/29 15:09:23","新北市樹林區東順街119號","121.407188333333","24.9752016666667","6500700","樹林區"
"238003","169-UY","2018/11/29 15:09:06","新北市樹林區大安路568-4號","121.412096666667","24.98396","6500700","樹林區"
"220028","200-UY","2018/11/29 15:09:23","新北市板橋區大觀路二段153巷44弄53號","121.446058333333","24.9990116666667","6500100","板橋區"
"220030","610-BX","2018/11/29 15:09:17","新北市板橋區篤行路二段52號","121.431676666667","24.9926316666667","6500100","板橋區"
"220050","245-BX","2018/11/29 15:09:22","新北市板橋區莒光路178號","121.473928333333","25.022855","6500100","板橋區"
"220021","259-TC","2018/11/29 15:09:09","新北市板橋區大仁街49號","121.454753333333","25.0165133333333","6500100","板橋區"
"220001","285-VK","2018/11/29 15:09:08","新北市板橋區懷仁街60號","121.476981666667","25.0187383333333","6500100","板橋區"
"220031","286-VK","2018/11/29 15:09:18","新北市板橋區僑中二街92巷20號","121.44534","25.0090816666667","6500100","板橋區"
"220029","287-VK","2018/11/29 15:09:20","新北市板橋區僑中一街80巷5弄20號","121.446966666667","25.01266","6500100","板橋區"
"220039","288-VK","2018/11/29 15:09:20","新北市板橋區幸福路32巷28號","121.460826666667","25.0214533333333","6500100","板橋區"
"220009","295-UM","2018/11/29 15:09:15","新北市板橋區四川路一段274巷4號","121.458198333333","25.0014183333333","6500100","板橋區"
"220041","307-R5","2018/11/29 15:09:08","新北市板橋區新海路135巷39-2號","121.459346666667","25.022395","6500100","板橋區"
"220047","317-R6","2018/11/29 15:09:18","新北市板橋區新海路72巷5弄25號","121.461585","25.0229166666667","6500100","板橋區"
"220038","487-VK","2018/11/29 15:09:10","新北市板橋區新海路403巷28號","121.45727","25.0261166666667","6500100","板橋區"
"220052","561-BX","2018/11/29 15:09:22","新北市板橋區英士路58巷8號","121.460795","25.0251766666667","6500100","板橋區"
"220011","609-BX","2018/11/29 15:09:05","新北市板橋區中山路二段469號","121.482035","25.0205916666667","6500100","板橋區"
"220005","686-BX","2018/11/29 15:09:10","新北市板橋區四川路二段130巷1-2號","121.449908333333","24.9937583333333","6500100","板橋區"
"220025","687-BX","2018/11/29 15:09:11","新北市板橋區僑中一街124巷1弄21號","121.444825","25.0121866666667","6500100","板橋區"
"220042","689-BX","2018/11/29 15:09:20","新北市板橋區長江路三段122號","121.475226666667","25.0344433333333","6500100","板橋區"
"220051","KEA-2699","2018/11/29 15:09:21","新北市板橋區民治街137號","121.47761","25.0306766666667","6500100","板橋區"
"220012","806-UM","2018/11/29 15:09:23","新北市板橋區漢生東路215號","121.470621666667","25.01054","6500100","板橋區"
"220003","827-TW","2018/11/29 15:09:07","新北市板橋區忠孝路48巷11弄17-2號","121.462213333333","24.9999266666667","6500100","板橋區"
"220014","829-TW","2018/11/29 15:08:13","新北市板橋區溪城路90-2號","121.429106666667","24.9803716666667","6500100","板橋區"
"220014","830-TW","2018/11/29 15:09:17","新北市板橋區中山路一段206巷95號","121.472198333333","25.0133733333333","6500100","板橋區"
"220037","833-TW","2018/11/29 15:09:21","新北市板橋區民治街51巷1號","121.479071666667","25.0338416666667","6500100","板橋區"
"220046","AAC-210","2018/11/29 15:09:13","新北市板橋區民權路202巷34號","121.460825","25.01738","6500100","板橋區"
"220018","AAC-253","2018/11/29 15:09:22","新北市板橋區成都街93號","121.46304","25.0053733333333","6500100","板橋區"
