"lineid","car","time","location","longitude","latitude","cityid","cityname"
"248012","655-BX","2018/11/29 15:15:02","新北市五股區中興路二段83巷26-6號","121.460026666667","25.0753083333333","6501500","五股區"
"244003","248-BX","2018/11/29 15:29:13","新北市林口區粉寮路二段42號","121.403456666667","25.0868383333333","6501700","林口區"
"231002","002-UM","2018/11/29 15:29:11","新北市新店區環河路121號","121.529546666667","24.9716716666667","6500600","新店區"
"231028","046-UY","2018/11/29 15:29:12","新北市新店區僑信路92號","121.499888333333","24.9477516666667","6500600","新店區"
"231005","106-UY","2018/11/29 15:29:17","新北市新店區建國路257號","121.5374","24.9832216666667","6500600","新店區"
"231021","108-UY","2018/11/29 15:29:15","新北市新店區湖興路109號","121.561273333333","24.9372983333333","6500600","新店區"
"231011","187-VK","2018/11/29 15:29:18","新北市新店區寶元路一段105號","121.545445","24.9832266666667","6500600","新店區"
"231023","KEA-2219","2018/11/29 15:29:19","新北市新店區北新路一段88巷1號","121.541771666667","24.9679333333333","6500600","新店區"
"231026","256-BX","2018/11/29 15:29:12","新北市新店區三民路117巷6弄1號","121.534075","24.9711516666667","6500600","新店區"
"231003","268-BY","2018/11/29 15:29:11","新北市新店區寶高路116號","121.554546666667","24.9761266666667","6500600","新店區"
"231017","AAD-862","2018/11/29 15:28:45","新北市新店區明山路25號","121.56409","24.95589","6500600","新店區"
"231038","3712-VJ","2018/11/29 15:29:06","新北市新店區安華路28-1號","121.519726666667","24.96096","6500600","新店區"
"231037","4716-K9","2018/11/29 15:29:22","新北市新店區安興路91巷6號","121.514688333333","24.975875","6500600","新店區"
"231025","4715-K9","2018/11/29 15:29:09","新北市新店區安康路一段258號","121.520495","24.963995","6500600","新店區"
"231036","512-UM","2018/11/29 15:29:23","新北市新店區安祥路69巷89弄11號","121.483133333333","24.959565","6500600","新店區"
"231034","616-UM","2018/11/29 15:29:19","新北市新店區富貴街10巷1號","121.494103333333","24.94946","6500600","新店區"
"231030","619-UM","2018/11/29 15:29:15","新北市新店區安和路三段61號","121.517898333333","24.9831783333333","6500600","新店區"
"231039","718-UY","2018/11/29 15:29:04","新北市新店區寶元路一段85巷8號","121.543116666667","24.98586","6500600","新店區"
"231035","719-UM","2018/11/29 15:29:13","新北市新店區安興路83-8號","121.515315","24.9756583333333","6500600","新店區"
"231018","719-UY","2018/11/29 15:29:27","新北市新店區民生路145巷35號","121.52964","24.98072","6500600","新店區"
"231031","720-UM","2018/11/29 15:29:18","新北市新店區和成街18巷9號","121.487591666667","24.9464183333333","6500600","新店區"
"231029","897-TW","2018/11/29 15:29:13","新北市新店區安康路三段527號","121.482336666667","24.947285","6500600","新店區"
"231004","899-TW","2018/11/29 15:29:20","新北市新店區民族路108號","121.538113333333","24.97737","6500600","新店區"
"231024","AKT-0513","2018/11/29 15:29:13","新北市新店區安康路二段66號","121.51474","24.9636766666667","6500600","新店區"
"241011","013-R5","2018/11/29 15:29:16","新北市三重區河邊北街176巷2號","121.5031","25.0738966666667","6500200","三重區"
"241022","060-VK","2018/11/29 15:29:13","新北市三重區重新路四段121號","121.485313333333","25.0521616666667","6500200","三重區"
"241017","063-VK","2018/11/29 15:29:06","新北市三重區重新路四段121號","121.484808333333","25.05201","6500200","三重區"
"241013","270-UM","2018/11/29 15:29:17","新北市三重區忠孝路一段87號","121.489823333333","25.0721466666667","6500200","三重區"
"241007","398-BY","2018/11/29 15:29:27","新北市三重區重新路四段121號","121.484958333333","25.0520183333333","6500200","三重區"
"241014","543-UM","2018/11/29 15:29:11","新北市三重區重新路四段121號","121.485113333333","25.0522433333333","6500200","三重區"
"241012","941-UM","2018/11/29 15:29:07","新北市三重區成功路10號","121.490063333333","25.0502383333333","6500200","三重區"
"235030","003-UY","2018/11/29 15:29:18","新北市中和區光華街31巷22弄4號","121.50543","25.00471","6500300","中和區"
"235014","4979-A6","2018/11/29 15:29:19","新北市中和區景新街160巷2號","121.505661666667","24.9972516666667","6500300","中和區"
"235033","4980-A6","2018/11/29 15:29:11","新北市中和區中正路518號","121.488248333333","24.9944883333333","6500300","中和區"
"235018","640-BX","2018/11/29 15:29:24","新北市五股區成泰路三段362號","121.451616666667","25.0988166666667","6500300","中和區"
"235023","AAC-215","2018/11/29 15:29:18","新北市中和區員山路24-1號","121.483998333333","24.9853316666667","6500300","中和區"
"247012","402-BY","2018/11/29 15:26:23","新北市蘆洲區光華路108號","121.467191666667","25.0825783333333","6501400","蘆洲區"
"253003","6232-TK","2018/11/29 15:29:19","新北市石門區小坑9號","121.594355","25.2884316666667","6502200","石門區"
"253002","637-UY","2018/11/29 15:29:13","新北市石門區小坑9號","121.594376666667","25.2884083333333","6502200","石門區"
"253001","KEC-0718","2018/11/29 15:29:20","新北市石門區小坑9號","121.59435","25.2891866666667","6502200","石門區"
"207001","662-BX","2018/11/29 15:29:14","新北市萬里區龜吼里玉田路4-2號","121.682688333333","25.1846716666667","6502800","萬里區"
"236068","105-UM","2018/11/29 15:29:24","新北市土城區中央路二段310號","121.440436666667","24.9731566666667","6501300","土城區"
"236040","KED-0685","2018/11/29 15:29:05","新北市土城區學府路一段120巷13號","121.454893333333","24.98811","6501300","土城區"
"236074","166-UM","2018/11/29 15:29:20","新北市土城區溪頭路71號","121.41148","24.95445","6501300","土城區"
"236029","253-BX","2018/11/29 15:29:08","新北市土城區中央路一段251號","121.445183333333","24.985775","6501300","土城區"
"236024","269-VK","2018/11/29 15:29:18","新北市土城區中央路一段324號","121.443293333333","24.981685","6501300","土城區"
"236012","270-VK","2018/11/29 15:29:17","新北市土城區廣明街35號","121.455365","24.9929883333333","6501300","土城區"
"236032","271-VK","2018/11/29 15:29:22","新北市土城區延吉街355號","121.464563333333","24.9839633333333","6501300","土城區"
"236017","752-BX","2018/11/29 15:29:20","新北市土城區延吉街96號","121.470541666667","24.986325","6501300","土城區"
"236057","912-UM","2018/11/29 15:29:15","新北市土城區員福街50號","121.440525","24.9791583333333","6501300","土城區"
"236045","913-UM","2018/11/29 15:29:08","新北市土城區金城路二段384號","121.463438333333","24.9856866666667","6501300","土城區"
"236060","915-UM","2018/11/29 15:29:20","新北市土城區金城路三段33巷14號","121.465276666667","24.9872516666667","6501300","土城區"
"236054","970-R7","2018/11/29 15:29:21","新北市土城區延和路57號","121.466628333333","24.989705","6501300","土城區"
"238002","755-BX","2018/11/29 15:29:09","新北市樹林區復興路197號","121.420538333333","24.991705","6500700","樹林區"
"238010","601-UM","2018/11/29 15:29:27","新北市樹林區三福街114號","121.406521666667","25.0163533333333","6500700","樹林區"
"238006","599-UM","2018/11/29 15:29:16","新北市樹林區太平路161號","121.418798333333","24.9794883333333","6500700","樹林區"
"238005","571-TV","2018/11/29 15:29:10","新北市樹林區鎮前街267號","121.41996","24.9859866666667","6500700","樹林區"
"238011","5061-A6","2018/11/29 15:29:23","新北市樹林區中山路二段209號","121.403763333333","24.977145","6500700","樹林區"
"238009","KEA-2213","2018/11/29 15:29:22","新北市樹林區忠孝街21號","121.423475","24.9824816666667","6500700","樹林區"
"238008","KEA-2539","2018/11/29 15:29:23","新北市樹林區柑園街一段64號","121.402558333333","24.9604833333333","6500700","樹林區"
"238012","303-VK","2018/11/29 15:29:14","新北市樹林區中山路一段404號","121.41819","24.9853816666667","6500700","樹林區"
"238004","283-BY","2018/11/29 15:29:04","新北市樹林區保安街二段333巷2號","121.412251666667","25.0075633333333","6500700","樹林區"
"238001","282-BY","2018/11/29 15:29:17","新北市樹林區潭興街107巷21弄16號","121.423863333333","24.9989333333333","6500700","樹林區"
"238007","268-VK","2018/11/29 15:29:14","新北市樹林區俊英街136號","121.427116666667","25.00602","6500700","樹林區"
"238013","172-UY","2018/11/29 15:29:23","新北市樹林區新興街19巷34弄28號","121.402241666667","24.9725683333333","6500700","樹林區"
"238003","169-UY","2018/11/29 15:28:26","新北市樹林區長壽街28巷4弄2號","121.423266666667","24.9943266666667","6500700","樹林區"
"220030","610-BX","2018/11/29 15:29:16","新北市樹林區中山路三段210-2號","121.380675","24.9667633333333","6500100","板橋區"
"220050","245-BX","2018/11/29 15:29:19","新北市板橋區莒光路59號","121.471161666667","25.0242183333333","6500100","板橋區"
"220031","286-VK","2018/11/29 15:29:18","新北市板橋區僑中二街108巷1號","121.445716666667","25.007115","6500100","板橋區"
"220038","487-VK","2018/11/29 15:29:10","新北市板橋區四維路154號","121.464911666667","25.0258233333333","6500100","板橋區"
"220052","561-BX","2018/11/29 15:29:22","新北市板橋區漢生東路43巷2號","121.465805","25.0169533333333","6500100","板橋區"
"220011","609-BX","2018/11/29 15:29:05","新北市板橋區三民路一段156號","121.479066666667","25.0197833333333","6500100","板橋區"
"220003","827-TW","2018/11/29 15:29:07","新北市板橋區四川路二段130巷27號","121.449335","24.9942883333333","6500100","板橋區"
"220014","829-TW","2018/11/29 15:08:13","新北市板橋區溪城路90-2號","121.429106666667","24.9803716666667","6500100","板橋區"
"220018","AAC-253","2018/11/29 15:29:22","新北市板橋區四川路二段245巷71號","121.452791666667","24.9920833333333","6500100","板橋區"
