"lineid","car","time","location","longitude","latitude","cityid","cityname"
"243010","KEA-2216","2018/11/29 15:36:02","新北市泰山區黎明路31號","121.421836666667","25.0607083333333","6501600","泰山區"
"243014","680-BX","2018/11/29 15:35:06","新北市泰山區犁頭窠3-1號","121.42212","25.0605633333333","6501600","泰山區"
"231046","107-UY","2018/11/29 15:49:09","新北市新店區安一路一段1-1號","121.519918333333","24.9612416666667","6500600","新店區"
"231021","108-UY","2018/11/29 15:49:15","新北市新店區新烏路一段247號","121.546706666667","24.930435","6500600","新店區"
"231011","187-VK","2018/11/29 15:49:18","新北市新店區中興路三段160號","121.544535","24.9807016666667","6500600","新店區"
"231023","KEA-2219","2018/11/29 15:49:19","新北市新店區檳榔路2-1號","121.54099","24.9648616666667","6500600","新店區"
"231026","256-BX","2018/11/29 15:49:12","新北市新店區中正路511號","121.53357","24.9847916666667","6500600","新店區"
"231003","268-BY","2018/11/29 15:49:11","新北市新店區寶興路60巷4號","121.54985","24.9718916666667","6500600","新店區"
"231017","AAD-862","2018/11/29 15:49:25","新北市新店區華興街10號","121.537906666667","24.969755","6500600","新店區"
"231038","3712-VJ","2018/11/29 15:49:06","新北市新店區安康路二段228巷41弄11號","121.509345","24.9601116666667","6500600","新店區"
"231037","4716-K9","2018/11/29 15:49:22","新北市新店區安興路105-1號","121.5147","24.9777233333333","6500600","新店區"
"231013","513-UM","2018/11/29 15:49:13","新北市新店區華潭街24號","121.529155","24.9530533333333","6500600","新店區"
"231034","616-UM","2018/11/29 15:49:19","新北市新店區玫瑰路57巷47號","121.497473333333","24.9464516666667","6500600","新店區"
"231030","619-UM","2018/11/29 15:49:15","新北市新店區永安街60號","121.518951666667","24.98694","6500600","新店區"
"231035","719-UM","2018/11/29 15:49:13","新北市新店區安興路83-8號","121.515228333333","24.975755","6500600","新店區"
"231018","719-UY","2018/11/29 15:49:27","新北市新店區中正路663巷1弄2號","121.532913333333","24.990015","6500600","新店區"
"231031","720-UM","2018/11/29 15:49:18","新北市新店區雙城路145號","121.495856666667","24.9436383333333","6500600","新店區"
"231029","897-TW","2018/11/29 15:49:13","新北市新店區薏仁坑路自強巷1號","121.497653333333","24.9578283333333","6500600","新店區"
"231004","899-TW","2018/11/29 15:49:06","新北市新店區中央路224號","121.529661666667","24.97292","6500600","新店區"
"241011","013-R5","2018/11/29 15:49:16","新北市三重區文化北路246號","121.497441666667","25.0698933333333","6500200","三重區"
"241028","022-UY","2018/11/29 15:49:20","新北市三重區中正南路109號","121.494208333333","25.0577283333333","6500200","三重區"
"241008","059-VK","2018/11/29 15:49:16","新北市三重區新北大道一段250號","121.479901666667","25.0614066666667","6500200","三重區"
"241022","060-VK","2018/11/29 15:49:13","新北市三重區新北大道一段250號","121.479963333333","25.0611383333333","6500200","三重區"
"241015","062-VK","2018/11/29 15:49:11","新北市三重區重新路四段121號","121.485058333333","25.0520866666667","6500200","三重區"
"241017","063-VK","2018/11/29 15:49:26","新北市三重區大仁街38號","121.491563333333","25.064335","6500200","三重區"
"241026","066-VK","2018/11/29 15:49:26","新北市三重區泉州街84巷18號","121.495781666667","25.0543166666667","6500200","三重區"
"241002","090-VK","2018/11/29 15:49:16","新北市三重區成功路187號","121.485131666667","25.0527183333333","6500200","三重區"
"241003","091-VK","2018/11/29 15:49:10","新北市三重區泉州街84巷20號","121.4959","25.0543633333333","6500200","三重區"
"241005","262-UM","2018/11/29 15:49:16","新北市三重區中央南路134號","121.502083333333","25.0591616666667","6500200","三重區"
"241009","267-UM","2018/11/29 15:49:13","新北市三重區重新路四段121號","121.485026666667","25.0523316666667","6500200","三重區"
"241018","268-UM","2018/11/29 15:49:15","新北市三重區重新路四段121號","121.484778333333","25.0521266666667","6500200","三重區"
"241013","270-UM","2018/11/29 15:49:17","新北市三重區三和路三段25號","121.496135","25.0709816666667","6500200","三重區"
"241025","271-UM","2018/11/29 15:49:05","新北市三重區忠孝路三段99巷4號","121.480161666667","25.0642483333333","6500200","三重區"
"241007","398-BY","2018/11/29 15:49:27","新北市三重區忠孝路三段84巷1號","121.480348333333","25.06484","6500200","三重區"
"241004","475-VK","2018/11/29 15:49:18","新北市三重區重新路四段121號","121.48486","25.0520116666667","6500200","三重區"
"241014","543-UM","2018/11/29 15:49:11","新北市三重區重新路四段121號","121.485016666667","25.0520416666667","6500200","三重區"
"241023","545-UM","2018/11/29 15:49:09","新北市三重區忠孝路三段84巷7號","121.480656666667","25.0645183333333","6500200","三重區"
"241033","557-UM","2018/11/29 15:47:07","新北市三重區五谷王北街50巷57號","121.474863333333","25.0514333333333","6500200","三重區"
"241019","KEA-2593","2018/11/29 15:49:24","新北市三重區頂崁街99號","121.478028333333","25.0638833333333","6500200","三重區"
"241020","743-BX","2018/11/29 15:49:22","新北市三重區忠孝路二段50號","121.485206666667","25.0702366666667","6500200","三重區"
"241006","887-TS","2018/11/29 15:49:19","新北市三重區重新路四段121號","121.485036666667","25.0521866666667","6500200","三重區"
"241012","941-UM","2018/11/29 15:49:27","新北市三重區文化北路61-4號","121.498611666667","25.0664033333333","6500200","三重區"
"241029","942-UM","2018/11/29 15:49:15","新北市三重區大同南路159號","121.496916666667","25.055745","6500200","三重區"
"235033","4980-A6","2018/11/29 15:49:26","新北市中和區連城路469巷44弄15號","121.482506666667","24.9946266666667","6500300","中和區"
"235026","800-TS","2018/11/29 15:49:19","新北市中和區橋和路119號","121.491826666667","25.0058683333333","6500300","中和區"
"235023","AAC-215","2018/11/29 15:49:09","新北市中和區員山路59號","121.48092","24.993235","6500300","中和區"
"247012","402-BY","2018/11/29 15:49:15","新北市蘆洲區三民路298號","121.466581666667","25.0906783333333","6501400","蘆洲區"
"227010","642-TC","2018/11/29 15:49:07","新北市雙溪區牡丹里中正路58巷26號","121.86618","25.0417666666667","6502500","雙溪區"
"227004","400-TW","2018/11/29 15:49:15","新北市雙溪區平林里外平林44號","121.852938333333","25.036375","6502500","雙溪區"
"236068","105-UM","2018/11/29 15:49:24","新北市土城區福安街31號","121.419288333333","24.9647716666667","6501300","土城區"
"236040","KED-0685","2018/11/29 15:49:25","新北市土城區永安街3號","121.434461666667","24.96523","6501300","土城區"
"236074","166-UM","2018/11/29 15:49:20","新北市土城區中央路四段181號","121.415","24.9567816666667","6501300","土城區"
"236024","269-VK","2018/11/29 15:49:18","新北市土城區中央路一段249巷27號","121.446396666667","24.98542","6501300","土城區"
"236012","270-VK","2018/11/29 15:49:17","新北市板橋區四川路二段29巷3弄12號","121.454591666667","24.9945333333333","6501300","土城區"
"236017","752-BX","2018/11/29 15:49:20","新北市土城區延吉街23巷17號","121.474041666667","24.9875616666667","6501300","土城區"
"236057","912-UM","2018/11/29 15:49:15","新北市土城區中央路一段164-1號","121.445915","24.9869416666667","6501300","土城區"
"236054","970-R7","2018/11/29 15:49:22","新北市土城區中華路一段41-1號","121.445963333333","24.9887183333333","6501300","土城區"
"238002","755-BX","2018/11/29 15:49:25","新北市樹林區樹德街122號","121.419418333333","24.9929083333333","6500700","樹林區"
"238010","601-UM","2018/11/29 15:49:04","新北市樹林區龍興街57號","121.403358333333","25.0152833333333","6500700","樹林區"
"238006","599-UM","2018/11/29 15:49:16","新北市樹林區忠孝街101巷11號","121.424878333333","24.9811416666667","6500700","樹林區"
"238005","571-TV","2018/11/29 15:49:19","新北市樹林區鎮前街8號","121.426335","24.993505","6500700","樹林區"
"238011","5061-A6","2018/11/29 15:49:23","新北市樹林區山佳街57號","121.392931666667","24.9724966666667","6500700","樹林區"
"238009","KEA-2213","2018/11/29 15:49:22","新北市樹林區太順街62巷3弄12號","121.417133333333","24.979605","6500700","樹林區"
"238008","KEA-2539","2018/11/29 15:49:23","新北市樹林區柑園街二段149巷27號","121.382866666667","24.9530333333333","6500700","樹林區"
"238012","303-VK","2018/11/29 15:49:14","新北市樹林區保安街一段75號","121.422796666667","24.9950916666667","6500700","樹林區"
"238004","283-BY","2018/11/29 15:49:24","新北市樹林區光華街4號","121.413485","25.00361","6500700","樹林區"
"238001","282-BY","2018/11/29 15:49:13","新北市樹林區保安二街64巷1弄6號","121.424335","24.9957383333333","6500700","樹林區"
"238007","268-VK","2018/11/29 15:49:14","新北市新莊區龍安路254巷18-1號","121.420663333333","25.0184583333333","6500700","樹林區"
"238013","172-UY","2018/11/29 15:49:23","新北市樹林區中洲街16號","121.397328333333","24.9724133333333","6500700","樹林區"
"238003","169-UY","2018/11/29 15:49:06","新北市樹林區啟智街173巷10號","121.416078333333","24.9873216666667","6500700","樹林區"
"220030","610-BX","2018/11/29 15:49:16","新北市板橋區篤行路二段128-3號","121.431148333333","24.9905683333333","6500100","板橋區"
"220050","245-BX","2018/11/29 15:49:19","新北市板橋區民治街71巷60弄1號","121.481531666667","25.03421","6500100","板橋區"
