"lineid","car","time","location","longitude","latitude","cityid","cityname"
"243010","KEA-2216","2018/11/29 15:36:02","新北市泰山區黎明路31號","121.421836666667","25.0607083333333","6501600","泰山區"
"243014","680-BX","2018/11/29 15:35:06","新北市泰山區犁頭窠3-1號","121.42212","25.0605633333333","6501600","泰山區"
"231046","107-UY","2018/11/29 15:59:49","新北市新店區安康路一段61號","121.530588333333","24.96093","6500600","新店區"
"231021","108-UY","2018/11/29 15:59:35","新北市新店區新烏路一段85巷2號","121.547873333333","24.9420266666667","6500600","新店區"
"231011","187-VK","2018/11/29 15:59:38","新北市新店區中正路374號","121.534945","24.9765866666667","6500600","新店區"
"231026","256-BX","2018/11/29 15:59:32","新北市新店區民生路14號","121.532305","24.986","6500600","新店區"
"231003","268-BY","2018/11/29 15:59:32","新北市新店區寶興路58巷1號","121.549848333333","24.97226","6500600","新店區"
"231017","AAD-862","2018/11/29 15:59:44","新北市新店區中正路284巷2號","121.538246666667","24.97473","6500600","新店區"
"231037","4716-K9","2018/11/29 15:59:42","新北市新店區吉安街10號","121.516843333333","24.96568","6500600","新店區"
"231034","616-UM","2018/11/29 15:59:39","新北市新店區玫瑰路53巷12號","121.4965","24.947115","6500600","新店區"
"231030","619-UM","2018/11/29 15:59:47","新北市新店區永平街24號","121.516661666667","24.98374","6500600","新店區"
"231035","719-UM","2018/11/29 15:59:33","新北市新店區安民街303巷10號","121.517046666667","24.9737183333333","6500600","新店區"
"231018","719-UY","2018/11/29 15:59:47","新北市新店區中正路680巷41號","121.534743333333","24.98929","6500600","新店區"
"241011","013-R5","2018/11/29 15:59:36","新北市三重區文化北路129號","121.497748333333","25.0688783333333","6500200","三重區"
"241028","022-UY","2018/11/29 15:59:41","新北市三重區正義南路107號","121.498075","25.058595","6500200","三重區"
"241008","059-VK","2018/11/29 15:59:36","新北市三重區自強路四段32-2號","121.489008333333","25.0769483333333","6500200","三重區"
"241022","060-VK","2018/11/29 15:59:49","新北市三重區三民街175巷22號","121.48389","25.06588","6500200","三重區"
"241015","062-VK","2018/11/29 15:59:30","新北市三重區重新路四段121號","121.484991666667","25.0520766666667","6500200","三重區"
"241017","063-VK","2018/11/29 15:59:46","新北市三重區大仁街48巷29號","121.491078333333","25.0645983333333","6500200","三重區"
"241026","066-VK","2018/11/29 15:59:26","新北市三重區重新路三段82號","121.493261666667","25.06095","6500200","三重區"
"241002","090-VK","2018/11/29 15:59:36","新北市三重區中央南路134號","121.502261666667","25.0594883333333","6500200","三重區"
"241003","091-VK","2018/11/29 15:59:30","新北市三重區進安街27號","121.496733333333","25.0838283333333","6500200","三重區"
"241005","262-UM","2018/11/29 15:59:36","新北市三重區自強路五段17號","121.492866666667","25.080645","6500200","三重區"
"241016","265-UM","2018/11/29 15:59:29","新北市三重區重新路四段121號","121.48505","25.0520683333333","6500200","三重區"
"241009","267-UM","2018/11/29 15:59:33","新北市三重區捷運路36號","121.482978333333","25.0549383333333","6500200","三重區"
"241018","268-UM","2018/11/29 15:59:35","新北市三重區大仁街20號","121.491403333333","25.06352","6500200","三重區"
"241013","270-UM","2018/11/29 15:59:37","新北市三重區安慶街8號","121.497473333333","25.0695166666667","6500200","三重區"
"241025","271-UM","2018/11/29 15:59:47","新北市三重區三民街189號","121.482371666667","25.065495","6500200","三重區"
"241007","398-BY","2018/11/29 15:59:27","新北市三重區慈愛街8號","121.484475","25.0784133333333","6500200","三重區"
"241004","475-VK","2018/11/29 15:59:38","新北市三重區長元街105號","121.504631666667","25.0668583333333","6500200","三重區"
"241014","543-UM","2018/11/29 15:59:31","新北市三重區重新路四段121號","121.484918333333","25.0520316666667","6500200","三重區"
"241023","545-UM","2018/11/29 15:59:48","新北市三重區中正北路192號","121.482858333333","25.06713","6500200","三重區"
"241001","547-UM","2018/11/29 15:59:43","新北市三重區新北大道一段250號","121.479905","25.061355","6500200","三重區"
"241033","557-UM","2018/11/29 15:47:07","新北市三重區五谷王北街50巷57號","121.474863333333","25.0514333333333","6500200","三重區"
"241019","KEA-2593","2018/11/29 15:59:45","新北市三重區中正北路193巷35弄10號","121.476336666667","25.071","6500200","三重區"
"241020","743-BX","2018/11/29 15:59:41","新北市三重區力行路一段247號","121.482623333333","25.0707016666667","6500200","三重區"
"241006","887-TS","2018/11/29 15:59:40","新北市三重區重新路四段121號","121.48506","25.0522083333333","6500200","三重區"
"241012","941-UM","2018/11/29 15:59:46","新北市三重區文化北路118巷19號","121.498061666667","25.0664716666667","6500200","三重區"
"241029","942-UM","2018/11/29 15:59:35","新北市三重區大同南路212巷32號","121.49763","25.0567583333333","6500200","三重區"
"235026","800-TS","2018/11/29 15:59:43","新北市中和區立業路85號","121.491098333333","25.0074316666667","6500300","中和區"
"247012","402-BY","2018/11/29 15:59:34","新北市蘆洲區信義路65號","121.476086666667","25.0795066666667","6501400","蘆洲區"
"224007","275-VK","2018/11/29 15:59:40","新北市瑞芳區大埔路52號","121.769135","25.1042266666667","6501200","瑞芳區"
"227010","642-TC","2018/11/29 15:59:47","新北市雙溪區三港里雙澳路32-2號","121.870823333333","25.0499183333333","6502500","雙溪區"
"227004","400-TW","2018/11/29 15:59:43","新北市雙溪區平林里外平林71號","121.841988333333","25.034885","6502500","雙溪區"
"236074","166-UM","2018/11/29 15:59:40","新北市土城區三民路23巷8弄2號","121.419838333333","24.9634566666667","6501300","土城區"
"236057","912-UM","2018/11/29 15:59:35","新北市土城區中央路一段306號","121.443256666667","24.9817666666667","6501300","土城區"
"238002","755-BX","2018/11/29 15:59:29","新北市樹林區大安路307巷2弄10號","121.417883333333","24.9917266666667","6500700","樹林區"
"238010","601-UM","2018/11/29 15:59:47","新北市樹林區三福街160號","121.404971666667","25.0160133333333","6500700","樹林區"
"238006","599-UM","2018/11/29 15:59:37","新北市樹林區國凱街65號","121.422151666667","24.97981","6500700","樹林區"
"238005","571-TV","2018/11/29 15:59:30","新北市樹林區博愛街209號","121.423998333333","24.98742","6500700","樹林區"
"238011","5061-A6","2018/11/29 15:59:43","新北市樹林區中山路三段28號","121.395406666667","24.973005","6500700","樹林區"
"238009","KEA-2213","2018/11/29 15:59:42","新北市樹林區太平路163號","121.418675","24.9793033333333","6500700","樹林區"
"238012","303-VK","2018/11/29 15:59:34","新北市樹林區中正路22-1號","121.42785","24.9994066666667","6500700","樹林區"
"238004","283-BY","2018/11/29 15:59:44","新北市樹林區中正路433-2號","121.414925","25.0081716666667","6500700","樹林區"
"238001","282-BY","2018/11/29 15:59:30","新北市樹林區千歲街53號","121.425613333333","24.9965383333333","6500700","樹林區"
"238007","268-VK","2018/11/29 15:59:33","新北市樹林區三俊街135巷52號","121.418738333333","25.0172016666667","6500700","樹林區"
"238013","172-UY","2018/11/29 15:59:43","新北市樹林區佳園路一段50號","121.392911666667","24.9706633333333","6500700","樹林區"
"238003","169-UY","2018/11/29 15:57:49","新北市樹林區中山路一段242巷16弄3號","121.420556666667","24.9882783333333","6500700","樹林區"
"220050","245-BX","2018/11/29 15:58:59","新北市五股區中直路17-3號","121.422095","25.1116016666667","6500100","板橋區"
