"lineid","car","time","location","longitude","latitude","cityid","cityname"
"243009","297-R6","2018/11/29 16:07:13","新北市泰山區黎明路25號","121.421928333333","25.0610583333333","6501600","泰山區"
"231046","107-UY","2018/11/29 16:29:09","新北市新店區灣潭路3-2號","121.538266666667","24.9508416666667","6500600","新店區"
"241011","013-R5","2018/11/29 16:29:16","新北市三重區秀江街61號","121.500808333333","25.0727883333333","6500200","三重區"
"241028","022-UY","2018/11/29 16:29:01","新北市三重區同安街116-1號","121.494168333333","25.056215","6500200","三重區"
"241008","059-VK","2018/11/29 16:29:16","新北市三重區永福街112號","121.47897","25.0754666666667","6500200","三重區"
"241022","060-VK","2018/11/29 16:29:17","新北市三重區重陽路二段18巷4號","121.486393333333","25.06223","6500200","三重區"
"241031","061-VK","2018/11/29 16:29:10","新北市三重區重陽路一段51號","121.486745","25.05837","6500200","三重區"
"241015","062-VK","2018/11/29 16:29:11","新北市三重區福德北路40號","121.501963333333","25.0653233333333","6500200","三重區"
"241017","063-VK","2018/11/29 16:29:06","新北市三重區大同北路10號","121.495451666667","25.06207","6500200","三重區"
"241024","065-VK","2018/11/29 16:29:15","新北市三重區中正北路193巷27號","121.47622","25.0705633333333","6500200","三重區"
"241026","066-VK","2018/11/29 16:29:06","新北市三重區文化南路42號","121.500421666667","25.0602766666667","6500200","三重區"
"241002","090-VK","2018/11/29 16:29:16","新北市三重區五華街9-2號","121.495181666667","25.08008","6500200","三重區"
"241003","091-VK","2018/11/29 16:29:10","新北市三重區五華街71巷103號","121.494693333333","25.0840983333333","6500200","三重區"
"251014","742-BX","2018/11/29 16:29:12","新北市淡水區沙崙路126號","121.423378333333","25.18291","6501000","淡水區"
"241005","262-UM","2018/11/29 16:29:16","新北市三重區溪尾街305號","121.487496666667","25.0838466666667","6500200","三重區"
"241016","265-UM","2018/11/29 16:29:10","新北市三重區大智街23號","121.494218333333","25.0658733333333","6500200","三重區"
"241009","267-UM","2018/11/29 16:29:13","新北市三重區三和路四段191巷76號","121.484296666667","25.07981","6500200","三重區"
"241018","268-UM","2018/11/29 16:29:15","新北市三重區正義北路364巷33號","121.492788333333","25.0709416666667","6500200","三重區"
"241032","269-UM","2018/11/29 16:28:57","新北市三重區三陽路116巷4號","121.483075","25.0581683333333","6500200","三重區"
"241013","270-UM","2018/11/29 16:29:17","新北市三重區三和路三段91巷15號","121.49517","25.072465","6500200","三重區"
"241025","271-UM","2018/11/29 16:29:05","新北市三重區中正北路560巷100弄21號","121.472671666667","25.0687633333333","6500200","三重區"
"241007","398-BY","2018/11/29 16:29:07","新北市三重區三和路四段167巷172號","121.487816666667","25.0802533333333","6500200","三重區"
"241004","475-VK","2018/11/29 16:29:18","新北市三重區仁愛街367-2號","121.491806666667","25.0805116666667","6500200","三重區"
"241014","543-UM","2018/11/29 16:29:11","新北市三重區河邊北街70-1號","121.504343333333","25.06832","6500200","三重區"
"241023","545-UM","2018/11/29 16:29:15","新北市三重區忠孝路三段50巷90號","121.483233333333","25.0643466666667","6500200","三重區"
"241001","547-UM","2018/11/29 16:29:04","新北市三重區福隆路56號","121.492791666667","25.0786716666667","6500200","三重區"
"241033","557-UM","2018/11/29 16:07:47","新北市三重區五谷王南街48-1號","121.474026666667","25.04453","6500200","三重區"
"241019","KEA-2593","2018/11/29 16:29:04","新北市三重區重陽路三段97號","121.490273333333","25.067965","6500200","三重區"
"241020","743-BX","2018/11/29 16:25:03","新北市三重區後竹圍街205巷7號","121.484926666667","25.0718366666667","6500200","三重區"
"241006","887-TS","2018/11/29 16:28:59","新北市三重區永福街10巷7-1號","121.483258333333","25.0777283333333","6500200","三重區"
"241012","941-UM","2018/11/29 16:29:06","新北市三重區河邊北街238號","121.501955","25.0757566666667","6500200","三重區"
"241029","942-UM","2018/11/29 16:29:15","新北市三重區集美街126巷14號","121.489503333333","25.053775","6500200","三重區"
"235046","733-UM","2018/11/29 16:29:18","新北市中和區員山路36巷13號","121.48417","24.9908383333333","6500300","中和區"
"235026","800-TS","2018/11/29 16:29:19","新北市中和區建八路136號","121.489526666667","24.998595","6500300","中和區"
"247012","402-BY","2018/11/29 16:29:14","新北市蘆洲區復興路318號","121.481751666667","25.0902233333333","6501400","蘆洲區"
"224007","275-VK","2018/11/29 16:29:01","新北市瑞芳區瑞竹路91-1號","121.763928333333","25.102925","6501200","瑞芳區"
"224005","271-BY","2018/11/29 16:29:07","新北市瑞芳區阿美家園21號","121.821511666667","25.1165616666667","6501200","瑞芳區"
"227010","642-TC","2018/11/29 16:29:07","新北市雙溪區三港里雙澳路22號","121.869611666667","25.0498766666667","6502500","雙溪區"
"227004","400-TW","2018/11/29 16:29:15","新北市雙溪區上林里內平林111號","121.826356666667","25.0271016666667","6502500","雙溪區"
"251013","KEA-2871","2018/11/29 16:29:10","新北市淡水區北新路三段162號","121.492376666667","25.1915066666667","6501000","淡水區"
"251016","179-VK","2018/11/29 16:29:01","新北市淡水區中正路二段18號","121.419726666667","25.1812483333333","6501000","淡水區"
"251008","181-VK","2018/11/29 16:29:02","新北市淡水區民生路169號","121.46976","25.1421233333333","6501000","淡水區"
"236057","912-UM","2018/11/29 16:29:15","新北市土城區永平街72號","121.427183333333","24.9591116666667","6501300","土城區"
"238002","755-BX","2018/11/29 16:26:09","新北市樹林區中山路三段214號","121.380108333333","24.9679266666667","6500700","樹林區"
"238006","599-UM","2018/11/29 16:29:16","新北市樹林區中華路341-1號","121.415481666667","24.9801016666667","6500700","樹林區"
"238025","303-VK","2018/11/29 16:07:26","新北市樹林區中正路22-1號","121.427873333333","24.99936","6500700","樹林區"
"238004","283-BY","2018/11/29 16:29:04","新北市樹林區中正路433-2號","121.41467","25.008265","6500700","樹林區"
"238001","282-BY","2018/11/29 16:29:09","新北市樹林區大慶街99-1號","121.427763333333","24.999705","6500700","樹林區"
"220050","245-BX","2018/11/29 16:27:19","新北市八里區荖阡坑路34號","121.402045","25.1289966666667","6500100","板橋區"
