"lineid","car","time","location","longitude","latitude","cityid","cityname"
"249005","172-UM","2018/11/29 16:59:39","新北市八里區渡船頭2號","121.434036666667","25.1518433333333","6502300","八里區"
"249001","173-UM","2018/11/29 16:59:48","新北市八里區下罟子1-12號","121.39006","25.1420333333333","6502300","八里區"
"249004","303-UY","2018/11/29 16:59:30","新北市八里區忠孝路393號","121.416128333333","25.16113","6502300","八里區"
"249002","305-UY","2018/11/29 16:59:30","新北市八里區牛寮埔11號","121.432753333333","25.142535","6502300","八里區"
"249003","593-UM","2018/11/29 16:59:30","新北市八里區中山路二段313號","121.400805","25.1477183333333","6502300","八里區"
"244023","069-UM","2018/11/29 16:59:30","新北市林口區粉寮路一段66號","121.39697","25.0788233333333","6501700","林口區"
"244007","080-UY","2018/11/29 16:59:34","新北市林口區中湖43-5號","121.381793333333","25.0923683333333","6501700","林口區"
"244019","402-UM","2018/11/29 16:59:38","新北市林口區中山路158號","121.39069","25.07878","6501700","林口區"
"244009","656-BX","2018/11/29 16:59:28","新北市林口區粉寮路二段40號","121.403376666667","25.0868116666667","6501700","林口區"
"244021","838-TS","2018/11/29 16:59:32","新北市林口區粉寮一街79號","121.404221666667","25.0864866666667","6501700","林口區"
"231046","107-UY","2018/11/29 16:59:29","新北市新店區永業路81巷12號","121.531435","24.9479316666667","6500600","新店區"
"241011","013-R5","2018/11/29 16:59:36","新北市三重區仁愛街55巷110號","121.498573333333","25.07271","6500200","三重區"
"241028","022-UY","2018/11/29 16:59:41","新北市三重區中正南路50號","121.493941666667","25.059895","6500200","三重區"
"241008","059-VK","2018/11/29 16:59:36","新北市三重區永安北路一段3巷29號","121.477315","25.074705","6500200","三重區"
"241022","060-VK","2018/11/29 16:59:34","新北市三重區中華路81號","121.48355","25.06265","6500200","三重區"
"241031","061-VK","2018/11/29 16:59:41","新北市三重區重新路三段115巷10號","121.490368333333","25.060265","6500200","三重區"
"241015","062-VK","2018/11/29 16:59:51","新北市三重區三和路二段8號","121.501131666667","25.066935","6500200","三重區"
"241017","063-VK","2018/11/29 16:59:46","新北市三重區國隆路12巷8號","121.49286","25.063745","6500200","三重區"
"241024","065-VK","2018/11/29 16:59:35","新北市三重區國道路一段69號","121.480603333333","25.0728816666667","6500200","三重區"
"241026","066-VK","2018/11/29 16:59:46","新北市三重區文化南路42號","121.500453333333","25.060265","6500200","三重區"
"241002","090-VK","2018/11/29 16:59:36","新北市三重區仁義街143巷4號","121.49749","25.0804366666667","6500200","三重區"
"241003","091-VK","2018/11/29 16:59:30","新北市三重區五華街141巷58號","121.493565","25.0867866666667","6500200","三重區"
"251014","742-BX","2018/11/29 16:59:32","新北市淡水區八里堆1號","121.453046666667","25.224","6501000","淡水區"
"241005","262-UM","2018/11/29 16:59:36","新北市三重區仁華街118巷26弄23號","121.485195","25.083225","6500200","三重區"
"241016","265-UM","2018/11/29 16:59:49","新北市三重區信義西街51號","121.495178333333","25.0638116666667","6500200","三重區"
"241009","267-UM","2018/11/29 16:59:33","新北市三重區仁美街108巷11號","121.485048333333","25.0806583333333","6500200","三重區"
"241018","268-UM","2018/11/29 16:59:35","新北市三重區六張街126巷2弄32號","121.492735","25.069595","6500200","三重區"
"241032","269-UM","2018/11/29 16:59:37","新北市三重區三光街27號","121.484628333333","25.0608933333333","6500200","三重區"
"241013","270-UM","2018/11/29 16:59:37","新北市三重區仁昌街40號","121.497213333333","25.074335","6500200","三重區"
"241025","271-UM","2018/11/29 16:59:47","新北市三重區中正北路508巷13號","121.472648333333","25.0710416666667","6500200","三重區"
"241007","398-BY","2018/11/29 16:59:47","新北市三重區三和路四段145巷215號","121.488846666667","25.079405","6500200","三重區"
"241004","475-VK","2018/11/29 16:59:38","新北市三重區五華街92巷19號","121.491538333333","25.0816033333333","6500200","三重區"
"241014","543-UM","2018/11/29 16:59:30","新北市三重區三和路二段173巷143號","121.500996666667","25.0706383333333","6500200","三重區"
"241023","545-UM","2018/11/29 16:59:28","新北市三重區新北大道一段252號","121.480011666667","25.06172","6500200","三重區"
"241001","547-UM","2018/11/29 16:59:43","新北市三重區仁愛街192巷15號","121.49356","25.076935","6500200","三重區"
"241033","557-UM","2018/11/29 16:51:47","新北市三重區新北大道二段133號","121.466155","25.06111","6500200","三重區"
"241019","KEA-2593","2018/11/29 16:59:44","新北市三重區自強路二段74巷19號","121.487995","25.0699416666667","6500200","三重區"
"241020","743-BX","2018/11/29 16:54:41","新北市三重區後竹圍街189號","121.485408333333","25.07165","6500200","三重區"
"241006","887-TS","2018/11/29 16:59:39","新北市三重區車路頭街115號","121.484293333333","25.0752983333333","6500200","三重區"
"241012","941-UM","2018/11/29 16:59:46","新北市三重區仁和街175號","121.500116666667","25.0748166666667","6500200","三重區"
"241029","942-UM","2018/11/29 16:59:35","新北市三重區重安街103號","121.49401","25.0551833333333","6500200","三重區"
"235065","098-UM","2018/11/29 16:59:31","新北市中和區員山路36巷16-3號","121.485073333333","24.9912033333333","6500300","中和區"
"235046","733-UM","2018/11/29 16:29:31","新北市中和區員山路36巷13號","121.484168333333","24.9908383333333","6500300","中和區"
"247016","546-UM","2018/11/29 16:59:34","新北市蘆洲區正和街7號","121.470385","25.0826066666667","6501400","蘆洲區"
"247024","500-BY","2018/11/29 16:59:36","新北市蘆洲區長興路255號","121.460498333333","25.0875316666667","6501400","蘆洲區"
"247012","402-BY","2018/11/29 16:59:34","新北市蘆洲區仁愛街122號","121.469441666667","25.0946716666667","6501400","蘆洲區"
"247006","337-TH","2018/11/29 16:59:45","新北市蘆洲區長安街99巷29號","121.460918333333","25.0796766666667","6501400","蘆洲區"
"247008","336-TH","2018/11/29 16:59:40","新北市蘆洲區信義路59巷5弄8號","121.474895","25.0801766666667","6501400","蘆洲區"
"247020","057-VK","2018/11/29 16:59:29","新北市蘆洲區民族路422巷82弄2號","121.473631666667","25.09369","6501400","蘆洲區"
"247010","056-VK","2018/11/29 16:59:45","新北市蘆洲區三民路26巷69號","121.478638333333","25.0832016666667","6501400","蘆洲區"
"247014","053-VK","2018/11/29 16:59:37","新北市蘆洲區中山二路36巷35號","121.47402","25.0833733333333","6501400","蘆洲區"
"247018","007-UY","2018/11/29 16:59:46","新北市蘆洲區民族路227巷24弄1號","121.476243333333","25.08861","6501400","蘆洲區"
"247004","002-UY","2018/11/29 16:59:28","新北市蘆洲區長安街110號","121.460973333333","25.0815616666667","6501400","蘆洲區"
"247022","001-UY","2018/11/29 16:59:43","新北市蘆洲區三民路128巷77號","121.468605","25.09199","6501400","蘆洲區"
"228003","097-TW","2018/11/29 16:59:44","新北市貢寮區福隆里興隆街23號","121.942671666667","25.0165233333333","6502600","貢寮區"
"228001","212-TW","2018/11/29 16:59:46","新北市貢寮區貢寮里朝陽街2號","121.912535","25.0216016666667","6502600","貢寮區"
"228002","585-TW","2018/11/29 16:59:36","新北市貢寮區貢寮里朝陽街124號","121.907873333333","25.0223483333333","6502600","貢寮區"
"224006","676-BX","2018/11/29 16:59:43","新北市瑞芳區大寮路25-1號","121.78245","25.098775","6501200","瑞芳區"
"224008","285-BY","2018/11/29 16:59:44","新北市瑞芳區明燈路一段229號","121.817993333333","25.10818","6501200","瑞芳區"
"224007","275-VK","2018/11/29 16:59:41","新北市瑞芳區瑞竹路18號","121.765123333333","25.1032816666667","6501200","瑞芳區"
"224009","273-VK","2018/11/29 16:59:42","新北市瑞芳區濱二路23號","121.836418333333","25.1126533333333","6501200","瑞芳區"
"224005","271-BY","2018/11/29 16:59:47","新北市瑞芳區明里路54號","121.869605","25.1229666666667","6501200","瑞芳區"
"227010","642-TC","2018/11/29 16:59:47","新北市雙溪區牡丹里聖南10-3號","121.860888333333","25.0492716666667","6502500","雙溪區"
"227004","400-TW","2018/11/29 16:59:35","新北市雙溪區長源里柑腳41-1號","121.803181666667","25.0130916666667","6502500","雙溪區"
"251009","008-UM","2018/11/29 16:59:29","新北市淡水區中正路一段85號","121.422366666667","25.1788783333333","6501000","淡水區"
"251005","010-UM","2018/11/29 16:59:39","新北市淡水區文化路65號","121.437823333333","25.1729333333333","6501000","淡水區"
"251013","KEA-2871","2018/11/29 16:59:30","新北市淡水區泉洲厝32號","121.489238333333","25.1925733333333","6501000","淡水區"
"251016","179-VK","2018/11/29 16:59:41","新北市淡水區瓦坑3號","121.477615","25.180695","6501000","淡水區"
"251008","181-VK","2018/11/29 16:59:42","新北市淡水區樹梅坑9號","121.472748333333","25.1426883333333","6501000","淡水區"
"251015","182-VK","2018/11/29 16:59:36","新北市淡水區忠愛街5-1號","121.460703333333","25.17163","6501000","淡水區"
"251010","413-VK","2018/11/29 16:59:39","新北市淡水區中正路二段31號","121.419426666667","25.1814483333333","6501000","淡水區"
"251012","441-VK","2018/11/29 16:59:40","新北市淡水區新民街一段117號","121.42833","25.1873516666667","6501000","淡水區"
"251004","443-VK","2018/11/29 16:59:39","新北市淡水區中正路257號","121.433235","25.1744833333333","6501000","淡水區"
"251006","561-UM","2018/11/29 16:59:41","新北市淡水區中正路一段87巷1號","121.421763333333","25.1793183333333","6501000","淡水區"
"251007","577-R6","2018/11/29 16:59:31","新北市淡水區中山路50號","121.444036666667","25.170275","6501000","淡水區"
"251011","650-BX","2018/11/29 16:59:45","新北市淡水區中山路50號","121.444025","25.170295","6501000","淡水區"
"252002","178-VK","2018/11/29 16:59:46","新北市三芝區忠孝街168號","121.506223333333","25.2590483333333","6502100","三芝區"
"252001","292-VK","2018/11/29 16:59:35","新北市三芝區淡金路二段45號","121.503451666667","25.2604416666667","6502100","三芝區"
"242048","497-BY","2018/11/29 16:59:47","新北市新莊區三和路12-17號","121.442321666667","25.0375916666667","6500500","新莊區"
"242009","413-TV","2018/11/29 16:59:46","新北市新莊區新泰路357巷3弄57號","121.44186","25.0395383333333","6500500","新莊區"
"242046","400-BY","2018/11/29 16:59:34","新北市新莊區新泰路357巷3弄57號","121.442301666667","25.0396783333333","6500500","新莊區"
"242023","362-BY","2018/11/29 16:59:42","新北市新莊區三和路12-21號","121.441876666667","25.0388583333333","6500500","新莊區"
"242019","175-VK","2018/11/29 16:59:47","新北市新莊區三和路12-21號","121.441791666667","25.038775","6500500","新莊區"
"242017","346-TH","2018/11/29 16:59:35","新北市新莊區三和路12-21號","121.442138333333","25.0381833333333","6500500","新莊區"
"242031","348-TH","2018/11/29 16:59:40","新北市新莊區新泰路255巷83號","121.442288333333","25.0391933333333","6500500","新莊區"
"242021","350-TH","2018/11/29 16:59:41","新北市新莊區新泰路255巷83號","121.442063333333","25.0390033333333","6500500","新莊區"
"242015","351-TH","2018/11/29 16:59:46","新北市新莊區新泰路357巷3弄57號","121.442073333333","25.039505","6500500","新莊區"
"238023","601-UM","2018/11/29 16:59:47","新北市樹林區保安街一段346號","121.417871666667","24.9981566666667","6500700","樹林區"
"238005","571-TV","2018/11/29 16:59:28","新北市樹林區八德街1014號","121.3913","24.9684833333333","6500700","樹林區"
"238022","KEA-2213","2018/11/29 16:59:42","新北市樹林區八德街321-1號","121.419508333333","24.9737516666667","6500700","樹林區"
"238017","283-BY","2018/11/29 16:59:44","新北市樹林區中正路433-2號","121.414516666667","25.00838","6500700","樹林區"
"238001","282-BY","2018/11/29 16:59:50","新北市樹林區中正路22-1號","121.427845","24.999675","6500700","樹林區"
"238020","268-VK","2018/11/29 16:59:33","新北市樹林區東佳路20號","121.407601666667","24.9810383333333","6500700","樹林區"
"239007","AAC-297","2018/11/29 16:59:48","新北市鶯歌區環河路175號","121.346125","24.9357883333333","6500800","鶯歌區"
"239001","417-VK","2018/11/29 16:59:36","新北市鶯歌區二甲路12-2號","121.34563","24.9352433333333","6500800","鶯歌區"
"242042","281-VK","2018/11/29 16:59:39","新北市新莊區三和路12-21號","121.442141666667","25.03839","6500500","新莊區"
"242007","280-VK","2018/11/29 16:59:35","新北市新莊區三和路12-21號","121.441856666667","25.0383133333333","6500500","新莊區"
