"lineid","car","time","location","longitude","latitude","cityid","cityname"
"234007","207-UY","2018/11/29 18:19:30","新北市永和區保生路55-1號","121.50474","25.0111966666667","6500400","永和區"
"234038","336-UY","2018/11/29 18:19:45","新北市永和區福和路1號","121.526645","25.01008","6500400","永和區"
"234042","862-TW","2018/11/29 18:19:42","新北市永和區福和路1號","121.526321666667","25.0097483333333","6500400","永和區"
"234026","9371-KE","2018/11/29 18:19:40","新北市永和區豫溪街42巷9號","121.515471666667","25.009365","6500400","永和區"
"234011","9373-KE","2018/11/29 18:19:40","新北市永和區保安路13號","121.510355","25.0168383333333","6500400","永和區"
"249005","172-UM","2018/11/29 18:19:39","新北市八里區荖阡坑路15-16號","121.400241666667","25.1404966666667","6502300","八里區"
"249001","173-UM","2018/11/29 18:19:48","新北市八里區龍米路一段131號","121.452176666667","25.1267316666667","6502300","八里區"
"249004","303-UY","2018/11/29 18:19:30","新北市八里區龍米路二段232巷3號","121.431543333333","25.15897","6502300","八里區"
"249002","305-UY","2018/11/29 18:19:50","新北市八里區龍形五街21號","121.450111666667","25.1331866666667","6502300","八里區"
"249003","593-UM","2018/11/29 18:19:50","新北市八里區下罟子1-7號","121.391558333333","25.1415616666667","6502300","八里區"
"248014","025-BX","2018/11/29 18:19:39","新北市五股區成泰路一段171巷13號","121.43439","25.074345","6501500","五股區"
"248016","026-BX","2018/11/29 18:19:47","新北市五股區西雲路293號","121.449565","25.0991666666667","6501500","五股區"
"248006","077-UY","2018/11/29 18:19:44","新北市五股區中興路一段132號","121.465246666667","25.0735633333333","6501500","五股區"
"248008","095-VK","2018/11/29 18:19:45","新北市五股區更洲路32巷8弄17號","121.45927","25.0796116666667","6501500","五股區"
"248020","225-UY","2018/11/29 18:19:36","新北市五股區孝義路47巷22號","121.45167","25.1090733333333","6501500","五股區"
"248012","655-BX","2018/11/29 18:19:47","新北市五股區御史路5號","121.442073333333","25.0905","6501500","五股區"
"248004","677-BX","2018/11/29 18:19:43","新北市五股區成泰路二段87號","121.43829","25.084155","6501500","五股區"
"248002","678-BX","2018/11/29 18:19:41","新北市五股區西雲路49號","121.443421666667","25.0911966666667","6501500","五股區"
"248010","682-TV","2018/11/29 18:19:40","新北市五股區成泰路一段139巷2弄3號","121.435016666667","25.0730616666667","6501500","五股區"
"232011","375-UM","2018/11/29 18:19:36","新北市坪林區坪雙路一段43號","121.711715","24.9424433333333","6502000","坪林區"
"244023","069-UM","2018/11/29 18:19:30","新北市林口區仁愛路二段36號","121.385248333333","25.0759166666667","6501700","林口區"
"244007","080-UY","2018/11/29 18:19:34","新北市林口區竹林路462號","121.387963333333","25.0849883333333","6501700","林口區"
"244019","402-UM","2018/11/29 18:19:38","新北市林口區忠孝路586巷3號","121.37555","25.0681866666667","6501700","林口區"
"244013","KEA-2802","2018/11/29 18:19:42","新北市林口區佳林路101巷15號","121.386971666667","25.0800333333333","6501700","林口區"
"244017","485-VK","2018/11/29 18:19:50","新北市林口區八德路78號","121.365588333333","25.0656266666667","6501700","林口區"
"244009","656-BX","2018/11/29 18:19:48","新北市林口區文林一街66號","121.37862","25.0872416666667","6501700","林口區"
"244011","701-TV","2018/11/29 18:19:33","新北市林口區中正路72號","121.394656666667","25.0776216666667","6501700","林口區"
"244024","837-TS","2018/11/29 18:19:35","新北市林口區文化北路一段149-1號","121.356896666667","25.0698366666667","6501700","林口區"
"244021","838-TS","2018/11/29 18:19:51","新北市林口區自強一街45號","121.399083333333","25.0777166666667","6501700","林口區"
"243013","AAD-798","2018/11/29 18:19:44","新北市泰山區南泰路1號","121.419236666667","25.0394533333333","6501600","泰山區"
"222003","436-BY","2018/11/29 18:19:33","新北市深坑區旺耽路67號","121.626303333333","25.0029766666667","6501800","深坑區"
"222002","659-BX","2018/11/29 18:19:49","新北市深坑區雲鄉路12巷1號","121.621136666667","24.999535","6501800","深坑區"
"231041","002-UM","2018/11/29 18:19:40","新北市新店區安華路28-1號","121.519765","24.9609033333333","6500600","新店區"
"231059","046-UY","2018/11/29 18:19:43","新北市新店區安華路28-1號","121.519628333333","24.960655","6500600","新店區"
"231040","047-UY","2018/11/29 18:19:45","新北市新店區安華路28-1號","121.519155","24.9609233333333","6500600","新店區"
"231044","106-UY","2018/11/29 18:19:44","新北市新店區安華路28-1號","121.519561666667","24.9607183333333","6500600","新店區"
"231046","107-UY","2018/11/29 18:19:29","新北市新店區直潭七街60號","121.53228","24.9397716666667","6500600","新店區"
"231052","108-UY","2018/11/29 18:19:46","新北市新店區安康路一段3-1號","121.534225","24.960635","6500600","新店區"
"231047","187-VK","2018/11/29 18:19:48","新北市新店區安一路一段1-1號","121.519596666667","24.96113","6500600","新店區"
"231054","KEA-2219","2018/11/29 18:19:47","新北市新店區安一路一段1-1號","121.519958333333","24.9612383333333","6500600","新店區"
"231057","256-BX","2018/11/29 18:19:41","新北市新店區安一路一段1-1號","121.519781666667","24.9611133333333","6500600","新店區"
"231042","268-BY","2018/11/29 18:19:50","新北市新店區安華路28-1號","121.519465","24.96055","6500600","新店區"
"231050","AAD-862","2018/11/29 18:19:50","新北市新店區安華路28-1號","121.519938333333","24.96108","6500600","新店區"
"231058","3713-VJ","2018/11/29 18:19:37","新北市新店區秀山路14號","121.532726666667","24.96026","6500600","新店區"
"231066","4716-K9","2018/11/29 18:19:46","新北市新店區安一路一段1-1號","121.519328333333","24.9612583333333","6500600","新店區"
"231056","4715-K9","2018/11/29 18:19:43","新北市新店區中正路438號","121.53414","24.9783166666667","6500600","新店區"
"231067","4772-VM","2018/11/29 18:19:41","新北市新店區安華路3號","121.518801666667","24.9604683333333","6500600","新店區"
"231065","512-UM","2018/11/29 18:19:36","新北市新店區安一路一段1-1號","121.519348333333","24.9612166666667","6500600","新店區"
"231049","513-UM","2018/11/29 18:19:49","新北市新店區安一路一段1-1號","121.519735","24.9612083333333","6500600","新店區"
"231063","616-UM","2018/11/29 18:19:40","新北市新店區安華路1-1號","121.51943","24.9604383333333","6500600","新店區"
"231045","617-UM","2018/11/29 18:07:20","新北市新店區安一路一段1-1號","121.519638333333","24.9611966666667","6500600","新店區"
"231061","619-UM","2018/11/29 18:19:37","新北市新店區安華路28-1號","121.519688333333","24.9606583333333","6500600","新店區"
"231064","719-UM","2018/11/29 18:19:35","新北市新店區安一路一段1-1號","121.519345","24.9613366666667","6500600","新店區"
"231051","719-UY","2018/11/29 18:19:38","新北市新店區安一路一段1-1號","121.519705","24.9610766666667","6500600","新店區"
"231062","720-UM","2018/11/29 18:19:33","新北市新店區安一路一段1-1號","121.51925","24.9611316666667","6500600","新店區"
"231060","897-TW","2018/11/29 18:19:43","新北市新店區安華路28-1號","121.519473333333","24.9608","6500600","新店區"
"231043","899-TW","2018/11/29 18:19:35","新北市新店區安華路28-1號","121.518993333333","24.9607916666667","6500600","新店區"
"231055","AKT-0513","2018/11/29 18:19:37","新北市新店區安康路一段3-1號","121.535198333333","24.96091","6500600","新店區"
"251014","742-BX","2018/11/29 18:19:51","新北市淡水區崙頂14號","121.491208333333","25.2217083333333","6501000","淡水區"
"235066","003-UY","2018/11/29 18:19:38","新北市中和區中山路二段119號","121.502816666667","25.003635","6500300","中和區"
"235063","006-UY","2018/11/29 18:19:45","新北市中和區中正路509號","121.488535","24.99426","6500300","中和區"
"235056","096-UM","2018/11/29 18:19:48","新北市中和區中正路748號","121.4854","24.9985066666667","6500300","中和區"
"235039","097-UM","2018/11/29 18:19:50","新北市中和區景新街242號","121.509056666667","24.993635","6500300","中和區"
"235065","098-UM","2018/11/29 18:19:51","新北市中和區莊敬路49巷18號","121.50167","25.0061166666667","6500300","中和區"
"235040","150-BY","2018/11/29 18:19:15","新北市中和區明義街11巷10弄5號","121.503608333333","24.9948566666667","6500300","中和區"
"235058","151-BY","2018/11/29 18:19:46","新北市中和區圓通路369巷30弄6號","121.488838333333","24.9844533333333","6500300","中和區"
"235055","183-VK","2018/11/29 18:19:39","新北市中和區連城路518巷1號","121.476595","24.99187","6500300","中和區"
"235038","185-VK","2018/11/29 18:19:39","新北市中和區大智街111號","121.523395","24.9925066666667","6500300","中和區"
"235049","186-VK","2018/11/29 18:19:47","新北市中和區中正路395號","121.489901666667","24.99355","6500300","中和區"
"235072","301-VK","2018/11/29 18:19:47","新北市中和區連城路263巷1號","121.491961666667","24.9964683333333","6500300","中和區"
"235043","352-BY","2018/11/29 18:19:37","新北市中和區景平路381號","121.504006666667","24.99337","6500300","中和區"
"235042","KEA-2878","2018/11/29 18:19:42","新北市中和區景平路97號","121.517311666667","24.9918683333333","6500300","中和區"
"247012","KEA-2869","2018/11/29 18:19:49","新北市五股區中興路三段2巷10號","121.448146666667","25.0842166666667","6501400","蘆洲區"
"235050","4979-A6","2018/11/29 18:19:49","新北市中和區南山路319號","121.505011666667","24.99134","6500300","中和區"
"235069","4980-A6","2018/11/29 18:19:44","新北市中和區錦和路216號","121.490411666667","24.9943483333333","6500300","中和區"
"235070","558-UM","2018/11/29 18:19:45","新北市中和區圓通路117號","121.499331666667","24.996395","6500300","中和區"
"235045","565-BX","2018/11/29 18:19:33","新北市中和區景安路200巷10號","121.503221666667","24.9918666666667","6500300","中和區"
"235054","640-BX","2018/11/29 18:19:41","新北市中和區莒光路183號","121.472683333333","24.99913","6500300","中和區"
"235047","732-UM","2018/11/29 18:19:47","新北市中和區南山路250巷1號","121.507666666667","24.9890516666667","6500300","中和區"
"235046","733-UM","2018/11/29 18:19:30","新北市中和區中正路748號","121.485565","24.9985033333333","6500300","中和區"
"235062","800-TS","2018/11/29 18:19:29","新北市中和區中山路二段417號","121.485963333333","25.0048483333333","6500300","中和區"
"235057","801-TS","2018/11/29 18:19:38","新北市中和區民享街97巷19號","121.475456666667","24.9995416666667","6500300","中和區"
"235041","802-TS","2018/11/29 18:19:37","新北市中和區錦和路350-1號","121.49041","24.9935716666667","6500300","中和區"
"235052","805-TS","2018/11/29 18:19:52","新北市中和區捷運路6號","121.51004","24.9894766666667","6500300","中和區"
"235048","896-TW","2018/11/29 18:19:40","新北市中和區錦和路350-1號","121.490175","24.9935383333333","6500300","中和區"
"235053","900-TW","2018/11/29 18:19:31","新北市中和區中正路637巷52弄3號","121.485281666667","24.9937483333333","6500300","中和區"
"235051","157-BY","2018/11/29 18:19:32","新北市中和區信義街115號","121.512083333333","24.98685","6500300","中和區"
"235037","AAC-213","2018/11/29 18:19:39","新北市中和區景德街65號","121.517018333333","24.9914133333333","6500300","中和區"
"235059","AAC-215","2018/11/29 18:19:48","新北市中和區員山路36巷16-3號","121.485051666667","24.9914233333333","6500300","中和區"
"220065","072-UY","2018/11/29 18:19:47","新北市板橋區南雅南路二段142巷13號","121.451416666667","24.9971466666667","6500100","板橋區"
"226004","312-R5","2018/11/29 18:19:37","新北市平溪區靜安路二段42號","121.713283333333","25.0204483333333","6502400","平溪區"
"228003","097-TW","2018/11/29 18:19:44","新北市貢寮區真理里美艷山街61-3號","121.923046666667","25.0698566666667","6502600","貢寮區"
"228001","212-TW","2018/11/29 18:19:41","新北市貢寮區真理里新港街26巷55弄2-1號","121.927261666667","25.0527216666667","6502600","貢寮區"
"228002","585-TW","2018/11/29 18:19:36","新北市貢寮區福連里馬崗街1號","121.998983333333","25.0162866666667","6502600","貢寮區"
"224006","676-BX","2018/11/29 18:19:46","新北市瑞芳區三爪子坑路32巷126號","121.80916","25.1062233333333","6501200","瑞芳區"
"224008","285-BY","2018/11/29 18:19:44","新北市瑞芳區逢甲路88號","121.8094","25.108805","6501200","瑞芳區"
"224007","275-VK","2018/11/29 18:19:45","新北市瑞芳區大埔路44號","121.764368333333","25.1019666666667","6501200","瑞芳區"
"224009","273-VK","2018/11/29 18:19:44","新北市瑞芳區五號路96號","121.854705","25.1104","6501200","瑞芳區"
"224005","271-BY","2018/11/29 18:19:47","新北市瑞芳區建基新村1號","121.813113333333","25.12973","6501200","瑞芳區"
"227010","642-TC","2018/11/29 18:19:47","新北市雙溪區牡丹里牡丹73號","121.851733333333","25.059325","6502500","雙溪區"
"227004","400-TW","2018/11/29 18:19:35","新北市雙溪區共和里中山路2號","121.86379","25.0337816666667","6502500","雙溪區"
"253006","032-BX","2018/11/29 18:19:48","新北市石門區老梅路51-1號","121.545513333333","25.2892316666667","6502200","石門區"
"253005","295-VK","2018/11/29 18:19:34","新北市石門區中央路37號","121.56798","25.2935766666667","6502200","石門區"
"222001","KEA-2212","2018/11/29 18:19:37","新北市深坑區北深路二段58號","121.619113333333","25.0042816666667","6501800","深坑區"
"208002","KEA-2872","2018/11/29 18:19:49","新北市金山區清泉里清水路60巷20號","121.634291666667","25.2341283333333","6502700","金山區"
"208003","665-BX","2018/11/29 18:19:49","新北市金山區民生路160號","121.646866666667","25.2229833333333","6502700","金山區"
"208001","761-BX","2018/11/29 18:19:32","新北市金山區民生路31號","121.64293","25.2214933333333","6502700","金山區"
"251005","010-UM","2018/11/29 18:19:39","新北市淡水區水源街一段122巷35號","121.447173333333","25.1706233333333","6501000","淡水區"
"251001","011-UM","2018/11/29 18:19:40","新北市淡水區自強路110-8號","121.46166","25.131355","6501000","淡水區"
"251013","KEA-2871","2018/11/29 18:19:30","新北市淡水區行忠路590號","121.468306666667","25.199315","6501000","淡水區"
"251016","179-VK","2018/11/29 18:19:41","新北市淡水區下圭柔山33號","121.450293333333","25.20478","6501000","淡水區"
"251008","181-VK","2018/11/29 18:19:39","新北市淡水區水源街二段346巷1弄1號","121.464243333333","25.175465","6501000","淡水區"
"251015","182-VK","2018/11/29 18:19:35","新北市淡水區興福寮88巷1號","121.485213333333","25.1648183333333","6501000","淡水區"
"251010","413-VK","2018/11/29 18:19:39","新北市淡水區淡海路188號","121.420366666667","25.18512","6501000","淡水區"
"251012","441-VK","2018/11/29 18:19:40","新北市淡水區北新路二段77-5號","121.48055","25.1855083333333","6501000","淡水區"
"251004","443-VK","2018/11/29 18:16:21","新北市淡水區民族路134號","121.463016666667","25.1345766666667","6501000","淡水區"
"251006","561-UM","2018/11/29 18:19:40","新北市淡水區新民街35號","121.438881666667","25.1759383333333","6501000","淡水區"
"251011","650-BX","2018/11/29 18:19:44","新北市淡水區坪頂路39號","121.457086666667","25.1622016666667","6501000","淡水區"
"251002","672-BX","2018/11/29 18:19:44","新北市淡水區中正東路一段36號","121.452581666667","25.1623583333333","6501000","淡水區"
"251003","673-BX","2018/11/29 18:19:46","新北市淡水區北新路137號","121.449495","25.1788016666667","6501000","淡水區"
"207003","550-UM","2018/11/29 18:19:36","新北市萬里區野柳里港東路14號","121.687265","25.2036216666667","6502800","萬里區"
"207004","225-TW","2018/11/29 18:19:35","新北市萬里區中幅里中福路39-2號","121.67686","25.1658283333333","6502800","萬里區"
"252002","178-VK","2018/11/29 18:19:46","新北市三芝區中山路二段39號","121.50295","25.255125","6502100","三芝區"
"252003","249-BX","2018/11/29 18:19:50","新北市三芝區錫板里南勢崗5-3號","121.479845","25.2624583333333","6502100","三芝區"
"252001","292-VK","2018/11/29 18:19:35","新北市三芝區中興街二段2號","121.498513333333","25.2566766666667","6502100","三芝區"
"237004","KEA-2597","2018/11/29 18:19:33","新北市三峽區圳頭51-1號","121.3769","24.8842733333333","6500900","三峽區"
"237007","153-BY","2018/11/29 18:19:37","新北市三峽區中正路二段582號","121.359316666667","24.905955","6500900","三峽區"
"237009","210-TH","2018/11/29 18:19:42","新北市三峽區大勇路36巷27號","121.365406666667","24.937005","6500900","三峽區"
"237013","252-BX","2018/11/29 18:19:47","新北市三峽區永安街9巷40號","121.376453333333","24.9298266666667","6500900","三峽區"
"237012","275-BY","2018/11/29 18:19:46","新北市三峽區民生街1巷3-7號","121.377036666667","24.936355","6500900","三峽區"
"237008","302-VK","2018/11/29 18:19:41","新北市三峽區白雞57-15號","121.389915","24.9117233333333","6500900","三峽區"
"237014","433-BY","2018/11/29 18:19:29","新北市三峽區復興路110巷1弄4號","121.372713333333","24.93818","6500900","三峽區"
"237006","5529-G3","2018/11/29 18:19:40","新北市三峽區溪東路235號","121.406545","24.9326483333333","6500900","三峽區"
"237011","KEA-2596","2018/11/29 18:19:46","新北市三峽區溪東路215號","121.406053333333","24.9328016666667","6500900","三峽區"
"237016","649-BX","2018/11/29 18:19:51","新北市三峽區紫微路42-1號","121.422403333333","24.9202083333333","6500900","三峽區"
"237010","706-TV","2018/11/29 18:19:47","新北市三峽區民族街151號","121.368866666667","24.9280066666667","6500900","三峽區"
"237005","AKY-6261","2018/11/29 18:19:49","新北市三峽區忠孝街25-3號","121.371186666667","24.93418","6500900","三峽區"
"236070","105-UM","2018/11/29 18:19:49","新北市土城區永豐路338號","121.473736666667","24.9773183333333","6501300","土城區"
"236042","KED-0685","2018/11/29 18:19:48","新北市土城區裕生路21巷6弄27號","121.448718333333","24.9867083333333","6501300","土城區"
"236078","166-UM","2018/11/29 18:19:41","新北市土城區永平街9號","121.427856666667","24.9630283333333","6501300","土城區"
"236030","253-BX","2018/11/29 18:19:40","新北市土城區順風路45號","121.440313333333","24.9770166666667","6501300","土城區"
"236026","269-VK","2018/11/29 18:19:42","新北市土城區承天路22號","121.439606666667","24.963395","6501300","土城區"
"236014","270-VK","2018/11/29 18:19:32","新北市土城區青雲路39巷3號","121.460345","24.9877033333333","6501300","土城區"
"236038","271-VK","2018/11/29 18:19:44","新北市土城區青雲路451巷8弄19號","121.459573333333","24.97398","6501300","土城區"
"236021","752-BX","2018/11/29 18:19:31","新北市土城區明德路一段385-1號","121.452408333333","24.98017","6501300","土城區"
"236059","912-UM","2018/11/29 18:19:38","新北市土城區中央路四段450號","121.410525","24.95121","6501300","土城區"
"236049","913-UM","2018/11/29 18:19:39","新北市土城區明德路一段361-3號","121.456263333333","24.9777283333333","6501300","土城區"
"236063","915-UM","2018/11/29 18:19:49","新北市土城區金城路三段189-2號","121.469891666667","24.9888433333333","6501300","土城區"
"236055","970-R7","2018/11/29 18:19:35","新北市土城區中華路二段98號","121.43814","24.97446","6501300","土城區"
"242058","986-R7","2018/11/29 18:19:32","新北市新莊區新北大道七段842號","121.413728333333","25.023655","6500500","新莊區"
"242056","751-BX","2018/11/29 18:19:38","新北市新莊區豐年街53巷48號","121.44796","25.0318533333333","6500500","新莊區"
"242027","615-BX","2018/11/29 18:19:49","新北市新莊區幸福路763-2號","121.447828333333","25.0489633333333","6500500","新莊區"
"242025","613-BX","2018/11/29 18:19:46","新北市新莊區五權一路12巷9弄14號","121.457706666667","25.065015","6500500","新莊區"
"242044","566-BX","2018/11/29 18:19:38","新北市新莊區新北大道七段339號","121.412961666667","25.0275683333333","6500500","新莊區"
"242053","441-UM","2018/11/29 18:19:45","新北市樹林區樹新路247號","121.431253333333","25.00079","6500500","新莊區"
"242002","440-UM","2018/11/29 18:19:51","新北市新莊區環漢路二段385號","121.451191666667","25.03266","6500500","新莊區"
"242009","413-TV","2018/11/29 18:19:45","新北市新莊區中華路二段41號","121.453223333333","25.0466883333333","6500500","新莊區"
"242046","400-BY","2018/11/29 18:19:34","新北市新莊區中正路829巷22弄2號","121.421475","25.02714","6500500","新莊區"
"242061","353-BY","2018/11/29 18:19:40","新北市新莊區新樹路69-4號","121.438628333333","25.0297433333333","6500500","新莊區"
"242011","132-UY","2018/11/29 18:19:32","新北市新莊區中港路591巷17號","121.45028","25.0522533333333","6500500","新莊區"
"242031","348-TH","2018/11/29 18:19:41","新北市新莊區新泰路277巷43弄10號","121.443718333333","25.0398883333333","6500500","新莊區"
"242004","349-TH","2018/11/29 18:19:52","新北市新莊區中平路48號","121.44482","25.0439383333333","6500500","新莊區"
"242021","350-TH","2018/11/29 18:19:45","新北市新莊區中正路259號","121.449853333333","25.0354066666667","6500500","新莊區"
"242015","351-TH","2018/11/29 18:19:46","新北市新莊區中平路184巷10弄16號","121.44554","25.0482366666667","6500500","新莊區"
"238015","755-BX","2018/11/29 18:19:50","新北市樹林區啟智街124巷1號","121.41608","24.9877933333333","6500700","樹林區"
"238023","601-UM","2018/11/29 18:19:47","新北市樹林區忠義街25號","121.409621666667","25.0149816666667","6500700","樹林區"
"238019","599-UM","2018/11/29 18:19:36","新北市樹林區國凱街112號","121.421848333333","24.9796383333333","6500700","樹林區"
"238018","571-TV","2018/11/29 18:19:48","新北市樹林區保安街一段20巷34號","121.428265","24.9946266666667","6500700","樹林區"
"238024","5061-A6","2018/11/29 18:19:43","新北市樹林區中山路一段137巷9號","121.42295","24.9895383333333","6500700","樹林區"
"238025","303-VK","2018/11/29 18:19:47","新北市樹林區保安街一段120號","121.423455","24.994915","6500700","樹林區"
"238017","283-BY","2018/11/29 18:19:44","新北市樹林區保安街二段335號","121.412515","25.00797","6500700","樹林區"
"238020","268-VK","2018/11/29 18:19:33","新北市樹林區三龍街84號","121.41417","25.0186616666667","6500700","樹林區"
"238026","172-UY","2018/11/29 18:19:46","新北市樹林區育德街28號","121.390486666667","24.9698883333333","6500700","樹林區"
"238016","169-UY","2018/11/29 18:19:46","新北市樹林區中山路二段78號","121.415188333333","24.9838166666667","6500700","樹林區"
"239007","AAC-297","2018/11/29 18:19:28","新北市鶯歌區文昌街27-9號","121.34979","24.95173","6500800","鶯歌區"
"239006","891-R6","2018/11/29 18:19:45","新北市鶯歌區德昌街76號","121.332833333333","24.959965","6500800","鶯歌區"
"239008","527-UM","2018/11/29 18:19:34","新北市鶯歌區朝陽街2號","121.336235","24.97658","6500800","鶯歌區"
"239005","526-UM","2018/11/29 18:19:40","新北市鶯歌區鶯桃路668巷74-1號","121.330055","24.971795","6500800","鶯歌區"
"239001","417-VK","2018/11/29 18:19:36","新北市鶯歌區國中街142號","121.339243333333","24.9397183333333","6500800","鶯歌區"
"239003","360-BY","2018/11/29 18:19:38","新北市鶯歌區福安街58號","121.335591666667","24.965175","6500800","鶯歌區"
"239002","359-BY","2018/11/29 18:19:36","新北市鶯歌區文化路112號","121.352191666667","24.9522516666667","6500800","鶯歌區"
"239004","193-VK","2018/11/29 18:19:32","新北市鶯歌區中正二路161號","121.344835","24.9493233333333","6500800","鶯歌區"
"221008","489-VK","2018/11/29 18:19:46","新北市汐止區康寧街706-2號","121.638588333333","25.0732316666667","6501100","汐止區"
"221036","130-UY","2018/11/29 18:19:34","新北市汐止區長興街一段20號","121.669616666667","25.0789116666667","6501100","汐止區"
"221015","131-UY","2018/11/29 18:19:38","新北市汐止區鄉長路二段23巷19號","121.668046666667","25.0828933333333","6501100","汐止區"
"221010","269-BY","2018/11/29 18:19:43","新北市汐止區祥雲街40號","121.64743","25.0895133333333","6501100","汐止區"
"221012","278-VK","2018/11/29 18:19:30","新北市汐止區保長路35巷15弄5號","121.673003333333","25.08029","6501100","汐止區"
"221023","279-VK","2018/11/29 18:19:47","新北市汐止區康寧街395號","121.629443333333","25.0681633333333","6501100","汐止區"
"221032","280-BY","2018/11/29 18:19:30","新北市汐止區力行街2號","121.617098333333","25.0513266666667","6501100","汐止區"
"221027","281-BY","2018/11/29 18:19:42","新北市汐止區和平街13號","121.66305","25.0706483333333","6501100","汐止區"
"221029","298-VK","2018/11/29 18:19:33","新北市汐止區汐萬路一段256巷3號","121.652051666667","25.0747516666667","6501100","汐止區"
"221021","299-VK","2018/11/29 18:19:34","新北市汐止區大同路二段184巷6號","121.652998333333","25.06377","6501100","汐止區"
"221031","353-TW","2018/11/29 18:19:34","新北市汐止區光復街7巷3號","121.639335","25.0587616666667","6501100","汐止區"
"221002","129-UY","2018/11/29 18:19:52","新北市汐止區福德一路213巷35號","121.635813333333","25.0648333333333","6501100","汐止區"
"221035","622-UM","2018/11/29 18:19:46","新北市汐止區大同路二段187巷4弄1號","121.652338333333","25.06519","6501100","汐止區"
"221025","623-UM","2018/11/29 18:19:48","新北市汐止區勤進路12巷39號","121.659086666667","25.0627066666667","6501100","汐止區"
"221038","646-BX","2018/11/29 18:19:43","新北市汐止區仁愛路317號","121.664531666667","25.0675883333333","6501100","汐止區"
"221033","647-BX","2018/11/29 18:19:37","新北市汐止區宜興街59巷5號","121.622218333333","25.0427983333333","6501100","汐止區"
"221018","753-BX","2018/11/29 18:19:40","新北市汐止區茄苳路118號","121.668076666667","25.0703783333333","6501100","汐止區"
"224002","257-TC","2018/11/29 18:19:44","新北市瑞芳區三爪子坑路91巷46號","121.812018333333","25.1060916666667","6501200","瑞芳區"
"242042","281-VK","2018/11/29 18:19:39","新北市新莊區天祥街69號","121.415848333333","25.0290883333333","6500500","新莊區"
"220064","806-UM","2018/11/29 18:19:47","新北市板橋區華東街1-10號","121.448385","24.9949533333333","6500100","板橋區"
"235068","KEA-2873","2018/11/29 18:19:36","新北市中和區員山路36巷16-2號","121.485348333333","24.9914016666667","6500300","中和區"
"235061","KEA-2875","2018/11/29 18:19:36","新北市中和區民德路187號","121.468545","24.9991833333333","6500300","中和區"
"235064","KEA-2876","2018/11/29 18:19:41","新北市中和區圓通路141巷48弄23號","121.49808","24.99441","6500300","中和區"
