"lineid","car","time","location","longitude","latitude","cityid","cityname"
"234046","148-BY","2018/11/29 19:29:49","新北市永和區秀朗路二段255號","121.526325","24.9993233333333","6500400","永和區"
"234007","207-UY","2018/11/29 19:29:50","新北市永和區永和路184-1號","121.514278333333","25.0091366666667","6500400","永和區"
"234081","298-R6","2018/11/29 19:29:49","新北市永和區林森路2號","121.526756666667","25.00578","6500400","永和區"
"234038","336-UY","2018/11/29 19:29:50","新北市永和區成功路二段1巷11號","121.52743","25.0015383333333","6500400","永和區"
"234064","337-UY","2018/11/29 19:29:48","新北市永和區得和路243巷27號","121.520731666667","25.001145","6500400","永和區"
"234070","552-UM","2018/11/29 19:29:45","新北市永和區竹林路178號","121.520473333333","25.00992","6500400","永和區"
"234017","745-BX","2018/11/29 19:29:51","新北市永和區環河西路一段59號","121.51356","25.0181833333333","6500400","永和區"
"234030","746-BX","2018/11/29 19:29:42","新北市永和區民生路63號","121.522633333333","24.9973816666667","6500400","永和區"
"234054","KEA-2590","2018/11/29 19:29:43","新北市永和區復興街19巷1號","121.51596","25.0130416666667","6500400","永和區"
"234013","KEA-2591","2018/11/29 19:29:37","新北市永和區中山路一段130號","121.510521666667","25.0099816666667","6500400","永和區"
"234061","AAD-866","2018/11/29 19:29:45","新北市永和區中正路520號","121.51736","25.00489","6500400","永和區"
"234086","748-BX","2018/11/29 19:29:41","新北市永和區林森路74號","121.523551666667","25.00385","6500400","永和區"
"234042","862-TW","2018/11/29 19:29:42","新北市永和區水源街39巷20號","121.510618333333","25.0034766666667","6500400","永和區"
"234050","863-TW","2018/11/29 19:29:47","新北市永和區信義路122號","121.512491666667","25.0147566666667","6500400","永和區"
"234023","9372-KE","2018/11/29 19:29:51","新北市永和區竹林路91巷60弄2-1號","121.521563333333","25.0129466666667","6500400","永和區"
"234026","9371-KE","2018/11/29 19:29:50","新北市中和區安平路220號","121.513835","25.000055","6500400","永和區"
"234011","9373-KE","2018/11/29 19:29:40","新北市永和區保福路二段163巷17號","121.508923333333","25.0146","6500400","永和區"
"249002","305-UY","2018/11/29 19:29:50","新北市八里區頂寮二街138號","121.449353333333","25.129435","6502300","八里區"
"249003","593-UM","2018/11/29 19:29:36","新北市八里區商港路52巷1弄2號","121.395231666667","25.1486266666667","6502300","八里區"
"248014","025-BX","2018/11/29 19:29:38","新北市五股區民義路一段183巷5號","121.430761666667","25.0872066666667","6501500","五股區"
"248016","026-BX","2018/11/29 19:29:47","新北市五股區成泰路三段590-3號","121.45291","25.1059016666667","6501500","五股區"
"248008","095-VK","2018/11/29 19:29:45","新北市五股區中興路一段95巷16號","121.46647","25.0723283333333","6501500","五股區"
"248020","225-UY","2018/11/29 19:29:36","新北市五股區凌雲路三段88號","121.4283","25.1188366666667","6501500","五股區"
"248012","655-BX","2018/11/29 19:29:51","新北市五股區成泰路二段91巷9號","121.437556666667","25.084175","6501500","五股區"
"248004","677-BX","2018/11/29 19:29:43","新北市五股區五福路37號","121.43342","25.0894283333333","6501500","五股區"
"248002","678-BX","2018/11/29 19:29:40","新北市五股區凌雲路一段158巷1號","121.447746666667","25.1029683333333","6501500","五股區"
"248010","682-TV","2018/11/29 19:29:40","新北市五股區自強路90巷72號","121.430778333333","25.0713016666667","6501500","五股區"
"234077","969-R7","2018/11/29 19:29:37","新北市永和區民權路58巷3號","121.519591666667","24.9983116666667","6500400","永和區"
"234074","AAC-211","2018/11/29 19:29:47","新北市永和區永和路二段278號","121.51603","25.0153866666667","6500400","永和區"
"234067","AAC-212","2018/11/29 19:29:44","新北市永和區保平路119號","121.510741666667","25.006545","6500400","永和區"
"234003","AAC-295","2018/11/29 19:29:41","新北市永和區自強街2號","121.514031666667","25.0080816666667","6500400","永和區"
"244023","069-UM","2018/11/29 19:29:50","新北市林口區仁愛路二段267巷1號","121.37348","25.07731","6501700","林口區"
"243013","AAD-798","2018/11/29 19:29:34","新北市泰山區貴子路36巷3弄2號","121.425955","25.04119","6501600","泰山區"
"243009","297-R6","2018/11/29 19:29:50","新北市五股區成泰路一段1號","121.433586666667","25.0664266666667","6501600","泰山區"
"243016","KEA-2801","2018/11/29 19:29:49","新北市泰山區明志路三段356號","121.421228333333","25.0347183333333","6501600","泰山區"
"243015","421-VK","2018/11/29 19:29:33","新北市泰山區民權街7號","121.428105","25.050915","6501600","泰山區"
"243011","KEA-2215","2018/11/29 19:29:50","新北市泰山區貴子路41-1號","121.429578333333","25.04013","6501600","泰山區"
"243010","KEA-2216","2018/11/29 19:29:42","新北市泰山區民生路17巷35號","121.429566666667","25.0516183333333","6501600","泰山區"
"243012","646-TV","2018/11/29 19:29:43","新北市泰山區仁愛路6巷4弄2號","121.431036666667","25.05375","6501600","泰山區"
"243014","680-BX","2018/11/29 19:29:35","新北市泰山區仁愛路64號","121.432206666667","25.0549216666667","6501600","泰山區"
"222003","436-BY","2018/11/29 19:29:53","新北市深坑區深南路88巷1號","121.620955","25.01161","6501800","深坑區"
"222002","659-BX","2018/11/29 19:29:49","新北市深坑區北深路一段177號","121.632476666667","25.0108316666667","6501800","深坑區"
"231041","002-UM","2018/11/29 19:29:40","新北市新店區中正路556號","121.533573333333","24.98701","6500600","新店區"
"231059","046-UY","2018/11/29 19:29:43","新北市新店區安和路三段7號","121.518065","24.980585","6500600","新店區"
"231040","047-UY","2018/11/29 19:29:45","新北市新店區北新路一段14號","121.540743333333","24.965635","6500600","新店區"
"231044","106-UY","2018/11/29 19:29:44","新北市新店區中興路三段135號","121.544543333333","24.9796616666667","6500600","新店區"
"231046","107-UY","2018/11/29 19:29:48","新北市新店區環河路113-1號","121.531501666667","24.9711716666667","6500600","新店區"
"231052","108-UY","2018/11/29 19:29:46","新北市新店區新烏路二段333號","121.550255","24.9105433333333","6500600","新店區"
"231047","187-VK","2018/11/29 19:29:48","新北市新店區中興路一段254巷5號","121.545041666667","24.9666666666667","6500600","新店區"
"231054","KEA-2219","2018/11/29 19:29:47","新北市新店區文中路45號","121.539635","24.9566183333333","6500600","新店區"
"231057","256-BX","2018/11/29 19:29:42","新北市新店區花園一路二段11-7號","121.550675","24.9334833333333","6500600","新店區"
"231042","268-BY","2018/11/29 19:29:50","新北市新店區光明街96巷3號","121.539301666667","24.960055","6500600","新店區"
"231050","AAD-862","2018/11/29 19:29:50","新北市新店區竹林路72巷15號","121.554176666667","24.9506116666667","6500600","新店區"
"231058","3713-VJ","2018/11/29 19:29:44","新北市新店區北新路二段228巷13號","121.543456666667","24.9771266666667","6500600","新店區"
"231066","4716-K9","2018/11/29 19:29:46","新北市新店區安康路三段363號","121.484138333333","24.9506316666667","6500600","新店區"
"231065","512-UM","2018/11/29 19:29:36","新北市新店區安祥路109巷1弄95號","121.478931666667","24.9602433333333","6500600","新店區"
"231049","513-UM","2018/11/29 19:29:49","新北市新店區北新路三段65巷34弄29號","121.539973333333","24.982","6500600","新店區"
"231063","616-UM","2018/11/29 19:29:40","新北市新店區達觀路16號","121.50319","24.9406483333333","6500600","新店區"
"231045","617-UM","2018/11/29 19:29:38","新北市新店區北宜路二段211號","121.553201666667","24.9533116666667","6500600","新店區"
"231061","619-UM","2018/11/29 19:29:37","新北市新店區安康路一段166號","121.52593","24.96306","6500600","新店區"
"231064","719-UM","2018/11/29 19:29:35","新北市新店區安忠路57巷1-5號","121.513306666667","24.9596116666667","6500600","新店區"
"231051","719-UY","2018/11/29 19:29:38","新北市新店區中央五街22號","121.529288333333","24.974505","6500600","新店區"
"231062","720-UM","2018/11/29 19:29:32","新北市新店區莒光路85巷2號","121.523178333333","24.9560733333333","6500600","新店區"
"231060","897-TW","2018/11/29 19:29:43","新北市新店區安康路二段138號","121.51252","24.9619633333333","6500600","新店區"
"231043","899-TW","2018/11/29 19:29:37","新北市新店區北新路二段156號","121.543068333333","24.9754033333333","6500600","新店區"
"241028","022-UY","2018/11/29 19:29:46","新北市三重區中寮街90號","121.493235","25.058","6500200","三重區"
"241008","059-VK","2018/11/29 19:29:46","新北市三重區永福街135巷35號","121.477426666667","25.0772033333333","6500200","三重區"
"241022","060-VK","2018/11/29 19:29:39","新北市三重區三民街165巷7號","121.483895","25.06513","6500200","三重區"
"241031","061-VK","2018/11/29 19:29:41","新北市三重區集美街100號","121.488531666667","25.0542133333333","6500200","三重區"
"241017","063-VK","2018/11/29 19:29:46","新北市三重區中正北路25巷23號","121.493098333333","25.0625633333333","6500200","三重區"
"241026","066-VK","2018/11/29 19:29:46","新北市三重區文化南路47巷7號","121.499826666667","25.061315","6500200","三重區"
"251014","742-BX","2018/11/29 19:29:51","新北市淡水區小中寮12-1號","121.485523333333","25.2318516666667","6501000","淡水區"
"241009","267-UM","2018/11/29 19:29:33","新北市三重區仁美街121號","121.485743333333","25.0813233333333","6500200","三重區"
"241032","269-UM","2018/11/29 19:29:51","新北市三重區三陽路40號","121.4851","25.058755","6500200","三重區"
"241013","270-UM","2018/11/29 19:29:40","新北市三重區仁賢街16-1號","121.49577","25.07494","6500200","三重區"
"241025","271-UM","2018/11/29 19:29:42","新北市三重區頂崁街210巷28弄9號","121.47577","25.0671783333333","6500200","三重區"
"241007","398-BY","2018/11/29 19:29:47","新北市三重區慈愛街151號","121.489548333333","25.0794266666667","6500200","三重區"
"241035","462-BY","2018/11/29 19:29:43","新北市三重區信義西街1巷11號","121.498113333333","25.0651883333333","6500200","三重區"
"241030","480-VK","2018/11/29 19:29:52","新北市三重區成功路41巷13號","121.490353333333","25.0515833333333","6500200","三重區"
"241020","743-BX","2018/11/29 19:29:36","新北市三重區三和路四段20巷22-1號","121.490241666667","25.07374","6500200","三重區"
"241006","887-TS","2018/11/29 19:29:49","新北市三重區三和路四段272號","121.485601666667","25.0772583333333","6500200","三重區"
"241029","942-UM","2018/11/29 19:29:34","新北市三重區中正南路216號","121.4938","25.05509","6500200","三重區"
"235066","003-UY","2018/11/29 19:29:38","新北市中和區景新街56號","121.503976666667","24.9991333333333","6500300","中和區"
"235063","006-UY","2018/11/29 19:29:44","新北市中和區連城路219巷17號","121.494918333333","24.99607","6500300","中和區"
"235056","096-UM","2018/11/29 19:29:48","新北市中和區民富街36號","121.476796666667","25.0066066666667","6500300","中和區"
"235039","097-UM","2018/11/29 19:29:50","新北市中和區秀峰街103巷5弄1號","121.520391666667","24.9898416666667","6500300","中和區"
"235065","098-UM","2018/11/29 19:29:51","新北市中和區中山路二段2巷13弄11號","121.50355","25.006515","6500300","中和區"
"235040","150-BY","2018/11/29 19:29:35","新北市中和區保健路46巷24弄1號","121.508513333333","24.9955666666667","6500300","中和區"
"235058","151-BY","2018/11/29 19:29:46","新北市中和區員山路124巷5號","121.481675","24.9960133333333","6500300","中和區"
"235055","183-VK","2018/11/29 19:29:39","新北市中和區莒光路120巷18號","121.471506666667","25.0019283333333","6500300","中和區"
"235038","185-VK","2018/11/29 19:29:39","新北市中和區自立路129號","121.522018333333","24.9940133333333","6500300","中和區"
"235049","186-VK","2018/11/29 19:29:46","新北市中和區景新街283號","121.509658333333","24.9933983333333","6500300","中和區"
"235067","255-BX","2018/11/29 19:29:34","新北市中和區連城路330號","121.483183333333","24.99591","6500300","中和區"
"235044","293-VK","2018/11/29 19:29:36","新北市中和區捷運路155號","121.506468333333","24.991105","6500300","中和區"
"235072","301-VK","2018/11/29 19:29:47","新北市中和區連城路263巷4弄12號","121.491746666667","24.99524","6500300","中和區"
"235043","352-BY","2018/11/29 19:29:36","新北市中和區景新街153號","121.506545","24.99651","6500300","中和區"
"235042","KEA-2878","2018/11/29 19:29:42","新北市中和區中和路262巷43弄4號","121.509753333333","24.9997683333333","6500300","中和區"
"235050","4979-A6","2018/11/29 19:29:49","新北市中和區中正路216號","121.496808333333","24.9939816666667","6500300","中和區"
"235070","558-UM","2018/11/29 19:29:45","新北市中和區景平路626巷1號","121.500391666667","24.9977933333333","6500300","中和區"
"235045","565-BX","2018/11/29 19:29:33","新北市中和區景新街383巷26號","121.513376666667","24.99061","6500300","中和區"
"235054","640-BX","2018/11/29 19:29:42","新北市中和區國光街102巷11弄30號","121.470626666667","25.001645","6500300","中和區"
"235060","647-TV","2018/11/29 19:29:38","新北市中和區新生街114巷21號","121.482916666667","25.0023383333333","6500300","中和區"
"235047","732-UM","2018/11/29 19:29:47","新北市中和區景平路241巷64弄8號","121.507685","24.9926483333333","6500300","中和區"
"235046","733-UM","2018/11/29 19:29:50","新北市中和區忠孝街37巷67號","121.510561666667","24.9847933333333","6500300","中和區"
"235071","783-BX","2018/11/29 19:29:52","新北市中和區中正路637巷18弄20號","121.484248333333","24.9950983333333","6500300","中和區"
"235057","801-TS","2018/11/29 19:29:38","新北市中和區員山路364號","121.48094","25.003845","6500300","中和區"
"235041","802-TS","2018/11/29 19:29:37","新北市中和區中和路400巷14弄1號","121.511746666667","25.002175","6500300","中和區"
"235052","805-TS","2018/11/29 19:29:52","新北市中和區華新街143巷69弄6號","121.507476666667","24.97878","6500300","中和區"
"235048","896-TW","2018/11/29 19:29:40","新北市中和區忠孝街106巷2號","121.512148333333","24.9845416666667","6500300","中和區"
"235053","900-TW","2018/11/29 19:29:31","新北市中和區華順街2巷2號","121.467546666667","24.9988483333333","6500300","中和區"
"235051","157-BY","2018/11/29 19:29:32","新北市中和區南華路89號","121.505685","24.9974583333333","6500300","中和區"
"235037","AAC-213","2018/11/29 19:29:39","新北市中和區秀朗路三段10巷14弄1號","121.525145","24.9964816666667","6500300","中和區"
"235059","AAC-215","2018/11/29 19:29:48","新北市中和區圓通路252巷36弄2號","121.492318333333","24.9928966666667","6500300","中和區"
"220068","013-TV","2018/11/29 19:29:43","新北市板橋區翠華街6巷94號","121.481813333333","25.02435","6500100","板橋區"
"220065","072-UY","2018/11/29 19:29:47","新北市板橋區國泰街111巷15號","121.466156666667","25.00597","6500100","板橋區"
"220086","073-UY","2018/11/29 19:29:45","新北市板橋區中正路236巷51號","121.458005","25.0194366666667","6500100","板橋區"
"220106","075-UY","2018/11/29 19:26:40","新北市板橋區文化路二段417巷1號","121.473833333333","25.0334666666667","6500100","板橋區"
"220069","AAD-861","2018/11/29 19:29:42","新北市板橋區稚暉街18號","121.45594","25.0044983333333","6500100","板橋區"
"247004","002-UY","2018/11/29 19:29:48","新北市蘆洲區長安街148號","121.45999","25.082275","6501400","蘆洲區"
"226004","312-R5","2018/11/29 19:29:37","新北市平溪區十分里十分街140號","121.777535","25.0433383333333","6502400","平溪區"
"228003","097-TW","2018/11/29 19:29:44","新北市貢寮區和美里和美街22-1號","121.912861666667","25.082615","6502600","貢寮區"
"228001","212-TW","2018/11/29 19:29:41","新北市貢寮區真理里延平街68號","121.925378333333","25.0574283333333","6502600","貢寮區"
"228002","585-TW","2018/11/29 19:29:42","新北市貢寮區龍門里龍門街75號","121.931111666667","25.0268066666667","6502600","貢寮區"
"224010","AGQ-8101","2018/11/29 19:29:36","新北市瑞芳區基山街96號","121.844188333333","25.1087416666667","6501200","瑞芳區"
"227010","642-TC","2018/11/29 19:29:47","新北市雙溪區新基里新基北街43號","121.868185","25.039695","6502500","雙溪區"
"227004","400-TW","2018/11/29 19:29:35","新北市雙溪區雙溪里光復街18號","121.865116666667","25.0354533333333","6502500","雙溪區"
"253006","032-BX","2018/11/29 19:29:48","新北市石門區楓林23-10號","121.538711666667","25.2911633333333","6502200","石門區"
"222001","KEA-2212","2018/11/29 19:29:37","新北市深坑區深坑街10號","121.615833333333","25.0027783333333","6501800","深坑區"
"208002","KEA-2872","2018/11/29 19:29:37","新北市金山區仁愛路87巷1號","121.634655","25.22147","6502700","金山區"
"208003","665-BX","2018/11/29 19:29:49","新北市金山區中山路263巷14號","121.636386666667","25.2216033333333","6502700","金山區"
"208001","761-BX","2018/11/29 19:29:52","新北市金山區南勢100號","121.625843333333","25.2202266666667","6502700","金山區"
"251009","008-UM","2018/11/29 19:29:49","新北市淡水區大忠街5巷4號","121.443245","25.176425","6501000","淡水區"
"251005","010-UM","2018/11/29 19:29:39","新北市淡水區水源街一段71巷18號","121.444401666667","25.1729233333333","6501000","淡水區"
"251001","011-UM","2018/11/29 19:29:40","新北市淡水區民權路159號","121.459968333333","25.1360666666667","6501000","淡水區"
"251013","KEA-2871","2018/11/29 19:29:50","新北市淡水區安子內20號","121.473018333333","25.21884","6501000","淡水區"
"251016","179-VK","2018/11/29 19:29:41","新北市淡水區下圭柔山119-51號","121.450716666667","25.208505","6501000","淡水區"
"251008","181-VK","2018/11/29 19:29:39","新北市淡水區中正路一段102號","121.423945","25.177825","6501000","淡水區"
"251015","182-VK","2018/11/29 19:29:35","新北市淡水區山子頂24-1號","121.491351666667","25.18716","6501000","淡水區"
"251010","413-VK","2018/11/29 19:29:39","新北市淡水區中正路二段150號","121.422823333333","25.1876816666667","6501000","淡水區"
"251012","441-VK","2018/11/29 19:29:40","新北市淡水區崁頂108號","121.433235","25.2042033333333","6501000","淡水區"
"251007","577-R6","2018/11/29 19:29:31","新北市淡水區中正東路二段161巷11弄10號","121.461448333333","25.146035","6501000","淡水區"
"251011","650-BX","2018/11/29 19:29:43","新北市淡水區中正東路二段143巷2弄1號","121.460643333333","25.14747","6501000","淡水區"
"207003","550-UM","2018/11/29 19:29:36","新北市萬里區大鵬里萬里加投197-5號","121.643983333333","25.2150683333333","6502800","萬里區"
"207004","225-TW","2018/11/29 19:29:35","新北市萬里區萬里里瑪鋉路121號","121.688946666667","25.17784","6502800","萬里區"
"252002","178-VK","2018/11/29 19:29:46","新北市三芝區淡金路二段18-1號","121.502705","25.2595183333333","6502100","三芝區"
"252001","292-VK","2018/11/29 19:29:35","新北市三芝區長勤街62-1號","121.500148333333","25.25609","6502100","三芝區"
"237004","KEA-2597","2018/11/29 19:29:33","新北市三峽區有木206號","121.439125","24.8515116666667","6500900","三峽區"
"237007","153-BY","2018/11/29 19:29:36","新北市三峽區二鬮路136巷41號","121.358206666667","24.908775","6500900","三峽區"
"237009","210-TH","2018/11/29 19:29:42","新北市三峽區民權街55號","121.369676666667","24.9333533333333","6500900","三峽區"
"237013","252-BX","2018/11/29 19:29:47","新北市三峽區介壽路一段279號","121.380405","24.9302183333333","6500900","三峽區"
"237012","275-BY","2018/11/29 19:29:46","新北市三峽區民生街2-1號","121.376393333333","24.936905","6500900","三峽區"
"237008","302-VK","2018/11/29 19:29:41","新北市三峽區大同路154號","121.373123333333","24.9267766666667","6500900","三峽區"
"237014","433-BY","2018/11/29 19:29:48","新北市三峽區中山路270號","121.361643333333","24.9376883333333","6500900","三峽區"
"237006","5529-G3","2018/11/29 19:29:40","新北市三峽區中正路一段336巷15弄2號","121.369965","24.9249633333333","6500900","三峽區"
"237011","KEA-2596","2018/11/29 19:29:46","新北市三峽區介壽路一段365號","121.382861666667","24.9307566666667","6500900","三峽區"
"237016","649-BX","2018/11/29 19:29:51","新北市三峽區建安73號","121.44855","24.9279366666667","6500900","三峽區"
"237010","706-TV","2018/11/29 19:29:47","新北市三峽區國光街36號","121.374911666667","24.9376583333333","6500900","三峽區"
"237005","AKY-6261","2018/11/29 19:29:49","新北市三峽區復興路367巷1弄2號","121.363943333333","24.9381233333333","6500900","三峽區"
"236070","105-UM","2018/11/29 19:29:48","新北市土城區裕民路185巷36弄10號","121.454406666667","24.98455","6501300","土城區"
"236042","KED-0685","2018/11/29 19:29:48","新北市土城區學府路一段239號","121.450421666667","24.9833866666667","6501300","土城區"
"236078","166-UM","2018/11/29 19:29:51","新北市土城區中州路3巷33弄1號","121.413556666667","24.9565533333333","6501300","土城區"
"236030","253-BX","2018/11/29 19:29:40","新北市土城區中央路一段334號","121.443153333333","24.9813033333333","6501300","土城區"
"236026","269-VK","2018/11/29 19:29:42","新北市土城區中央路二段61巷20號","121.443118333333","24.9786916666667","6501300","土城區"
"236021","752-BX","2018/11/29 19:22:15","新北市土城區明峰街83號","121.468956666667","24.987385","6501300","土城區"
"236059","912-UM","2018/11/29 19:29:38","新北市土城區中央路二段63號","121.442691666667","24.9789583333333","6501300","土城區"
"236049","913-UM","2018/11/29 19:29:39","新北市土城區清水路200號","121.460416666667","24.9818833333333","6501300","土城區"
"242048","497-BY","2018/11/29 19:29:47","新北市新莊區後港一路3號","121.424105","25.026345","6500500","新莊區"
"242023","362-BY","2018/11/29 19:29:35","新北市新莊區新泰路502巷1號","121.443168333333","25.04654","6500500","新莊區"
"242013","173-VK","2018/11/29 19:29:36","新北市新莊區新泰路357巷3弄1號","121.442425","25.04131","6500500","新莊區"
"242031","348-TH","2018/11/29 19:29:33","新北市新莊區新泰路225巷22弄5號","121.444981666667","25.0392483333333","6500500","新莊區"
"238015","755-BX","2018/11/29 19:29:43","新北市樹林區復興路197號","121.420546666667","24.9916316666667","6500700","樹林區"
"238023","601-UM","2018/11/29 19:29:47","新北市樹林區三福街77號","121.407443333333","25.0163766666667","6500700","樹林區"
"238019","599-UM","2018/11/29 19:29:36","新北市樹林區鎮前街347巷3弄37號","121.417976666667","24.9840433333333","6500700","樹林區"
"238022","KEA-2213","2018/11/29 19:29:41","新北市樹林區名園街45號","121.419771666667","24.978655","6500700","樹林區"
"238021","KEA-2539","2018/11/29 19:29:44","新北市樹林區大雅路25號","121.380575","24.9447816666667","6500700","樹林區"
"238025","303-VK","2018/11/29 19:29:47","新北市樹林區中山路一段55號","121.423946666667","24.9921483333333","6500700","樹林區"
"238017","283-BY","2018/11/29 19:29:46","新北市樹林區光興街155巷26號","121.407125","25.0030683333333","6500700","樹林區"
"238014","282-BY","2018/11/29 19:29:49","新北市樹林區保安二街64巷11號","121.424488333333","24.9963416666667","6500700","樹林區"
"238020","268-VK","2018/11/29 19:29:33","新北市樹林區俊英街107號","121.425043333333","25.0096016666667","6500700","樹林區"
"238026","172-UY","2018/11/29 19:29:46","新北市樹林區佳園路二段157-1號","121.389843333333","24.956965","6500700","樹林區"
"238016","169-UY","2018/11/29 19:29:46","新北市樹林區復興路446巷2弄2號","121.413413333333","24.9843216666667","6500700","樹林區"
"239007","AAC-297","2018/11/29 19:29:47","新北市鶯歌區大湖路328號","121.345398333333","24.970425","6500800","鶯歌區"
"239006","891-R6","2018/11/29 19:29:44","新北市鶯歌區建國路508號","121.340846666667","24.95075","6500800","鶯歌區"
"239005","526-UM","2018/11/29 19:29:40","新北市鶯歌區東湖路4號","121.351021666667","24.972815","6500800","鶯歌區"
"239001","417-VK","2018/11/29 19:29:36","新北市鶯歌區建國路540-1號","121.338485","24.9501616666667","6500800","鶯歌區"
"239003","360-BY","2018/11/29 19:29:37","新北市樹林區中山路三段210-2號","121.380883333333","24.9669","6500800","鶯歌區"
"239004","193-VK","2018/11/29 19:29:32","新北市鶯歌區二甲路43-3號","121.339963333333","24.9358383333333","6500800","鶯歌區"
"221008","489-VK","2018/11/29 19:29:46","新北市汐止區康寧街227號","121.623488333333","25.066825","6501100","汐止區"
"221036","130-UY","2018/11/29 19:29:34","新北市汐止區康寧街901號","121.651668333333","25.075035","6501100","汐止區"
"221015","131-UY","2018/11/29 19:29:38","新北市汐止區康寧街901號","121.651523333333","25.075","6501100","汐止區"
"221010","269-BY","2018/11/29 19:29:43","新北市汐止區連峰街3巷2號","121.646655","25.076705","6501100","汐止區"
"221012","278-VK","2018/11/29 19:29:50","新北市汐止區大同路三段186號","121.674341666667","25.074605","6501100","汐止區"
"221023","279-VK","2018/11/29 19:29:47","新北市汐止區康寧街901號","121.651753333333","25.0749716666667","6501100","汐止區"
"221027","281-BY","2018/11/29 19:29:42","新北市汐止區忠孝東路9號","121.658298333333","25.06593","6501100","汐止區"
"221029","298-VK","2018/11/29 19:29:33","新北市汐止區康寧街901號","121.651363333333","25.0749266666667","6501100","汐止區"
"221021","299-VK","2018/11/29 19:29:34","新北市汐止區康寧街901號","121.651446666667","25.0750533333333","6501100","汐止區"
"221031","353-TW","2018/11/29 19:29:34","新北市汐止區康寧街901號","121.651013333333","25.07523","6501100","汐止區"
"221002","129-UY","2018/11/29 19:29:32","新北市汐止區大同路一段219巷27號","121.63325","25.0583433333333","6501100","汐止區"
"221025","623-UM","2018/11/29 19:29:48","新北市汐止區新台五路二段10號","121.660296666667","25.0650516666667","6501100","汐止區"
"221038","646-BX","2018/11/29 19:29:43","新北市汐止區大同路二段432號","121.659246666667","25.067065","6501100","汐止區"
"220079","145-BY","2018/11/29 19:29:38","新北市板橋區建國街23號","121.458076666667","25.017015","6500100","板橋區"
"220080","200-UY","2018/11/29 19:29:32","新北市板橋區大觀路二段37巷64號","121.449505","25.0022166666667","6500100","板橋區"
"220082","610-BX","2018/11/29 19:29:51","新北市板橋區金門街249號","121.431965","24.9890433333333","6500100","板橋區"
"220101","245-BX","2018/11/29 19:29:51","新北市板橋區縣民大道三段127巷25號","121.476898333333","25.0238016666667","6500100","板橋區"
"220056","276-BY","2018/11/29 19:29:53","新北市板橋區國慶路49巷25-1號","121.45968","24.99648","6500100","板橋區"
"220072","277-BY","2018/11/29 19:29:35","新北市板橋區金門街215巷2弄21號","121.433081666667","24.98872","6500100","板橋區"
"220071","283-VK","2018/11/29 19:29:44","新北市板橋區四川路一段325巷20號","121.459495","25.0001916666667","6500100","板橋區"
"220094","285-UM","2018/11/29 19:29:39","新北市板橋區吳鳳路34號","121.468658333333","25.0302883333333","6500100","板橋區"
"220053","285-VK","2018/11/29 19:29:51","新北市板橋區永豐街193號","121.4762","25.0208233333333","6500100","板橋區"
"220083","286-VK","2018/11/29 19:29:40","新北市板橋區龍興街73巷49號","121.442018333333","25.00293","6500100","板橋區"
"220081","287-VK","2018/11/29 19:29:43","新北市板橋區南雅南路一段106號","121.454908333333","25.0043716666667","6500100","板橋區"
"220090","288-VK","2018/11/29 19:29:43","新北市板橋區裕民街87-4號","121.460461666667","25.0280933333333","6500100","板橋區"
"220061","295-UM","2018/11/29 19:29:47","新北市板橋區中山路二段255巷7號","121.477046666667","25.017945","6500100","板橋區"
"220084","296-UM","2018/11/29 19:29:41","新北市板橋區篤行路三段玉平巷83號","121.428205","24.985875","6500100","板橋區"
"220075","303-R5","2018/11/29 19:29:48","新北市板橋區大勇街77號","121.452955","25.0166233333333","6500100","板橋區"
"220062","305-R5","2018/11/29 19:29:42","新北市板橋區三民路二段123巷20號","121.480163333333","25.01559","6500100","板橋區"
"220092","307-R5","2018/11/29 19:29:44","新北市板橋區松江街18號","121.469123333333","25.0264233333333","6500100","板橋區"
"220098","317-R6","2018/11/29 19:29:34","新北市板橋區民生路三段263巷4弄2號","121.463795","25.0296533333333","6500100","板橋區"
"220089","487-VK","2018/11/29 19:29:47","新北市板橋區文化路一段121號","121.46185","25.0149133333333","6500100","板橋區"
"242007","280-VK","2018/11/29 19:29:34","新北市新莊區思源路593巷6弄23號","121.457651666667","25.0597866666667","6500500","新莊區"
"220035","560-BX","2018/11/29 19:29:46","新北市板橋區中正路330號","121.454433333333","25.0216966666667","6500100","板橋區"
"220103","561-BX","2018/11/29 19:29:41","新北市板橋區文化路一段270巷3弄2號","121.467478333333","25.0208133333333","6500100","板橋區"
"220063","609-BX","2018/11/29 19:29:37","新北市板橋區林森街3巷1弄6號","121.482596666667","25.0235633333333","6500100","板橋區"
"220091","637-BX","2018/11/29 19:29:50","新北市板橋區文聖街149巷16號","121.479215","25.028345","6500100","板橋區"
"220057","686-BX","2018/11/29 19:29:45","新北市板橋區和平路45號","121.460201666667","24.99456","6500100","板橋區"
"220077","687-BX","2018/11/29 19:29:41","新北市板橋區僑中二街106巷1號","121.445896666667","25.0075483333333","6500100","板橋區"
"220093","689-BX","2018/11/29 19:29:38","新北市板橋區英士路49-1號","121.461128333333","25.0245716666667","6500100","板橋區"
"220054","741-BX","2018/11/29 19:29:41","新北市板橋區忠孝路31-1號","121.460775","25.0019883333333","6500100","板橋區"
"220102","KEA-2699","2018/11/29 19:29:51","新北市板橋區松柏街22巷45號","121.475138333333","25.0287783333333","6500100","板橋區"
"220064","806-UM","2018/11/29 19:29:46","新北市板橋區民權路45號","121.462103333333","25.0112366666667","6500100","板橋區"
"220055","827-TW","2018/11/29 19:29:51","新北市板橋區重慶路278巷15號","121.462426666667","24.999615","6500100","板橋區"
"220067","830-TW","2018/11/29 19:29:46","新北市板橋區漢生東路330-1號","121.47177","25.00788","6500100","板橋區"
"220096","831-TW","2018/11/29 19:29:34","新北市板橋區雙十路二段49號","121.476406666667","25.026145","6500100","板橋區"
"220088","833-TW","2018/11/29 19:29:48","新北市板橋區雙十路二段85號","121.475686666667","25.027345","6500100","板橋區"
"220074","895-R6","2018/11/29 19:29:49","新北市板橋區北門街17號","121.456958333333","25.0109683333333","6500100","板橋區"
"220073","985-R7","2018/11/29 19:29:54","新北市板橋區國光路33號","121.457238333333","25.01765","6500100","板橋區"
"220097","AAC-210","2018/11/29 19:29:44","新北市板橋區新海路138號","121.460796666667","25.0234","6500100","板橋區"
"220070","AAC-253","2018/11/29 19:29:50","新北市板橋區四川路一段8-2號","121.459396666667","25.0067583333333","6500100","板橋區"
"235068","KEA-2873","2018/11/29 19:29:35","新北市中和區圓通路158巷8弄16號","121.498105","24.9964066666667","6500300","中和區"
"235061","KEA-2875","2018/11/29 19:29:36","新北市中和區民利街31巷2弄17號","121.47971","24.9985616666667","6500300","中和區"
"235064","KEA-2876","2018/11/29 19:29:41","新北市中和區南山路81巷58號","121.50394","24.998115","6500300","中和區"
