"lineid","car","time","location","longitude","latitude","cityid","cityname"
"234046","148-BY","2018/11/29 19:59:50","新北市永和區成功路一段89號","121.526861666667","25.0029466666667","6500400","永和區"
"234007","207-UY","2018/11/29 19:59:50","新北市永和區保生路22巷19弄2號","121.507138333333","25.0083716666667","6500400","永和區"
"234081","298-R6","2018/11/29 19:59:49","新北市永和區永利路81巷2弄1號","121.521681666667","25.003655","6500400","永和區"
"234038","336-UY","2018/11/29 19:59:44","新北市永和區成功路二段80號","121.526636666667","24.9987066666667","6500400","永和區"
"234064","337-UY","2018/11/29 19:59:48","新北市永和區中正路412巷20弄10號","121.518758333333","25.0016383333333","6500400","永和區"
"234070","552-UM","2018/11/29 19:59:40","新北市永和區國光路51號","121.518976666667","25.008305","6500400","永和區"
"234017","745-BX","2018/11/29 19:59:40","新北市永和區文化路62號","121.514423333333","25.015115","6500400","永和區"
"234030","746-BX","2018/11/29 19:59:42","新北市永和區民生路24號","121.52259","24.9972916666667","6500400","永和區"
"234054","KEA-2590","2018/11/29 19:59:48","新北市永和區環河東路一段122號","121.520665","25.01565","6500400","永和區"
"234013","KEA-2591","2018/11/29 19:59:37","新北市永和區保生路55號","121.504746666667","25.0106166666667","6500400","永和區"
"234061","AAD-866","2018/11/29 19:59:45","新北市永和區中正路283巷15號","121.516746666667","25.0004133333333","6500400","永和區"
"234086","748-BX","2018/11/29 19:59:41","新北市永和區福和路110號","121.522145","25.007975","6500400","永和區"
"234042","862-TW","2018/11/29 19:59:43","新北市永和區中和路421巷5弄8號","121.508441666667","25.00085","6500400","永和區"
"234050","863-TW","2018/11/29 19:59:07","新北市永和區新生路215巷6弄10號","121.506753333333","25.013515","6500400","永和區"
"234011","9373-KE","2018/11/29 19:59:40","新北市永和區仁愛路352巷120號","121.50032","25.00858","6500400","永和區"
"249005","172-UM","2018/11/29 19:59:38","新北市八里區楓林路2-2號","121.383586666667","25.13054","6502300","八里區"
"249004","303-UY","2018/11/29 19:59:41","新北市八里區中山路一段418-2號","121.411051666667","25.15781","6502300","八里區"
"249002","305-UY","2018/11/29 19:59:50","新北市八里區頂寮二街3號","121.450925","25.1238716666667","6502300","八里區"
"249003","593-UM","2018/11/29 19:59:36","新北市八里區訊塘路2號","121.398513333333","25.144595","6502300","八里區"
"248014","025-BX","2018/11/29 19:59:38","新北市五股區五福路14巷29號","121.435385","25.088975","6501500","五股區"
"248016","026-BX","2018/11/29 19:59:47","新北市五股區成泰路三段577巷80弄72號","121.44892","25.1047366666667","6501500","五股區"
"248008","095-VK","2018/11/29 19:59:45","新北市五股區四維路30巷31號","121.46863","25.0715016666667","6501500","五股區"
"248020","225-UY","2018/11/29 19:59:36","新北市五股區凌雲路三段1號","121.433041666667","25.10472","6501500","五股區"
"248012","655-BX","2018/11/29 19:59:47","新北市五股區民義路一段117號","121.433385","25.0869383333333","6501500","五股區"
"248004","677-BX","2018/11/29 19:59:43","新北市五股區成泰路一段10-1號","121.434633333333","25.0672266666667","6501500","五股區"
"248002","678-BX","2018/11/29 19:59:40","新北市五股區成泰路三段487號","121.450678333333","25.099195","6501500","五股區"
"248010","682-TV","2018/11/29 19:59:48","新北市五股區成泰路一段26-1號","121.434783333333","25.0677383333333","6501500","五股區"
"234023","9380-KE","2018/11/29 19:59:37","新北市永和區中正路702巷18號","121.51644","25.01052","6500400","永和區"
"234077","969-R7","2018/11/29 19:59:37","新北市永和區民有街28號","121.51683","24.9963383333333","6500400","永和區"
"234074","AAC-211","2018/11/29 19:59:47","新北市永和區豫溪街191巷1弄2號","121.523231666667","25.0103483333333","6500400","永和區"
"234067","AAC-212","2018/11/29 19:59:44","新北市永和區中山路一段242號","121.507821666667","25.007775","6500400","永和區"
"234003","AAC-295","2018/11/29 19:59:41","新北市永和區中正路708號","121.516098333333","25.0099316666667","6500400","永和區"
"243013","AAD-798","2018/11/29 19:59:36","新北市泰山區應化街7號","121.423888333333","25.0437","6501600","泰山區"
"243009","297-R6","2018/11/29 19:59:50","新北市泰山區楓江路16巷27號","121.434118333333","25.0614133333333","6501600","泰山區"
"243016","KEA-2801","2018/11/29 19:59:49","新北市泰山區中山路二段768號","121.424008333333","25.034175","6501600","泰山區"
"243015","421-VK","2018/11/29 19:59:53","新北市泰山區明志路二段71號","121.428978333333","25.0524216666667","6501600","泰山區"
"243011","KEA-2215","2018/11/29 19:59:50","新北市泰山區工專路82巷1號","121.422443333333","25.0405483333333","6501600","泰山區"
"243010","KEA-2216","2018/11/29 19:59:42","新北市泰山區中華街14巷1號","121.427681666667","25.052345","6501600","泰山區"
"243012","646-TV","2018/11/29 19:59:41","新北市泰山區福興三街193號","121.433496666667","25.0572316666667","6501600","泰山區"
"243014","680-BX","2018/11/29 19:59:35","新北市泰山區明志路一段177號","121.433146666667","25.0621866666667","6501600","泰山區"
"222003","436-BY","2018/11/29 19:59:36","新北市深坑區埔新街14號","121.620755","25.0038633333333","6501800","深坑區"
"222002","659-BX","2018/11/29 19:59:49","新北市深坑區北深路二段81巷8弄3號","121.61829","25.0029983333333","6501800","深坑區"
"231041","002-UM","2018/11/29 19:59:40","新北市新店區自由街2-1號","121.535725","24.9755866666667","6500600","新店區"
"231059","046-UY","2018/11/29 19:59:43","新北市新店區安康路二段30號","121.515743333333","24.9637683333333","6500600","新店區"
"231040","047-UY","2018/11/29 19:59:54","新北市新店區中正路60號","121.544348333333","24.970175","6500600","新店區"
"231044","106-UY","2018/11/29 19:59:44","新北市新店區復興路36號","121.538996666667","24.986795","6500600","新店區"
"231052","108-UY","2018/11/29 19:59:46","新北市新店區新烏路三段寶島巷2弄1號","121.552055","24.8986933333333","6500600","新店區"
"231047","187-VK","2018/11/29 19:59:48","新北市新店區中興路二段236巷5號","121.547903333333","24.97593","6500600","新店區"
"231054","KEA-2219","2018/11/29 19:59:47","新北市新店區光明街135號","121.53948","24.9619716666667","6500600","新店區"
"231057","256-BX","2018/11/29 19:59:42","新北市新店區花園二路一段11號","121.555468333333","24.9325166666667","6500600","新店區"
"231042","268-BY","2018/11/29 19:59:50","新北市新店區中興路一段285-1號","121.54547","24.968585","6500600","新店區"
"231050","AAD-862","2018/11/29 19:59:50","新北市新店區北宜路二段7號","121.547771666667","24.9519733333333","6500600","新店區"
"231058","3713-VJ","2018/11/29 19:59:37","新北市新店區薏仁坑路自強巷6號","121.497115","24.9588183333333","6500600","新店區"
"231066","4716-K9","2018/11/29 19:59:46","新北市新店區薏仁坑路8-2號","121.499311666667","24.9589366666667","6500600","新店區"
"231056","4715-K9","2018/11/29 19:59:43","新北市新店區北新路二段102號","121.542941666667","24.9737933333333","6500600","新店區"
"231067","4772-VM","2018/11/29 19:59:41","新北市新店區秀山路11巷12弄2號","121.531651666667","24.9594683333333","6500600","新店區"
"231065","512-UM","2018/11/29 19:59:36","新北市新店區安祥路106巷128號","121.47334","24.9585116666667","6500600","新店區"
"231049","513-UM","2018/11/29 19:59:49","新北市新店區明德路42號","121.541391666667","24.97814","6500600","新店區"
"231063","616-UM","2018/11/29 19:59:40","新北市新店區車子路11號","121.503028333333","24.9520116666667","6500600","新店區"
"231045","617-UM","2018/11/29 19:59:38","新北市新店區北宜路二段148號","121.557606666667","24.9539216666667","6500600","新店區"
"231061","619-UM","2018/11/29 19:59:37","新北市新店區安民街305號","121.517573333333","24.9738066666667","6500600","新店區"
"231068","718-UY","2018/11/29 19:59:40","新北市新店區安一路一段1-1號","121.519378333333","24.9611616666667","6500600","新店區"
"231064","719-UM","2018/11/29 19:59:35","新北市新店區安民街33號","121.515808333333","24.9653366666667","6500600","新店區"
"231051","719-UY","2018/11/29 19:59:38","新北市新店區中央二街12號","121.528996666667","24.9731683333333","6500600","新店區"
"231062","720-UM","2018/11/29 19:59:33","新北市新店區永業路111號","121.528543333333","24.9482966666667","6500600","新店區"
"231060","897-TW","2018/11/29 19:59:43","新北市新店區安康路二段393號","121.494376666667","24.9541866666667","6500600","新店區"
"231043","899-TW","2018/11/29 19:59:35","新北市新店區中正路263-3號","121.538426666667","24.9738433333333","6500600","新店區"
"231055","AKT-0513","2018/11/29 19:59:37","新北市新店區中華路83巷47號","121.538591666667","24.9676633333333","6500600","新店區"
"241011","013-R5","2018/11/29 19:59:33","新北市三重區三和路二段119號","121.498908333333","25.069065","6500200","三重區"
"241028","022-UY","2018/11/29 19:59:46","新北市三重區中正南路47號","121.493973333333","25.059605","6500200","三重區"
"241008","059-VK","2018/11/29 19:59:46","新北市三重區永福街197巷39號","121.478116666667","25.0744916666667","6500200","三重區"
"241022","060-VK","2018/11/29 19:59:39","新北市三重區新北大道一段11號","121.488601666667","25.0606016666667","6500200","三重區"
"241031","061-VK","2018/11/29 19:59:41","新北市三重區重新路四段144巷7號","121.48695","25.0555066666667","6500200","三重區"
"241015","062-VK","2018/11/29 19:59:53","新北市三重區三和路二段35-1號","121.500893333333","25.067235","6500200","三重區"
"241017","063-VK","2018/11/29 19:59:46","新北市三重區自強路一段310號","121.491275","25.0684633333333","6500200","三重區"
"241024","065-VK","2018/11/29 19:59:34","新北市三重區力行路二段4號","121.481625","25.0719","6500200","三重區"
"241026","066-VK","2018/11/29 19:59:45","新北市三重區中央南路10號","121.501486666667","25.062915","6500200","三重區"
"241003","091-VK","2018/11/29 19:59:45","新北市三重區仁愛街451號","121.490136666667","25.0820083333333","6500200","三重區"
"251014","742-BX","2018/11/29 19:59:51","新北市淡水區石頭厝1號","121.458728333333","25.235515","6501000","淡水區"
"241005","262-UM","2018/11/29 19:59:36","新北市三重區溪尾街325巷32號","121.488613333333","25.083515","6500200","三重區"
"241016","265-UM","2018/11/29 19:59:49","新北市三重區正義北路32-1號","121.497423333333","25.0633683333333","6500200","三重區"
"241009","267-UM","2018/11/29 19:59:33","新北市三重區三和路四段388-2號","121.48204","25.0791983333333","6500200","三重區"
"241018","268-UM","2018/11/29 19:59:35","新北市三重區正義北路244巷53號","121.494353333333","25.067805","6500200","三重區"
"241032","269-UM","2018/11/29 19:59:51","新北市三重區朝陽街4巷1號","121.483666666667","25.05636","6500200","三重區"
"241013","270-UM","2018/11/29 19:59:40","新北市三重區三和路三段125巷40號","121.493921666667","25.0738083333333","6500200","三重區"
"241025","271-UM","2018/11/29 19:59:42","新北市三重區頂崁街210巷23弄1號","121.475826666667","25.06814","6500200","三重區"
"241007","398-BY","2018/11/29 19:59:55","新北市三重區溪尾街117號","121.489673333333","25.078875","6500200","三重區"
"241035","462-BY","2018/11/29 19:59:32","新北市三重區大榮街9號","121.498243333333","25.06308","6500200","三重區"
"241004","475-VK","2018/11/29 19:59:38","新北市三重區五華街108-2號","121.492518333333","25.0827483333333","6500200","三重區"
"241030","480-VK","2018/11/29 19:59:52","新北市三重區成功路171號","121.486213333333","25.0524916666667","6500200","三重區"
"241014","543-UM","2018/11/29 19:59:50","新北市三重區長樂街1號","121.499388333333","25.069035","6500200","三重區"
"241023","545-UM","2018/11/29 19:59:48","新北市三重區頂崁街166號","121.477561666667","25.0658766666667","6500200","三重區"
"241001","547-UM","2018/11/29 19:59:50","新北市三重區仁愛街283巷42號","121.494561666667","25.0800883333333","6500200","三重區"
"241033","557-UM","2018/11/29 19:58:50","新北市三重區中興北街95號","121.469565","25.0483583333333","6500200","三重區"
"241019","KEA-2593","2018/11/29 19:59:44","新北市三重區自強路二段20-1號","121.489651666667","25.0692483333333","6500200","三重區"
"241020","743-BX","2018/11/29 19:43:56","新北市三重區後竹圍街29號","121.490923333333","25.073575","6500200","三重區"
"241006","887-TS","2018/11/29 19:59:49","新北市三重區力行路二段33巷1號","121.482491666667","25.073655","6500200","三重區"
"241029","942-UM","2018/11/29 19:59:34","新北市三重區重新路三段204號","121.490106666667","25.0585733333333","6500200","三重區"
"235066","003-UY","2018/11/29 19:59:38","新北市中和區中山路二段47號","121.504368333333","25.0049083333333","6500300","中和區"
"235056","096-UM","2018/11/29 19:59:48","新北市中和區中山路三段172號","121.472881666667","25.0065983333333","6500300","中和區"
"235039","097-UM","2018/11/29 19:59:50","新北市中和區景平路278巷16弄24號","121.514425","24.9937216666667","6500300","中和區"
"235065","098-UM","2018/11/29 19:59:51","新北市中和區永和路39巷2號","121.498063333333","25.0050366666667","6500300","中和區"
"235040","150-BY","2018/11/29 19:59:15","新北市中和區景安路79巷37弄28號","121.507885","24.9964783333333","6500300","中和區"
"235055","183-VK","2018/11/29 19:59:19","新北市中和區中山路三段218號","121.471238333333","25.0065516666667","6500300","中和區"
"235049","186-VK","2018/11/29 19:59:46","新北市中和區南華路13號","121.50234","24.99566","6500300","中和區"
"235067","255-BX","2018/11/29 19:59:34","新北市中和區員山路148巷23弄19號","121.482141666667","24.99805","6500300","中和區"
"235044","293-VK","2018/11/29 19:59:36","新北市中和區復興路75號","121.503543333333","24.9902133333333","6500300","中和區"
"247012","KEA-2869","2018/11/29 19:59:43","新北市蘆洲區民族路157號","121.479476666667","25.0881016666667","6501400","蘆洲區"
"235050","4979-A6","2018/11/29 19:59:49","新北市中和區景平路241巷64弄14號","121.507418333333","24.99244","6500300","中和區"
"235069","4980-A6","2018/11/29 19:59:44","新北市中和區圓通路61號","121.50046","24.9973616666667","6500300","中和區"
"235070","558-UM","2018/11/29 19:59:45","新北市中和區中正路250號","121.495716666667","24.9939766666667","6500300","中和區"
"235054","640-BX","2018/11/29 19:59:41","新北市中和區中山路三段118號","121.475753333333","25.005955","6500300","中和區"
"235046","733-UM","2018/11/29 19:59:50","新北市中和區興南路一段93巷58弄3號","121.510603333333","24.985835","6500300","中和區"
"235041","802-TS","2018/11/29 19:59:37","新北市中和區安平路147號","121.512118333333","24.9979866666667","6500300","中和區"
"235052","805-TS","2018/11/29 19:59:52","新北市中和區華新街192巷40號","121.506198333333","24.983695","6500300","中和區"
"235048","896-TW","2018/11/29 19:59:42","新北市中和區景新街553號","121.515183333333","24.986585","6500300","中和區"
"235053","900-TW","2018/11/29 19:59:51","新北市中和區莒光路163號","121.47277","25.000235","6500300","中和區"
"235051","157-BY","2018/11/29 19:59:52","新北市中和區景安路198號","121.504251666667","24.9913733333333","6500300","中和區"
"235037","AAC-213","2018/11/29 19:59:39","新北市中和區自立路16-1號","121.52211","24.99372","6500300","中和區"
"235059","AAC-215","2018/11/29 19:59:48","新北市中和區圓通路367巷4號","121.491358333333","24.9893483333333","6500300","中和區"
"220068","013-TV","2018/11/29 19:59:43","新北市板橋區光復街172巷8號","121.485491666667","25.0193083333333","6500100","板橋區"
"220065","072-UY","2018/11/29 19:59:47","新北市板橋區民族路69巷8-1號","121.465723333333","25.00943","6500100","板橋區"
"220106","075-UY","2018/11/29 19:59:40","新北市板橋區民治街96巷24號","121.478615","25.03228","6500100","板橋區"
"220069","AAD-861","2018/11/29 19:59:42","新北市板橋區大明街25巷4弄2號","121.457973333333","25.0020783333333","6500100","板橋區"
"247002","893-R6","2018/11/29 19:59:51","新北市蘆洲區長安街272號","121.457333333333","25.086935","6501400","蘆洲區"
"247016","546-UM","2018/11/29 19:59:52","新北市蘆洲區光華路29號","121.46919","25.0831366666667","6501400","蘆洲區"
"247024","500-BY","2018/11/29 19:59:40","新北市蘆洲區光榮路120巷12號","121.46559","25.0883383333333","6501400","蘆洲區"
"247006","337-TH","2018/11/29 19:59:38","新北市蘆洲區九芎街139巷6號","121.465671666667","25.0791266666667","6501400","蘆洲區"
"247008","336-TH","2018/11/29 19:59:34","新北市蘆洲區信義路117號","121.478543333333","25.0803066666667","6501400","蘆洲區"
"247020","057-VK","2018/11/29 19:59:43","新北市蘆洲區民義街60號","121.472661666667","25.0896333333333","6501400","蘆洲區"
"247014","053-VK","2018/11/29 19:59:44","新北市蘆洲區成功路121號","121.472441666667","25.0821483333333","6501400","蘆洲區"
"247018","007-UY","2018/11/29 19:59:49","新北市蘆洲區民族路221號","121.477808333333","25.089635","6501400","蘆洲區"
"226004","312-R5","2018/11/29 19:59:37","新北市平溪區十分里十分街106號","121.776841666667","25.04289","6502400","平溪區"
"228003","097-TW","2018/11/29 19:59:50","新北市貢寮區仁理村仁和路228號","121.923956666667","25.0536383333333","6502600","貢寮區"
"224010","AGQ-8101","2018/11/29 19:59:45","新北市瑞芳區輕便路280號","121.844106666667","25.10925","6501200","瑞芳區"
"227010","642-TC","2018/11/29 19:59:47","新北市雙溪區新基里新基南街25號","121.866316666667","25.0381066666667","6502500","雙溪區"
"227004","400-TW","2018/11/29 19:59:35","新北市雙溪區雙溪里長安街16號","121.864993333333","25.0346616666667","6502500","雙溪區"
"222001","KEA-2212","2018/11/29 19:59:37","新北市深坑區北深路三段165-1號","121.602125","25.003445","6501800","深坑區"
"208002","KEA-2872","2018/11/29 19:59:37","新北市金山區環金路19號","121.6408","25.2176083333333","6502700","金山區"
"208003","665-BX","2018/11/29 19:59:49","新北市金山區永興里濆水路2號","121.62445","25.2706366666667","6502700","金山區"
"208001","761-BX","2018/11/29 19:59:52","新北市金山區南勢41-1號","121.6292","25.2199866666667","6502700","金山區"
"251009","008-UM","2018/11/29 19:59:49","新北市淡水區英專路28巷2弄2號","121.445806666667","25.1699383333333","6501000","淡水區"
"251005","010-UM","2018/11/29 19:59:39","新北市淡水區學府路136巷29號","121.451453333333","25.1727783333333","6501000","淡水區"
"251001","011-UM","2018/11/29 19:59:40","新北市淡水區淡金路一段166-5號","121.453975","25.1800783333333","6501000","淡水區"
"251013","KEA-2871","2018/11/29 19:59:49","新北市淡水區奎柔山路63號","121.451728333333","25.2061883333333","6501000","淡水區"
"251016","179-VK","2018/11/29 19:59:40","新北市淡水區番子田16-13號","121.453735","25.2318733333333","6501000","淡水區"
"251008","181-VK","2018/11/29 19:59:39","新北市淡水區淡海路70號","121.42312","25.1808866666667","6501000","淡水區"
"251015","182-VK","2018/11/29 19:59:35","新北市淡水區埤島80-7號","121.44907","25.18921","6501000","淡水區"
"251010","413-VK","2018/11/29 19:59:39","新北市淡水區崁頂145號","121.430561666667","25.206045","6501000","淡水區"
"251012","441-VK","2018/11/29 19:59:40","新北市淡水區下圭柔山110-10號","121.438856666667","25.2116233333333","6501000","淡水區"
"251011","650-BX","2018/11/29 19:59:43","新北市淡水區崁頂55-3號","121.442183333333","25.196655","6501000","淡水區"
"251003","673-BX","2018/11/29 19:59:46","新北市淡水區中山北路二段189巷15弄29號","121.443425","25.18418","6501000","淡水區"
"207003","550-UM","2018/11/29 19:59:36","新北市萬里區磺潭里公館崙5號","121.641903333333","25.214245","6502800","萬里區"
"207004","225-TW","2018/11/29 19:59:35","新北市萬里區北基里忠二街35號","121.68564","25.1757433333333","6502800","萬里區"
"252002","178-VK","2018/11/29 19:59:46","新北市三芝區忠孝街116-3號","121.505473333333","25.2576083333333","6502100","三芝區"
"252001","292-VK","2018/11/29 19:59:35","新北市三芝區公正街66號","121.499786666667","25.2574683333333","6502100","三芝區"
"237004","KEA-2597","2018/11/29 19:59:33","新北市三峽區添福6-20號","121.372368333333","24.9051616666667","6500900","三峽區"
"237007","153-BY","2018/11/29 19:59:36","新北市三峽區麻園46號","121.363841666667","24.9212716666667","6500900","三峽區"
"237009","210-TH","2018/11/29 19:59:42","新北市三峽區民族街28巷1號","121.369065","24.9308516666667","6500900","三峽區"
"237012","275-BY","2018/11/29 19:59:46","新北市三峽區中華路115號","121.371231666667","24.9280416666667","6500900","三峽區"
"237008","302-VK","2018/11/29 19:59:41","新北市三峽區中正路一段108巷11號","121.373421666667","24.9301016666667","6500900","三峽區"
"237014","433-BY","2018/11/29 19:59:48","新北市三峽區添福27-5號","121.372883333333","24.9039183333333","6500900","三峽區"
"237006","5529-G3","2018/11/29 19:59:41","新北市三峽區中正路二段168號","121.366038333333","24.9155116666667","6500900","三峽區"
"237016","649-BX","2018/11/29 19:59:31","新北市三峽區橫溪路99巷12號","121.399731666667","24.9361183333333","6500900","三峽區"
"237010","706-TV","2018/11/29 19:59:47","新北市三峽區復興路19號","121.374021666667","24.93625","6500900","三峽區"
"237005","AKY-6261","2018/11/29 19:59:49","新北市三峽區民生街1巷27-1號","121.379678333333","24.9341183333333","6500900","三峽區"
"236070","105-UM","2018/11/29 19:59:48","新北市土城區忠義路95-5號","121.44389","24.9621016666667","6501300","土城區"
"236042","KED-0685","2018/11/29 19:59:49","新北市土城區學府路一段98巷8號","121.455983333333","24.9883316666667","6501300","土城區"
"236078","166-UM","2018/11/29 19:59:40","新北市土城區福安街106號","121.417251666667","24.9639083333333","6501300","土城區"
"236030","253-BX","2018/11/29 19:59:40","新北市土城區中央路一段252號","121.444255","24.9846433333333","6501300","土城區"
"236026","269-VK","2018/11/29 19:59:42","新北市土城區員林街1號","121.442238333333","24.9781833333333","6501300","土城區"
"236014","270-VK","2018/11/29 19:59:52","新北市土城區廣福街128號","121.456331666667","24.9928066666667","6501300","土城區"
"236038","271-VK","2018/11/29 19:59:50","新北市土城區國際路25號","121.46571","24.9796566666667","6501300","土城區"
"236021","752-BX","2018/11/29 19:59:38","新北市土城區延吉街137巷25弄8號","121.471535","24.9849566666667","6501300","土城區"
"236059","912-UM","2018/11/29 19:59:38","新北市土城區中央路一段278號","121.443651666667","24.9829416666667","6501300","土城區"
"236049","913-UM","2018/11/29 19:59:38","新北市土城區金城路三段205-1號","121.470436666667","24.9891833333333","6501300","土城區"
"236063","915-UM","2018/11/29 19:59:49","新北市土城區延和路18巷16號","121.46454","24.9879683333333","6501300","土城區"
"236055","970-R7","2018/11/29 19:59:35","新北市土城區立德路15號","121.461103333333","24.9882533333333","6501300","土城區"
"242036","AAC-296","2018/11/29 19:59:37","新北市新莊區建安街41巷10號","121.428985","25.0252083333333","6500500","新莊區"
"242058","986-R7","2018/11/29 19:59:53","新北市新莊區八德街55號","121.42484","25.0220133333333","6500500","新莊區"
"242056","751-BX","2018/11/29 19:59:38","新北市新莊區中正路347巷15號","121.447338333333","25.034465","6500500","新莊區"
"242025","613-BX","2018/11/29 19:59:09","新北市新莊區五工一路86號","121.461401666667","25.0674383333333","6500500","新莊區"
"242029","612-BX","2018/11/29 19:59:49","新北市新莊區中榮街152巷34號","121.44597","25.0535183333333","6500500","新莊區"
"242044","566-BX","2018/11/29 19:59:51","新北市新莊區中正路746巷37號","121.41101","25.0249883333333","6500500","新莊區"
"242048","497-BY","2018/11/29 19:59:47","新北市新莊區四維路3號","121.423935","25.0250716666667","6500500","新莊區"
"242053","441-UM","2018/11/29 19:59:39","新北市新莊區西盛街397號","121.42785","25.0128483333333","6500500","新莊區"
"242002","440-UM","2018/11/29 19:59:36","新北市新莊區中正路219號","121.450836666667","25.0358083333333","6500500","新莊區"
"242039","415-TV","2018/11/29 19:59:52","新北市新莊區民安路316號","121.4285","25.0219966666667","6500500","新莊區"
"242023","362-BY","2018/11/29 19:59:35","新北市新莊區化成路478號","121.466066666667","25.0515933333333","6500500","新莊區"
"242061","353-BY","2018/11/29 19:59:49","新北市新莊區瓊泰路21號","121.44427","25.028615","6500500","新莊區"
"242011","132-UY","2018/11/29 19:59:50","新北市新莊區中港路531巷116號","121.450026666667","25.051735","6500500","新莊區"
"242034","135-UY","2018/11/29 19:59:44","新北市新莊區建中街70號","121.447555","25.0369616666667","6500500","新莊區"
"242051","172-VK","2018/11/29 19:59:49","新北市新莊區民本街25巷4號","121.428426666667","25.0194533333333","6500500","新莊區"
"242013","173-VK","2018/11/29 19:59:36","新北市新莊區幸福路674號","121.450841666667","25.04938","6500500","新莊區"
"242019","175-VK","2018/11/29 19:59:49","新北市新莊區民樂街65巷10號","121.45737","25.0418516666667","6500500","新莊區"
"242017","346-TH","2018/11/29 19:59:54","新北市新莊區中港路318號","121.452638333333","25.0457416666667","6500500","新莊區"
"242031","348-TH","2018/11/29 19:59:53","新北市新莊區忠孝街29巷34號","121.443671666667","25.0370166666667","6500500","新莊區"
"242004","349-TH","2018/11/29 19:59:52","新北市新莊區頭前路90號","121.46416","25.052495","6500500","新莊區"
"242021","350-TH","2018/11/29 19:59:42","新北市新莊區建中街32巷22號","121.448615","25.0385533333333","6500500","新莊區"
"242015","351-TH","2018/11/29 19:59:45","新北市新莊區泰順街33巷2號","121.446196666667","25.04249","6500500","新莊區"
"238021","KEA-2539","2018/11/29 19:59:44","新北市樹林區佳園路三段101巷62弄10號","121.393553333333","24.9501666666667","6500700","樹林區"
"238017","283-BY","2018/11/29 19:59:44","新北市樹林區保安街一段402號","121.416938333333","24.999175","6500700","樹林區"
"239006","891-R6","2018/11/29 19:59:44","新北市鶯歌區文化路87號","121.357483333333","24.955445","6500800","鶯歌區"
"221008","489-VK","2018/11/29 19:59:46","新北市汐止區忠一街9巷7號","121.620508333333","25.0731833333333","6501100","汐止區"
"221036","130-UY","2018/11/29 19:59:34","新北市汐止區忠孝東路258巷11弄1號","121.663771666667","25.067305","6501100","汐止區"
"221015","131-UY","2018/11/29 19:59:37","新北市汐止區橋東街1號","121.666816666667","25.0763166666667","6501100","汐止區"
"221010","269-BY","2018/11/29 19:59:43","新北市汐止區連峰街225巷20號","121.644251666667","25.0810666666667","6501100","汐止區"
"221012","278-VK","2018/11/29 19:59:50","新北市汐止區大同路三段212號","121.675068333333","25.0734883333333","6501100","汐止區"
"221023","279-VK","2018/11/29 19:59:52","新北市汐止區明峰街185號","121.628335","25.0698066666667","6501100","汐止區"
"221032","280-BY","2018/11/29 19:59:50","新北市汐止區橫科路18巷32弄2號","121.617703333333","25.0499166666667","6501100","汐止區"
"221027","281-BY","2018/11/29 19:59:42","新北市汐止區中正路77號","121.661508333333","25.06946","6501100","汐止區"
"221029","298-VK","2018/11/29 19:59:53","新北市汐止區樟樹一路137巷24號","121.641063333333","25.0659583333333","6501100","汐止區"
"221021","299-VK","2018/11/29 19:59:36","新北市汐止區新台五路一段222號","121.656121666667","25.0632033333333","6501100","汐止區"
"221031","353-TW","2018/11/29 19:59:34","新北市汐止區福德一路188-1號","121.634915","25.065525","6501100","汐止區"
"221002","129-UY","2018/11/29 19:59:32","新北市汐止區工建路504號","121.633185","25.0583483333333","6501100","汐止區"
"221035","622-UM","2018/11/29 19:59:48","新北市汐止區長江街39巷2號","121.655656666667","25.0714783333333","6501100","汐止區"
"221025","623-UM","2018/11/29 19:59:48","新北市汐止區秀峰路109巷22號","121.6608","25.0634183333333","6501100","汐止區"
"221038","646-BX","2018/11/29 19:59:43","新北市汐止區忠孝東路512號","121.666831666667","25.0754916666667","6501100","汐止區"
"221033","647-BX","2018/11/29 19:59:37","新北市汐止區東勢街215巷3弄3號","121.633985","25.042735","6501100","汐止區"
"220079","145-BY","2018/11/29 19:59:41","新北市板橋區南雅西路二段145巷6號","121.451745","25.0118966666667","6500100","板橋區"
"220080","200-UY","2018/11/29 19:59:50","新北市板橋區大觀路二段169巷9號","121.445848333333","25.0000866666667","6500100","板橋區"
"220082","610-BX","2018/11/29 19:59:51","新北市板橋區存德街19號","121.430261666667","24.9917366666667","6500100","板橋區"
"220101","245-BX","2018/11/29 19:59:53","新北市板橋區莒光路180巷14號","121.473485","25.022875","6500100","板橋區"
"224002","257-TC","2018/11/29 19:59:44","新北市瑞芳區員山子路員山巷39-1號","121.816738333333","25.1040633333333","6501200","瑞芳區"
"220056","276-BY","2018/11/29 19:59:53","新北市新莊區新莊路763巷10號","121.442258333333","25.032255","6500100","板橋區"
"220072","277-BY","2018/11/29 19:59:35","新北市板橋區金門街306號","121.428863333333","24.9853716666667","6500100","板橋區"
"220071","283-VK","2018/11/29 19:59:44","新北市板橋區和平路174巷43號","121.465351666667","24.9939","6500100","板橋區"
"220094","285-UM","2018/11/29 19:59:41","新北市板橋區陽明街243號","121.462916666667","25.0245433333333","6500100","板橋區"
"220053","285-VK","2018/11/29 19:59:31","新北市板橋區永豐街38-1號","121.474341666667","25.0175733333333","6500100","板橋區"
"220083","286-VK","2018/11/29 19:59:48","新北市板橋區僑中二街10巷28號","121.445903333333","25.011145","6500100","板橋區"
"220081","287-VK","2018/11/29 19:59:43","新北市板橋區大觀路一段28巷104號","121.450096666667","25.0111533333333","6500100","板橋區"
"220090","288-VK","2018/11/29 19:59:44","新北市板橋區幸福路32巷2弄22號","121.461083333333","25.0216483333333","6500100","板橋區"
"220061","295-UM","2018/11/29 19:59:47","新北市板橋區觀光街3巷1號","121.471875","25.01578","6500100","板橋區"
"220084","296-UM","2018/11/29 19:59:50","新北市板橋區滿平街2巷27號","121.425368333333","24.98927","6500100","板橋區"
"242042","281-VK","2018/11/29 19:59:39","新北市新莊區青山路一段28巷4號","121.410731666667","25.02795","6500500","新莊區"
"220062","305-R5","2018/11/29 19:59:42","新北市板橋區中山路二段617巷1弄2號","121.485333333333","25.0226783333333","6500100","板橋區"
"220092","307-R5","2018/11/29 19:59:44","新北市板橋區四維路259巷89號","121.459968333333","25.0263633333333","6500100","板橋區"
"220098","317-R6","2018/11/29 19:59:34","新北市板橋區漢生西路159號","121.462951666667","25.023575","6500100","板橋區"
"220089","487-VK","2018/11/29 19:59:47","新北市板橋區龍泉街56-1號","121.457123333333","25.026025","6500100","板橋區"
"242007","280-VK","2018/11/29 19:59:34","新北市新莊區福壽街202巷13號","121.458745","25.0538166666667","6500500","新莊區"
"220035","560-BX","2018/11/29 19:59:45","新北市板橋區新生街37號","121.45676","25.021115","6500100","板橋區"
"220103","561-BX","2018/11/29 19:59:41","新北市板橋區自由路15號","121.46548","25.0227233333333","6500100","板橋區"
"220063","609-BX","2018/11/29 19:59:37","新北市板橋區三民路一段89號","121.479441666667","25.0216266666667","6500100","板橋區"
"220091","637-BX","2018/11/29 19:59:50","新北市板橋區民治街117號","121.47836","25.0308966666667","6500100","板橋區"
"220093","689-BX","2018/11/29 19:59:41","新北市板橋區長江路二段245號","121.468965","25.0326883333333","6500100","板橋區"
"220054","741-BX","2018/11/29 19:59:41","新北市板橋區忠孝路201巷94號","121.464728333333","25.0047716666667","6500100","板橋區"
"220102","KEA-2699","2018/11/29 19:59:50","新北市板橋區仁化街42巷25號","121.475691666667","25.0308383333333","6500100","板橋區"
"220064","806-UM","2018/11/29 19:59:52","新北市板橋區中山路一段206巷80號","121.472708333333","25.0131283333333","6500100","板橋區"
"220055","827-TW","2018/11/29 19:59:51","新北市板橋區仁愛路62巷17弄1號","121.460038333333","24.9982","6500100","板橋區"
"220067","830-TW","2018/11/29 19:59:46","新北市板橋區長安街331巷93弄3號","121.472211666667","25.0124916666667","6500100","板橋區"
"220096","831-TW","2018/11/29 19:59:34","新北市板橋區莒光路133巷22號","121.472723333333","25.0244666666667","6500100","板橋區"
"220088","833-TW","2018/11/29 19:59:54","新北市板橋區懷德街189號","121.479798333333","25.0296333333333","6500100","板橋區"
"220074","895-R6","2018/11/29 19:59:49","新北市板橋區縣民大道一段287號","121.460676666667","25.0101066666667","6500100","板橋區"
"220073","985-R7","2018/11/29 19:59:33","新北市板橋區南雅西路二段25號","121.452901666667","25.00948","6500100","板橋區"
"220097","AAC-210","2018/11/29 19:59:44","新北市板橋區光正街45巷22號","121.461715","25.0165483333333","6500100","板橋區"
"220070","AAC-253","2018/11/29 19:59:50","新北市板橋區成都街10號","121.46026","25.0047566666667","6500100","板橋區"
"235068","KEA-2873","2018/11/29 19:59:35","新北市中和區景平路736巷5弄9號","121.497678333333","25.003485","6500300","中和區"
