"lineid","car","time","location","longitude","latitude","cityid","cityname"
"234046","148-BY","2018/11/29 20:09:50","新北市永和區得和路326號","121.523221666667","24.9995466666667","6500400","永和區"
"234007","207-UY","2018/11/29 20:09:50","新北市永和區保順路37巷14號","121.502998333333","25.010385","6500400","永和區"
"234081","298-R6","2018/11/29 20:09:49","新北市永和區國中路35號","121.524586666667","25.0055583333333","6500400","永和區"
"234038","336-UY","2018/11/29 20:09:45","新北市永和區環河東路三段96號","121.528105","25.004065","6500400","永和區"
"234064","337-UY","2018/11/29 20:09:48","新北市永和區秀朗路二段43號","121.52159","25.0023983333333","6500400","永和區"
"234070","552-UM","2018/11/29 20:09:40","新北市永和區福和路183巷1號","121.520005","25.00733","6500400","永和區"
"234017","745-BX","2018/11/29 20:09:46","新北市永和區文化路146號","121.512613333333","25.0152916666667","6500400","永和區"
"234030","746-BX","2018/11/29 20:09:42","新北市永和區民權路1巷34號","121.52196","24.9979533333333","6500400","永和區"
"234054","KEA-2590","2018/11/29 20:09:43","新北市永和區博愛街15號","121.51714","25.01582","6500400","永和區"
"234013","KEA-2591","2018/11/29 20:09:37","新北市永和區永貞路415號","121.507355","25.0093216666667","6500400","永和區"
"234061","AAD-866","2018/11/29 20:09:45","新北市永和區中正路151巷5弄1號","121.516058333333","24.9985","6500400","永和區"
"234086","748-BX","2018/11/29 20:09:41","新北市永和區中正路547號","121.516715","25.0080266666667","6500400","永和區"
"234042","862-TW","2018/11/29 20:09:46","新北市永和區雙和街60號","121.509098333333","25.0034016666667","6500400","永和區"
"234050","863-TW","2018/11/29 20:09:50","新北市永和區新生路160巷1弄20號","121.50601","25.0139333333333","6500400","永和區"
"234011","9373-KE","2018/11/29 20:09:40","新北市永和區仁愛路352巷120號","121.500255","25.0085216666667","6500400","永和區"
"249005","172-UM","2018/11/29 20:09:38","新北市八里區下罟子50-1號","121.383226666667","25.1384766666667","6502300","八里區"
"249004","303-UY","2018/11/29 20:09:42","新北市八里區中山路一段418-5號","121.410993333333","25.1581183333333","6502300","八里區"
"249002","305-UY","2018/11/29 20:09:50","新北市五股區成泰路四段24-4號","121.454131666667","25.1075233333333","6502300","八里區"
"249003","593-UM","2018/11/29 20:09:36","新北市八里區中山路二段540巷3號","121.397121666667","25.1468516666667","6502300","八里區"
"248014","025-BX","2018/11/29 20:09:38","新北市五股區成泰路三段358號","121.451201666667","25.0977916666667","6501500","五股區"
"248016","026-BX","2018/11/29 20:09:47","新北市五股區凌雲路一段158巷44號","121.447093333333","25.1038466666667","6501500","五股區"
"248008","095-VK","2018/11/29 20:09:45","新北市五股區中興路一段1巷12弄17號","121.469315","25.070815","6501500","五股區"
"248020","225-UY","2018/11/29 20:09:43","新北市五股區凌雲路二段10號","121.445835","25.10247","6501500","五股區"
"248012","655-BX","2018/11/29 20:09:47","新北市五股區六合街94號","121.431216666667","25.0910183333333","6501500","五股區"
"248004","677-BX","2018/11/29 20:09:43","新北市五股區成泰路一段220-1號","121.436365","25.0796","6501500","五股區"
"248002","678-BX","2018/11/29 20:09:40","新北市五股區成泰路三段311-2號","121.44783","25.0948766666667","6501500","五股區"
"248010","682-TV","2018/11/29 20:09:50","新北市五股區成泰路一段2-6號","121.434128333333","25.0670883333333","6501500","五股區"
"234023","9380-KE","2018/11/29 20:09:37","新北市永和區中正路654巷10號","121.517235","25.0085566666667","6500400","永和區"
"234077","969-R7","2018/11/29 20:09:37","新北市永和區民光街20巷1號","121.515825","24.9958783333333","6500400","永和區"
"234074","AAC-211","2018/11/29 20:09:47","新北市永和區豫溪街136巷1號","121.521223333333","25.01039","6500400","永和區"
"234067","AAC-212","2018/11/29 20:09:44","新北市永和區保平路214巷3弄2號","121.509295","25.0063783333333","6500400","永和區"
"234003","AAC-295","2018/11/29 20:09:40","新北市永和區中正路624巷2號","121.517125","25.00786","6500400","永和區"
"243013","AAD-798","2018/11/29 20:09:36","新北市泰山區明志路三段74巷14號","121.424346666667","25.0417683333333","6501600","泰山區"
"243009","297-R6","2018/11/29 20:09:50","新北市泰山區泰林路二段116巷6弄2號","121.435313333333","25.0595733333333","6501600","泰山區"
"243016","KEA-2801","2018/11/29 20:09:49","新北市泰山區明志路三段403號","121.421268333333","25.0341466666667","6501600","泰山區"
"243015","421-VK","2018/11/29 20:09:33","新北市泰山區明志路一段268號","121.432105","25.0602666666667","6501600","泰山區"
"243011","KEA-2215","2018/11/29 20:09:49","新北市新莊區丹鳳街36號","121.421601666667","25.0295766666667","6501600","泰山區"
"243010","KEA-2216","2018/11/29 20:09:42","新北市泰山區明志路二段214巷18弄39號","121.426593333333","25.0502316666667","6501600","泰山區"
"243012","646-TV","2018/11/29 20:09:41","新北市泰山區楓江路144巷2號","121.440693333333","25.0655533333333","6501600","泰山區"
"243014","680-BX","2018/11/29 20:09:35","新北市泰山區泰林路二段216號","121.432868333333","25.0618633333333","6501600","泰山區"
"222003","436-BY","2018/11/29 20:09:36","新北市深坑區埔新街67號","121.620065","25.0022966666667","6501800","深坑區"
"222002","659-BX","2018/11/29 20:09:49","新北市深坑區北深路三段158巷28號","121.601911666667","25.0042083333333","6501800","深坑區"
"231041","002-UM","2018/11/29 20:09:40","新北市新店區中正路460號","121.534015","24.979385","6500600","新店區"
"231059","046-UY","2018/11/29 20:09:43","新北市新店區安成街26-1號","121.51018","24.9609116666667","6500600","新店區"
"231040","047-UY","2018/11/29 20:09:45","新北市新店區中正路108號","121.543093333333","24.97069","6500600","新店區"
"231044","106-UY","2018/11/29 20:09:44","新北市新店區寶慶街66號","121.541978333333","24.9867966666667","6500600","新店區"
"231052","108-UY","2018/11/29 20:09:46","新北市新店區新烏路三段286號","121.549791666667","24.8985066666667","6500600","新店區"
"231047","187-VK","2018/11/29 20:09:48","新北市新店區寶橋路59-1號","121.545108333333","24.975095","6500600","新店區"
"231054","KEA-2219","2018/11/29 20:09:47","新北市新店區檳榔路7號","121.541026666667","24.964875","6500600","新店區"
"231057","256-BX","2018/11/29 20:09:42","新北市新店區百齡一路12號","121.553138333333","24.9324233333333","6500600","新店區"
"231042","268-BY","2018/11/29 20:09:49","新北市新店區中興路二段89號","121.547061666667","24.9714116666667","6500600","新店區"
"231050","AAD-862","2018/11/29 20:09:50","新北市新店區北新路一段90號","121.541973333333","24.96861","6500600","新店區"
"231066","4716-K9","2018/11/29 20:09:46","新北市新店區薏仁坑路11號","121.498503333333","24.9590533333333","6500600","新店區"
"231056","4715-K9","2018/11/29 20:09:43","新北市新店區中正路275巷27號","121.536921666667","24.9730983333333","6500600","新店區"
"231067","4772-VM","2018/11/29 20:09:41","新北市新店區溪洲路6巷40-1號","121.533648333333","24.9630183333333","6500600","新店區"
"231065","512-UM","2018/11/29 20:09:36","新北市新店區安祥路106巷78號","121.47479","24.9600783333333","6500600","新店區"
"231049","513-UM","2018/11/29 20:09:49","新北市新店區北新路二段139巷10號","121.542208333333","24.9756766666667","6500600","新店區"
"231063","616-UM","2018/11/29 20:09:40","新北市新店區黎明路54巷2號","121.502351666667","24.948295","6500600","新店區"
"231045","617-UM","2018/11/29 20:09:39","新北市新店區北宜路一段123-1號","121.540493333333","24.9534416666667","6500600","新店區"
"231061","619-UM","2018/11/29 20:09:37","新北市新店區安民街310號","121.51758","24.974055","6500600","新店區"
"231068","718-UY","2018/11/29 20:09:40","新北市新店區中興路二段192號","121.548293333333","24.973375","6500600","新店區"
"231064","719-UM","2018/11/29 19:59:35","新北市新店區安民街33號","121.515808333333","24.9653366666667","6500600","新店區"
"231051","719-UY","2018/11/29 20:09:38","新北市新店區中央六街5號","121.530303333333","24.9744916666667","6500600","新店區"
"231062","720-UM","2018/11/29 20:09:52","新北市新店區華城路12號","121.52891","24.9578066666667","6500600","新店區"
"231060","897-TW","2018/11/29 20:09:43","新北市新店區安康路三段421-1號","121.483106666667","24.949715","6500600","新店區"
"231043","899-TW","2018/11/29 20:09:35","新北市新店區民族路168號","121.537275","24.9765066666667","6500600","新店區"
"231055","AKT-0513","2018/11/29 20:09:37","新北市新店區北新路一段297巷21號","121.540703333333","24.9679483333333","6500600","新店區"
"241011","013-R5","2018/11/29 20:09:53","新北市三重區秀江街232-1號","121.496571666667","25.0715","6500200","三重區"
"241028","022-UY","2018/11/29 20:09:46","新北市三重區仁化街109號","121.494496666667","25.057905","6500200","三重區"
"241008","059-VK","2018/11/29 20:09:46","新北市三重區永福街197巷4號","121.479188333333","25.0745683333333","6500200","三重區"
"241022","060-VK","2018/11/29 20:09:52","新北市三重區重陽路二段17號","121.487001666667","25.062485","6500200","三重區"
"241031","061-VK","2018/11/29 20:09:41","新北市三重區過圳街9-1號","121.488746666667","25.0601866666667","6500200","三重區"
"241015","062-VK","2018/11/29 20:09:53","新北市三重區福德北路24號","121.502306666667","25.06481","6500200","三重區"
"241017","063-VK","2018/11/29 20:09:46","新北市三重區大智街108-5號","121.492891666667","25.066645","6500200","三重區"
"241024","065-VK","2018/11/29 20:09:35","新北市三重區中正北路165巷33號","121.479591666667","25.070335","6500200","三重區"
"241026","066-VK","2018/11/29 20:09:45","新北市三重區福德南路65巷2號","121.502413333333","25.0604983333333","6500200","三重區"
"241002","090-VK","2018/11/29 20:09:36","新北市三重區五華街35巷60號","121.49576","25.0817516666667","6500200","三重區"
"241003","091-VK","2018/11/29 20:09:45","新北市三重區富華街18號","121.489586666667","25.08245","6500200","三重區"
"251014","742-BX","2018/11/29 20:09:51","新北市淡水區石頭厝1號","121.458728333333","25.235515","6501000","淡水區"
"241005","262-UM","2018/11/29 20:09:36","新北市三重區溪尾街328號","121.488118333333","25.0849716666667","6500200","三重區"
"241016","265-UM","2018/11/29 20:09:49","新北市三重區大同北路65號","121.495031666667","25.0635516666667","6500200","三重區"
"241009","267-UM","2018/11/29 20:09:33","新北市三重區三和路四段382巷153號","121.47913","25.0781233333333","6500200","三重區"
"241018","268-UM","2018/11/29 20:09:35","新北市三重區自強路一段163號","121.493165","25.06723","6500200","三重區"
"241032","269-UM","2018/11/29 20:09:51","新北市三重區捷運路65號","121.483408333333","25.0556433333333","6500200","三重區"
"241013","270-UM","2018/11/29 20:09:40","新北市三重區三和路三段151巷46號","121.49355","25.0742833333333","6500200","三重區"
"241025","271-UM","2018/11/29 20:09:42","新北市三重區中正北路237號","121.475691666667","25.070745","6500200","三重區"
"241007","398-BY","2018/11/29 20:09:46","新北市三重區三和路四段111-13號","121.486846666667","25.0776883333333","6500200","三重區"
"241035","462-BY","2018/11/29 20:09:52","新北市三重區文化北路25號","121.499593333333","25.0637683333333","6500200","三重區"
"241004","475-VK","2018/11/29 20:09:38","新北市三重區自強路四段112號","121.491631666667","25.08013","6500200","三重區"
"241030","480-VK","2018/11/29 20:09:52","新北市三重區成功路145巷23號","121.487541666667","25.05304","6500200","三重區"
"241014","543-UM","2018/11/29 20:09:50","新北市三重區長壽街120巷22號","121.501838333333","25.0695533333333","6500200","三重區"
"241023","545-UM","2018/11/29 20:09:48","新北市三重區頂崁街220巷4號","121.476823333333","25.0681183333333","6500200","三重區"
"241001","547-UM","2018/11/29 20:09:50","新北市三重區溪尾街26號","121.490953333333","25.0763833333333","6500200","三重區"
"241033","557-UM","2018/11/29 19:58:50","新北市三重區中興北街95號","121.469565","25.0483583333333","6500200","三重區"
"241019","KEA-2593","2018/11/29 20:09:44","新北市三重區自強路二段47巷5號","121.489576666667","25.069785","6500200","三重區"
"241020","743-BX","2018/11/29 19:43:56","新北市三重區後竹圍街29號","121.490923333333","25.073575","6500200","三重區"
"241006","887-TS","2018/11/29 20:09:49","新北市三重區力行路二段71-2號","121.482295","25.0754","6500200","三重區"
"241029","942-UM","2018/11/29 20:09:34","新北市三重區光明路32巷28號","121.492003333333","25.0587533333333","6500200","三重區"
"235066","003-UY","2018/11/29 20:09:38","新北市中和區保平路231號","121.50807","25.0042","6500300","中和區"
"235039","097-UM","2018/11/29 20:09:50","新北市中和區大勇街48號","121.517535","24.9940516666667","6500300","中和區"
"235065","098-UM","2018/11/29 20:09:51","新北市中和區永和路90巷2弄2號","121.497398333333","25.005715","6500300","中和區"
"235040","150-BY","2018/11/29 20:09:15","新北市中和區保健路10巷21弄31號","121.508513333333","24.9977916666667","6500300","中和區"
"247012","KEA-2869","2018/11/29 20:09:43","新北市蘆洲區民族路252-1號","121.479125","25.0887733333333","6501400","蘆洲區"
"235050","4979-A6","2018/11/29 20:09:49","新北市中和區安樂路66號","121.512148333333","24.9933166666667","6500300","中和區"
"235069","4980-A6","2018/11/29 20:09:44","新北市中和區景新街34巷10號","121.503266666667","24.9990766666667","6500300","中和區"
"235070","558-UM","2018/11/29 20:09:45","新北市中和區中山路二段332巷6號","121.494503333333","25.0031183333333","6500300","中和區"
"235054","640-BX","2018/11/29 20:09:41","新北市三重區後埔街61-1號","121.479646666667","25.047935","6500300","中和區"
"235046","733-UM","2018/11/29 20:09:50","新北市中和區忠孝街79號","121.512191666667","24.98512","6500300","中和區"
"235051","157-BY","2018/11/29 20:09:52","新北市中和區南山路399巷10號","121.507111666667","24.9904816666667","6500300","中和區"
"235037","AAC-213","2018/11/29 20:09:39","新北市中和區自強路60號","121.519996666667","24.994445","6500300","中和區"
"235059","AAC-215","2018/11/29 20:09:48","新北市中和區圓通路335巷13號","121.493403333333","24.9895116666667","6500300","中和區"
"220068","013-TV","2018/11/29 20:09:42","新北市板橋區中山路二段302號","121.479841666667","25.018955","6500100","板橋區"
"247002","893-R6","2018/11/29 20:09:32","新北市蘆洲區永康街2巷2號","121.45943","25.0861166666667","6501400","蘆洲區"
"247024","500-BY","2018/11/29 20:09:40","新北市蘆洲區光榮路66巷17號","121.463381666667","25.0881366666667","6501400","蘆洲區"
"247006","337-TH","2018/11/29 20:09:38","新北市蘆洲區中山二路301號","121.469083333333","25.0784366666667","6501400","蘆洲區"
"247020","057-VK","2018/11/29 20:09:43","新北市蘆洲區民權路106巷5弄22號","121.47424","25.0892066666667","6501400","蘆洲區"
"247010","056-VK","2018/11/29 20:09:44","新北市蘆洲區信義路154號","121.479393333333","25.083395","6501400","蘆洲區"
"247004","002-UY","2018/11/29 20:09:48","新北市蘆洲區長安街285巷28號","121.45681","25.0839366666667","6501400","蘆洲區"
"247022","001-UY","2018/11/29 20:09:36","新北市蘆洲區三民路171巷5號","121.470826666667","25.0870333333333","6501400","蘆洲區"
"226004","312-R5","2018/11/29 20:09:37","新北市平溪區十分里十分街312號","121.775105","25.0435166666667","6502400","平溪區"
"224010","AGQ-8101","2018/11/29 20:06:56","新北市瑞芳區崙頂路1-6號","121.847148333333","25.1046866666667","6501200","瑞芳區"
"222001","KEA-2212","2018/11/29 20:09:37","新北市深坑區北深路三段210號","121.601223333333","25.0037833333333","6501800","深坑區"
"251009","008-UM","2018/11/29 20:09:49","新北市淡水區英專路41號","121.44544","25.1703733333333","6501000","淡水區"
"251005","010-UM","2018/11/29 20:09:38","新北市淡水區學府路100巷7號","121.450421666667","25.17159","6501000","淡水區"
"251001","011-UM","2018/11/29 20:09:40","新北市淡水區新市二路四段265號","121.445726666667","25.19249","6501000","淡水區"
"251013","KEA-2871","2018/11/29 20:09:50","新北市淡水區奎柔山路307號","121.460726666667","25.204765","6501000","淡水區"
"251016","179-VK","2018/11/29 20:09:41","新北市淡水區番子田18-4號","121.456568333333","25.2295366666667","6501000","淡水區"
"251008","181-VK","2018/11/29 20:09:41","新北市淡水區淡海路72巷30弄5號","121.42462","25.182545","6501000","淡水區"
"251015","182-VK","2018/11/29 20:09:50","新北市淡水區埤島3-23號","121.447658333333","25.189705","6501000","淡水區"
"251010","413-VK","2018/11/29 20:09:39","新北市淡水區中正路二段305巷32號","121.423576666667","25.1964116666667","6501000","淡水區"
"251012","441-VK","2018/11/29 20:09:40","新北市淡水區淡金路三段266號","121.44893","25.2067466666667","6501000","淡水區"
"251003","673-BX","2018/11/29 20:09:46","新北市淡水區新市一路二段255號","121.443716666667","25.183255","6501000","淡水區"
"207003","550-UM","2018/11/29 20:09:50","新北市萬里區大鵬里萬里加投166號","121.643443333333","25.2155433333333","6502800","萬里區"
"207004","225-TW","2018/11/29 20:09:35","新北市萬里區北基里愛三街11號","121.681758333333","25.1766266666667","6502800","萬里區"
"252002","178-VK","2018/11/29 20:09:46","新北市三芝區中正路一段72號","121.503931666667","25.2576816666667","6502100","三芝區"
"252001","292-VK","2018/11/29 20:09:35","新北市三芝區公正街11號","121.49967","25.2577416666667","6502100","三芝區"
"237008","302-VK","2018/11/29 20:09:41","新北市三峽區中華路76-3號","121.371448333333","24.9290566666667","6500900","三峽區"
"237014","433-BY","2018/11/29 20:09:48","新北市三峽區介壽路一段9-3號","121.375338333333","24.9339216666667","6500900","三峽區"
"237006","5529-G3","2018/11/29 20:09:40","新北市三峽區嘉添109-11號","121.369326666667","24.9096316666667","6500900","三峽區"
"237016","649-BX","2018/11/29 20:09:51","新北市三峽區介壽路二段138巷1弄13-1號","121.396265","24.9338816666667","6500900","三峽區"
"237005","AKY-6261","2018/11/29 20:09:49","新北市三峽區三樹路98巷121號","121.382736666667","24.9383283333333","6500900","三峽區"
"236070","105-UM","2018/11/29 20:09:48","新北市土城區中央路三段153號","121.43207","24.96545","6501300","土城區"
"236042","KED-0685","2018/11/29 20:09:48","新北市土城區學成路12號","121.453241666667","24.9866233333333","6501300","土城區"
"236078","166-UM","2018/11/29 20:09:40","新北市土城區中山路47號","121.420676666667","24.9628783333333","6501300","土城區"
"236030","253-BX","2018/11/29 20:09:40","新北市土城區中央路一段141號","121.446766666667","24.987955","6501300","土城區"
"236026","269-VK","2018/11/29 20:09:42","新北市土城區中央路一段216號","121.444923333333","24.9853566666667","6501300","土城區"
"236014","270-VK","2018/11/29 20:09:32","新北市土城區德興街135號","121.455055","24.991665","6501300","土城區"
"236038","271-VK","2018/11/29 20:09:50","新北市土城區延吉街312號","121.463913333333","24.9840166666667","6501300","土城區"
"236021","752-BX","2018/11/29 20:09:52","新北市土城區延吉街23巷17號","121.473981666667","24.9873983333333","6501300","土城區"
"236059","912-UM","2018/11/29 20:09:38","新北市土城區中央路二段388號","121.439805","24.9711266666667","6501300","土城區"
"236049","913-UM","2018/11/29 20:09:54","新北市土城區裕民路285號","121.456145","24.9817066666667","6501300","土城區"
"236055","970-R7","2018/11/29 20:09:35","新北市土城區中華路一段178號","121.441135","24.9825416666667","6501300","土城區"
"242036","AAC-296","2018/11/29 20:09:37","新北市新莊區後港一路130巷39弄1號","121.430155","25.02606","6500500","新莊區"
"242058","986-R7","2018/11/29 20:09:52","新北市新莊區八德街151號","121.423566666667","25.0196733333333","6500500","新莊區"
"242056","751-BX","2018/11/29 20:09:38","新北市新莊區新莊路649巷15弄1號","121.444941666667","25.0316383333333","6500500","新莊區"
"242027","615-BX","2018/11/29 20:09:43","新北市新莊區幸福路838號","121.444868333333","25.049155","6500500","新莊區"
"242025","613-BX","2018/11/29 20:09:49","新北市新莊區五工三路80號","121.458973333333","25.0650416666667","6500500","新莊區"
"242029","612-BX","2018/11/29 20:09:49","新北市新莊區中原路305號","121.447243333333","25.05449","6500500","新莊區"
"242044","566-BX","2018/11/29 20:09:38","新北市新莊區中正路929巷7弄12號","121.411366666667","25.0204333333333","6500500","新莊區"
"242048","497-BY","2018/11/29 20:09:47","新北市新莊區四維路152巷32號","121.421951666667","25.0224466666667","6500500","新莊區"
"242053","441-UM","2018/11/29 20:09:41","新北市新莊區西盛街431號","121.427163333333","25.012015","6500500","新莊區"
"242002","440-UM","2018/11/29 20:09:49","新北市新莊區中正路55-1號","121.462111666667","25.0398233333333","6500500","新莊區"
"242039","415-TV","2018/11/29 20:09:33","新北市新莊區民安西路124號","121.426718333333","25.0183416666667","6500500","新莊區"
"242009","413-TV","2018/11/29 20:09:48","新北市新莊區昌平街16號","121.454806666667","25.0527333333333","6500500","新莊區"
"242046","400-BY","2018/11/29 20:09:42","新北市新莊區裕民街126號","121.418103333333","25.02243","6500500","新莊區"
"242023","362-BY","2018/11/29 20:09:52","新北市新莊區化成路710號","121.465761666667","25.0567316666667","6500500","新莊區"
"242061","353-BY","2018/11/29 20:09:49","新北市新莊區中環路一段10號","121.442891666667","25.0259466666667","6500500","新莊區"
"242011","132-UY","2018/11/29 20:09:50","新北市新莊區中信街52號","121.449255","25.0508616666667","6500500","新莊區"
"242034","135-UY","2018/11/29 20:09:52","新北市新莊區華興街13號","121.445926666667","25.0355866666667","6500500","新莊區"
"242051","172-VK","2018/11/29 20:09:50","新北市新莊區民安西路172巷19號","121.425153333333","25.0160633333333","6500500","新莊區"
"242013","173-VK","2018/11/29 20:09:36","新北市新莊區幸福路678巷3弄1號","121.450226666667","25.0497783333333","6500500","新莊區"
"242019","175-VK","2018/11/29 20:09:49","新北市新莊區博愛路6巷2號","121.45641","25.043255","6500500","新莊區"
"242017","346-TH","2018/11/29 20:09:54","新北市新莊區中港一街28號","121.451126666667","25.0456283333333","6500500","新莊區"
"242031","348-TH","2018/11/29 20:09:39","新北市新莊區中正路428號","121.440726666667","25.0337066666667","6500500","新莊區"
"242004","349-TH","2018/11/29 20:09:32","新北市新莊區化成路554巷31號","121.467258333333","25.054035","6500500","新莊區"
"242021","350-TH","2018/11/29 20:09:42","新北市新莊區中興街23號","121.449183333333","25.0364483333333","6500500","新莊區"
"242015","351-TH","2018/11/29 20:09:45","新北市新莊區中平路26巷41號","121.446818333333","25.043385","6500500","新莊區"
"238021","KEA-2539","2018/11/29 20:09:44","新北市樹林區八德街682號","121.396196666667","24.9689483333333","6500700","樹林區"
"221008","489-VK","2018/11/29 20:09:46","台北市內湖區康樂街89號","121.618811666667","25.0697333333333","6501100","汐止區"
"221036","130-UY","2018/11/29 20:09:47","新北市汐止區新台五路二段80號","121.662336666667","25.0657983333333","6501100","汐止區"
"221015","131-UY","2018/11/29 20:09:37","新北市汐止區建成路52號","121.663606666667","25.0729066666667","6501100","汐止區"
"221010","269-BY","2018/11/29 20:09:43","新北市汐止區八連路一段207號","121.641276666667","25.0806283333333","6501100","汐止區"
"221012","278-VK","2018/11/29 20:09:50","新北市汐止區汐平路二段43號","121.696251666667","25.0637833333333","6501100","汐止區"
"221023","279-VK","2018/11/29 20:09:47","新北市汐止區明峰街296號","121.625401666667","25.0678933333333","6501100","汐止區"
"221032","280-BY","2018/11/29 20:09:50","新北市汐止區弘道街8巷5弄2號","121.617268333333","25.0478516666667","6501100","汐止區"
"221027","281-BY","2018/11/29 20:09:42","新北市汐止區光明街28號","121.660196666667","25.0685416666667","6501100","汐止區"
"221029","298-VK","2018/11/29 20:09:53","新北市汐止區樟樹一路119巷10弄1號","121.64124","25.064525","6501100","汐止區"
"221021","299-VK","2018/11/29 20:09:34","新北市汐止區連興街146號","121.65409","25.0614166666667","6501100","汐止區"
"221031","353-TW","2018/11/29 20:09:54","新北市汐止區原興路75號","121.631908333333","25.066335","6501100","汐止區"
"221002","129-UY","2018/11/29 20:09:52","新北市汐止區福德一路221號","121.634451666667","25.0650166666667","6501100","汐止區"
"221035","622-UM","2018/11/29 20:09:45","新北市汐止區長江街67巷2弄2號","121.656795","25.072215","6501100","汐止區"
"221025","623-UM","2018/11/29 20:09:48","新北市汐止區秀峰路74號","121.659851666667","25.0643016666667","6501100","汐止區"
"221038","646-BX","2018/11/29 20:09:43","新北市汐止區大同路三段89號","121.667988333333","25.077305","6501100","汐止區"
"221033","647-BX","2018/11/29 20:09:37","新北市汐止區東勢街201巷104號","121.633453333333","25.0428983333333","6501100","汐止區"
"220082","610-BX","2018/11/29 20:09:51","新北市板橋區篤行路二段8-3號","121.431771666667","24.9928616666667","6500100","板橋區"
"220101","245-BX","2018/11/29 20:09:51","新北市板橋區雙十路二段69巷6號","121.47521","25.026555","6500100","板橋區"
"224002","257-TC","2018/11/29 20:09:44","新北市瑞芳區員山子路13-1號","121.822968333333","25.1021316666667","6501200","瑞芳區"
"220056","276-BY","2018/11/29 20:09:33","新北市五股區凌雲路一段21號","121.452618333333","25.1000083333333","6500100","板橋區"
"220053","285-VK","2018/11/29 20:09:51","新北市板橋區中山路二段267號","121.477618333333","25.0179316666667","6500100","板橋區"
"220083","286-VK","2018/11/29 20:09:40","新北市板橋區僑中二街88巷1號","121.446326666667","25.0093733333333","6500100","板橋區"
"220081","287-VK","2018/11/29 20:09:43","新北市板橋區僑中一街124巷20弄10號","121.446578333333","25.0139383333333","6500100","板橋區"
"220090","288-VK","2018/11/29 20:09:43","新北市板橋區幸福路32巷57號","121.46037","25.02213","6500100","板橋區"
"220061","295-UM","2018/11/29 20:09:47","新北市板橋區民生路二段36-1號","121.472181666667","25.0167","6500100","板橋區"
"242042","281-VK","2018/11/29 20:09:39","新北市新莊區青山路一段8-2號","121.41162","25.0275166666667","6500500","新莊區"
"220092","307-R5","2018/11/29 20:09:52","新北市板橋區國光路189號","121.461248333333","25.0185983333333","6500100","板橋區"
"220098","317-R6","2018/11/29 20:09:34","新北市板橋區新海路72巷5弄27號","121.461541666667","25.022965","6500100","板橋區"
"220089","487-VK","2018/11/29 20:09:47","新北市板橋區互助街52號","121.461538333333","25.02692","6500100","板橋區"
"242007","280-VK","2018/11/29 20:09:34","新北市新莊區福壽街124巷41弄12號","121.45929","25.0516933333333","6500500","新莊區"
"220103","561-BX","2018/11/29 20:09:41","新北市板橋區陽明街111號","121.463791666667","25.023445","6500100","板橋區"
"220063","609-BX","2018/11/29 20:09:37","新北市板橋區三民路一段94號","121.479298333333","25.021565","6500100","板橋區"
"220093","689-BX","2018/11/29 20:09:38","新北市板橋區中正路601號","121.457153333333","25.0294216666667","6500100","板橋區"
"220102","KEA-2699","2018/11/29 20:09:50","新北市板橋區民治街132號","121.4777","25.0308183333333","6500100","板橋區"
"220055","827-TW","2018/11/29 20:09:51","新北市板橋區重慶路290巷11號","121.46106","24.9986333333333","6500100","板橋區"
"220067","830-TW","2018/11/29 20:09:46","新北市板橋區中山路一段206巷63號","121.471336666667","25.01305","6500100","板橋區"
"220088","833-TW","2018/11/29 20:09:34","新北市板橋區民治街73-1號","121.479601666667","25.0325933333333","6500100","板橋區"
"220074","895-R6","2018/11/29 20:09:49","新北市板橋區館前西路100號","121.457246666667","25.0073883333333","6500100","板橋區"
"220073","985-R7","2018/11/29 20:09:33","新北市新莊區三和路12-21號","121.4423","25.0381733333333","6500100","板橋區"
"220097","AAC-210","2018/11/29 20:09:44","新北市板橋區光正街9巷22弄12號","121.462143333333","25.0167466666667","6500100","板橋區"
"220070","AAC-253","2018/11/29 20:09:50","新北市板橋區德興街33號","121.453515","24.99387","6500100","板橋區"
"235068","KEA-2873","2018/11/29 20:09:43","新北市中和區福祥路85巷2弄8號","121.498661666667","25.0060233333333","6500300","中和區"
