"lineid","car","time","location","longitude","latitude","cityid","cityname"
"234007","207-UY","2018/11/29 20:19:50","新北市永和區環河西路二段229巷3號","121.501453333333","25.0099983333333","6500400","永和區"
"234081","298-R6","2018/11/29 20:19:49","新北市永和區福和路7巷10弄7號","121.52484","25.007565","6500400","永和區"
"234038","336-UY","2018/11/29 20:19:45","新北市永和區成功路一段77號","121.526905","25.0032416666667","6500400","永和區"
"234064","337-UY","2018/11/29 20:19:48","新北市永和區得和路109號","121.51842","25.0003616666667","6500400","永和區"
"234070","552-UM","2018/11/29 20:19:49","新北市永和區福和路239號","121.518428333333","25.0074266666667","6500400","永和區"
"234017","745-BX","2018/11/29 20:19:38","新北市永和區仁愛路38號","121.514226666667","25.0134516666667","6500400","永和區"
"234030","746-BX","2018/11/29 20:19:42","新北市中和區立人街14巷69號","121.518498333333","24.995605","6500400","永和區"
"234054","KEA-2590","2018/11/29 20:19:43","新北市永和區光復街2巷26弄1號","121.5176","25.0165966666667","6500400","永和區"
"234013","KEA-2591","2018/11/29 20:19:37","新北市永和區仁愛路295號","121.505166666667","25.0090766666667","6500400","永和區"
"234061","AAD-866","2018/11/29 20:19:45","新北市永和區得和路29號","121.51587","25.00032","6500400","永和區"
"234086","748-BX","2018/11/29 20:19:41","新北市永和區永和路二段235號","121.515531666667","25.0143083333333","6500400","永和區"
"234042","862-TW","2018/11/29 20:19:42","新北市中和區中安街172號","121.510903333333","24.999805","6500400","永和區"
"234050","863-TW","2018/11/29 20:19:47","新北市永和區保安路2號","121.510723333333","25.0174516666667","6500400","永和區"
"249005","172-UM","2018/11/29 20:19:42","新北市八里區下罟子8-1號","121.385293333333","25.1399333333333","6502300","八里區"
"249004","303-UY","2018/11/29 20:19:42","新北市八里區中山路一段129巷19號","121.413956666667","25.1587816666667","6502300","八里區"
"249002","305-UY","2018/11/29 20:19:50","新北市八里區龍米路一段160號","121.452748333333","25.126005","6502300","八里區"
"249003","593-UM","2018/11/29 20:19:36","新北市八里區中山路二段447巷7號","121.396981666667","25.1454366666667","6502300","八里區"
"248002","678-BX","2018/11/29 20:19:40","新北市五股區成泰路三段165號","121.445428333333","25.0917583333333","6501500","五股區"
"234023","9380-KE","2018/11/29 20:19:37","新北市永和區永和路二段232號","121.516076666667","25.0143183333333","6500400","永和區"
"234077","969-R7","2018/11/29 20:19:37","新北市永和區民享街2巷1號","121.514836666667","24.9957466666667","6500400","永和區"
"234074","AAC-211","2018/11/29 20:19:47","新北市永和區竹林路201巷24弄5號","121.522473333333","25.0097383333333","6500400","永和區"
"234067","AAC-212","2018/11/29 20:19:45","新北市永和區保平路268巷11號","121.508366666667","25.00549","6500400","永和區"
"234003","AAC-295","2018/11/29 20:19:47","新北市永和區自強街2號","121.514076666667","25.008115","6500400","永和區"
"243013","AAD-798","2018/11/29 20:19:36","新北市泰山區新民路14巷2弄2號","121.426318333333","25.044525","6501600","泰山區"
"243009","297-R6","2018/11/29 20:19:50","新北市泰山區福泰街2號","121.432646666667","25.06032","6501600","泰山區"
"243016","KEA-2801","2018/11/29 20:19:52","新北市泰山區明志路二段418號","121.42504","25.0439","6501600","泰山區"
"243015","421-VK","2018/11/29 20:19:53","新北市泰山區全興路200號","121.433596666667","25.0566","6501600","泰山區"
"243011","KEA-2215","2018/11/29 20:19:50","新北市泰山區德安街19號","121.418838333333","25.03147","6501600","泰山區"
"243010","KEA-2216","2018/11/29 20:19:42","新北市泰山區明志路二段255巷14號","121.427886666667","25.0473666666667","6501600","泰山區"
"243012","646-TV","2018/11/29 20:19:41","新北市泰山區楓江路43號","121.435183333333","25.0626616666667","6501600","泰山區"
"243014","680-BX","2018/11/29 20:19:35","新北市泰山區泰林路二段465號","121.425511666667","25.0640533333333","6501600","泰山區"
"222003","436-BY","2018/11/29 20:19:36","新北市深坑區文化街86號","121.617643333333","25.0019733333333","6501800","深坑區"
"222002","659-BX","2018/11/29 20:19:49","新北市深坑區萬福路75巷48號","121.59826","25.0099216666667","6501800","深坑區"
"231041","002-UM","2018/11/29 20:19:40","新北市新店區民權路48-1號","121.539571666667","24.9830416666667","6500600","新店區"
"231059","046-UY","2018/11/29 20:19:43","新北市新店區安德街72號","121.510433333333","24.96172","6500600","新店區"
"231040","047-UY","2018/11/29 20:19:45","新北市新店區三民路10號","121.539623333333","24.9723466666667","6500600","新店區"
"231044","106-UY","2018/11/29 20:19:44","新北市新店區北新路三段118號","121.541616666667","24.9817116666667","6500600","新店區"
"231052","108-UY","2018/11/29 20:19:46","新北市新店區松林路4號","121.547015","24.9109733333333","6500600","新店區"
"231047","187-VK","2018/11/29 20:19:48","新北市新店區寶橋路98號","121.546891666667","24.9758766666667","6500600","新店區"
"231054","KEA-2219","2018/11/29 20:19:27","新北市新店區檳榔路61號","121.543573333333","24.9624516666667","6500600","新店區"
"231057","256-BX","2018/11/29 20:19:45","新北市新店區花園七路一段14號","121.554023333333","24.9349216666667","6500600","新店區"
"231042","268-BY","2018/11/29 20:19:49","新北市新店區中興路二段100巷1號","121.547558333333","24.9716083333333","6500600","新店區"
"231050","AAD-862","2018/11/29 20:19:50","新北市新店區博愛街6巷1號","121.541118333333","24.9733233333333","6500600","新店區"
"231066","4716-K9","2018/11/29 20:19:46","新北市新店區柴埕路57號","121.513661666667","24.965195","6500600","新店區"
"231056","4715-K9","2018/11/29 20:19:43","新北市新店區中正路302巷2號","121.537775","24.9748166666667","6500600","新店區"
"231067","4772-VM","2018/11/29 20:19:41","新北市新店區安康路一段230-3號","121.522366666667","24.9637666666667","6500600","新店區"
"231065","512-UM","2018/11/29 20:19:36","新北市新店區安祥路104巷6弄36號","121.483135","24.96297","6500600","新店區"
"231049","513-UM","2018/11/29 20:19:49","新北市新店區北新路一段319號","121.541581666667","24.9681566666667","6500600","新店區"
"231063","616-UM","2018/11/29 20:19:40","新北市新店區車子路1-1號","121.504768333333","24.9578183333333","6500600","新店區"
"231045","617-UM","2018/11/29 20:19:38","新北市新店區新坡一街10號","121.548391666667","24.9619133333333","6500600","新店區"
"231061","619-UM","2018/11/29 20:19:37","新北市新店區安民街133巷26號","121.515415","24.9695983333333","6500600","新店區"
"231068","718-UY","2018/11/29 20:19:40","新北市新店區寶安街30號","121.542005","24.9823966666667","6500600","新店區"
"231064","719-UM","2018/11/29 20:19:35","新北市新店區安利街30號","121.519131666667","24.974795","6500600","新店區"
"231051","719-UY","2018/11/29 20:19:38","新北市新店區中央六街93號","121.526203333333","24.9768983333333","6500600","新店區"
"231062","720-UM","2018/11/29 20:19:32","新北市新店區薏仁坑路6號","121.500503333333","24.9580166666667","6500600","新店區"
"231060","897-TW","2018/11/29 20:19:43","新北市新店區錦秀路13號","121.479498333333","24.94481","6500600","新店區"
"231043","899-TW","2018/11/29 20:19:35","新北市新店區建國路133號","121.539393333333","24.9783016666667","6500600","新店區"
"231055","AKT-0513","2018/11/29 20:19:37","新北市新店區光明街155號","121.539543333333","24.9623483333333","6500600","新店區"
"241011","013-R5","2018/11/29 20:19:33","新北市三重區龍濱路190號","121.50114","25.07331","6500200","三重區"
"241028","022-UY","2018/11/29 20:19:46","新北市三重區大同南路103號","121.496246666667","25.058755","6500200","三重區"
"241008","059-VK","2018/11/29 20:19:45","新北市三重區永福街168號","121.480665","25.0744483333333","6500200","三重區"
"241022","060-VK","2018/11/29 20:19:39","新北市三重區新北大道一段32號","121.488238333333","25.0614683333333","6500200","三重區"
"241031","061-VK","2018/11/29 20:19:41","新北市三重區三寧街15號","121.489513333333","25.0598516666667","6500200","三重區"
"241015","062-VK","2018/11/29 20:19:33","新北市三重區重新路一段128號","121.500256666667","25.0629383333333","6500200","三重區"
"241017","063-VK","2018/11/29 20:19:46","新北市三重區自強路一段157號","121.493405","25.067165","6500200","三重區"
"241024","065-VK","2018/11/29 20:19:35","新北市三重區中正北路274號","121.480893333333","25.0684916666667","6500200","三重區"
"241026","066-VK","2018/11/29 20:19:46","新北市三重區中央南路63-1號","121.501456666667","25.0612366666667","6500200","三重區"
"241002","090-VK","2018/11/29 20:19:44","新北市三重區仁義街147號","121.497166666667","25.08089","6500200","三重區"
"241003","091-VK","2018/11/29 20:19:45","新北市三重區富華街84-1號","121.490958333333","25.0833933333333","6500200","三重區"
"251014","742-BX","2018/11/29 20:19:31","新北市淡水區石頭厝1號","121.45876","25.2355266666667","6501000","淡水區"
"241005","262-UM","2018/11/29 20:19:36","新北市三重區碧華街213號","121.488648333333","25.0828183333333","6500200","三重區"
"241016","265-UM","2018/11/29 20:19:49","新北市三重區大同北路97號","121.494573333333","25.0636266666667","6500200","三重區"
"241009","267-UM","2018/11/29 20:19:52","新北市三重區三和路四段360-4號","121.48308","25.0786216666667","6500200","三重區"
"241018","268-UM","2018/11/29 20:19:35","新北市三重區正義北路250號","121.49609","25.0684666666667","6500200","三重區"
"241032","269-UM","2018/11/29 20:19:51","新北市三重區捷運路19巷6弄19號","121.484371666667","25.0568633333333","6500200","三重區"
"241013","270-UM","2018/11/29 20:19:40","新北市三重區三和路三段167巷36號","121.493131666667","25.0744933333333","6500200","三重區"
"241025","271-UM","2018/11/29 20:19:42","新北市三重區三民街272巷2號","121.478833333333","25.06801","6500200","三重區"
"241007","398-BY","2018/11/29 20:19:46","新北市三重區仁美街57號","121.486823333333","25.0781666666667","6500200","三重區"
"241035","462-BY","2018/11/29 20:19:33","新北市三重區正義北路33巷52號","121.499113333333","25.0639483333333","6500200","三重區"
"241004","475-VK","2018/11/29 20:19:38","新北市三重區慈愛街193號","121.490491666667","25.0804033333333","6500200","三重區"
"241030","480-VK","2018/11/29 20:19:32","新北市三重區集美街89巷22號","121.488343333333","25.052595","6500200","三重區"
"241014","543-UM","2018/11/29 20:19:50","新北市三重區龍濱路165號","121.502455","25.069775","6500200","三重區"
"241023","545-UM","2018/11/29 20:19:48","新北市三重區忠孝路三段84巷5號","121.480168333333","25.064335","6500200","三重區"
"241001","547-UM","2018/11/29 20:19:50","新北市三重區溪尾街34號","121.490723333333","25.076685","6500200","三重區"
"241033","557-UM","2018/11/29 20:11:50","新北市三重區光復路一段61巷27號","121.473688333333","25.0490516666667","6500200","三重區"
"241019","KEA-2593","2018/11/29 20:19:44","新北市三重區明德街28號","121.492543333333","25.07192","6500200","三重區"
"241020","743-BX","2018/11/29 20:19:36","新北市三重區三和路三段170巷10號","121.492313333333","25.073005","6500200","三重區"
"241006","887-TS","2018/11/29 20:19:49","新北市三重區車路頭街135-1號","121.48433","25.0761266666667","6500200","三重區"
"241012","941-UM","2018/11/29 20:19:46","新北市三重區河邊北街262號","121.501663333333","25.07642","6500200","三重區"
"241029","942-UM","2018/11/29 20:19:34","新北市三重區重安街98號","121.492603333333","25.056275","6500200","三重區"
"235066","003-UY","2018/11/29 20:19:38","新北市中和區南工路87號","121.507131666667","25.00307","6500300","中和區"
"235039","097-UM","2018/11/29 20:19:50","新北市中和區大勇街27巷22號","121.516476666667","24.9940766666667","6500300","中和區"
"235065","098-UM","2018/11/29 20:19:51","新北市中和區橋和路304號","121.497078333333","25.0070266666667","6500300","中和區"
"235040","150-BY","2018/11/29 20:19:35","新北市中和區安平路38號","121.510038333333","24.995075","6500300","中和區"
"247012","KEA-2869","2018/11/29 20:19:55","新北市蘆洲區中興街23號","121.48075","25.0869933333333","6501400","蘆洲區"
"235050","4979-A6","2018/11/29 20:19:49","新北市中和區景平路404號","121.508951666667","24.9930166666667","6500300","中和區"
"235069","4980-A6","2018/11/29 20:19:44","新北市中和區圓通路114號","121.499295","24.99641","6500300","中和區"
"235054","640-BX","2018/11/29 20:19:41","新北市八里區荖阡坑路41-3號","121.399988333333","25.1323166666667","6500300","中和區"
"235059","AAC-215","2018/11/29 20:19:48","新北市中和區員山路30-3號","121.484031666667","24.9877983333333","6500300","中和區"
"247002","893-R6","2018/11/29 20:19:52","新北市蘆洲區長安街331巷2號","121.456983333333","25.0866416666667","6501400","蘆洲區"
"247016","546-UM","2018/11/29 20:19:32","新北市蘆洲區光華路132巷39號","121.46588","25.0838","6501400","蘆洲區"
"247024","500-BY","2018/11/29 20:19:40","新北市蘆洲區光榮路120巷8弄20號","121.4644","25.0877716666667","6501400","蘆洲區"
"247006","337-TH","2018/11/29 20:19:38","新北市蘆洲區九芎街153巷8號","121.465431666667","25.0788","6501400","蘆洲區"
"247008","336-TH","2018/11/29 20:19:55","新北市蘆洲區集賢路300號","121.481553333333","25.085045","6501400","蘆洲區"
"247020","057-VK","2018/11/29 20:19:43","新北市蘆洲區仁愛街59號","121.471833333333","25.0933366666667","6501400","蘆洲區"
"247010","056-VK","2018/11/29 20:19:44","新北市蘆洲區信義路208號","121.478986666667","25.084885","6501400","蘆洲區"
"247014","053-VK","2018/11/29 20:19:43","新北市蘆洲區中山二路137巷33號","121.472596666667","25.0805633333333","6501400","蘆洲區"
"247004","002-UY","2018/11/29 20:19:48","新北市蘆洲區長安街297號","121.457918333333","25.0847783333333","6501400","蘆洲區"
"247022","001-UY","2018/11/29 20:19:36","新北市蘆洲區三民路251號","121.46844","25.0894083333333","6501400","蘆洲區"
"222001","KEA-2212","2018/11/29 20:19:47","新北市深坑區北深路三段253號","121.599245","25.0042566666667","6501800","深坑區"
"251001","011-UM","2018/11/29 20:19:40","新北市淡水區新市二路四段265號","121.445736666667","25.1924933333333","6501000","淡水區"
"251013","KEA-2871","2018/11/29 20:19:49","新北市淡水區相公山2號","121.474776666667","25.2065633333333","6501000","淡水區"
"251016","179-VK","2018/11/29 20:19:41","新北市淡水區淡金路五段20號","121.453043333333","25.232385","6501000","淡水區"
"251008","181-VK","2018/11/29 20:19:39","新北市淡水區淡海路180巷31號","121.421938333333","25.1845483333333","6501000","淡水區"
"251015","182-VK","2018/11/29 20:19:35","新北市淡水區淡金路三段461巷11-3號","121.450635","25.2137633333333","6501000","淡水區"
"251010","413-VK","2018/11/29 20:19:39","新北市淡水區新民街一段132號","121.427968333333","25.1888","6501000","淡水區"
"251012","441-VK","2018/11/29 20:19:40","新北市淡水區淡金路三段426號","121.450573333333","25.2123183333333","6501000","淡水區"
"251002","672-BX","2018/11/29 20:19:44","新北市淡水區中正路224號","121.43937","25.1704083333333","6501000","淡水區"
"251003","673-BX","2018/11/29 20:19:46","新北市淡水區中山北路一段229號","121.44447","25.179515","6501000","淡水區"
"207004","225-TW","2018/11/29 20:19:35","新北市萬里區北基里大仁路5號","121.682106666667","25.17533","6502800","萬里區"
"252002","178-VK","2018/11/29 20:19:46","新北市三芝區中正路一段47號","121.5033","25.258175","6502100","三芝區"
"252001","292-VK","2018/11/29 20:19:35","新北市三芝區中山路一段14號","121.500751666667","25.2580233333333","6502100","三芝區"
"237006","5529-G3","2018/11/29 20:19:40","新北市三峽區中正路二段39號","121.36676","24.9188733333333","6500900","三峽區"
"237016","649-BX","2018/11/29 20:19:50","新北市三峽區介壽路二段138巷6號","121.395438333333","24.935085","6500900","三峽區"
"236070","105-UM","2018/11/29 20:19:48","新北市土城區三民路55號","121.419731666667","24.9642883333333","6501300","土城區"
"236078","166-UM","2018/11/29 20:19:40","新北市土城區德安街4巷2號","121.422245","24.9647466666667","6501300","土城區"
"236030","253-BX","2018/11/29 20:19:40","新北市土城區學成路128巷13弄2號","121.449581666667","24.990145","6501300","土城區"
"236026","269-VK","2018/11/29 20:19:42","新北市土城區裕生路100巷9號","121.446071666667","24.9851","6501300","土城區"
"236014","270-VK","2018/11/29 20:19:52","新北市土城區四川路1號","121.456241666667","24.995935","6501300","土城區"
"242036","AAC-296","2018/11/29 20:19:17","新北市新莊區建安街76巷1弄10號","121.426083333333","25.02461","6500500","新莊區"
"242058","986-R7","2018/11/29 20:19:52","新北市新莊區龍安路278巷14號","121.421985","25.01868","6500500","新莊區"
"242056","751-BX","2018/11/29 20:19:38","新北市新莊區豐年街20巷11號","121.445866666667","25.03242","6500500","新莊區"
"242027","615-BX","2018/11/29 20:19:43","新北市新莊區幸福路568號","121.45435","25.0493283333333","6500500","新莊區"
"242025","613-BX","2018/11/29 20:19:50","新北市新莊區五工二路70巷21號","121.460791666667","25.0665133333333","6500500","新莊區"
"242029","612-BX","2018/11/29 20:19:49","新北市新莊區中華路二段201號","121.452296666667","25.0526666666667","6500500","新莊區"
"242044","566-BX","2018/11/29 20:19:38","新北市新莊區中正路新建巷28弄69號","121.413875","25.02095","6500500","新莊區"
"242048","497-BY","2018/11/29 20:19:47","新北市新莊區龍安路216號","121.420123333333","25.01984","6500500","新莊區"
"242053","441-UM","2018/11/29 20:19:39","新北市新莊區西盛街371號","121.42804","25.0135583333333","6500500","新莊區"
"242002","440-UM","2018/11/29 20:19:36","新北市新莊區化成路31號","121.46517","25.0439216666667","6500500","新莊區"
"242039","415-TV","2018/11/29 20:19:33","新北市新莊區成功街78-1號","121.424201666667","25.0189466666667","6500500","新莊區"
"242009","413-TV","2018/11/29 20:19:36","新北市新莊區昌盛街65巷2弄1號","121.454866666667","25.0501783333333","6500500","新莊區"
"242046","400-BY","2018/11/29 20:19:42","新北市新莊區裕民街90巷15號","121.417793333333","25.0237983333333","6500500","新莊區"
"242023","362-BY","2018/11/29 20:19:35","新北市新莊區化成路539號","121.46507","25.0644383333333","6500500","新莊區"
"242061","353-BY","2018/11/29 20:19:53","新北市新莊區新樹路295-5號","121.433603333333","25.019785","6500500","新莊區"
"242011","132-UY","2018/11/29 20:19:50","新北市新莊區中信街21號","121.451008333333","25.0506816666667","6500500","新莊區"
"242034","135-UY","2018/11/29 20:19:44","新北市新莊區建中街90巷7弄2號","121.446715","25.0378533333333","6500500","新莊區"
"242051","172-VK","2018/11/29 20:19:49","新北市新莊區民安西路212巷2弄6號","121.425656666667","25.0150133333333","6500500","新莊區"
"242013","173-VK","2018/11/29 20:19:48","新北市新莊區中和街186巷25號","121.448488333333","25.0498233333333","6500500","新莊區"
"242019","175-VK","2018/11/29 20:19:49","新北市新莊區銘德街26號","121.45854","25.043785","6500500","新莊區"
"242017","346-TH","2018/11/29 20:19:42","新北市新莊區中港二街126號","121.448436666667","25.045705","6500500","新莊區"
"242031","348-TH","2018/11/29 20:19:33","新北市新莊區三和路20-6號","121.439468333333","25.037425","6500500","新莊區"
"242004","349-TH","2018/11/29 20:19:52","新北市新莊區化成路746巷3弄1號","121.465866666667","25.0577716666667","6500500","新莊區"
"242021","350-TH","2018/11/29 20:19:42","新北市新莊區和興街45號","121.446631666667","25.0406516666667","6500500","新莊區"
"242015","351-TH","2018/11/29 20:19:46","新北市新莊區永樂街228號","121.446395","25.0443883333333","6500500","新莊區"
"221008","489-VK","2018/11/29 20:19:46","新北市汐止區康寧街349號","121.628113333333","25.06755","6501100","汐止區"
"221036","130-UY","2018/11/29 20:19:47","新北市汐止區仁愛路143號","121.663376666667","25.0643066666667","6501100","汐止區"
"221015","131-UY","2018/11/29 20:19:38","新北市汐止區建成路142巷19弄12號","121.662056666667","25.0739483333333","6501100","汐止區"
"221010","269-BY","2018/11/29 20:19:51","新北市汐止區八連路二段551巷2號","121.628436666667","25.1075116666667","6501100","汐止區"
"221012","278-VK","2018/11/29 20:19:50","新北市汐止區保新街159號","121.688426666667","25.068955","6501100","汐止區"
"221023","279-VK","2018/11/29 20:19:47","新北市汐止區明峰街307號","121.62516","25.0675083333333","6501100","汐止區"
"221032","280-BY","2018/11/29 20:19:50","新北市汐止區民權街二段36號","121.619391666667","25.0495783333333","6501100","汐止區"
"221027","281-BY","2018/11/29 20:19:42","新北市汐止區大同路二段353號","121.656951666667","25.06729","6501100","汐止區"
"221029","298-VK","2018/11/29 20:19:33","新北市汐止區樟樹一路99巷7弄1號","121.641218333333","25.06358","6501100","汐止區"
"221021","299-VK","2018/11/29 20:19:34","新北市汐止區水源路一段262號","121.654086666667","25.05959","6501100","汐止區"
"221031","353-TW","2018/11/29 20:19:34","新北市汐止區中興路150巷15-1號","121.633041666667","25.0650866666667","6501100","汐止區"
"221002","129-UY","2018/11/29 20:19:51","新北市汐止區福德一路86巷10號","121.637716666667","25.0688783333333","6501100","汐止區"
"221035","622-UM","2018/11/29 20:19:45","新北市汐止區長江街101-5號","121.658841666667","25.073035","6501100","汐止區"
"221025","623-UM","2018/11/29 20:19:48","新北市汐止區水源路二段32號","121.65485","25.0573","6501100","汐止區"
"221038","646-BX","2018/11/29 20:19:43","新北市汐止區忠孝東路452號","121.66621","25.0728","6501100","汐止區"
"221033","647-BX","2018/11/29 20:19:37","新北市汐止區東勢街201巷2號","121.633698333333","25.0419983333333","6501100","汐止區"
"220082","610-BX","2018/11/29 20:19:51","新北市土城區亞洲路32巷22號","121.435535","24.9757383333333","6500100","板橋區"
"220101","245-BX","2018/11/29 20:19:11","新北市板橋區萬板路478號","121.479925","25.0261466666667","6500100","板橋區"
"220056","276-BY","2018/11/29 20:19:53","新北市八里區中山路三段363號","121.375478333333","25.1390933333333","6500100","板橋區"
"220083","286-VK","2018/11/29 20:19:50","新北市板橋區僑中二街92巷21號","121.445131666667","25.0090316666667","6500100","板橋區"
"220081","287-VK","2018/11/29 20:19:43","新北市板橋區僑中一街80巷5弄20號","121.446865","25.012695","6500100","板橋區"
"220061","295-UM","2018/11/29 20:19:47","新北市板橋區四川路一段107-8號","121.45982","25.0049783333333","6500100","板橋區"
"242042","281-VK","2018/11/29 20:19:39","新北市新莊區壽山路55-3號","121.412331666667","25.0316183333333","6500500","新莊區"
"220092","307-R5","2018/11/29 20:19:52","新北市板橋區民權路174號","121.459565","25.0132816666667","6500100","板橋區"
"220089","487-VK","2018/11/29 20:19:47","新北市板橋區四維路137巷23號","121.464021666667","25.0247866666667","6500100","板橋區"
"242007","280-VK","2018/11/29 20:19:36","新北市新莊區福壽街94巷5號","121.45869","25.050135","6500500","新莊區"
"220063","609-BX","2018/11/29 20:19:37","新北市板橋區三民路一段94號","121.479336666667","25.0215216666667","6500100","板橋區"
"220102","KEA-2699","2018/11/29 20:19:50","新北市板橋區文化路一段273號","121.464675","25.01831","6500100","板橋區"
"220055","827-TW","2018/11/29 20:19:31","新北市板橋區仁愛路64號","121.459843333333","24.999415","6500100","板橋區"
"220073","985-R7","2018/11/29 20:19:54","新北市五股區中直路11-21號","121.426733333333","25.1096416666667","6500100","板橋區"
"220097","AAC-210","2018/11/29 20:19:44","新北市板橋區公館街110號","121.461016666667","25.0167683333333","6500100","板橋區"
"220070","AAC-253","2018/11/29 20:19:53","新北市板橋區四川路二段253號","121.450531666667","24.9932183333333","6500100","板橋區"
"235068","KEA-2873","2018/11/29 20:19:35","新北市中和區福美路251號","121.498793333333","25.005195","6500300","中和區"
