"lineid","car","time","location","longitude","latitude","cityid","cityname"
"231059","046-UY","2018/11/29 21:19:43","新北市新店區僑信路2巷2號","121.49979","24.95354","6500600","新店區"
"231040","047-UY","2018/11/29 21:19:45","新北市新店區北新路一段185號","121.540171666667","24.9644066666667","6500600","新店區"
"231047","187-VK","2018/11/29 21:19:48","新北市新店區溪園路283號","121.526028333333","24.9806066666667","6500600","新店區"
"231054","KEA-2219","2018/11/29 21:19:47","新北市新店區環河路176號","121.525151666667","24.97554","6500600","新店區"
"231050","AAD-862","2018/11/29 21:19:50","新北市新店區中正路265號","121.53818","24.97401","6500600","新店區"
"231063","616-UM","2018/11/29 21:19:40","新北市新店區吉祥街15巷1號","121.497796666667","24.9457633333333","6500600","新店區"
"231051","719-UY","2018/11/29 21:19:38","台北市文山區景文街146巷36號","121.53223","24.9907366666667","6500600","新店區"
"241011","013-R5","2018/11/29 21:19:53","新北市三重區龍濱路197號","121.501855","25.0713583333333","6500200","三重區"
"241028","022-UY","2018/11/29 21:19:46","新北市三重區同安東街1號","121.496913333333","25.0569716666667","6500200","三重區"
"241008","059-VK","2018/11/29 21:19:45","新北市三重區自強路一段230號","121.493508333333","25.06699","6500200","三重區"
"241031","061-VK","2018/11/29 21:19:41","新北市三重區五谷王南街46巷37號","121.475705","25.04555","6500200","三重區"
"241017","063-VK","2018/11/29 21:19:46","新北市三重區中正北路25巷25弄2號","121.49324","25.06264","6500200","三重區"
"241024","065-VK","2018/11/29 21:19:35","新北市三重區中正北路145巷8弄2號","121.484093333333","25.0677633333333","6500200","三重區"
"241026","066-VK","2018/11/29 21:19:45","新北市三重區大同南路218號","121.496806666667","25.0563716666667","6500200","三重區"
"241002","090-VK","2018/11/29 21:19:56","新北市三重區自強路五段109號","121.495753333333","25.0824566666667","6500200","三重區"
"241003","091-VK","2018/11/29 21:19:45","新北市三重區仁義街220巷2號","121.49535","25.08411","6500200","三重區"
"251014","742-BX","2018/11/29 21:19:51","新北市淡水區六塊厝2-1號","121.450135","25.2404566666667","6501000","淡水區"
"241005","262-UM","2018/11/29 21:19:36","新北市三重區三信路186號","121.48802","25.0860383333333","6500200","三重區"
"241016","265-UM","2018/11/29 21:19:49","新北市三重區自強路一段95號","121.495913333333","25.0663816666667","6500200","三重區"
"241009","267-UM","2018/11/29 21:19:52","新北市三重區新北大道一段250號","121.480953333333","25.0615533333333","6500200","三重區"
"241018","268-UM","2018/11/29 21:19:35","新北市三重區忠孝路二段138號","121.482415","25.0682516666667","6500200","三重區"
"241032","269-UM","2018/11/29 21:19:51","新北市三重區光復路二段192號","121.470928333333","25.0628783333333","6500200","三重區"
"241013","270-UM","2018/11/29 21:19:40","新北市三重區仁愛街83號","121.495848333333","25.0731866666667","6500200","三重區"
"241025","271-UM","2018/11/29 21:19:42","新北市三重區忠孝路三段40巷6弄11號","121.482245","25.066905","6500200","三重區"
"241007","398-BY","2018/11/29 21:19:46","新北市三重區正義北路195號","121.496218333333","25.0680183333333","6500200","三重區"
"241004","475-VK","2018/11/29 21:19:38","新北市三重區碧華街307號","121.49077","25.0841283333333","6500200","三重區"
"241030","480-VK","2018/11/29 21:19:52","新北市三重區五谷王北街181-2號","121.47701","25.055365","6500200","三重區"
"241014","543-UM","2018/11/29 21:19:50","新北市三重區萬全街9號","121.499326666667","25.0696616666667","6500200","三重區"
"241023","545-UM","2018/11/29 21:19:48","新北市三重區中正北路176巷27號","121.482585","25.0659483333333","6500200","三重區"
"241033","557-UM","2018/11/29 21:00:10","新北市三重區光復路二段74號","121.472051666667","25.0562533333333","6500200","三重區"
"241019","KEA-2593","2018/11/29 21:19:44","新北市三重區重陽路三段1-3號","121.488671666667","25.065845","6500200","三重區"
"241006","887-TS","2018/11/29 21:19:49","新北市三重區光復路二段175號","121.472865","25.0618066666667","6500200","三重區"
"247012","KEA-2869","2018/11/29 21:19:43","新北市蘆洲區中興街59號","121.481573333333","25.0876066666667","6501400","蘆洲區"
"247002","893-R6","2018/11/29 21:19:51","新北市蘆洲區永樂街80號","121.456766666667","25.0886","6501400","蘆洲區"
"247024","500-BY","2018/11/29 21:19:39","新北市蘆洲區光明路16號","121.461091666667","25.0868333333333","6501400","蘆洲區"
"247006","337-TH","2018/11/29 21:19:38","新北市蘆洲區中華街3號","121.464136666667","25.0817983333333","6501400","蘆洲區"
"247008","336-TH","2018/11/29 21:19:54","新北市蘆洲區信義路73巷6號","121.476288333333","25.079995","6501400","蘆洲區"
"247020","057-VK","2018/11/29 21:19:47","新北市蘆洲區民族路422巷82弄14號","121.473893333333","25.0939233333333","6501400","蘆洲區"
"247010","056-VK","2018/11/29 21:19:44","新北市蘆洲區鷺江街23號","121.478886666667","25.0824683333333","6501400","蘆洲區"
"247014","053-VK","2018/11/29 21:19:43","新北市蘆洲區保和街50-5號","121.469705","25.086255","6501400","蘆洲區"
"247018","007-UY","2018/11/29 21:19:46","新北市蘆洲區三民路96號","121.473251666667","25.085725","6501400","蘆洲區"
"247004","002-UY","2018/11/29 21:19:48","新北市蘆洲區環堤大道8號","121.455911666667","25.083185","6501400","蘆洲區"
"247022","001-UY","2018/11/29 21:19:36","新北市蘆洲區民族路502號","121.469573333333","25.0904116666667","6501400","蘆洲區"
"251009","008-UM","2018/11/29 21:19:38","新北市淡水區民族路112巷1號","121.462713333333","25.13521","6501000","淡水區"
"251005","010-UM","2018/11/29 21:19:38","新北市淡水區水源街一段122巷37號","121.447138333333","25.170425","6501000","淡水區"
"251001","011-UM","2018/11/29 21:19:40","新北市淡水區濱海路一段306巷60弄33號","121.44201","25.1916383333333","6501000","淡水區"
"251013","KEA-2871","2018/11/29 21:19:50","新北市淡水區行忠路328號","121.460518333333","25.199595","6501000","淡水區"
"251016","179-VK","2018/11/29 21:19:40","新北市淡水區前洲子20號","121.441","25.2194533333333","6501000","淡水區"
"251008","181-VK","2018/11/29 21:19:48","新北市淡水區水源街二段230號","121.460528333333","25.1763566666667","6501000","淡水區"
"251015","182-VK","2018/11/29 21:19:51","新北市淡水區淡金路四段546-2號","121.4525","25.2270783333333","6501000","淡水區"
"251010","413-VK","2018/11/29 21:19:39","新北市淡水區中正路一段156巷51號","121.42188","25.1809","6501000","淡水區"
"251012","441-VK","2018/11/29 21:19:40","新北市淡水區淡金路五段35巷46號","121.452461666667","25.2347433333333","6501000","淡水區"
"251006","561-UM","2018/11/29 21:19:40","新北市淡水區中正路一段8巷1弄11號","121.4279","25.1756183333333","6501000","淡水區"
"251011","650-BX","2018/11/29 21:19:43","新北市淡水區新民街152巷6弄22號","121.43884","25.17878","6501000","淡水區"
"251002","672-BX","2018/11/29 21:19:44","新北市淡水區學府路172巷21號","121.448221666667","25.175155","6501000","淡水區"
"251003","673-BX","2018/11/29 21:19:46","新北市淡水區崁頂15-5號","121.438961666667","25.1859","6501000","淡水區"
"242053","441-UM","2018/11/29 21:19:39","新北市八里區中山路三段409號","121.368673333333","25.134745","6500500","新莊區"
"220082","610-BX","2018/11/29 21:19:51","新北市八里區中華路三段88巷10號","121.392516666667","25.1409116666667","6500100","板橋區"
"220070","AAC-253","2018/11/29 21:19:50","新北市五股區孝義路9-17號","121.449516666667","25.1068216666667","6500100","板橋區"
