"lineid","car","time","location","longitude","latitude","cityid","cityname"
"232019","705-BZ","2018/11/30 07:49:18","新北市坪林區乾溪5號","121.74263","24.9724133333333","6502000","坪林區"
"232008","758-BX","2018/11/30 07:49:20","新北市坪林區魚堀5-1號","121.713545","24.9032183333333","6502000","坪林區"
"244004","248-BX","2018/11/30 07:49:37","新北市林口區下福里161號","121.303541666667","25.11351","6501700","林口區"
"222005","289-BY","2018/11/30 07:49:33","新北市深坑區文化街52號","121.618948333333","25.00155","6501800","深坑區"
"231007","189-VK","2018/11/30 07:49:18","新北市新店區安一路一段1-1號","121.519921666667","24.96161","6500600","新店區"
"231009","192-VK","2018/11/30 07:49:20","新北市新店區安一路一段1-1號","121.519096666667","24.9613016666667","6500600","新店區"
"235001","611-BX","2018/11/30 07:49:27","新北市中和區圓通路367巷6號","121.491448333333","24.9892466666667","6500300","中和區"
"226005","5620-A6","2018/11/30 07:49:25","新北市平溪區靜安路二段358號","121.737661666667","25.0244716666667","6502400","平溪區"
"226001","7418-A5","2018/11/30 07:49:24","新北市平溪區十分里十分街92號","121.777211666667","25.041915","6502400","平溪區"
"226006","AGD-0702","2018/11/30 07:49:28","新北市平溪區十分里十分街286號","121.776431666667","25.04789","6502400","平溪區"
"223006","022-BY","2018/11/30 07:49:21","新北市坪林區北宜路八段501號","121.706848333333","24.919585","6501900","石碇區"
"223002","KEA-2673","2018/11/30 07:31:29","新北市石碇區大格門3號","121.668425","24.9554516666667","6501900","石碇區"
"223003","205-TH","2018/11/30 07:48:41","新北市石碇區樟空子10-2號","121.66693","24.9621833333333","6501900","石碇區"
"223004","437-BY","2018/11/30 07:49:17","新北市石碇區楓子林36-1號","121.64238","25.0092733333333","6501900","石碇區"
"223001","592-UM","2018/11/30 07:49:38","新北市石碇區四分子6-9號","121.662615","24.9630116666667","6501900","石碇區"
"223007","661-BX","2018/11/30 07:28:08","新北市石碇區靜安路一段337號","121.69882","25.0145416666667","6501900","石碇區"
"223005","677-TV","2018/11/30 07:49:21","新北市石碇區楓子林30號","121.642321666667","25.0097316666667","6501900","石碇區"
"227005","282-VK","2018/11/30 07:49:33","新北市雙溪區雙溪里太平路54號","121.86468","25.0354633333333","6502500","雙溪區"
"237001","159-UY","2018/11/30 07:49:36","新北市三峽區國慶路150號","121.375386666667","24.9398933333333","6500900","三峽區"
