"lineid","car","time","location","longitude","latitude","cityid","cityname"
"248005","653-BX","2018/09/22 09:49:08","新北市五股區成泰路一段7巷7號","121.4333","25.06669","6501500","五股區"
"231007","189-VK","2018/09/22 09:49:15","新北市新店區新潭路三段215巷25號","121.50816","24.90406","6500600","新店區"
"231008","192-VK","2018/09/22 09:38:33","新北市新店區平廣路一段256號","121.507541666667","24.8879933333333","6500600","新店區"
"223006","022-BY","2018/09/22 09:49:20","新北市深坑區文山路一段6號","121.645625","25.0083433333333","6501900","石碇區"
"227006","282-VK","2018/09/22 09:34:39","新北市雙溪區長源里柑腳55-1號","121.793803333333","25.0068833333333","6502500","雙溪區"
"252004","249-BX","2018/09/22 09:49:15","新北市三芝區福德里大水堀26號","121.512523333333","25.2194316666667","6502100","三芝區"
"252007","AAC-283","2018/09/22 09:49:09","新北市三芝區新庄里新庄子76號","121.507633333333","25.2729216666667","6502100","三芝區"
"237001","159-UY","2018/09/22 09:49:20","新北市三峽區國學街31號","121.372888333333","24.9422883333333","6500900","三峽區"
"242001","233-RS","2018/09/22 09:27:43","新北市新莊區環河路636-7號","121.437445","25.0116533333333","6500500","新莊區"
