"lineid","car","time","location","longitude","latitude","cityid","cityname"
"248005","653-BX","2018/09/22 09:59:08","新北市五股區蓬萊路6巷41號","121.435798333333","25.0801366666667","6501500","五股區"
"231007","189-VK","2018/09/22 09:59:14","新北市新店區新潭路三段215巷25號","121.508166666667","24.9040733333333","6500600","新店區"
"231008","192-VK","2018/09/22 09:59:13","新北市新店區小坑一路22號","121.532293333333","24.9140883333333","6500600","新店區"
"223006","022-BY","2018/09/22 09:59:20","新北市石碇區碇坪路一段186號","121.667381666667","24.9848733333333","6501900","石碇區"
"227006","282-VK","2018/09/22 09:59:19","新北市雙溪區長源里柑腳42號","121.80172","25.0123083333333","6502500","雙溪區"
"252004","249-BX","2018/09/22 09:59:15","新北市三芝區福德里土地公埔42號","121.510983333333","25.2331616666667","6502100","三芝區"
"252007","AAC-283","2018/09/22 09:59:09","新北市三芝區新庄里新庄子51-25號","121.507561666667","25.278145","6502100","三芝區"
"237001","159-UY","2018/09/22 09:59:20","新北市三峽區學府路8號","121.371901666667","24.94739","6500900","三峽區"
