"lineid","car","time","location","longitude","latitude","cityid","cityname"
"248005","653-BX","2018/09/22 10:19:08","新北市五股區更洲路47-1號","121.456725","25.0791766666667","6501500","五股區"
"231007","189-VK","2018/09/22 10:19:15","新北市新店區新潭路三段215巷25號","121.508176666667","24.9040866666667","6500600","新店區"
"231008","192-VK","2018/09/22 10:19:13","新北市新店區小坑一路21-1號","121.53045","24.912855","6500600","新店區"
"223006","022-BY","2018/09/22 10:09:28","新北市石碇區小粗坑(潭邊里)9-2號","121.678616666667","24.9857316666667","6501900","石碇區"
"227006","282-VK","2018/09/22 10:19:19","新北市雙溪區長源里柑腳18號","121.804665","25.014145","6502500","雙溪區"
"252007","AAC-283","2018/09/22 10:19:09","新北市三芝區新庄里番社后31-1號","121.499815","25.2733216666667","6502100","三芝區"
"237001","159-UY","2018/09/22 10:19:20","新北市三峽區中山路459巷163-3號","121.349153333333","24.9334033333333","6500900","三峽區"
