"lineid","car","time","location","longitude","latitude","cityid","cityname"
"234005","207-UY","2018/09/22 14:19:16","新北市永和區永和路二段35號","121.51437","25.0103816666667","6500400","永和區"
"234078","298-R6","2018/09/22 14:19:20","新北市永和區國中路132巷10號","121.523883333333","25.007475","6500400","永和區"
"234062","337-UY","2018/09/22 14:19:25","新北市永和區得和路108號","121.518255","25.0001383333333","6500400","永和區"
"234084","338-UY","2018/09/22 14:19:19","新北市永和區永和路二段50號","121.514865","25.0107966666667","6500400","永和區"
"234068","552-UM","2018/09/22 14:19:16","新北市永和區福和路263巷7弄1號","121.51792","25.0070516666667","6500400","永和區"
"234028","746-BX","2018/09/22 14:19:22","新北市永和區民權路55號","121.520008333333","24.9968366666667","6500400","永和區"
"234052","KEA-2590","2018/09/22 14:19:09","新北市永和區光復街2巷27號","121.51732","25.0166733333333","6500400","永和區"
"234012","KEA-2591","2018/09/22 14:19:03","新北市永和區保生路62號","121.505276666667","25.0088633333333","6500400","永和區"
"234060","AAD-866","2018/09/22 14:19:20","新北市永和區安樂路196號","121.515081666667","25.00133","6500400","永和區"
"234036","748-BX","2018/09/22 14:19:18","新北市永和區成功路一段93巷21弄2號","121.52838","25.002675","6500400","永和區"
"234040","862-TW","2018/09/22 14:19:19","新北市中和區中安街226號","121.512275","24.998695","6500400","永和區"
"234048","863-TW","2018/09/22 14:19:21","新北市永和區文化路234號","121.509781666667","25.0170483333333","6500400","永和區"
"234025","9371-KE","2018/09/22 14:19:27","新北市永和區安樂路198號","121.515306666667","25.00166","6500400","永和區"
"248017","225-UY","2018/09/22 14:19:29","新北市五股區壟路1-4號","121.419333333333","25.095985","6501500","五股區"
"234076","969-R7","2018/09/22 14:19:18","新北市永和區民族街81巷62號","121.520201666667","24.9965033333333","6500400","永和區"
"234072","AAC-211","2018/09/22 14:19:22","新北市永和區竹林路119巷30弄9號","121.522595","25.0116316666667","6500400","永和區"
"234066","AAC-212","2018/09/22 14:19:24","新北市永和區保平路292巷38號","121.507723333333","25.0050016666667","6500400","永和區"
"234001","AAC-295","2018/09/22 14:19:27","新北市永和區自強街32巷10號","121.515978333333","25.00788","6500400","永和區"
"231005","001-UM","2018/09/22 14:19:13","新北市新店區中興路三段199號","121.543825","24.98151","6500600","新店區"
"231002","002-UM","2018/09/22 14:18:54","新北市新店區中央路218號","121.529661666667","24.973075","6500600","新店區"
"231027","0291-UT","2018/09/22 14:19:19","新北市新店區北新路一段211號","121.540476666667","24.9650733333333","6500600","新店區"
"231028","046-UY","2018/09/22 14:19:20","新北市新店區安和路二段197號","121.518035","24.97507","6500600","新店區"
"231001","047-UY","2018/09/22 14:19:20","新北市新店區中華路1號","121.54128","24.9671466666667","6500600","新店區"
"231020","108-UY","2018/09/22 14:19:18","新北市新店區新烏路二段198巷2弄2號","121.5478","24.9170383333333","6500600","新店區"
"231012","187-VK","2018/09/22 14:19:22","新北市新店區五峰路63巷8弄44號","121.548013333333","24.9685566666667","6500600","新店區"
"231023","KEA-2219","2018/09/22 14:19:16","新北市新店區光明街11號","121.538298333333","24.9593333333333","6500600","新店區"
"231003","268-BY","2018/09/22 14:19:29","新北市新店區中興路一段183號","121.543091666667","24.9648383333333","6500600","新店區"
"231018","278-BY","2018/09/22 14:19:16","新北市新店區中央四街54號","121.527615","24.9750316666667","6500600","新店區"
"231017","AAD-862","2018/09/22 14:19:17","新北市新店區北宜路三段26號","121.567263333333","24.9521366666667","6500600","新店區"
"231004","355-BY","2018/09/22 14:19:16","新北市新店區中正路155號","121.541321666667","24.971825","6500600","新店區"
"231038","3712-VJ","2018/09/22 14:19:12","新北市新店區溪洲路101-1號","121.532375","24.9621133333333","6500600","新店區"
"231037","4716-K9","2018/09/22 14:19:12","新北市新店區安康路二段317號","121.499328333333","24.9565816666667","6500600","新店區"
"231025","4715-K9","2018/09/22 14:19:12","新北市新店區民族路161號","121.5377","24.9767466666667","6500600","新店區"
"231036","512-UM","2018/09/22 14:19:08","新北市新店區安祥路109巷85弄27號","121.478431666667","24.9600233333333","6500600","新店區"
"231013","513-UM","2018/09/22 14:19:20","新北市新店區大豐路66號","121.53928","24.9795416666667","6500600","新店區"
"231034","616-UM","2018/09/22 14:19:22","新北市新店區車子路11號","121.503045","24.9520233333333","6500600","新店區"
"231006","617-UM","2018/09/22 14:19:17","新北市新店區北宜路二段599號","121.568225","24.9556433333333","6500600","新店區"
"231030","619-UM","2018/09/22 14:19:19","新北市新店區安光路10-1號","121.513806666667","24.96406","6500600","新店區"
"231035","719-UM","2018/09/22 14:19:20","新北市新店區安和路二段117巷10號","121.518353333333","24.970225","6500600","新店區"
"231033","720-UM","2018/09/22 14:19:18","新北市新店區溪洲路61號","121.533485","24.9609133333333","6500600","新店區"
"231029","897-TW","2018/09/22 14:19:26","新北市新店區安康路二段237號","121.50822","24.9584983333333","6500600","新店區"
"231024","AKT-0513","2018/09/22 14:19:13","新北市新店區車子路10-1號","121.504621666667","24.954855","6500600","新店區"
"235030","003-UY","2018/09/22 14:19:13","新北市中和區中和路102號","121.502663333333","24.999655","6500300","中和區"
"235028","005-UY","2018/09/22 14:19:20","新北市中和區南山路73號","121.502243333333","24.998025","6500300","中和區"
"235027","006-UY","2018/09/22 14:19:22","新北市中和區連勝街132號","121.494271666667","24.996755","6500300","中和區"
"235020","096-UM","2018/09/22 14:19:15","新北市中和區中山路三段108號","121.476761666667","25.0064066666667","6500300","中和區"
"235003","097-UM","2018/09/22 14:19:12","新北市中和區秀峰街105號","121.520678333333","24.9903266666667","6500300","中和區"
"235029","098-UM","2018/09/22 14:19:18","新北市中和區中山路二段2巷13弄1號","121.503991666667","25.0067483333333","6500300","中和區"
"235004","150-BY","2018/09/22 14:19:22","新北市中和區保健路106巷24號","121.511341666667","24.9947","6500300","中和區"
"235022","151-BY","2018/09/22 14:19:16","新北市中和區連城路469巷44弄17號","121.482428333333","24.9947266666667","6500300","中和區"
"235019","183-VK","2018/09/22 14:19:12","新北市中和區莒光路3巷6號","121.472365","25.0060283333333","6500300","中和區"
"235002","185-VK","2018/09/22 14:19:19","新北市中和區大仁街10巷52號","121.520426666667","24.9925933333333","6500300","中和區"
"235013","186-VK","2018/09/22 14:19:13","新北市中和區景新街230巷1號","121.508213333333","24.9941283333333","6500300","中和區"
"235031","255-BX","2018/09/22 14:19:13","新北市中和區連城路280號","121.48452","24.9963066666667","6500300","中和區"
"235008","293-VK","2018/09/22 14:19:28","新北市中和區中興街266巷2號","121.498513333333","24.98748","6500300","中和區"
"235036","301-VK","2018/09/22 14:19:25","新北市中和區保平路362巷11號","121.505786666667","25.004015","6500300","中和區"
"235007","352-BY","2018/09/22 14:19:29","新北市中和區景平路157號","121.512843333333","24.9924116666667","6500300","中和區"
"235006","KEA-2878","2018/09/22 14:19:22","新北市中和區安樂路143巷2弄5號","121.514111666667","24.997735","6500300","中和區"
"247011","KEA-2869","2018/09/22 14:19:25","新北市蘆洲區民權路38巷2號","121.47628","25.0865683333333","6501400","蘆洲區"
"235014","4979-A6","2018/09/22 14:19:25","新北市中和區景安路208巷16號","121.503268333333","24.9914316666667","6500300","中和區"
"235033","4980-A6","2018/09/22 14:19:19","新北市中和區福美路252號","121.49836","25.0051466666667","6500300","中和區"
"235034","558-UM","2018/09/22 14:19:25","新北市中和區中山路二段211-2號","121.498773333333","25.0026316666667","6500300","中和區"
"235009","565-BX","2018/09/22 14:19:21","新北市中和區景新街437巷20號","121.514333333333","24.98928","6500300","中和區"
"235018","640-BX","2018/09/22 14:19:17","新北市中和區國光街109巷32號","121.4693","24.9994833333333","6500300","中和區"
"235011","732-UM","2018/09/22 14:19:18","新北市中和區和平街54巷6弄1號","121.508783333333","24.991185","6500300","中和區"
"235010","733-UM","2018/09/22 14:19:07","新北市中和區忠孝街2巷13弄2號","121.510448333333","24.9818933333333","6500300","中和區"
"235035","783-BX","2018/09/22 14:19:28","新北市中和區建二路151號","121.487375","25.00371","6500300","中和區"
"235021","801-TS","2018/09/22 14:19:19","新北市中和區員山路423巷12弄1號","121.480418333333","25.0031683333333","6500300","中和區"
"235005","802-TS","2018/09/22 14:19:20","新北市中和區中安街232號","121.512328333333","24.9986416666667","6500300","中和區"
"235016","805-TS","2018/09/22 14:19:28","新北市中和區華新街232巷10號","121.505751666667","24.982235","6500300","中和區"
"235012","896-TW","2018/09/22 14:19:10","新北市中和區華新街109巷16號","121.50867","24.9809816666667","6500300","中和區"
"235017","900-TW","2018/09/22 14:19:24","新北市中和區華安街17巷2-3號","121.466775","24.99821","6500300","中和區"
"235024","911-UM","2018/09/22 14:19:31","新北市中和區民有街19號","121.47576","25.0053483333333","6500300","中和區"
"235015","157-BY","2018/09/22 14:19:23","新北市中和區和平街54巷10弄14號","121.509486666667","24.9916683333333","6500300","中和區"
"235001","AAC-213","2018/09/22 14:19:20","新北市中和區秀朗路三段10巷37弄13號","121.524078333333","24.9957233333333","6500300","中和區"
"235023","AAC-215","2018/09/22 14:19:08","新北市中和區圓通路286巷1號","121.491423333333","24.9910083333333","6500300","中和區"
"220016","013-TV","2018/09/22 14:19:29","新北市板橋區林森街1巷4號","121.482178333333","25.0241066666667","6500100","板橋區"
"220013","072-UY","2018/09/22 14:19:27","新北市板橋區國泰街75巷1號","121.467508333333","25.006315","6500100","板橋區"
"220034","073-UY","2018/09/22 14:19:21","新北市板橋區中正路216巷24號","121.45684","25.0186833333333","6500100","板橋區"
"220105","075-UY","2018/09/22 14:19:17","新北市板橋區雙十路三段70巷1號","121.470255","25.0324266666667","6500100","板橋區"
"220017","AAD-861","2018/09/22 14:19:22","新北市板橋區華興街46號","121.45841","25.0046916666667","6500100","板橋區"
"247001","893-R6","2018/09/22 14:19:12","新北市蘆洲區永樂街78號","121.45694","25.088555","6501400","蘆洲區"
"247015","546-UM","2018/09/22 14:19:14","新北市蘆洲區中正路185巷31弄12號","121.46657","25.0839816666667","6501400","蘆洲區"
"247023","500-BY","2018/09/22 14:19:25","新北市蘆洲區長樂路695號","121.460683333333","25.092625","6501400","蘆洲區"
"247013","339-TH","2018/09/22 14:19:23","新北市蘆洲區中山一路239號","121.473453333333","25.0804266666667","6501400","蘆洲區"
"247005","337-TH","2018/09/22 14:19:17","新北市蘆洲區永安南路二段152號","121.46181","25.0788116666667","6501400","蘆洲區"
"247007","336-TH","2018/09/22 14:19:28","新北市蘆洲區信義路77號","121.476436666667","25.0796766666667","6501400","蘆洲區"
"247019","057-VK","2018/09/22 14:19:13","新北市蘆洲區仁愛街37號","121.472113333333","25.09284","6501400","蘆洲區"
"247009","056-VK","2018/09/22 14:19:27","新北市蘆洲區三民路26巷24號","121.477535","25.0829716666667","6501400","蘆洲區"
"247017","007-UY","2018/09/22 14:19:14","新北市蘆洲區民權路73號","121.473435","25.0884316666667","6501400","蘆洲區"
"247003","002-UY","2018/09/22 14:19:23","新北市蘆洲區長安街172巷35弄11號","121.460266666667","25.0844566666667","6501400","蘆洲區"
"247021","001-UY","2018/09/22 14:19:13","新北市蘆洲區中正路434巷8-2號","121.463493333333","25.0948016666667","6501400","蘆洲區"
"235026","251-BX","2018/09/22 14:19:19","新北市中和區中山路二段488-1號","121.487468333333","25.0048633333333","6500300","中和區"
"228005","097-TW","2018/09/22 14:19:24","新北市貢寮區美豐里雞母嶺街57號","121.897193333333","25.06397","6502600","貢寮區"
"228004","212-TW","2018/09/22 14:19:24","新北市貢寮區雙玉里田寮洋街39號","121.925075","25.0139416666667","6502600","貢寮區"
"253002","4710-YM","2018/09/22 14:19:25","新北市石門區大溪墘2-4號","121.548825","25.2893183333333","6502200","石門區"
"253003","6232-TK","2018/09/22 14:19:10","新北市石門區尖子鹿31-1號","121.579381666667","25.26694","6502200","石門區"
"253001","6251-TK","2018/09/22 14:19:28","新北市石門區八甲15號","121.523295","25.2811616666667","6502200","石門區"
"253004","8270-PC","2018/09/22 14:19:17","新北市石門區內阿里磅2-1號","121.591853333333","25.2523616666667","6502200","石門區"
"207001","291-VK","2018/09/22 14:19:14","新北市萬里區溪底里瑞泉路9號","121.60323","25.1438033333333","6502800","萬里區"
"252005","073-UM","2018/09/22 14:19:15","新北市三芝區橫山里橫山31-1號","121.544261666667","25.2578416666667","6502100","三芝區"
"207001","662-BX","2018/09/22 14:19:16","新北市萬里區磺潭里清水18號","121.637795","25.1977366666667","6502800","萬里區"
"236068","105-UM","2018/09/22 14:19:18","新北市土城區明德路一段130號","121.46373","24.9790583333333","6501300","土城區"
"236040","107-UM","2018/09/22 14:19:20","新北市土城區裕生路21巷2弄31號","121.448148333333","24.9860666666667","6501300","土城區"
"236074","166-UM","2018/09/22 14:19:20","新北市土城區中央路三段281巷23弄20號","121.426306666667","24.9614816666667","6501300","土城區"
"236029","253-BX","2018/09/22 14:19:25","新北市土城區順風路43號","121.440485","24.97697","6501300","土城區"
"236024","269-VK","2018/09/22 14:19:27","新北市土城區承天路18號","121.439488333333","24.9634933333333","6501300","土城區"
"236013","270-VK","2018/09/22 14:19:23","新北市土城區青雲路39巷7號","121.460353333333","24.9875683333333","6501300","土城區"
"236032","271-VK","2018/09/22 14:19:12","新北市土城區青雲路451巷8弄9號","121.459586666667","24.9743766666667","6501300","土城區"
"236017","401-BY","2018/09/22 14:19:26","新北市土城區金城路二段217號","121.454968333333","24.98195","6501300","土城區"
"236057","912-UM","2018/09/22 14:19:21","新北市土城區中央路四段281-14號","121.411875","24.953165","6501300","土城區"
"236045","913-UM","2018/09/22 14:19:14","新北市土城區明德路一段355-1號","121.457226666667","24.9774416666667","6501300","土城區"
"236060","915-UM","2018/09/22 14:19:22","新北市土城區延壽路44巷16-6號","121.471375","24.9928683333333","6501300","土城區"
"236054","AAC-216","2018/09/22 14:19:19","新北市土城區中華路二段120號","121.437803333333","24.9738716666667","6501300","土城區"
"221010","269-BY","2018/09/22 14:19:16","新北市汐止區八連路一段528號","121.638671666667","25.0932833333333","6501100","汐止區"
"221023","279-VK","2018/09/22 14:19:29","新北市林口區太平里180號","121.368258333333","25.1346016666667","6501100","汐止區"
"221027","281-BY","2018/09/22 14:19:25","新北市林口區太平里180號","121.367136666667","25.135115","6501100","汐止區"
"220027","145-BY","2018/09/22 14:19:30","新北市板橋區建國街123號","121.460723333333","25.0177","6500100","板橋區"
"220030","610-BX","2018/09/22 14:19:13","新北市板橋區篤行路三段99號","121.426136666667","24.9845866666667","6500100","板橋區"
"220050","245-BX","2018/09/22 14:19:27","新北市板橋區莊敬路8-2號","121.473473333333","25.0280966666667","6500100","板橋區"
"220004","276-BY","2018/09/22 14:19:22","新北市板橋區干城路10號","121.459773333333","24.9939816666667","6500100","板橋區"
"220020","277-BY","2018/09/22 14:19:27","新北市板橋區篤行路二段152號","121.42951","24.98801","6500100","板橋區"
"220043","280-UM","2018/09/22 14:19:11","新北市板橋區吳鳳路82號","121.466948333333","25.0312816666667","6500100","板橋區"
"220019","283-VK","2018/09/22 14:19:21","新北市板橋區忠孝路48巷9弄24號","121.461805","25.0001083333333","6500100","板橋區"
"220001","285-VK","2018/09/22 14:19:12","新北市板橋區富山街10號","121.478625","25.0218716666667","6500100","板橋區"
"220031","286-VK","2018/09/22 14:18:56","新北市板橋區龍興街73巷2號","121.443896666667","25.00214","6500100","板橋區"
"220029","287-VK","2018/09/22 14:19:16","新北市板橋區南雅南路一段106號","121.454736666667","25.0044316666667","6500100","板橋區"
"220039","288-VK","2018/09/22 14:19:22","新北市板橋區長江路一段106巷13弄10號","121.460473333333","25.029265","6500100","板橋區"
"220009","293-UM","2018/09/22 14:19:13","新北市板橋區中山路二段326-5號","121.481201666667","25.0193716666667","6500100","板橋區"
"220041","295-UM","2018/09/22 14:19:22","新北市板橋區光武街48巷12號","121.467631666667","25.0267066666667","6500100","板橋區"
"220023","303-R5","2018/09/22 14:19:16","新北市板橋區南雅南路一段60號","121.455338333333","25.005385","6500100","板橋區"
"220010","305-R5","2018/09/22 14:19:16","新北市板橋區三民路二段153巷3弄17號","121.479838333333","25.0150316666667","6500100","板橋區"
"220047","317-R6","2018/09/22 14:19:25","新北市板橋區民有街89巷8弄1號","121.464215","25.0273816666667","6500100","板橋區"
"220028","461-BY","2018/09/22 14:19:20","新北市板橋區大觀路二段3巷92號","121.450215","25.003235","6500100","板橋區"
"220012","486-VK","2018/09/22 14:19:19","新北市板橋區中山路一段26號","121.460318333333","25.0083633333333","6500100","板橋區"
"220104","560-BX","2018/09/22 14:19:28","新北市板橋區中正路433巷9號","121.45378","25.023345","6500100","板橋區"
"220052","561-BX","2018/09/22 14:19:17","新北市板橋區文化路一段188巷7弄31號","121.46795","25.0195966666667","6500100","板橋區"
"220032","568-UM","2018/09/22 14:19:17","新北市板橋區滿平街136巷8弄12號","121.427541666667","24.98776","6500100","板橋區"
"220011","609-BX","2018/09/22 14:19:30","新北市板橋區三民路二段251號","121.47899","25.0122966666667","6500100","板橋區"
"220040","637-BX","2018/09/22 14:19:10","新北市板橋區縣民大道三段223號","121.480583333333","25.0254066666667","6500100","板橋區"
"220005","686-BX","2018/09/22 14:19:14","新北市中和區壽德街33-3號","121.466521666667","24.99472","6500100","板橋區"
"220025","687-BX","2018/09/22 14:19:28","新北市板橋區大觀路二段175號","121.444973333333","25.0001833333333","6500100","板橋區"
"220042","689-BX","2018/09/22 14:19:19","新北市板橋區漢生西路50號","121.463148333333","25.018535","6500100","板橋區"
"220002","741-BX","2018/09/22 14:19:22","新北市板橋區光明街104號","121.462856666667","25.0029816666667","6500100","板橋區"
"220051","KEA-2699","2018/09/22 14:19:25","新北市板橋區萬板路570號","121.480965","25.0270333333333","6500100","板橋區"
"220003","827-TW","2018/09/22 14:19:29","新北市板橋區館前東路156巷48號","121.464623333333","25.00655","6500100","板橋區"
"220014","830-TW","2018/09/22 14:19:22","新北市板橋區長安街178巷1號","121.474123333333","25.0112866666667","6500100","板橋區"
"220045","831-TW","2018/09/22 14:19:29","新北市板橋區大同街38號","121.478561666667","25.0273516666667","6500100","板橋區"
"220038","833-TW","2018/09/22 14:19:24","新北市板橋區文化路一段289號","121.464895","25.0186966666667","6500100","板橋區"
"220022","895-R6","2018/09/22 14:19:26","新北市板橋區北門街58號","121.456638333333","25.0113466666667","6500100","板橋區"
"220021","985-R7","2018/09/22 14:19:11","新北市板橋區新生街89巷2號","121.458168333333","25.022165","6500100","板橋區"
"220046","AAC-210","2018/09/22 14:19:17","新北市板橋區幸福路32巷1弄12號","121.460983333333","25.0204366666667","6500100","板橋區"
"220018","AAC-253","2018/09/22 14:19:16","新北市板橋區忠孝路28號","121.460198333333","25.0017633333333","6500100","板橋區"
"235032","KEA-2873","2018/09/22 14:19:28","新北市中和區景平路493巷12弄7號","121.498941666667","24.997155","6500300","中和區"
"235025","KEA-2875","2018/09/22 14:19:09","新北市中和區員山路143巷48號","121.478541666667","24.9953516666667","6500300","中和區"
