"lineid","car","time","location","longitude","latitude","cityid","cityname"
"234001","149-BY","2018/09/22 15:29:07","新北市八里區荖阡坑路4-28號","121.398145","25.142605","6500400","永和區"
"248017","225-UY","2018/09/22 15:27:49","新北市五股區成泰路一段98巷26號","121.444331666667","25.0710633333333","6501500","五股區"
"231005","001-UM","2018/09/22 15:29:13","新北市新店區民權路90巷36號","121.537033333333","24.9842816666667","6500600","新店區"
"231002","002-UM","2018/09/22 15:29:13","新北市新店區中央一街43號","121.527078333333","24.973575","6500600","新店區"
"231028","046-UY","2018/09/22 15:29:10","新北市新店區僑信路80號","121.49963","24.948345","6500600","新店區"
"231020","108-UY","2018/09/22 15:29:18","新北市新店區湖興路109號","121.56024","24.9356166666667","6500600","新店區"
"231012","187-VK","2018/09/22 15:29:22","新北市新店區寶元路一段105號","121.545538333333","24.983155","6500600","新店區"
"231023","KEA-2219","2018/09/22 15:29:16","新北市新店區北新路一段311號","121.541598333333","24.96794","6500600","新店區"
"231026","256-BX","2018/09/22 15:29:14","新北市新店區三民路117巷4弄2號","121.534518333333","24.9716833333333","6500600","新店區"
"231003","268-BY","2018/09/22 15:29:09","新北市新店區寶高路120巷1號","121.554591666667","24.976155","6500600","新店區"
"231018","278-BY","2018/09/22 15:29:15","新北市新店區民生路158巷53號","121.527445","24.98114","6500600","新店區"
"231017","AAD-862","2018/09/22 15:29:17","新北市新店區明山路45號","121.563528333333","24.9558733333333","6500600","新店區"
"231004","355-BY","2018/09/22 15:29:16","新北市新店區中正路131號","121.541888333333","24.97138","6500600","新店區"
"231038","3712-VJ","2018/09/22 15:29:12","新北市新店區安華路28-1號","121.519721666667","24.9610083333333","6500600","新店區"
"231037","4716-K9","2018/09/22 15:29:12","新北市新店區安興路91巷6號","121.514688333333","24.9758983333333","6500600","新店區"
"231025","4715-K9","2018/09/22 15:29:12","新北市新店區環河路105-12號","121.531901666667","24.9700066666667","6500600","新店區"
"231036","512-UM","2018/09/22 15:29:07","新北市新店區安祥路67巷50弄15號","121.484165","24.9588566666667","6500600","新店區"
"231034","616-UM","2018/09/22 15:29:22","新北市新店區富貴街9巷2號","121.494105","24.9490816666667","6500600","新店區"
"231006","617-UM","2018/09/22 15:29:17","新北市新店區吉安街2號","121.517305","24.96556","6500600","新店區"
"231030","619-UM","2018/09/22 15:29:18","新北市新店區安和路三段61號","121.517928333333","24.9833783333333","6500600","新店區"
"231039","718-UY","2018/09/22 15:29:11","新北市新店區寶元路一段85巷4號","121.543068333333","24.9856483333333","6500600","新店區"
"231035","719-UM","2018/09/22 15:29:20","新北市新店區安興路83-8號","121.51534","24.97573","6500600","新店區"
"231033","720-UM","2018/09/22 15:29:18","新北市新店區裕合街109號","121.49012","24.94941","6500600","新店區"
"231029","897-TW","2018/09/22 15:29:17","新北市新店區安康路三段570號","121.481591666667","24.9487666666667","6500600","新店區"
"241011","013-R5","2018/09/22 15:29:15","新北市三重區環河南路256號","121.491395","25.050095","6500200","三重區"
"241015","062-VK","2018/09/22 15:29:17","新北市三重區重新路四段121號","121.485225","25.0524366666667","6500200","三重區"
"241024","065-VK","2018/09/22 15:29:17","新北市三重區成功路108巷8號","121.485871666667","25.05044","6500200","三重區"
"241026","066-VK","2018/09/22 15:29:03","新北市三重區重新路四段121號","121.484623333333","25.05236","6500200","三重區"
"241003","091-VK","2018/09/22 15:13:12","新北市三重區重新路四段121號","121.485091666667","25.052355","6500200","三重區"
"241018","268-UM","2018/09/22 15:29:21","新北市三重區重新路四段121號","121.484803333333","25.0527733333333","6500200","三重區"
"241013","270-UM","2018/09/22 15:29:18","新北市三重區忠孝路三段84巷5號","121.480183333333","25.064435","6500200","三重區"
"241007","398-BY","2018/09/22 15:29:07","新北市三重區重新路四段121號","121.48518","25.05241","6500200","三重區"
"241020","478-VK","2018/09/22 15:29:22","新北市三重區重新路四段121號","121.484773333333","25.0523316666667","6500200","三重區"
"241001","547-UM","2018/09/22 15:29:25","新北市三重區重新路四段121號","121.484748333333","25.052595","6500200","三重區"
"241029","942-UM","2018/09/22 15:29:22","新北市三重區重新路四段121號","121.484668333333","25.0523583333333","6500200","三重區"
"241033","AAC-255","2018/09/22 15:29:20","新北市三重區成功路90號","121.488053333333","25.051325","6500200","三重區"
"235030","003-UY","2018/09/22 15:29:13","新北市中和區中山路二段3巷22弄38號","121.505808333333","25.0040833333333","6500300","中和區"
"235014","4979-A6","2018/09/22 15:29:05","新北市中和區景新街160巷12號","121.505013333333","24.9968816666667","6500300","中和區"
"235033","4980-A6","2018/09/22 15:29:19","新北市中和區中正路544號","121.4873","24.9946266666667","6500300","中和區"
"235005","802-TS","2018/09/22 15:29:18","新北市中和區景新街300號","121.511296666667","24.991985","6500300","中和區"
"235023","AAC-215","2018/09/22 15:29:08","新北市中和區圓通路459號","121.484345","24.9856916666667","6500300","中和區"
"220034","073-UY","2018/09/22 15:29:21","新北市樹林區環河路600-1號","121.404621666667","24.96867","6500100","板橋區"
"235026","251-BX","2018/09/22 15:29:19","新北市中和區建八路125巷6弄11號","121.49024","24.9993733333333","6500300","中和區"
"253002","4710-YM","2018/09/22 15:29:04","新北市石門區小坑9號","121.59415","25.2887233333333","6502200","石門區"
"253003","6232-TK","2018/09/22 15:29:10","新北市石門區小坑9號","121.594326666667","25.2884466666667","6502200","石門區"
"253001","6251-TK","2018/09/22 15:28:48","新北市石門區小坑9號","121.594393333333","25.2884283333333","6502200","石門區"
"236068","105-UM","2018/09/22 15:29:18","新北市土城區水源街32巷12號","121.44117","24.9758483333333","6501300","土城區"
"236040","107-UM","2018/09/22 15:29:19","新北市土城區學府路一段124-2號","121.455231666667","24.9873433333333","6501300","土城區"
"236074","166-UM","2018/09/22 15:29:20","新北市土城區溪頭路65號","121.411491666667","24.9545016666667","6501300","土城區"
"236029","253-BX","2018/09/22 15:29:22","新北市土城區中央路一段197號","121.445928333333","24.98691","6501300","土城區"
"236024","269-VK","2018/09/22 15:29:07","新北市土城區中央路二段89號","121.442435","24.9781183333333","6501300","土城區"
"236013","270-VK","2018/09/22 15:29:23","新北市土城區廣明街2號","121.456046666667","24.9917083333333","6501300","土城區"
"236032","271-VK","2018/09/22 15:29:12","新北市土城區明德路一段109號","121.465536666667","24.9816716666667","6501300","土城區"
"236017","401-BY","2018/09/22 15:29:06","新北市土城區延吉街137巷10號","121.470945","24.9856466666667","6501300","土城區"
"236057","912-UM","2018/09/22 15:29:21","新北市土城區中央路一段324號","121.443188333333","24.9815366666667","6501300","土城區"
"236045","913-UM","2018/09/22 15:29:14","新北市土城區金城路三段6號","121.464433333333","24.9859416666667","6501300","土城區"
"236060","915-UM","2018/09/22 15:29:22","新北市土城區金城路三段33巷14號","121.465378333333","24.98728","6501300","土城區"
"236054","AAC-216","2018/09/22 15:29:19","新北市土城區金城路三段193-1號","121.470001666667","24.988955","6501300","土城區"
"220050","245-BX","2018/09/22 15:29:15","新北市板橋區漢生東路83巷1號","121.466435","25.0160383333333","6500100","板橋區"
"220052","561-BX","2018/09/22 15:29:15","新北市板橋區漢生東路23巷45號","121.465863333333","25.0180566666667","6500100","板橋區"
"220005","686-BX","2018/09/22 15:08:28","新北市板橋區華東街1-9號","121.448213333333","24.9949333333333","6500100","板橋區"
"220038","833-TW","2018/09/22 15:29:24","新北市板橋區漢生西路197號","121.46323","25.0243066666667","6500100","板橋區"
