"lineid","car","time","location","longitude","latitude","cityid","cityname"
"234001","149-BY","2018/09/22 15:59:07","新北市永和區民族街59號","121.518383333333","24.9979633333333","6500400","永和區"
"231046","107-UY","2018/09/22 15:59:10","新北市新店區安康路一段94號","121.52773","24.962125","6500600","新店區"
"231020","108-UY","2018/09/22 15:59:18","新北市新店區新烏路一段85巷6號","121.549155","24.942505","6500600","新店區"
"231012","187-VK","2018/09/22 15:59:22","新北市新店區民生路149巷10號","121.529006666667","24.97999","6500600","新店區"
"231003","268-BY","2018/09/22 15:59:09","新北市新店區寶興路60巷3號","121.54994","24.971785","6500600","新店區"
"231018","278-BY","2018/09/22 15:59:15","新北市新店區中正路663巷1弄1號","121.533046666667","24.9898116666667","6500600","新店區"
"231017","AAD-862","2018/09/22 15:59:17","新北市新店區中正路284巷4弄1號","121.538311666667","24.9749116666667","6500600","新店區"
"231038","3712-VJ","2018/09/22 15:59:12","新北市新店區安康路二段296-2號","121.50653","24.958145","6500600","新店區"
"231037","4716-K9","2018/09/22 15:59:19","新北市新店區吉安街24號","121.516361666667","24.9659683333333","6500600","新店區"
"231034","616-UM","2018/09/22 15:59:22","新北市新店區如意街97號","121.495295","24.9468783333333","6500600","新店區"
"231030","619-UM","2018/09/22 15:59:18","新北市新店區永平街34號","121.516235","24.9840333333333","6500600","新店區"
"231035","719-UM","2018/09/22 15:57:00","新北市新店區安和路二段173號","121.518556666667","24.974535","6500600","新店區"
"241011","013-R5","2018/09/22 15:59:15","新北市三重區文化北路224巷14號","121.497396666667","25.06879","6500200","三重區"
"241028","022-UY","2018/09/22 15:59:17","新北市三重區電信街48-2號","121.496668333333","25.0582766666667","6500200","三重區"
"241008","059-VK","2018/09/22 15:59:04","新北市三重區成功路108巷8號","121.486688333333","25.0507783333333","6500200","三重區"
"241015","062-VK","2018/09/22 15:59:17","新北市三重區重新路四段121號","121.485083333333","25.052395","6500200","三重區"
"241017","063-VK","2018/09/22 15:59:22","新北市三重區大仁街48巷33號","121.491008333333","25.0644966666667","6500200","三重區"
"241024","065-VK","2018/09/22 15:59:17","新北市三重區中正北路145巷5弄9號","121.484833333333","25.067375","6500200","三重區"
"241026","066-VK","2018/09/22 15:59:23","新北市三重區重新路三段31號","121.494141666667","25.0615566666667","6500200","三重區"
"241002","090-VK","2018/09/22 15:59:07","新北市三重區仁義街33號","121.49985","25.07673","6500200","三重區"
"241003","091-VK","2018/09/22 15:44:52","新北市三重區慈愛街53號","121.486248333333","25.0791766666667","6500200","三重區"
"241005","262-UM","2018/09/22 15:59:20","新北市三重區溪尾街300-2號","121.487576666667","25.0836233333333","6500200","三重區"
"241016","266-UM","2018/09/22 15:59:23","新北市三重區重新路四段121號","121.48479","25.0525733333333","6500200","三重區"
"241009","267-UM","2018/09/22 15:59:21","新北市三重區力行路一段80號","121.483881666667","25.0695766666667","6500200","三重區"
"241018","268-UM","2018/09/22 15:59:21","新北市三重區中正北路27號","121.491598333333","25.06254","6500200","三重區"
"241032","269-UM","2018/09/22 15:59:15","新北市三重區三陽路100巷3弄13號","121.48299","25.0581733333333","6500200","三重區"
"241013","270-UM","2018/09/22 15:59:18","新北市三重區三和路三段16巷1號","121.496743333333","25.0701316666667","6500200","三重區"
"241025","271-UM","2018/09/22 15:59:20","新北市三重區三民街193號","121.482166666667","25.065665","6500200","三重區"
"241007","398-BY","2018/09/22 15:59:07","新北市三重區慈愛街8號","121.48446","25.0784233333333","6500200","三重區"
"241004","475-VK","2018/09/22 15:59:24","新北市三重區河邊北街377號","121.502276666667","25.07649","6500200","三重區"
"241020","478-VK","2018/09/22 15:59:22","新北市三重區力行路一段189號","121.483565","25.0698816666667","6500200","三重區"
"241014","543-UM","2018/09/22 15:59:06","新北市三重區重新路四段121號","121.484821666667","25.0525733333333","6500200","三重區"
"241023","545-UM","2018/09/22 15:59:20","新北市三重區中正北路178號","121.483326666667","25.0668483333333","6500200","三重區"
"241001","547-UM","2018/09/22 15:59:05","新北市三重區名源街61巷17號","121.480651666667","25.0594316666667","6500200","三重區"
"241019","KEA-2593","2018/09/22 15:59:10","新北市三重區重新路四段121號","121.484443333333","25.0522016666667","6500200","三重區"
"241006","AAD-863","2018/09/22 15:59:07","新北市三重區力行路二段138-1號","121.482415","25.0756366666667","6500200","三重區"
"241022","887-TS","2018/09/22 15:59:02","新北市三重區中正北路174-9號","121.483228333333","25.06658","6500200","三重區"
"241012","941-UM","2018/09/22 15:59:06","新北市三重區正義北路140號","121.496648333333","25.066125","6500200","三重區"
"241029","942-UM","2018/09/22 15:59:25","新北市三重區大同南路238號","121.496863333333","25.0559716666667","6500200","三重區"
"241033","AAC-255","2018/09/22 15:59:20","新北市三重區光復路一段1號","121.472113333333","25.0468466666667","6500200","三重區"
"235026","251-BX","2018/09/22 15:59:19","新北市新店區安豐路30-1號","121.500638333333","24.9568933333333","6500300","中和區"
"224007","275-VK","2018/09/22 15:59:13","新北市瑞芳區楓子瀨路70號","121.766343333333","25.0986133333333","6501200","瑞芳區"
"227010","642-TC","2018/09/22 15:59:21","新北市雙溪區三港里雙澳路20號","121.870051666667","25.048975","6502500","雙溪區"
"227002","400-TW","2018/09/22 15:59:16","新北市雙溪區平林里外平林70號","121.843055","25.03503","6502500","雙溪區"
"236074","166-UM","2018/09/22 15:59:20","新北市土城區三民路47-1號","121.419856666667","24.9640766666667","6501300","土城區"
"236057","912-UM","2018/09/22 15:59:21","新北市土城區中央路三段38號","121.438396666667","24.9687816666667","6501300","土城區"
