"lineid","car","time","location","longitude","latitude","cityid","cityname"
"234036","336-UY","2018/09/22 16:08:50","新北市永和區福和路1號","121.526425","25.01","6500400","永和區"
"231046","107-UY","2018/09/22 16:29:10","新北市新店區灣潭路3-3號","121.538241666667","24.9507916666667","6500600","新店區"
"231018","278-BY","2018/09/22 16:29:15","新北市新店區安德街60巷21號","121.51041","24.9633366666667","6500600","新店區"
"241011","013-R5","2018/09/22 16:29:15","新北市三重區龍濱路168號","121.50112","25.0725433333333","6500200","三重區"
"241028","022-UY","2018/09/22 16:29:17","新北市三重區同安街111號","121.494388333333","25.056395","6500200","三重區"
"241008","059-VK","2018/09/22 16:29:04","新北市三重區力行路二段136巷45弄10號","121.479181666667","25.075305","6500200","三重區"
"241031","061-VK","2018/09/22 16:29:09","新北市三重區重陽路一段45號","121.486755","25.0581416666667","6500200","三重區"
"241015","062-VK","2018/09/22 16:29:17","新北市三重區福德北路55號","121.502126666667","25.0652583333333","6500200","三重區"
"241017","063-VK","2018/09/22 16:29:02","新北市三重區大同北路91號","121.49469","25.0637316666667","6500200","三重區"
"241024","065-VK","2018/09/22 16:29:17","新北市三重區中正北路193巷27號","121.476203333333","25.0706133333333","6500200","三重區"
"241026","066-VK","2018/09/22 16:29:03","新北市三重區文化南路42號","121.500376666667","25.060405","6500200","三重區"
"241002","090-VK","2018/09/22 16:29:10","新北市三重區五華街20號","121.494815","25.0804033333333","6500200","三重區"
"241003","091-VK","2018/09/22 16:20:12","新北市三重區仁義街220巷35號","121.49406","25.083455","6500200","三重區"
"251014","742-BX","2018/09/22 16:29:14","新北市淡水區沙崙路300號","121.427403333333","25.18726","6501000","淡水區"
"241005","262-UM","2018/09/22 16:29:20","新北市三重區溪尾街300-2號","121.487493333333","25.0836833333333","6500200","三重區"
"241016","266-UM","2018/09/22 16:29:23","新北市三重區大智街21號","121.494245","25.065785","6500200","三重區"
"241009","267-UM","2018/09/22 16:29:21","新北市三重區三和路四段191巷78號","121.484403333333","25.079845","6500200","三重區"
"241018","268-UM","2018/09/22 16:29:21","新北市三重區正義北路364巷31號","121.492895","25.07102","6500200","三重區"
"241032","269-UM","2018/09/22 16:29:15","新北市三重區三陽路100巷3弄13號","121.48299","25.0582016666667","6500200","三重區"
"241013","270-UM","2018/09/22 16:29:18","新北市三重區仁愛街73號","121.496028333333","25.0728666666667","6500200","三重區"
"241025","271-UM","2018/09/22 16:29:20","新北市三重區中正北路560巷100弄17號","121.472708333333","25.068655","6500200","三重區"
"241007","398-BY","2018/09/22 16:29:07","新北市三重區三和路四段163巷136號","121.488488333333","25.0802116666667","6500200","三重區"
"241004","475-VK","2018/09/22 16:29:04","新北市三重區仁愛街377巷10號","121.491746666667","25.0805416666667","6500200","三重區"
"241020","478-VK","2018/09/22 16:29:22","新北市三重區車路頭街37巷2號","121.483926666667","25.0717233333333","6500200","三重區"
"241014","543-UM","2018/09/22 16:29:06","新北市三重區河邊北街72-6號","121.504391666667","25.06844","6500200","三重區"
"241023","545-UM","2018/09/22 16:29:20","新北市三重區忠孝路三段50巷43號","121.482901666667","25.0645066666667","6500200","三重區"
"241001","547-UM","2018/09/22 16:29:05","新北市三重區仁政街155巷4號","121.491558333333","25.0793066666667","6500200","三重區"
"241019","KEA-2593","2018/09/22 16:29:10","新北市三重區重陽路三段93號","121.490158333333","25.0678416666667","6500200","三重區"
"241006","AAD-863","2018/09/22 16:29:07","新北市三重區力行路二段131號","121.483293333333","25.076925","6500200","三重區"
"241030","743-BX","2018/09/22 16:29:04","新北市三重區成功路106-1號","121.487575","25.0515483333333","6500200","三重區"
"241022","887-TS","2018/09/22 16:29:22","新北市三重區新北大道一段86巷17號","121.486046666667","25.062165","6500200","三重區"
"241012","941-UM","2018/09/22 16:29:06","新北市三重區河邊北街262號","121.501686666667","25.07639","6500200","三重區"
"241029","942-UM","2018/09/22 16:29:22","新北市三重區集美街126巷22號","121.489886666667","25.0538516666667","6500200","三重區"
"241033","AAC-255","2018/09/22 16:29:20","新北市三重區重新路五段317巷3弄7號","121.477588333333","25.0496583333333","6500200","三重區"
"235026","251-BX","2018/09/22 16:29:12","新北市中和區中正路716號","121.48551","24.9967366666667","6500300","中和區"
"224007","275-VK","2018/09/22 16:29:13","新北市瑞芳區瑞竹路36巷39號","121.764125","25.1043716666667","6501200","瑞芳區"
"224005","271-BY","2018/09/22 16:28:12","新北市瑞芳區逢甲路106號","121.80971","25.1090866666667","6501200","瑞芳區"
"227010","642-TC","2018/09/22 16:29:21","新北市雙溪區三港里雙澳路22號","121.869535","25.0499316666667","6502500","雙溪區"
"227002","400-TW","2018/09/22 16:29:16","新北市雙溪區上林里內平林120-2號","121.824451666667","25.0262616666667","6502500","雙溪區"
"251013","KEA-2871","2018/09/22 16:29:06","新北市淡水區北新路三段162號","121.492371666667","25.1915383333333","6501000","淡水區"
"251016","179-VK","2018/09/22 16:29:15","新北市淡水區中正路二段18號","121.419733333333","25.1811683333333","6501000","淡水區"
"251008","181-VK","2018/09/22 16:29:25","新北市淡水區民生路9巷1弄3號","121.46035","25.138485","6501000","淡水區"
"252002","AAC-283","2018/09/22 16:29:07","新北市三芝區忠孝街77號","121.505903333333","25.2566333333333","6502100","三芝區"
