"lineid","car","time","location","longitude","latitude","cityid","cityname"
"234036","336-UY","2018/09/22 16:38:58","新北市永和區福和路1號","121.52679","25.009985","6500400","永和區"
"249005","172-UM","2018/09/22 16:39:19","新北市八里區博物館路23號","121.414648333333","25.1631916666667","6502300","八里區"
"249003","593-UM","2018/09/22 16:39:09","新北市八里區仁愛路10號","121.413268333333","25.16237","6502300","八里區"
"231046","107-UY","2018/09/22 16:39:10","新北市新店區灣潭路55號","121.54154","24.9430083333333","6500600","新店區"
"241011","013-R5","2018/09/22 16:39:19","新北市三重區仁愛街39號","121.496656666667","25.0716433333333","6500200","三重區"
"241028","022-UY","2018/09/22 16:39:17","新北市三重區重新路三段86號","121.49331","25.06061","6500200","三重區"
"241008","059-VK","2018/09/22 16:39:24","新北市三重區永安北路一段27巷28號","121.477385","25.0755433333333","6500200","三重區"
"241031","061-VK","2018/09/22 16:39:09","新北市三重區重新路四段41巷2弄1號","121.48774","25.0576483333333","6500200","三重區"
"241015","062-VK","2018/09/22 16:39:17","新北市三重區文化北路41號","121.498996666667","25.0652316666667","6500200","三重區"
"241017","063-VK","2018/09/22 16:39:22","新北市三重區中正北路25巷9號","121.4927","25.0622","6500200","三重區"
"241024","065-VK","2018/09/22 16:39:17","新北市三重區中正北路315巷6弄70號","121.47668","25.072485","6500200","三重區"
"241026","066-VK","2018/09/22 16:39:23","新北市三重區福德南路23號","121.502585","25.06276","6500200","三重區"
"241002","090-VK","2018/09/22 16:39:07","新北市三重區仁義街241巷24號","121.496923333333","25.082975","6500200","三重區"
"241003","091-VK","2018/09/22 16:20:12","新北市三重區仁義街220巷35號","121.49406","25.083455","6500200","三重區"
"251014","742-BX","2018/09/22 16:39:14","新北市淡水區淡金路三段15號","121.445978333333","25.1973116666667","6501000","淡水區"
"241005","262-UM","2018/09/22 16:39:20","新北市三重區仁華街117號","121.486868333333","25.083025","6500200","三重區"
"241016","266-UM","2018/09/22 16:39:23","新北市三重區大智街17號","121.49449","25.0653333333333","6500200","三重區"
"241009","267-UM","2018/09/22 16:39:21","新北市三重區三和路四段203巷69號","121.483658333333","25.07986","6500200","三重區"
"241018","268-UM","2018/09/22 16:39:20","新北市三重區六張街71號","121.493571666667","25.070205","6500200","三重區"
"241032","269-UM","2018/09/22 16:39:15","新北市三重區中山路40巷1-1號","121.486035","25.061345","6500200","三重區"
"241013","270-UM","2018/09/22 16:39:18","新北市三重區三和路三段101巷64號","121.496308333333","25.0730016666667","6500200","三重區"
"241025","271-UM","2018/09/22 16:39:20","新北市三重區中正北路430號","121.474653333333","25.0710183333333","6500200","三重區"
"241007","398-BY","2018/09/22 16:39:07","新北市三重區三和路四段167巷108號","121.486021666667","25.0797066666667","6500200","三重區"
"241004","475-VK","2018/09/22 16:39:24","新北市三重區五福街5號","121.49297","25.081655","6500200","三重區"
"241020","478-VK","2018/09/22 16:39:22","新北市三重區後竹圍街206號","121.485965","25.0717133333333","6500200","三重區"
"241014","543-UM","2018/09/22 16:39:06","新北市三重區長安街120號","121.502925","25.06798","6500200","三重區"
"241023","545-UM","2018/09/22 16:39:20","新北市三重區忠孝路三段50巷43號","121.482883333333","25.0644533333333","6500200","三重區"
"241001","547-UM","2018/09/22 16:39:05","新北市三重區仁愛街277號","121.492798333333","25.0787166666667","6500200","三重區"
"241019","KEA-2593","2018/09/22 16:39:10","新北市三重區安慶街331號","121.487683333333","25.0671266666667","6500200","三重區"
"241006","AAD-863","2018/09/22 16:39:07","新北市三重區車路頭街138-2號","121.483621666667","25.07551","6500200","三重區"
"241030","743-BX","2018/09/22 16:35:24","新北市三重區成功路50巷43號","121.487843333333","25.0495766666667","6500200","三重區"
"241022","887-TS","2018/09/22 16:39:22","新北市三重區新北大道一段92巷6號","121.485766666667","25.0617766666667","6500200","三重區"
"241012","941-UM","2018/09/22 16:39:06","新北市三重區仁興街4巷15號","121.499496666667","25.0737733333333","6500200","三重區"
"241029","942-UM","2018/09/22 16:39:22","新北市三重區集美街112巷13號","121.489448333333","25.0541766666667","6500200","三重區"
"241033","AAC-255","2018/09/22 16:39:20","新北市三重區光復路一段99巷4號","121.472935","25.0509766666667","6500200","三重區"
"247024","500-BY","2018/09/22 16:39:18","新北市五股區成泰路三段436號","121.45184","25.099065","6501400","蘆洲區"
"247010","056-VK","2018/09/22 16:39:17","新北市五股區中興路三段163號","121.449138333333","25.0806283333333","6501400","蘆洲區"
"247022","001-UY","2018/09/22 16:39:11","新北市五股區中興路三段2巷10號","121.449353333333","25.0808583333333","6501400","蘆洲區"
"228002","663-BX","2018/09/22 16:39:20","新北市貢寮區貢寮里朝陽街24號","121.91137","25.02161","6502600","貢寮區"
"224006","676-BX","2018/09/22 16:39:04","新北市瑞芳區大寮路356號","121.784658333333","25.1029766666667","6501200","瑞芳區"
"224007","275-VK","2018/09/22 16:39:18","新北市瑞芳區月眉路55號","121.760446666667","25.110605","6501200","瑞芳區"
"224005","271-BY","2018/09/22 16:39:12","新北市瑞芳區海濱路2巷1號","121.839501666667","25.1276866666667","6501200","瑞芳區"
"227010","642-TC","2018/09/22 16:39:21","新北市雙溪區牡丹里中正路66號","121.865053333333","25.0438166666667","6502500","雙溪區"
"227002","400-TW","2018/09/22 16:39:16","新北市雙溪區外柑里外柑腳56號","121.807976666667","25.017875","6502500","雙溪區"
"251013","KEA-2871","2018/09/22 16:39:06","新北市淡水區楓樹湖1-5號","121.494836666667","25.1905716666667","6501000","淡水區"
"251016","179-VK","2018/09/22 16:39:15","新北市淡水區新民街一段8巷10號","121.434235","25.18362","6501000","淡水區"
"251008","181-VK","2018/09/22 16:39:05","台北市北投區中央北路四段30巷158號","121.474398333333","25.141055","6501000","淡水區"
"251011","650-BX","2018/09/22 16:39:21","新北市淡水區中正路二段31號","121.419378333333","25.18172","6501000","淡水區"
"252002","AAC-283","2018/09/22 16:39:07","新北市三芝區晴光街4號","121.510735","25.25765","6502100","三芝區"
"239003","360-BY","2018/09/22 16:39:23","新北市鶯歌區二甲路171-1號","121.343978333333","24.9356266666667","6500800","鶯歌區"
