"lineid","car","time","location","longitude","latitude","cityid","cityname"
"249005","172-UM","2018/09/22 17:29:19","新北市八里區荖阡坑路69號","121.40656","25.12647","6502300","八里區"
"249001","173-UM","2018/09/22 17:29:21","新北市八里區大崁腳47-2號","121.424263333333","25.1589083333333","6502300","八里區"
"249004","303-UY","2018/09/22 17:29:04","新北市八里區賢一街219號","121.415621666667","25.1558933333333","6502300","八里區"
"249002","305-UY","2018/09/22 17:29:15","新北市八里區龍米路二段50號","121.44819","25.140715","6502300","八里區"
"249003","593-UM","2018/09/22 17:29:09","新北市八里區中山路二段378號","121.400693333333","25.1480383333333","6502300","八里區"
"232011","375-UM","2018/09/22 17:29:24","新北市坪林區北宜路八段213號","121.708691666667","24.9349","6502000","坪林區"
"244023","069-UM","2018/09/22 17:29:13","新北市林口區東明一街35巷2號","121.392171666667","25.07204","6501700","林口區"
"244007","080-UY","2018/09/22 17:29:26","新北市林口區湖子8-2號","121.392026666667","25.0921816666667","6501700","林口區"
"244019","403-UM","2018/09/22 17:29:16","新北市林口區公園路170號","121.37238","25.0724533333333","6501700","林口區"
"244013","KEA-2802","2018/09/22 17:29:23","新北市林口區中山路256-1號","121.385325","25.0795783333333","6501700","林口區"
"244017","485-VK","2018/09/22 17:29:12","新北市林口區仁愛路二段201-1號","121.377906666667","25.0747533333333","6501700","林口區"
"244009","656-BX","2018/09/22 17:29:21","新北市林口區文化一路二段337號","121.38618","25.0867733333333","6501700","林口區"
"244011","701-TV","2018/09/22 17:29:10","新北市林口區中正路345巷1弄1號","121.387938333333","25.0773516666667","6501700","林口區"
"244025","837-TS","2018/09/22 17:29:18","新北市林口區文化三路一段359-1號","121.364665","25.0728383333333","6501700","林口區"
"244021","838-TS","2018/09/22 17:29:21","新北市林口區醒吾新村2號","121.396373333333","25.079175","6501700","林口區"
"231046","107-UY","2018/09/22 17:29:10","新北市新店區直潭路92號","121.530916666667","24.9375983333333","6500600","新店區"
"241011","013-R5","2018/09/22 17:29:15","新北市三重區介壽路39巷160號","121.502005","25.07088","6500200","三重區"
"241028","022-UY","2018/09/22 17:29:17","新北市三重區過圳街3-1號","121.489511666667","25.0584983333333","6500200","三重區"
"241015","062-VK","2018/09/22 17:29:17","新北市三重區三和路一段47巷18-2號","121.503795","25.0657266666667","6500200","三重區"
"241017","063-VK","2018/09/22 17:29:22","新北市三重區大同北路34巷50號","121.49368","25.0620166666667","6500200","三重區"
"241024","065-VK","2018/09/22 17:29:17","新北市三重區大勇街49號","121.481338333333","25.07194","6500200","三重區"
"241026","066-VK","2018/09/22 17:29:23","新北市三重區文化南路42號","121.500353333333","25.060315","6500200","三重區"
"241003","091-VK","2018/09/22 17:29:11","新北市三重區五華街141巷58號","121.493418333333","25.0865733333333","6500200","三重區"
"251014","742-BX","2018/09/22 17:28:34","新北市淡水區公埔子20-8號","121.469355","25.2281483333333","6501000","淡水區"
"241005","262-UM","2018/09/22 17:29:20","新北市三重區永安北路二段33號","121.482403333333","25.0821266666667","6500200","三重區"
"241016","266-UM","2018/09/22 17:29:23","新北市三重區信義西街140號","121.495448333333","25.0641133333333","6500200","三重區"
"241018","268-UM","2018/09/22 17:29:20","新北市三重區新北大道一段3-1號","121.490303333333","25.0613766666667","6500200","三重區"
"241013","270-UM","2018/09/22 17:29:18","新北市三重區仁福街64巷38號","121.497243333333","25.0760166666667","6500200","三重區"
"241025","271-UM","2018/09/22 17:29:20","新北市三重區中正北路313號","121.473955","25.0715","6500200","三重區"
"241007","398-BY","2018/09/22 17:29:07","新北市三重區三和路四段145巷94號","121.48665","25.0789616666667","6500200","三重區"
"241020","478-VK","2018/09/22 17:29:22","新北市三重區忠孝路二段4號","121.486828333333","25.071285","6500200","三重區"
"241014","543-UM","2018/09/22 17:29:06","新北市三重區安和路17號","121.501366666667","25.06847","6500200","三重區"
"241023","545-UM","2018/09/22 17:29:20","新北市三重區三民街146巷3弄2號","121.481646666667","25.0646183333333","6500200","三重區"
"241001","547-UM","2018/09/22 17:29:05","新北市三重區仁愛街269巷6-1號","121.49333","25.0790033333333","6500200","三重區"
"241019","KEA-2593","2018/09/22 17:29:23","新北市三重區自強路二段36號","121.489141666667","25.0693766666667","6500200","三重區"
"241030","743-BX","2018/09/22 17:29:24","新北市三重區環河南路220-8號","121.493363333333","25.052735","6500200","三重區"
"241012","941-UM","2018/09/22 17:29:26","新北市三重區仁興街39巷3號","121.499126666667","25.0756","6500200","三重區"
"241033","AAC-255","2018/09/22 17:29:20","新北市三重區興德路129號","121.47034","25.053015","6500200","三重區"
"247012","KEA-2869","2018/09/22 17:29:20","新北市蘆洲區民族路33巷2號","121.477978333333","25.0851516666667","6501400","蘆洲區"
"247002","893-R6","2018/09/22 17:29:25","新北市蘆洲區永樂街38巷65號","121.458566666667","25.0903633333333","6501400","蘆洲區"
"247014","546-UM","2018/09/22 17:29:22","新北市蘆洲區光華路22巷57號","121.467971666667","25.08508","6501400","蘆洲區"
"247024","500-BY","2018/09/22 17:29:18","新北市蘆洲區長興路393號","121.461446666667","25.0917033333333","6501400","蘆洲區"
"247014","339-TH","2018/09/22 17:29:12","新北市蘆洲區三民路33號","121.475446666667","25.0830233333333","6501400","蘆洲區"
"247006","337-TH","2018/09/22 17:29:11","新北市蘆洲區九芎街90巷31號","121.464386666667","25.0813466666667","6501400","蘆洲區"
"247008","336-TH","2018/09/22 17:29:06","新北市蘆洲區成功路3號","121.473736666667","25.078","6501400","蘆洲區"
"247020","057-VK","2018/09/22 17:29:10","新北市蘆洲區水湳街397號","121.470128333333","25.093885","6501400","蘆洲區"
"247010","056-VK","2018/09/22 17:29:17","新北市蘆洲區信義路134號","121.47968","25.0829133333333","6501400","蘆洲區"
"247018","007-UY","2018/09/22 17:29:18","新北市蘆洲區民義街22巷20號","121.471823333333","25.0880433333333","6501400","蘆洲區"
"247004","002-UY","2018/09/22 17:29:13","新北市蘆洲區中原路24號","121.460248333333","25.0828533333333","6501400","蘆洲區"
"247022","001-UY","2018/09/22 17:29:11","新北市蘆洲區三民路226號","121.468556666667","25.0894266666667","6501400","蘆洲區"
"228003","097-TW","2018/09/22 17:29:26","新北市貢寮區仁理村仁和路2-2號","121.923338333333","25.04848","6502600","貢寮區"
"228001","212-TW","2018/09/22 17:29:12","新北市貢寮區仁理村仁愛路50號","121.925315","25.0533683333333","6502600","貢寮區"
"228002","663-BX","2018/09/22 17:29:20","新北市貢寮區福隆里興隆街24-1號","121.944208333333","25.0166166666667","6502600","貢寮區"
"224006","676-BX","2018/09/22 17:29:25","新北市瑞芳區靜安路四段98號","121.793298333333","25.1104516666667","6501200","瑞芳區"
"224008","285-BY","2018/09/22 17:29:12","新北市瑞芳區侯硐路302號","121.831913333333","25.0897016666667","6501200","瑞芳區"
"224009","273-VK","2018/09/22 17:29:12","新北市瑞芳區汽車路10號","121.846401666667","25.11051","6501200","瑞芳區"
"224005","271-BY","2018/09/22 17:29:12","新北市瑞芳區洞頂路319號","121.85984","25.123465","6501200","瑞芳區"
"227010","642-TC","2018/09/22 17:29:21","新北市雙溪區三貂里定福路31號","121.852203333333","25.0750433333333","6502500","雙溪區"
"227002","400-TW","2018/09/22 17:29:23","新北市雙溪區雙溪里太平路16號","121.864366666667","25.0352166666667","6502500","雙溪區"
"251009","008-UM","2018/09/22 17:29:20","新北市淡水區新生街30巷26號","121.439376666667","25.1732216666667","6501000","淡水區"
"251005","010-UM","2018/09/22 17:29:16","新北市淡水區鄧公路31巷11號","121.451738333333","25.1707166666667","6501000","淡水區"
"251002","012-UM","2018/09/22 17:29:09","新北市淡水區中正路243號","121.43403","25.1742033333333","6501000","淡水區"
"251013","KEA-2871","2018/09/22 17:29:26","新北市淡水區水尾子3號","121.464815","25.1951283333333","6501000","淡水區"
"251016","179-VK","2018/09/22 17:29:15","新北市淡水區埤島71號","121.456768333333","25.1929333333333","6501000","淡水區"
"251015","180-VK","2018/09/22 17:29:10","新北市淡水區三空泉16號","121.472695","25.1641616666667","6501000","淡水區"
"251008","181-VK","2018/09/22 17:29:05","新北市淡水區大同路124巷18號","121.463608333333","25.1400083333333","6501000","淡水區"
"251010","413-VK","2018/09/22 17:29:21","新北市淡水區中正路二段206號","121.426328333333","25.1890633333333","6501000","淡水區"
"251012","441-VK","2018/09/22 17:29:11","新北市淡水區北新路139號","121.449448333333","25.178905","6501000","淡水區"
"251007","442-VK","2018/09/22 17:29:13","新北市淡水區民生路48號","121.461835","25.1379216666667","6501000","淡水區"
"251004","443-VK","2018/09/22 17:16:05","新北市淡水區中正東路二段88巷15號","121.459123333333","25.1504933333333","6501000","淡水區"
"251006","561-UM","2018/09/22 17:29:20","新北市淡水區大仁街28-3號","121.442536666667","25.1752266666667","6501000","淡水區"
"251011","650-BX","2018/09/22 17:29:21","新北市淡水區坪頂路718號","121.482551666667","25.1585216666667","6501000","淡水區"
"251003","673-BX","2018/09/22 17:29:17","新北市淡水區中山路159-1號","121.4408","25.1729633333333","6501000","淡水區"
"207003","550-UM","2018/09/22 17:29:19","新北市萬里區龜吼里玉田路46-10號","121.683258333333","25.1891783333333","6502800","萬里區"
"207004","225-TW","2018/09/22 17:29:10","新北市萬里區萬里里景美路15-1號","121.686546666667","25.1734133333333","6502800","萬里區"
"252001","292-VK","2018/09/22 17:29:09","新北市三芝區淡金路一段3號","121.498158333333","25.259675","6502100","三芝區"
"252002","AAC-283","2018/09/22 17:29:07","新北市三芝區忠孝街1-14號","121.505555","25.2539733333333","6502100","三芝區"
"237016","649-BX","2018/09/22 17:29:09","新北市三峽區中山路138號","121.365231666667","24.9360966666667","6500900","三峽區"
"242036","AAC-296","2018/09/22 17:29:06","新北市新莊區新樹路138-1號","121.435108333333","25.02371","6500500","新莊區"
"242058","986-R7","2018/09/22 17:29:19","新北市新莊區中正路516-31號","121.432926666667","25.03223","6500500","新莊區"
"242056","751-BX","2018/09/22 17:29:17","新北市新莊區景德路276號","121.448173333333","25.0336716666667","6500500","新莊區"
"242029","705-TV","2018/09/22 17:29:15","新北市新莊區復興路二段194號","121.459336666667","25.0443666666667","6500500","新莊區"
"242027","615-BX","2018/09/22 17:29:21","新北市新莊區思源路103號","121.460251666667","25.04148","6500500","新莊區"
"242025","613-BX","2018/09/22 17:29:12","新北市新莊區復興路二段39號","121.454413333333","25.0441466666667","6500500","新莊區"
"242044","566-BX","2018/09/22 17:29:13","新北市新莊區富國路101-1號","121.421383333333","25.0255383333333","6500500","新莊區"
"242048","497-BY","2018/09/22 17:29:15","新北市新莊區四維路210號","121.421325","25.0201116666667","6500500","新莊區"
"242053","442-UM","2018/09/22 17:29:22","新北市新莊區新樹路663號","121.43256","25.0029333333333","6500500","新莊區"
"242039","415-TV","2018/09/22 17:29:24","新北市新莊區民安路288號","121.427968333333","25.0215916666667","6500500","新莊區"
"242009","413-TV","2018/09/22 17:29:15","新北市新莊區中原路107號","121.455895","25.0544016666667","6500500","新莊區"
"242046","400-BY","2018/09/22 17:29:12","新北市新莊區新樹路47號","121.44017","25.0320866666667","6500500","新莊區"
"242023","362-BY","2018/09/22 17:29:17","新北市新莊區公園路41號","121.453236666667","25.0402433333333","6500500","新莊區"
"242061","353-BY","2018/09/22 17:29:22","新北市新莊區瓊林南路50號","121.435825","25.0174","6500500","新莊區"
"242011","132-UY","2018/09/22 17:29:14","新北市新莊區中港路467號","121.452366666667","25.0489983333333","6500500","新莊區"
"242042","133-UY","2018/09/22 17:29:13","新北市新莊區新樹路115-1號","121.437533333333","25.0266566666667","6500500","新莊區"
"242019","175-VK","2018/09/22 17:29:18","新北市新莊區中港路76號","121.455506666667","25.0389783333333","6500500","新莊區"
"242007","176-VK","2018/09/22 17:29:06","新北市新莊區自立街77號","121.45437","25.0454283333333","6500500","新莊區"
"242017","346-TH","2018/09/22 17:29:24","新北市新莊區建豐街16號","121.452093333333","25.043925","6500500","新莊區"
"242031","348-TH","2018/09/22 17:29:17","新北市新莊區新泰路413巷22號","121.442481666667","25.0444383333333","6500500","新莊區"
"242004","349-TH","2018/09/22 17:29:11","新北市新莊區中港路295號","121.452823333333","25.04427","6500500","新莊區"
"242021","350-TH","2018/09/22 17:29:08","新北市新莊區中華路一段18號","121.452108333333","25.0371716666667","6500500","新莊區"
"242015","351-TH","2018/09/22 17:29:14","新北市新莊區新泰路161號","121.447785","25.0370316666667","6500500","新莊區"
"238015","755-BX","2018/09/22 17:29:16","新北市樹林區保安街一段73號","121.422906666667","24.99506","6500700","樹林區"
"238019","599-UM","2018/09/22 17:29:04","新北市樹林區太平路57號","121.419108333333","24.9821833333333","6500700","樹林區"
"238018","571-TV","2018/09/22 17:29:16","新北市樹林區博愛街226巷7號","121.424286666667","24.988825","6500700","樹林區"
"238024","5061-A6","2018/09/22 17:29:25","新北市樹林區水源街213號","121.423986666667","24.987295","6500700","樹林區"
"238022","KEA-2213","2018/09/22 17:29:12","新北市樹林區仁愛街51號","121.422565","24.9822083333333","6500700","樹林區"
"238021","KEA-2539","2018/09/22 17:29:23","新北市樹林區西圳街一段203巷7號","121.393073333333","24.9602116666667","6500700","樹林區"
"238025","303-VK","2018/09/22 17:29:22","新北市樹林區保安街一段296號","121.419098333333","24.9973366666667","6500700","樹林區"
"238017","283-BY","2018/09/22 17:29:14","新北市樹林區三德街8號","121.413266666667","25.01258","6500700","樹林區"
"238014","282-BY","2018/09/22 17:29:15","新北市樹林區保安街一段245號","121.41974","24.996355","6500700","樹林區"
"238020","268-VK","2018/09/22 17:29:24","新北市樹林區俊英街24-1號","121.429281666667","25.0016716666667","6500700","樹林區"
"238026","172-UY","2018/09/22 17:29:06","新北市樹林區中山路二段219號","121.402795","24.9762966666667","6500700","樹林區"
"238016","169-UY","2018/09/22 17:29:25","新北市樹林區長壽街2巷5-4號","121.424108333333","24.9934366666667","6500700","樹林區"
"239007","AAC-297","2018/09/22 17:29:17","新北市鶯歌區行政路93號","121.35438","24.9564766666667","6500800","鶯歌區"
"239006","891-R6","2018/09/22 17:29:17","新北市鶯歌區鶯桃路472巷5號","121.332713333333","24.9657566666667","6500800","鶯歌區"
"239008","527-UM","2018/09/22 17:29:20","新北市鶯歌區大湖路576號","121.336326666667","24.9735033333333","6500800","鶯歌區"
"239005","526-UM","2018/09/22 17:29:10","桃園市桃園區大仁路101巷1號","121.323608333333","24.9712116666667","6500800","鶯歌區"
"239001","417-VK","2018/09/22 17:29:10","新北市鶯歌區高職西街41-1號","121.337333333333","24.9423216666667","6500800","鶯歌區"
"239003","360-BY","2018/09/22 17:29:23","新北市鶯歌區鶯桃路277號","121.33521","24.9600716666667","6500800","鶯歌區"
"239002","359-BY","2018/09/22 17:29:17","新北市鶯歌區南雅路26號","121.349193333333","24.9539466666667","6500800","鶯歌區"
"239004","193-VK","2018/09/22 17:29:13","新北市鶯歌區三鶯路2號","121.356691666667","24.9411383333333","6500800","鶯歌區"
"242002","281-VK","2018/09/22 17:29:22","新北市新莊區新莊路154號","121.455236666667","25.035445","6500500","新莊區"
"242034","280-VK","2018/09/22 17:29:16","新北市新莊區新莊路368號","121.449395","25.0335316666667","6500500","新莊區"
