"lineid","car","time","location","longitude","latitude","cityid","cityname"
"234026","9371-KE","2018/09/22 17:39:06","新北市永和區中正路700號","121.516356666667","25.0099383333333","6500400","永和區"
"249005","172-UM","2018/09/22 17:39:19","新北市八里區荖阡坑路41-6號","121.402268333333","25.132665","6502300","八里區"
"249001","173-UM","2018/09/22 17:39:21","新北市八里區龍米路二段150號","121.435768333333","25.1568016666667","6502300","八里區"
"249004","303-UY","2018/09/22 17:39:04","新北市八里區大崁二街12-1號","121.41859","25.1573816666667","6502300","八里區"
"249002","305-UY","2018/09/22 17:39:15","新北市八里區石壁腳19號","121.441726666667","25.1353416666667","6502300","八里區"
"249003","593-UM","2018/09/22 17:39:09","新北市八里區中山路二段149號","121.405053333333","25.1510133333333","6502300","八里區"
"232011","375-UM","2018/09/22 17:39:04","新北市坪林區北宜路八段99號","121.706031666667","24.9348816666667","6502000","坪林區"
"244023","069-UM","2018/09/22 17:39:16","新北市林口區東明一街115巷5號","121.39062","25.07057","6501700","林口區"
"244007","080-UY","2018/09/22 17:39:06","新北市林口區林口路270號","121.386203333333","25.0845966666667","6501700","林口區"
"244019","403-UM","2018/09/22 17:39:16","新北市林口區文化一路一段83巷14弄41號","121.371746666667","25.0710366666667","6501700","林口區"
"244013","KEA-2802","2018/09/22 17:39:06","新北市林口區中正路488號","121.382445","25.07738","6501700","林口區"
"244017","485-VK","2018/09/22 17:39:12","新北市林口區文化二路一段256號","121.370676666667","25.0733566666667","6501700","林口區"
"244009","656-BX","2018/09/22 17:39:21","新北市林口區寶林路103號","121.383736666667","25.0850966666667","6501700","林口區"
"244011","701-TV","2018/09/22 17:39:10","新北市林口區佳林路148號","121.384178333333","25.0771433333333","6501700","林口區"
"244025","837-TS","2018/09/22 17:39:18","新北市林口區民族路14號","121.364078333333","25.0737266666667","6501700","林口區"
"244021","838-TS","2018/09/22 17:39:21","新北市林口區仁愛路一段211巷113號","121.397675","25.074435","6501700","林口區"
"231046","107-UY","2018/09/22 17:39:10","新北市新店區直潭路92號","121.530946666667","24.9376216666667","6500600","新店區"
"241017","063-VK","2018/09/22 17:39:22","新北市三重區重新路二段99號","121.4955","25.0619483333333","6500200","三重區"
"241024","065-VK","2018/09/22 17:39:17","新北市三重區車路頭街62巷24號","121.483216666667","25.0722283333333","6500200","三重區"
"251014","742-BX","2018/09/22 17:39:14","新北市淡水區水碓7-1號","121.477215","25.2222183333333","6501000","淡水區"
"241005","262-UM","2018/09/22 17:39:20","新北市三重區碧華街135號","121.486273333333","25.08194","6500200","三重區"
"241016","266-UM","2018/09/22 17:39:23","新北市三重區正義北路10號","121.497543333333","25.0627833333333","6500200","三重區"
"241007","398-BY","2018/09/22 17:39:06","新北市三重區車路頭街163號","121.483658333333","25.07739","6500200","三重區"
"241014","543-UM","2018/09/22 17:39:26","新北市三重區河邊北街72-6號","121.504388333333","25.0684483333333","6500200","三重區"
"241023","545-UM","2018/09/22 17:39:20","新北市三重區中華路117號","121.483628333333","25.0636316666667","6500200","三重區"
"241001","547-UM","2018/09/22 17:39:25","新北市三重區仁愛街276號","121.49253","25.0788116666667","6500200","三重區"
"241019","KEA-2593","2018/09/22 17:39:10","新北市三重區六張街180號","121.488723333333","25.0686283333333","6500200","三重區"
"241012","941-UM","2018/09/22 17:39:26","新北市三重區龍濱路285號","121.501026666667","25.0734116666667","6500200","三重區"
"241033","AAC-255","2018/09/22 17:39:20","新北市三重區光復路一段51號","121.472145","25.0489183333333","6500200","三重區"
"235064","005-UY","2018/09/22 17:39:13","新北市中和區員山路36巷16-3號","121.485045","24.9914283333333","6500300","中和區"
"235065","098-UM","2018/09/22 17:39:05","新北市中和區員山路36巷16-3號","121.485221666667","24.9910283333333","6500300","中和區"
"247012","KEA-2869","2018/09/22 17:39:20","新北市蘆洲區民權路30號","121.476433333333","25.0861233333333","6501400","蘆洲區"
"247002","893-R6","2018/09/22 17:39:15","新北市蘆洲區永平街65號","121.45735","25.09154","6501400","蘆洲區"
"247014","546-UM","2018/09/22 17:39:22","新北市蘆洲區中正路185巷25弄32號","121.467406666667","25.08333","6501400","蘆洲區"
"247024","500-BY","2018/09/22 17:39:18","新北市蘆洲區長樂路125-1號","121.462148333333","25.0880416666667","6501400","蘆洲區"
"247014","339-TH","2018/09/22 17:39:12","新北市蘆洲區中山二路114號","121.472188333333","25.0817633333333","6501400","蘆洲區"
"247006","337-TH","2018/09/22 17:39:11","新北市蘆洲區長安街68巷7號","121.462935","25.0804583333333","6501400","蘆洲區"
"247008","336-TH","2018/09/22 17:39:06","新北市蘆洲區和平路29巷9號","121.472081666667","25.0786433333333","6501400","蘆洲區"
"247020","057-VK","2018/09/22 17:39:10","新北市蘆洲區民族路448號","121.472526666667","25.0919333333333","6501400","蘆洲區"
"247010","056-VK","2018/09/22 17:39:17","新北市蘆洲區集賢路416號","121.479773333333","25.0813116666667","6501400","蘆洲區"
"247018","007-UY","2018/09/22 17:39:08","新北市蘆洲區三民路98巷11號","121.472726666667","25.0872116666667","6501400","蘆洲區"
"247004","002-UY","2018/09/22 17:39:12","新北市蘆洲區長安街249巷35號","121.457611666667","25.0824683333333","6501400","蘆洲區"
"247022","001-UY","2018/09/22 17:39:11","新北市蘆洲區民族路548巷10號","121.467571666667","25.0893816666667","6501400","蘆洲區"
"228003","097-TW","2018/09/22 17:39:11","新北市貢寮區仁理村仁和路214號","121.923688333333","25.0530833333333","6502600","貢寮區"
"228001","212-TW","2018/09/22 17:39:12","新北市貢寮區仁理村仁愛路95-1號","121.92771","25.0555533333333","6502600","貢寮區"
"228002","663-BX","2018/09/22 17:39:20","新北市貢寮區福隆里外隆林街16-4號","121.958115","25.0049966666667","6502600","貢寮區"
"224006","676-BX","2018/09/22 17:39:25","新北市瑞芳區傑魚坑路60號","121.793516666667","25.1106033333333","6501200","瑞芳區"
"224008","285-BY","2018/09/22 17:39:12","新北市瑞芳區明燈路一段200號","121.83089","25.10296","6501200","瑞芳區"
"224009","273-VK","2018/09/22 17:38:52","新北市瑞芳區山尖路209號","121.849816666667","25.1117433333333","6501200","瑞芳區"
"224005","271-BY","2018/09/22 17:39:12","新北市瑞芳區海濱路8-6號","121.83166","25.126185","6501200","瑞芳區"
"227010","642-TC","2018/09/22 17:39:21","新北市雙溪區三貂里定福路1-2號","121.850713333333","25.0634633333333","6502500","雙溪區"
"251009","008-UM","2018/09/22 17:39:20","新北市淡水區中正路32號","121.4439","25.169215","6501000","淡水區"
"251005","010-UM","2018/09/22 17:39:16","新北市淡水區鄧公路31巷13號","121.451886666667","25.1707866666667","6501000","淡水區"
"251001","011-UM","2018/09/22 17:39:15","新北市淡水區自強路201巷35號","121.462276666667","25.1267083333333","6501000","淡水區"
"251002","012-UM","2018/09/22 17:39:09","新北市淡水區中山路123號","121.441503333333","25.1709916666667","6501000","淡水區"
"251013","KEA-2871","2018/09/22 17:39:15","新北市淡水區演戲埔腳6號","121.471661666667","25.19397","6501000","淡水區"
"251016","179-VK","2018/09/22 17:39:15","新北市淡水區埤島39-15號","121.452821666667","25.1958583333333","6501000","淡水區"
"251015","180-VK","2018/09/22 17:39:10","新北市淡水區糞箕湖1-2號","121.482085","25.17017","6501000","淡水區"
"251008","181-VK","2018/09/22 17:39:25","新北市淡水區八勢路一段98-2號","121.46747","25.1557916666667","6501000","淡水區"
"251010","413-VK","2018/09/22 17:39:21","新北市淡水區淡海路280巷16號","121.419816666667","25.1898333333333","6501000","淡水區"
"251012","441-VK","2018/09/22 17:39:11","新北市淡水區北新路200巷8號","121.451763333333","25.179685","6501000","淡水區"
"251007","442-VK","2018/09/22 17:39:19","新北市淡水區民生路124巷2號","121.463885","25.1380983333333","6501000","淡水區"
"251004","443-VK","2018/09/22 17:39:18","新北市淡水區中正東路二段141號","121.459313333333","25.1478033333333","6501000","淡水區"
"251006","561-UM","2018/09/22 17:39:20","新北市淡水區大信街24巷2號","121.44198","25.1767833333333","6501000","淡水區"
"251011","650-BX","2018/09/22 17:39:21","新北市淡水區小坪頂71號","121.48465","25.1586366666667","6501000","淡水區"
"251003","673-BX","2018/09/22 17:39:17","新北市淡水區中山北路一段89號","121.442313333333","25.1762683333333","6501000","淡水區"
"207003","550-UM","2018/09/22 17:39:17","新北市萬里區龜吼里漁澳路16-2號","121.686918333333","25.1949116666667","6502800","萬里區"
"207004","225-TW","2018/09/22 17:39:10","新北市萬里區中幅里中福路8-1號","121.685895","25.164905","6502800","萬里區"
"252001","292-VK","2018/09/22 17:39:09","新北市三芝區淡金路一段83號","121.502075","25.25898","6502100","三芝區"
"252002","AAC-283","2018/09/22 17:39:26","新北市三芝區智成街88號","121.505136666667","25.2556833333333","6502100","三芝區"
"237013","252-BX","2018/09/22 17:39:19","新北市三峽區介壽路一段21-1號","121.375445","24.933455","6500900","三峽區"
"237011","KEA-2596","2018/09/22 17:39:18","新北市三峽區中山路80號","121.366881666667","24.93517","6500900","三峽區"
"237016","649-BX","2018/09/22 17:39:09","新北市三峽區白雞30號","121.369166666667","24.9124166666667","6500900","三峽區"
"237010","706-TV","2018/09/22 17:39:09","新北市三峽區中山路121號","121.365473333333","24.935945","6500900","三峽區"
"236070","105-UM","2018/09/22 17:39:16","新北市土城區城林路6巷80號","121.438748333333","24.97982","6501300","土城區"
"236079","166-UM","2018/09/22 17:38:51","新北市土城區城林路6巷80號","121.438666666667","24.9798","6501300","土城區"
"236030","253-BX","2018/09/22 17:39:10","新北市土城區城林路6巷80號","121.438615","24.9797183333333","6501300","土城區"
"236014","270-VK","2018/09/22 17:39:20","新北市土城區城林路6巷80號","121.438553333333","24.979685","6501300","土城區"
"236038","271-VK","2018/09/22 17:39:22","新北市土城區城林路6巷80號","121.43854","24.9796283333333","6501300","土城區"
"242036","AAC-296","2018/09/22 17:39:06","新北市新莊區建福路59巷33號","121.428118333333","25.0277433333333","6500500","新莊區"
"242058","986-R7","2018/09/22 17:39:19","新北市新莊區中正路723-9號","121.422885","25.0290883333333","6500500","新莊區"
"242056","751-BX","2018/09/22 17:39:17","新北市新莊區泰豐街17號","121.448401666667","25.0315966666667","6500500","新莊區"
"242029","705-TV","2018/09/22 17:39:14","新北市新莊區復興路二段11號","121.453628333333","25.0440033333333","6500500","新莊區"
"242027","615-BX","2018/09/22 17:39:21","新北市新莊區福壽街107號","121.45795","25.0507833333333","6500500","新莊區"
"242025","613-BX","2018/09/22 17:39:24","新北市新莊區思源路108號","121.460263333333","25.0465633333333","6500500","新莊區"
"242044","566-BX","2018/09/22 17:39:13","新北市新莊區中正路871巷9弄2號","121.418763333333","25.0267533333333","6500500","新莊區"
"242048","497-BY","2018/09/22 17:39:15","新北市新莊區萬安街129號","121.420703333333","25.02232","6500500","新莊區"
"242053","442-UM","2018/09/22 17:39:22","新北市新莊區新樹路412號","121.432131666667","25.0023933333333","6500500","新莊區"
"242039","415-TV","2018/09/22 17:39:04","新北市新莊區民安路336號","121.42904","25.0221883333333","6500500","新莊區"
"242009","413-TV","2018/09/22 17:39:14","新北市新莊區福壽街169巷16弄2號","121.45708","25.053845","6500500","新莊區"
"242046","400-BY","2018/09/22 17:39:12","新北市新莊區建國一路13號","121.433828333333","25.0317383333333","6500500","新莊區"
"242023","362-BY","2018/09/22 17:39:17","新北市新莊區民樂街50號","121.458055","25.0415866666667","6500500","新莊區"
"242061","353-BY","2018/09/22 17:39:22","新北市新莊區瓊林南路118-36號","121.434043333333","25.01035","6500500","新莊區"
"242011","132-UY","2018/09/22 17:39:26","新北市新莊區中港路556-1號","121.45167","25.052985","6500500","新莊區"
"242042","133-UY","2018/09/22 17:39:13","新北市新莊區中正路514巷97號","121.431031666667","25.0343166666667","6500500","新莊區"
"242019","175-VK","2018/09/22 17:39:18","新北市新莊區中港路178號","121.454923333333","25.0419966666667","6500500","新莊區"
"242007","176-VK","2018/09/22 17:39:06","新北市新莊區福樂街71巷1號","121.45705","25.0477683333333","6500500","新莊區"
"242017","346-TH","2018/09/22 17:37:07","新北市新莊區中和街40巷20號","121.448991666667","25.0441833333333","6500500","新莊區"
"242031","348-TH","2018/09/22 17:39:17","新北市新莊區新泰路369巷24號","121.442331666667","25.0433133333333","6500500","新莊區"
"242004","349-TH","2018/09/22 17:39:17","新北市新莊區自立街192號","121.456408333333","25.0454966666667","6500500","新莊區"
"242021","350-TH","2018/09/22 17:39:16","新北市新莊區中華路一段118號","121.45246","25.0405966666667","6500500","新莊區"
"242015","351-TH","2018/09/22 17:39:14","新北市新莊區新泰路285號","121.445588333333","25.0405966666667","6500500","新莊區"
"238015","755-BX","2018/09/22 17:39:27","新北市樹林區樹德街116號","121.41951","24.9927383333333","6500700","樹林區"
"238023","601-UM","2018/09/22 17:39:23","新北市樹林區三福街70巷18號","121.404858333333","25.0168016666667","6500700","樹林區"
"238019","599-UM","2018/09/22 17:39:24","新北市樹林區太平路88號","121.419036666667","24.98007","6500700","樹林區"
"238018","571-TV","2018/09/22 17:39:16","新北市樹林區鎮前街3號","121.426028333333","24.9928733333333","6500700","樹林區"
"238024","5061-A6","2018/09/22 17:39:25","新北市樹林區太平路262號","121.41814","24.972425","6500700","樹林區"
"238022","KEA-2213","2018/09/22 17:39:12","新北市樹林區中華路185-2號","121.42038","24.98166","6500700","樹林區"
"238021","KEA-2539","2018/09/22 17:39:23","新北市樹林區柑園街一段253巷26號","121.396985","24.9533633333333","6500700","樹林區"
"238025","303-VK","2018/09/22 17:39:22","新北市樹林區保安街三段17號","121.412503333333","25.01048","6500700","樹林區"
"238017","283-BY","2018/09/22 17:39:14","新北市樹林區三德街30巷25號","121.414713333333","25.01241","6500700","樹林區"
"238014","282-BY","2018/09/22 17:39:15","新北市樹林區保安街一段336巷25號","121.417691666667","24.999055","6500700","樹林區"
"238020","268-VK","2018/09/22 17:39:24","新北市樹林區俊英街116巷41弄3號","121.428815","25.0062283333333","6500700","樹林區"
"238026","172-UY","2018/09/22 17:39:06","新北市樹林區新興街11巷10號","121.401698333333","24.9734783333333","6500700","樹林區"
"238016","169-UY","2018/09/22 17:39:25","新北市樹林區育英街108號","121.420258333333","24.9893783333333","6500700","樹林區"
"239007","AAC-297","2018/09/22 17:39:17","新北市鶯歌區國光街62號","121.340691666667","24.9580766666667","6500800","鶯歌區"
"239006","891-R6","2018/09/22 17:39:17","新北市鶯歌區永和街153號","121.334283333333","24.9697116666667","6500800","鶯歌區"
"239008","527-UM","2018/09/22 17:39:20","桃園市龜山區宏德司法新村7號","121.331941666667","24.97902","6500800","鶯歌區"
"239005","526-UM","2018/09/22 17:39:10","新北市鶯歌區鳳吉四街31號","121.326998333333","24.9729616666667","6500800","鶯歌區"
"239001","417-VK","2018/09/22 17:39:10","新北市鶯歌區中正三路236-1號","121.330213333333","24.93683","6500800","鶯歌區"
"239003","360-BY","2018/09/22 17:39:23","新北市鶯歌區鶯桃路204號","121.337365","24.95909","6500800","鶯歌區"
"239002","359-BY","2018/09/22 17:39:25","新北市鶯歌區育智路88號","121.345035","24.9544166666667","6500800","鶯歌區"
"239004","193-VK","2018/09/22 17:39:13","新北市鶯歌區三鶯路87號","121.35873","24.9436283333333","6500800","鶯歌區"
"221015","131-UY","2018/09/22 17:39:27","新北市汐止區康寧街901號","121.651313333333","25.0750566666667","6501100","汐止區"
"221010","269-BY","2018/09/22 17:39:10","新北市汐止區汐萬路一段418巷46號","121.65124","25.0790983333333","6501100","汐止區"
"221023","279-VK","2018/09/22 17:39:23","新北市汐止區汐萬路一段256巷1號","121.651735","25.0749033333333","6501100","汐止區"
"221032","280-BY","2018/09/22 17:39:14","新北市汐止區汐萬路一段256巷3號","121.652581666667","25.0746033333333","6501100","汐止區"
"221021","299-VK","2018/09/22 17:39:17","新北市汐止區汐萬路一段256巷3號","121.652173333333","25.0748516666667","6501100","汐止區"
"221031","353-TW","2018/09/22 17:39:19","新北市汐止區汐萬路一段256巷1號","121.651786666667","25.0749266666667","6501100","汐止區"
"242002","281-VK","2018/09/22 17:39:22","新北市新莊區新莊路254號","121.452123333333","25.0340016666667","6500500","新莊區"
"242034","280-VK","2018/09/22 17:39:22","新北市新莊區新莊路522號","121.445828333333","25.0331383333333","6500500","新莊區"
