"lineid","car","time","location","longitude","latitude","cityid","cityname"
"234026","9371-KE","2018/09/22 18:09:26","新北市永和區永和路一段72巷2號","121.51325","25.0061333333333","6500400","永和區"
"249005","172-UM","2018/09/22 18:09:19","新北市八里區荖阡坑路15-40號","121.401676666667","25.1399266666667","6502300","八里區"
"249001","173-UM","2018/09/22 18:09:21","新北市八里區龍米路二段36號","121.448516666667","25.14008","6502300","八里區"
"249004","303-UY","2018/09/22 18:09:04","新北市八里區龍米路二段148號","121.437263333333","25.1558633333333","6502300","八里區"
"249002","305-UY","2018/09/22 18:09:15","新北市八里區龍米路一段356巷20號","121.452088333333","25.1309116666667","6502300","八里區"
"249003","593-UM","2018/09/22 18:09:12","新北市八里區松子腳3-2號","121.40312","25.1442933333333","6502300","八里區"
"248014","025-BX","2018/09/22 18:09:23","新北市五股區成泰路一段205號","121.435208333333","25.0769683333333","6501500","五股區"
"248006","077-UY","2018/09/22 18:09:13","新北市五股區中興路二段81號","121.46079","25.0772","6501500","五股區"
"248008","095-VK","2018/09/22 18:09:28","新北市五股區更洲路32巷15弄9號","121.458453333333","25.0803866666667","6501500","五股區"
"248020","225-UY","2018/09/22 18:09:14","新北市蘆洲區永平街32巷69弄31號","121.455125","25.095805","6501500","五股區"
"248004","677-BX","2018/09/22 18:09:11","新北市五股區成泰路二段55號","121.437835","25.0833516666667","6501500","五股區"
"248002","678-BX","2018/09/22 18:09:23","新北市五股區新五路三段6號","121.4437","25.0869166666667","6501500","五股區"
"248010","682-TV","2018/09/22 18:09:24","新北市五股區成泰路一段221-1號","121.434036666667","25.07767","6501500","五股區"
"232011","375-UM","2018/09/22 18:09:24","新北市坪林區水柳腳11號","121.711458333333","24.935375","6502000","坪林區"
"244023","069-UM","2018/09/22 18:09:13","新北市林口區東湖路105巷27號","121.384108333333","25.072075","6501700","林口區"
"244007","080-UY","2018/09/22 18:09:26","新北市林口區林口路115號","121.38888","25.0808133333333","6501700","林口區"
"244019","403-UM","2018/09/22 18:09:16","新北市林口區麗園路62-1號","121.373085","25.0694116666667","6501700","林口區"
"244013","KEA-2802","2018/09/22 18:09:26","新北市林口區中山路154號","121.39099","25.0787266666667","6501700","林口區"
"244017","485-VK","2018/09/22 18:09:12","新北市林口區忠孝路506號","121.37082","25.07006","6501700","林口區"
"244009","656-BX","2018/09/22 18:09:21","新北市林口區竹林路608號","121.38606","25.082625","6501700","林口區"
"244011","701-TV","2018/09/22 18:09:15","新北市林口區中正路16號","121.396135","25.07759","6501700","林口區"
"244025","837-TS","2018/09/22 18:09:18","新北市林口區文化北路一段293號","121.359875","25.072615","6501700","林口區"
"244021","838-TS","2018/09/22 18:09:21","新北市林口區自強九街8號","121.400853333333","25.0761283333333","6501700","林口區"
"243013","AAD-798","2018/09/22 18:09:19","新北市泰山區南林路99巷1-1號","121.415413333333","25.0511183333333","6501600","泰山區"
"222003","436-BY","2018/09/22 18:09:20","新北市深坑區阿柔洋45號","121.612251666667","24.9980116666667","6501800","深坑區"
"222002","659-BX","2018/09/22 18:09:12","新北市深坑區文化街54號","121.618881666667","25.0017366666667","6501800","深坑區"
"231041","002-UM","2018/09/22 18:09:10","新北市新店區安華路28-1號","121.519623333333","24.9608666666667","6500600","新店區"
"231059","046-UY","2018/09/22 18:09:17","新北市新店區安華路28-1號","121.519548333333","24.9608666666667","6500600","新店區"
"231046","107-UY","2018/09/22 18:09:10","新北市新店區直潭七街60號","121.532255","24.93981","6500600","新店區"
"231052","108-UY","2018/09/22 18:07:21","新北市新店區安康路一段238-1號","121.522183333333","24.96374","6500600","新店區"
"231048","187-VK","2018/09/22 18:09:17","新北市新店區安一路一段1-1號","121.519523333333","24.9610783333333","6500600","新店區"
"231054","KEA-2219","2018/09/22 18:09:12","新北市新店區安一路一段1-1號","121.51977","24.961225","6500600","新店區"
"231057","256-BX","2018/09/22 18:09:17","新北市新店區安一路一段1-1號","121.519511666667","24.9611266666667","6500600","新店區"
"231042","268-BY","2018/09/22 18:09:08","新北市新店區安華路1-1號","121.519366666667","24.9605283333333","6500600","新店區"
"231051","278-BY","2018/09/22 18:09:10","新北市新店區安一路一段1-1號","121.519535","24.961175","6500600","新店區"
"231050","AAD-862","2018/09/22 18:09:11","新北市新店區安華路28-1號","121.519691666667","24.9610333333333","6500600","新店區"
"231043","355-BY","2018/09/22 18:09:21","新北市新店區安華路28-1號","121.519381666667","24.960965","6500600","新店區"
"231058","3713-VJ","2018/09/22 18:09:24","新北市新店區安華路28-1號","121.519428333333","24.9607216666667","6500600","新店區"
"231066","4716-K9","2018/09/22 18:09:12","新北市新店區安一路一段1-1號","121.519261666667","24.9612","6500600","新店區"
"231056","4715-K9","2018/09/22 18:09:11","新北市新店區安華路28-1號","121.519475","24.960665","6500600","新店區"
"231067","4772-VM","2018/09/22 18:09:14","新北市新店區安華路28-1號","121.51958","24.9608966666667","6500600","新店區"
"231065","512-UM","2018/09/22 18:09:10","新北市新店區安一路一段1-1號","121.519421666667","24.961295","6500600","新店區"
"231049","513-UM","2018/09/22 18:09:09","新北市新店區安一路一段1-1號","121.519583333333","24.9611383333333","6500600","新店區"
"231063","616-UM","2018/09/22 18:09:22","新北市新店區安華路1-1號","121.5194","24.96051","6500600","新店區"
"231045","617-UM","2018/09/22 18:09:17","新北市新店區安華路28-1號","121.519395","24.9607916666667","6500600","新店區"
"231061","619-UM","2018/09/22 18:09:25","新北市新店區安華路28-1號","121.519583333333","24.9608733333333","6500600","新店區"
"231064","719-UM","2018/09/22 18:09:06","新北市新店區安一路一段1-1號","121.519513333333","24.96124","6500600","新店區"
"231062","720-UM","2018/09/22 18:09:23","新北市新店區安一路一段1-1號","121.519158333333","24.96136","6500600","新店區"
"231060","897-TW","2018/09/22 18:09:13","新北市新店區安華路28-1號","121.519576666667","24.960645","6500600","新店區"
"231055","AKT-0513","2018/09/22 18:09:18","新北市新店區安華路28-1號","121.519476666667","24.96065","6500600","新店區"
"241024","065-VK","2018/09/22 18:09:17","新北市三重區中正北路201號","121.476886666667","25.0697383333333","6500200","三重區"
"251014","742-BX","2018/09/22 18:09:14","新北市淡水區南平14號","121.48548","25.2209766666667","6501000","淡水區"
"241033","AAC-255","2018/09/22 18:09:20","新北市三重區中興北街52-1號","121.468735","25.0504766666667","6500200","三重區"
"235066","003-UY","2018/09/22 18:09:13","新北市中和區錦和路350-1號","121.490541666667","24.993585","6500300","中和區"
"235064","005-UY","2018/09/22 18:09:13","新北市中和區中正路175號","121.497591666667","24.9936516666667","6500300","中和區"
"235063","006-UY","2018/09/22 18:09:22","新北市中和區員山路36巷16-3號","121.485068333333","24.9913716666667","6500300","中和區"
"235039","097-UM","2018/09/22 18:09:23","新北市中和區中正路637巷52弄1號","121.485466666667","24.9934066666667","6500300","中和區"
"235065","098-UM","2018/09/22 18:09:26","新北市中和區中山路二段2巷45弄44號","121.501688333333","25.0062566666667","6500300","中和區"
"235040","150-BY","2018/09/22 18:09:19","新北市中和區中正路395號","121.489888333333","24.9935683333333","6500300","中和區"
"235058","151-BY","2018/09/22 18:09:10","新北市中和區圓通路367巷33弄15號","121.495185","24.9851083333333","6500300","中和區"
"235055","183-VK","2018/09/22 18:09:25","新北市中和區員山路36巷16-3號","121.485033333333","24.9913833333333","6500300","中和區"
"235038","185-VK","2018/09/22 18:09:11","新北市中和區景德街86號","121.516286666667","24.9918933333333","6500300","中和區"
"235067","255-BX","2018/09/22 18:09:09","新北市中和區和城路一段271巷1號","121.485716666667","24.9918583333333","6500300","中和區"
"235072","301-VK","2018/09/22 18:09:28","新北市中和區員山路36巷16號","121.484513333333","24.99138","6500300","中和區"
"235042","KEA-2878","2018/09/22 18:09:08","新北市中和區景平路267號","121.508143333333","24.9929533333333","6500300","中和區"
"247012","KEA-2869","2018/09/22 18:09:20","新北市蘆洲區民族路147號","121.479606666667","25.0877583333333","6501400","蘆洲區"
"235050","4979-A6","2018/09/22 18:09:11","新北市中和區和城路一段271巷1號","121.485481666667","24.9919466666667","6500300","中和區"
"235034","558-UM","2018/09/22 18:09:08","新北市中和區中正路426號","121.49143","24.9939466666667","6500300","中和區"
"235045","565-BX","2018/09/22 18:09:19","新北市中和區中正路169號","121.498141666667","24.993695","6500300","中和區"
"235054","640-BX","2018/09/22 18:09:13","新北市中和區莒光路220號","121.470101666667","24.9960283333333","6500300","中和區"
"235047","732-UM","2018/09/22 18:09:11","新北市中和區中正路637巷52弄1號","121.48543","24.9934066666667","6500300","中和區"
"235046","733-UM","2018/09/22 18:09:12","新北市中和區員山路36巷13號","121.484153333333","24.9908683333333","6500300","中和區"
"235057","801-TS","2018/09/22 18:09:25","新北市中和區中正路637巷60弄61號","121.485465","24.9928533333333","6500300","中和區"
"235052","805-TS","2018/09/22 18:09:14","新北市中和區中正路13號","121.503046666667","24.9934216666667","6500300","中和區"
"235053","900-TW","2018/09/22 18:09:21","新北市中和區員山路36巷16-3號","121.484953333333","24.9917633333333","6500300","中和區"
"235051","157-BY","2018/09/22 18:09:05","新北市中和區復興路317號","121.50102","24.99016","6500300","中和區"
"235037","AAC-213","2018/09/22 18:09:22","新北市中和區景平路149號","121.513955","24.9921866666667","6500300","中和區"
"235059","AAC-215","2018/09/22 18:09:24","新北市中和區員山路36巷16-3號","121.48503","24.99132","6500300","中和區"
"247002","893-R6","2018/09/22 18:09:15","新北市蘆洲區永平街32巷69弄25號","121.45904","25.0937116666667","6501400","蘆洲區"
"226004","312-R5","2018/09/22 18:09:18","新北市平溪區菁桐里菁桐街165號","121.722915","25.0233883333333","6502400","平溪區"
"235062","251-BX","2018/09/22 18:09:20","新北市中和區民樂路81號","121.484696666667","25.0012583333333","6500300","中和區"
"228003","097-TW","2018/09/22 18:09:10","新北市貢寮區真理里美艷山街6-2號","121.928796666667","25.060785","6502600","貢寮區"
"228001","212-TW","2018/09/22 18:09:11","新北市貢寮區真理里新港街26巷55弄2-1號","121.927421666667","25.052865","6502600","貢寮區"
"228002","663-BX","2018/09/22 18:09:20","新北市貢寮區福連里福興街39-3號","121.994183333333","25.0137566666667","6502600","貢寮區"
"224006","676-BX","2018/09/22 18:09:24","新北市瑞芳區中山路22號","121.804138333333","25.1062333333333","6501200","瑞芳區"
"224002","639-TC","2018/09/22 18:09:14","新北市瑞芳區三爪子坑路149巷22-11號","121.811571666667","25.1059916666667","6501200","瑞芳區"
"224008","285-BY","2018/09/22 18:09:12","新北市瑞芳區員山子路23號","121.82139","25.1030433333333","6501200","瑞芳區"
"224009","273-VK","2018/09/22 18:09:27","新北市瑞芳區金光路179號","121.85311","25.1074483333333","6501200","瑞芳區"
"224005","271-BY","2018/09/22 18:09:11","新北市瑞芳區深澳路67-1號","121.818238333333","25.129905","6501200","瑞芳區"
"227010","642-TC","2018/09/22 18:09:21","新北市雙溪區三貂里定福路1-2號","121.85075","25.0633933333333","6502500","雙溪區"
"227002","400-TW","2018/09/22 18:09:24","新北市雙溪區雙溪里太平路5號","121.864055","25.035125","6502500","雙溪區"
"253006","032-BX","2018/09/22 18:09:15","新北市石門區大丘田25號","121.548085","25.28311","6502200","石門區"
"253005","295-VK","2018/09/22 18:09:18","新北市石門區福安街25號","121.568766666667","25.2924416666667","6502200","石門區"
"222001","KEA-2212","2018/09/22 18:09:22","新北市深坑區北深路二段151號","121.614063333333","25.0021383333333","6501800","深坑區"
"208002","KEA-2872","2018/09/22 18:09:18","新北市金山區三界壇路99巷23號","121.618828333333","25.2274233333333","6502700","金山區"
"208003","665-BX","2018/09/22 18:09:13","新北市金山區磺港里磺港路24號","121.649686666667","25.2300566666667","6502700","金山區"
"208001","761-BX","2018/09/22 18:09:21","新北市金山區磺港里磺港路109號","121.646418333333","25.2268283333333","6502700","金山區"
"251009","008-UM","2018/09/22 18:09:20","新北市淡水區大忠街34巷17號","121.443996666667","25.17576","6501000","淡水區"
"251005","010-UM","2018/09/22 18:09:16","新北市淡水區水源街一段118號","121.44719","25.171835","6501000","淡水區"
"251001","011-UM","2018/09/22 18:09:15","新北市淡水區自立路1巷9號","121.462728333333","25.1297966666667","6501000","淡水區"
"251002","012-UM","2018/09/22 18:09:09","新北市淡水區中正東路一段127巷2號","121.455473333333","25.1592633333333","6501000","淡水區"
"251013","KEA-2871","2018/09/22 18:09:06","新北市淡水區竹圍子9-1號","121.47686","25.1922233333333","6501000","淡水區"
"251016","179-VK","2018/09/22 18:09:15","新北市淡水區下圭柔山15號","121.453115","25.2022116666667","6501000","淡水區"
"251015","180-VK","2018/09/22 18:09:10","新北市淡水區興福寮88巷1號","121.485365","25.1649916666667","6501000","淡水區"
"251008","181-VK","2018/09/22 18:09:25","新北市淡水區坪頂路70巷35號","121.460071666667","25.16088","6501000","淡水區"
"251010","413-VK","2018/09/22 18:09:21","新北市淡水區中正路二段50巷10號","121.41993","25.183535","6501000","淡水區"
"251012","441-VK","2018/09/22 18:09:16","新北市淡水區北新路三段173號","121.492526666667","25.192295","6501000","淡水區"
"251007","442-VK","2018/09/22 18:09:13","新北市淡水區中正東路二段161巷11弄10號","121.46148","25.1461216666667","6501000","淡水區"
"251004","443-VK","2018/09/22 18:09:18","新北市淡水區民權路187巷91號","121.461415","25.1348733333333","6501000","淡水區"
"251006","561-UM","2018/09/22 18:09:25","新北市淡水區新民街82號","121.438421666667","25.17661","6501000","淡水區"
"251011","650-BX","2018/09/22 18:09:01","新北市淡水區三空泉5號","121.477871666667","25.161685","6501000","淡水區"
"251003","673-BX","2018/09/22 18:09:17","新北市淡水區大忠街113巷18號","121.447226666667","25.1774933333333","6501000","淡水區"
"207003","550-UM","2018/09/22 18:09:17","新北市萬里區野柳里港西路701-2號","121.685283333333","25.2046383333333","6502800","萬里區"
"207004","225-TW","2018/09/22 18:09:10","新北市萬里區中幅里中福路111號","121.676568333333","25.1687583333333","6502800","萬里區"
"252003","249-BX","2018/09/22 18:09:13","新北市三芝區埔頭里埔頭39-3號","121.499538333333","25.2611283333333","6502100","三芝區"
"252001","292-VK","2018/09/22 18:09:09","新北市三芝區中興街二段2號","121.49835","25.2566516666667","6502100","三芝區"
"252002","AAC-283","2018/09/22 18:09:26","新北市三芝區民生街17號","121.503651666667","25.2571166666667","6502100","三芝區"
"237004","KEA-2597","2018/09/22 18:09:23","新北市三峽區大埔路347號","121.37105","24.8966233333333","6500900","三峽區"
"237007","153-BY","2018/09/22 18:09:16","新北市三峽區中正路二段370巷81號","121.364258333333","24.9116533333333","6500900","三峽區"
"237009","210-TH","2018/09/22 18:09:22","新北市三峽區大仁路50巷20號","121.365328333333","24.9381866666667","6500900","三峽區"
"237013","252-BX","2018/09/22 18:09:19","新北市三峽區長泰街5巷4號","121.378343333333","24.9310766666667","6500900","三峽區"
"237008","302-VK","2018/09/22 18:09:14","新北市三峽區白雞58-12號","121.384413333333","24.9105933333333","6500900","三峽區"
"237014","433-BY","2018/09/22 18:09:15","新北市三峽區復興路110巷4弄9號","121.373371666667","24.9383916666667","6500900","三峽區"
"237006","5529-G3","2018/09/22 18:09:26","新北市三峽區溪東路35號","121.400253333333","24.9349433333333","6500900","三峽區"
"237011","KEA-2596","2018/09/22 18:09:18","新北市三峽區溪東路37號","121.400325","24.9349016666667","6500900","三峽區"
"237016","649-BX","2018/09/22 18:09:09","新北市三峽區紫新路21號","121.42313","24.9209966666667","6500900","三峽區"
"237010","706-TV","2018/09/22 18:09:11","新北市三峽區民族街90號","121.369555","24.9296216666667","6500900","三峽區"
"237005","AKY-6261","2018/09/22 18:09:06","新北市三峽區民生街247號","121.37079","24.9348066666667","6500900","三峽區"
"236070","105-UM","2018/09/22 18:09:16","新北市土城區青雲路396號","121.458776666667","24.9728966666667","6501300","土城區"
"236042","107-UM","2018/09/22 18:09:11","新北市土城區中華路二段2號","121.439505","24.9795916666667","6501300","土城區"
"236079","166-UM","2018/09/22 18:09:11","新北市土城區永和街2巷4號","121.434493333333","24.9649283333333","6501300","土城區"
"236030","253-BX","2018/09/22 18:09:10","新北市土城區城林路6巷80號","121.438645","24.9797216666667","6501300","土城區"
"236026","269-VK","2018/09/22 18:09:13","新北市土城區承天路18號","121.439435","24.9634083333333","6501300","土城區"
"236014","270-VK","2018/09/22 18:09:20","新北市土城區學府路一段210號","121.452351666667","24.9853683333333","6501300","土城區"
"236038","271-VK","2018/09/22 18:09:22","新北市土城區明德路一段280-1號","121.457163333333","24.9775233333333","6501300","土城區"
"236021","401-BY","2018/09/22 18:09:15","新北市土城區城林路6巷80號","121.438361666667","24.9796383333333","6501300","土城區"
"236059","912-UM","2018/09/22 18:09:22","新北市土城區中央路四段230號","121.415405","24.95722","6501300","土城區"
"236049","913-UM","2018/09/22 18:09:08","新北市土城區明德路一段365-1號","121.45355","24.9790716666667","6501300","土城區"
"236063","915-UM","2018/09/22 18:09:20","新北市土城區金城路二段28-6號","121.450411666667","24.9782066666667","6501300","土城區"
"236055","AAC-216","2018/09/22 18:09:10","新北市土城區中華路二段62號","121.438896666667","24.9768616666667","6501300","土城區"
"242036","AAC-296","2018/09/22 18:09:06","新北市新莊區後港一路49巷5弄1號","121.42568","25.02704","6500500","新莊區"
"242058","986-R7","2018/09/22 18:09:19","新北市新莊區新北大道七段239號","121.413075","25.0296483333333","6500500","新莊區"
"242056","751-BX","2018/09/22 18:09:17","新北市新莊區豐年街55-3號","121.446551666667","25.031165","6500500","新莊區"
"242029","705-TV","2018/09/22 18:09:15","新北市新莊區中平路117號","121.444775","25.046635","6500500","新莊區"
"242027","615-BX","2018/09/22 18:09:21","新北市新莊區幸福路565號","121.45424","25.0492233333333","6500500","新莊區"
"242025","613-BX","2018/09/22 18:09:18","新北市新莊區五工一路99號","121.46029","25.0679466666667","6500500","新莊區"
"242044","566-BX","2018/09/22 18:09:13","新北市新莊區中正路887號","121.4169","25.0248333333333","6500500","新莊區"
"242048","497-BY","2018/09/22 18:09:15","新北市新莊區富國路105-1號","121.421723333333","25.0254716666667","6500500","新莊區"
"242053","442-UM","2018/09/22 18:09:22","新北市新莊區光華街62號","121.428341666667","25.01195","6500500","新莊區"
"242039","415-TV","2018/09/22 18:09:27","新北市新莊區民安西路38巷37號","121.426345","25.0201566666667","6500500","新莊區"
"242009","413-TV","2018/09/22 18:09:14","新北市新莊區昌平街71巷13號","121.453741666667","25.05345","6500500","新莊區"
"242046","400-BY","2018/09/22 18:09:12","新北市新莊區福營路294號","121.422545","25.0276666666667","6500500","新莊區"
"242061","353-BY","2018/09/22 18:09:22","新北市新莊區新樹路69-34號","121.438385","25.0291466666667","6500500","新莊區"
"242011","132-UY","2018/09/22 18:09:14","新北市新莊區中原路283號","121.448086666667","25.05392","6500500","新莊區"
"242042","133-UY","2018/09/22 18:09:22","新北市新莊區雙鳳路116巷13弄1號","121.413346666667","25.0288216666667","6500500","新莊區"
"242051","172-VK","2018/09/22 18:06:34","新北市新莊區民本街25巷22號","121.429311666667","25.0193666666667","6500500","新莊區"
"242019","175-VK","2018/09/22 18:09:18","新北市新莊區公園路129-12號","121.457666666667","25.0410833333333","6500500","新莊區"
"242007","176-VK","2018/09/22 18:09:10","新北市新莊區中華路二段48號","121.45412","25.0457733333333","6500500","新莊區"
"242017","346-TH","2018/09/22 18:09:24","新北市新莊區中港路307號","121.452765","25.0446333333333","6500500","新莊區"
"242031","348-TH","2018/09/22 18:09:24","新北市新莊區新泰路305巷47號","121.443126666667","25.0405833333333","6500500","新莊區"
"242004","349-TH","2018/09/22 18:09:11","新北市新莊區自立街117號","121.45592","25.0455216666667","6500500","新莊區"
"242021","350-TH","2018/09/22 18:09:08","新北市新莊區新興街110號","121.450588333333","25.0391416666667","6500500","新莊區"
"242015","351-TH","2018/09/22 18:09:14","新北市新莊區中和街59巷10弄9號","121.446763333333","25.0471866666667","6500500","新莊區"
"238015","755-BX","2018/09/22 18:09:07","新北市樹林區大安路349號","121.416483333333","24.9905783333333","6500700","樹林區"
"238023","601-UM","2018/09/22 18:09:23","新北市樹林區三福街60號","121.4054","25.0163283333333","6500700","樹林區"
"238019","599-UM","2018/09/22 18:09:24","新北市樹林區國凱街160號","121.424428333333","24.9807433333333","6500700","樹林區"
"238018","571-TV","2018/09/22 18:09:16","新北市樹林區樹新路89號","121.427768333333","24.9954766666667","6500700","樹林區"
"238024","5061-A6","2018/09/22 18:09:25","新北市樹林區保安街一段220號","121.42098","24.9964366666667","6500700","樹林區"
"238022","KEA-2213","2018/09/22 18:09:12","新北市樹林區太平路174巷29弄1號","121.417726666667","24.9766183333333","6500700","樹林區"
"238021","KEA-2539","2018/09/22 18:09:23","新北市樹林區柑園街二段109號","121.385586666667","24.954945","6500700","樹林區"
"238025","303-VK","2018/09/22 18:09:22","新北市樹林區保安街一段366號","121.417571666667","24.9985483333333","6500700","樹林區"
"238017","283-BY","2018/09/22 18:09:14","新北市樹林區保安街二段333巷2號","121.412258333333","25.007535","6500700","樹林區"
"238014","282-BY","2018/09/22 18:09:15","新北市樹林區潭興街107巷21弄24號","121.423685","24.998595","6500700","樹林區"
"238020","268-VK","2018/09/22 18:09:23","新北市樹林區俊興街286號","121.418648333333","25.0171516666667","6500700","樹林區"
"238026","172-UY","2018/09/22 18:09:14","新北市樹林區佳園路一段39號","121.393081666667","24.9707566666667","6500700","樹林區"
"238016","169-UY","2018/09/22 18:09:25","新北市樹林區文化街16號","121.419886666667","24.9873816666667","6500700","樹林區"
"239007","AAC-297","2018/09/22 18:09:17","新北市鶯歌區尖山埔路229號","121.344831666667","24.95032","6500800","鶯歌區"
"239006","891-R6","2018/09/22 18:09:20","新北市鶯歌區德昌街142-1號","121.331903333333","24.9605133333333","6500800","鶯歌區"
"239008","527-UM","2018/09/22 18:09:20","新北市鶯歌區朝陽街26巷1號","121.337048333333","24.9773616666667","6500800","鶯歌區"
"239005","526-UM","2018/09/22 18:09:10","新北市鶯歌區鶯桃路668巷73號","121.329928333333","24.971845","6500800","鶯歌區"
"239001","417-VK","2018/09/22 18:09:10","新北市鶯歌區中正三路福德巷2弄2號","121.339496666667","24.9414966666667","6500800","鶯歌區"
"239003","360-BY","2018/09/22 18:09:23","新北市鶯歌區福安街7巷1-1號","121.334876666667","24.964745","6500800","鶯歌區"
"239002","359-BY","2018/09/22 18:09:17","新北市鶯歌區中山路329巷6弄2號","121.343625","24.9564833333333","6500800","鶯歌區"
"239004","193-VK","2018/09/22 18:09:13","新北市鶯歌區尖山路188號","121.344305","24.9473566666667","6500800","鶯歌區"
"221008","489-VK","2018/09/22 18:09:22","新北市汐止區康寧街511號","121.633093333333","25.06866","6501100","汐止區"
"221036","130-UY","2018/09/22 18:09:21","新北市汐止區長安路9號","121.667645","25.0775616666667","6501100","汐止區"
"221015","131-UY","2018/09/22 18:09:06","新北市汐止區鄉長路二段90-1號","121.66579","25.0857666666667","6501100","汐止區"
"221010","269-BY","2018/09/22 18:09:10","新北市汐止區汐萬路二段275巷1弄2號","121.645536666667","25.088835","6501100","汐止區"
"221012","278-VK","2018/09/22 18:09:25","新北市汐止區保長路37巷42號","121.67418","25.0798866666667","6501100","汐止區"
"221023","279-VK","2018/09/22 18:09:23","新北市汐止區民族五街76號","121.627741666667","25.0701816666667","6501100","汐止區"
"221032","280-BY","2018/09/22 18:09:14","新北市汐止區力行街9號","121.617166666667","25.05103","6501100","汐止區"
"221027","281-BY","2018/09/22 18:09:18","新北市汐止區大同路二段527號","121.661815","25.06898","6501100","汐止區"
"221029","298-VK","2018/09/22 18:09:09","新北市汐止區樟樹二路134號","121.639996666667","25.0655966666667","6501100","汐止區"
"221021","299-VK","2018/09/22 18:09:17","新北市汐止區復興路13號","121.655775","25.064725","6501100","汐止區"
"221031","353-TW","2018/09/22 18:09:19","新北市汐止區中興路123號","121.631916666667","25.0652833333333","6501100","汐止區"
"221035","622-UM","2018/09/22 18:09:17","新北市汐止區大同路二段252號","121.654325","25.065895","6501100","汐止區"
"221025","623-UM","2018/09/22 18:09:11","新北市汐止區秀峰路151巷1號","121.660665","25.062105","6501100","汐止區"
"221038","646-BX","2018/09/22 18:09:19","新北市汐止區勤進路16號","121.659671666667","25.0613866666667","6501100","汐止區"
"221002","707-TV","2018/09/22 18:09:24","新北市汐止區福德一路201巷38號","121.635741666667","25.065105","6501100","汐止區"
"221018","753-BX","2018/09/22 18:09:11","新北市汐止區忠孝東路337號","121.6654","25.0698983333333","6501100","汐止區"
"242002","281-VK","2018/09/22 18:09:22","新北市新莊區新莊路16-1號","121.458961666667","25.037505","6500500","新莊區"
"242034","280-VK","2018/09/22 18:09:16","新北市新莊區新豐街65號","121.446415","25.0336116666667","6500500","新莊區"
"235068","KEA-2873","2018/09/22 18:09:09","新北市中和區員山路36巷16-3號","121.485056666667","24.991245","6500300","中和區"
"235061","KEA-2875","2018/09/22 18:09:09","新北市土城區金城路三段315號","121.475106666667","24.9913533333333","6500300","中和區"
