"lineid","car","time","location","longitude","latitude","cityid","cityname"
"234046","148-BY","2018/09/22 19:49:18","新北市永和區永利路141號","121.524188333333","25.003485","6500400","永和區"
"234007","207-UY","2018/09/22 19:49:22","新北市中和區中山路二段62號","121.503986666667","25.0046866666667","6500400","永和區"
"234081","298-R6","2018/09/22 19:49:27","新北市永和區國中路2號","121.524246666667","25.00429","6500400","永和區"
"234064","337-UY","2018/09/22 19:49:21","新北市永和區中正路368巷5號","121.51802","25.0008916666667","6500400","永和區"
"234086","338-UY","2018/09/22 19:49:26","新北市永和區福和路233號","121.51853","25.007535","6500400","永和區"
"234070","552-UM","2018/09/22 19:49:16","新北市永和區竹林路88號","121.519431666667","25.0126616666667","6500400","永和區"
"234017","745-BX","2018/09/22 19:49:20","新北市永和區永和路二段299號","121.51605","25.0161","6500400","永和區"
"234030","746-BX","2018/09/22 19:49:23","新北市永和區民生路67巷37號","121.524691666667","24.9974483333333","6500400","永和區"
"234054","KEA-2590","2018/09/22 19:49:14","新北市永和區竹林路72巷2號","121.519008333333","25.0131366666667","6500400","永和區"
"234013","KEA-2591","2018/09/22 19:49:13","新北市永和區永平路296號","121.507416666667","25.0121833333333","6500400","永和區"
"234061","AAD-866","2018/09/22 19:49:26","新北市永和區中正路39-1號","121.514433333333","24.99596","6500400","永和區"
"234038","748-BX","2018/09/22 19:49:23","新北市永和區成功路二段127號","121.526831666667","24.99824","6500400","永和區"
"234042","862-TW","2018/09/22 19:48:54","新北市永和區中和路305巷20弄1號","121.507853333333","25.0019633333333","6500400","永和區"
"234050","863-TW","2018/09/22 19:49:24","新北市永和區環河西路一段107號","121.511016666667","25.017475","6500400","永和區"
"234026","9371-KE","2018/09/22 19:49:26","新北市永和區雙和街52巷1號","121.50907","25.0031933333333","6500400","永和區"
"234011","9373-KE","2018/09/22 19:49:19","新北市永和區仁愛路352巷80號","121.501851666667","25.0076133333333","6500400","永和區"
"249001","173-UM","2018/09/22 19:49:25","新北市八里區中華路二段252號","121.405343333333","25.149705","6502300","八里區"
"249004","303-UY","2018/09/22 19:49:23","新北市八里區仁愛路129號","121.40997","25.158805","6502300","八里區"
"249002","305-UY","2018/09/22 19:49:24","新北市八里區頂寮五街17號","121.451551666667","25.12605","6502300","八里區"
"249003","593-UM","2018/09/22 19:49:10","新北市八里區中華路二段560巷11號","121.398355","25.1450683333333","6502300","八里區"
"248014","025-BX","2018/09/22 19:49:21","新北市五股區五福路22巷9號","121.434673333333","25.0891583333333","6501500","五股區"
"248016","026-BX","2018/09/22 19:49:11","新北市五股區成泰路三段577巷92號","121.449413333333","25.1040733333333","6501500","五股區"
"248008","095-VK","2018/09/22 19:49:28","新北市五股區四維路171巷4號","121.467613333333","25.075205","6501500","五股區"
"248020","225-UY","2018/09/22 19:49:19","新北市五股區中直路48號","121.417928333333","25.1197733333333","6501500","五股區"
"248012","247-BX","2018/09/22 19:49:21","新北市五股區蓬萊路24號","121.433898333333","25.0799333333333","6501500","五股區"
"248004","677-BX","2018/09/22 19:49:11","新北市五股區成泰路一段126號","121.435278333333","25.0744416666667","6501500","五股區"
"248002","678-BX","2018/09/22 19:49:23","新北市五股區成泰路三段544-18號","121.452766666667","25.103525","6501500","五股區"
"248010","682-TV","2018/09/22 19:49:24","新北市五股區登林路76-5號","121.430503333333","25.069505","6501500","五股區"
"234077","969-R7","2018/09/22 19:49:24","新北市永和區中正路264號","121.516755","24.9986066666667","6500400","永和區"
"234074","AAC-211","2018/09/22 19:49:09","新北市永和區竹林路213巷7號","121.521323333333","25.008895","6500400","永和區"
"234067","AAC-212","2018/09/22 19:49:20","新北市永和區永平路173巷8號","121.510371666667","25.00882","6500400","永和區"
"234003","AAC-295","2018/09/22 19:49:20","新北市永和區福和路310-1號","121.516215","25.0074083333333","6500400","永和區"
"244023","069-UM","2018/09/22 19:49:13","新北市林口區文化北路二段70號","121.370583333333","25.0825583333333","6501700","林口區"
"244013","KEA-2802","2018/09/22 19:49:26","新北市八里區長道坑23-1號","121.397848333333","25.1065916666667","6501700","林口區"
"243013","AAD-798","2018/09/22 19:40:43","新北市泰山區應化街7號","121.423866666667","25.0437283333333","6501600","泰山區"
"243009","297-R6","2018/09/22 19:49:13","新北市泰山區美寧街68號","121.431026666667","25.0646883333333","6501600","泰山區"
"243016","KEA-2801","2018/09/22 19:49:17","新北市泰山區明志路三段518號","121.420793333333","25.03072","6501600","泰山區"
"243015","421-VK","2018/09/22 19:49:11","新北市泰山區明志路二段214巷11號","121.426683333333","25.0488583333333","6501600","泰山區"
"243011","KEA-2215","2018/09/22 19:49:18","新北市泰山區明志路三段196巷21弄7號","121.422985","25.0383533333333","6501600","泰山區"
"243010","KEA-2216","2018/09/22 19:49:10","新北市泰山區民生路33號","121.430771666667","25.0521916666667","6501600","泰山區"
"243012","646-TV","2018/09/22 19:49:21","新北市泰山區全興路18巷1號","121.432021666667","25.058925","6501600","泰山區"
"243014","680-BX","2018/09/22 19:49:25","新北市泰山區泰林路二段33-9號","121.435223333333","25.0567416666667","6501600","泰山區"
"222003","436-BY","2018/09/22 19:49:20","新北市深坑區深南路51-1號","121.621281666667","25.0097983333333","6501800","深坑區"
"222002","659-BX","2018/09/22 19:49:12","新北市深坑區北深路二段2巷1號","121.621386666667","25.0046283333333","6501800","深坑區"
"231044","001-UM","2018/09/22 19:49:13","新北市新店區復興路51-8號","121.536308333333","24.9872166666667","6500600","新店區"
"231041","002-UM","2018/09/22 19:49:09","新北市新店區中央路117號","121.53072","24.9743683333333","6500600","新店區"
"231059","046-UY","2018/09/22 19:49:17","新北市新店區安和路二段185號","121.518221666667","24.9748766666667","6500600","新店區"
"231040","047-UY","2018/09/22 19:49:11","新北市新店區中正路75巷71號","121.543078333333","24.968815","6500600","新店區"
"231046","107-UY","2018/09/22 19:49:10","新北市新店區福園街10巷1號","121.532705","24.9727916666667","6500600","新店區"
"231052","108-UY","2018/09/22 19:49:12","新北市新店區新烏路三段137號","121.55139","24.9020016666667","6500600","新店區"
"231048","187-VK","2018/09/22 19:49:25","新北市新店區中興路二段100巷1號","121.547763333333","24.9716716666667","6500600","新店區"
"231054","KEA-2219","2018/09/22 19:49:27","新北市新店區光明街53號","121.538716666667","24.9601633333333","6500600","新店區"
"231057","256-BX","2018/09/22 19:49:22","新北市新店區梅崗一路10號","121.556003333333","24.9313766666667","6500600","新店區"
"231042","268-BY","2018/09/22 19:49:28","新北市新店區中興路一段267-2號","121.54503","24.9677833333333","6500600","新店區"
"231051","278-BY","2018/09/22 19:49:10","新北市新店區中央三街73號","121.526413333333","24.9753116666667","6500600","新店區"
"231050","AAD-862","2018/09/22 19:49:11","新北市新店區北宜路二段277號","121.555018333333","24.953695","6500600","新店區"
"231043","355-BY","2018/09/22 19:49:21","新北市新店區中正路282號","121.538565","24.973895","6500600","新店區"
"231058","3713-VJ","2018/09/22 19:49:24","新北市新店區安康路二段414巷2號","121.495895","24.9578083333333","6500600","新店區"
"231066","4716-K9","2018/09/22 19:49:12","新北市新店區安康路三段60號","121.492298333333","24.9521333333333","6500600","新店區"
"231056","4715-K9","2018/09/22 19:49:11","新北市新店區民權路118號","121.5354","24.9828483333333","6500600","新店區"
"231067","4772-VM","2018/09/22 19:49:14","新北市新店區安康路一段300-2號","121.51856","24.964005","6500600","新店區"
"231065","512-UM","2018/09/22 19:49:10","新北市新店區安祥路109巷90弄97號","121.475966666667","24.95754","6500600","新店區"
"231049","513-UM","2018/09/22 19:49:17","新北市新店區民權路127巷13號","121.535776666667","24.981765","6500600","新店區"
"231063","616-UM","2018/09/22 19:49:22","新北市新店區車子路11號","121.503018333333","24.9519816666667","6500600","新店區"
"231045","617-UM","2018/09/22 19:49:17","新北市新店區中生路61號","121.564751666667","24.952265","6500600","新店區"
"231061","619-UM","2018/09/22 19:49:25","新北市新店區安民街179號","121.516726666667","24.9707116666667","6500600","新店區"
"231068","718-UY","2018/09/22 19:49:17","新北市新店區安一路一段1-1號","121.519505","24.9612416666667","6500600","新店區"
"231064","719-UM","2018/09/22 19:49:26","新北市新店區安和路二段117巷10號","121.518335","24.9702333333333","6500600","新店區"
"231062","720-UM","2018/09/22 19:49:23","新北市新店區永業路49巷2號","121.532113333333","24.9549433333333","6500600","新店區"
"231060","897-TW","2018/09/22 19:49:13","新北市新店區安康路二段237號","121.5083","24.958615","6500600","新店區"
"231055","AKT-0513","2018/09/22 19:49:18","新北市新店區中華路83巷67號","121.538266666667","24.9671316666667","6500600","新店區"
"241011","013-R5","2018/09/22 19:49:15","新北市三重區介壽路41號","121.498655","25.070085","6500200","三重區"
"241028","022-UY","2018/09/22 19:49:17","新北市三重區中正南路131號","121.493993333333","25.0570383333333","6500200","三重區"
"241008","059-VK","2018/09/22 19:49:21","新北市三重區永福街155號","121.478703333333","25.0760416666667","6500200","三重區"
"241031","061-VK","2018/09/22 19:49:29","新北市三重區重新路四段256號","121.485931666667","25.0532733333333","6500200","三重區"
"241015","062-VK","2018/09/22 19:49:16","新北市三重區河邊北街23號","121.504356666667","25.0652716666667","6500200","三重區"
"241017","063-VK","2018/09/22 19:49:22","新北市三重區重陽路三段5巷8弄16號","121.48954","25.0665233333333","6500200","三重區"
"241024","065-VK","2018/09/22 19:49:24","新北市三重區大勇街82巷5號","121.479521666667","25.0714066666667","6500200","三重區"
"241026","066-VK","2018/09/22 19:49:23","新北市三重區光興街9號","121.500131666667","25.0601866666667","6500200","三重區"
"241003","091-VK","2018/09/22 19:49:20","新北市三重區五華街91號","121.491961666667","25.0835383333333","6500200","三重區"
"251014","742-BX","2018/09/22 19:49:14","新北市淡水區番社前3-3號","121.471833333333","25.237255","6501000","淡水區"
"241016","266-UM","2018/09/22 19:49:23","新北市三重區正德街41巷2號","121.495906666667","25.0628066666667","6500200","三重區"
"241009","267-UM","2018/09/22 19:49:20","新北市三重區三和路四段396巷2-2號","121.481275","25.0791616666667","6500200","三重區"
"241018","268-UM","2018/09/22 19:49:17","新北市三重區雙園街57巷36號","121.494491666667","25.0684533333333","6500200","三重區"
"241032","269-UM","2018/09/22 19:49:25","新北市三重區重陽路一段44巷7號","121.486118333333","25.0577566666667","6500200","三重區"
"241013","270-UM","2018/09/22 19:49:28","新北市三重區仁愛街92巷13號","121.494805","25.0738083333333","6500200","三重區"
"241025","271-UM","2018/09/22 19:49:18","新北市三重區忠孝路三段52號","121.480668333333","25.06563","6500200","三重區"
"241007","398-BY","2018/09/22 19:49:26","新北市三重區慈愛街10號","121.484571666667","25.07843","6500200","三重區"
"241035","462-BY","2018/09/22 19:49:15","新北市三重區文化北路25號","121.49963","25.0637616666667","6500200","三重區"
"241004","475-VK","2018/09/22 19:49:15","新北市三重區自強路五段43號","121.494145","25.0814533333333","6500200","三重區"
"241020","478-VK","2018/09/22 19:49:21","新北市三重區後竹圍街54號","121.490735","25.07326","6500200","三重區"
"241014","543-UM","2018/09/22 19:49:26","新北市三重區長元街98巷18弄9號","121.502146666667","25.0676133333333","6500200","三重區"
"241023","545-UM","2018/09/22 19:49:19","新北市三重區大有街1-1號","121.477573333333","25.065575","6500200","三重區"
"241001","547-UM","2018/09/22 19:49:16","新北市三重區仁愛街327巷29號","121.493005","25.079925","6500200","三重區"
"241019","KEA-2593","2018/09/22 19:49:23","新北市三重區自強路二段74巷5號","121.48828","25.0700933333333","6500200","三重區"
"241006","AAD-863","2018/09/22 19:49:27","新北市三重區力行路二段76巷29號","121.48057","25.0735816666667","6500200","三重區"
"241030","743-BX","2018/09/22 19:49:22","新北市三重區成功路97號","121.488223333333","25.0516283333333","6500200","三重區"
"241022","887-TS","2018/09/22 19:49:22","新北市三重區新北大道一段11號","121.488641666667","25.06061","6500200","三重區"
"241012","941-UM","2018/09/22 19:49:26","新北市三重區仁福街64巷19號","121.497835","25.0753883333333","6500200","三重區"
"241029","942-UM","2018/09/22 19:49:30","新北市三重區光明路11號","121.490991666667","25.0587116666667","6500200","三重區"
"241033","AAC-255","2018/09/22 19:49:13","新北市三重區中興南街64號","121.470615","25.0440166666667","6500200","三重區"
"235066","003-UY","2018/09/22 19:49:13","新北市中和區南工路30號","121.5057","25.0010916666667","6500300","中和區"
"235063","006-UY","2018/09/22 19:49:22","新北市中和區連城路263巷20號","121.492548333333","24.9947216666667","6500300","中和區"
"235056","096-UM","2018/09/22 19:49:30","新北市中和區中山路三段114巷46號","121.475778333333","25.00729","6500300","中和區"
"235039","097-UM","2018/09/22 19:49:23","新北市中和區大勇街27巷27號","121.516293333333","24.99382","6500300","中和區"
"235065","098-UM","2018/09/22 19:49:25","新北市中和區莊敬路17號","121.49993","25.004535","6500300","中和區"
"235040","150-BY","2018/09/22 19:49:19","新北市中和區安平路30號","121.509625","24.9949016666667","6500300","中和區"
"235058","151-BY","2018/09/22 19:49:09","新北市中和區員山路140號","121.481355","24.9965366666667","6500300","中和區"
"235055","183-VK","2018/09/22 19:49:24","新北市中和區德光路27巷36號","121.471026666667","25.0032516666667","6500300","中和區"
"235038","185-VK","2018/09/22 19:49:10","新北市中和區自立路6號","121.52245","24.9964883333333","6500300","中和區"
"235049","186-VK","2018/09/22 19:49:13","新北市中和區中興街37號","121.500728333333","24.9944216666667","6500300","中和區"
"235067","255-BX","2018/09/22 19:49:09","新北市中和區新生街220巷1弄12號","121.483298333333","24.9978983333333","6500300","中和區"
"235044","293-VK","2018/09/22 19:49:19","新北市中和區南山路122號","121.503488333333","24.99307","6500300","中和區"
"235043","352-BY","2018/09/22 19:49:19","新北市中和區興南路二段159巷18號","121.505241666667","24.9830066666667","6500300","中和區"
"235042","KEA-2878","2018/09/22 19:49:27","新北市中和區宜安路171號","121.508443333333","24.9990833333333","6500300","中和區"
"235050","4979-A6","2018/09/22 19:49:10","新北市中和區景平路329巷1弄5號","121.506038333333","24.9926516666667","6500300","中和區"
"235069","4980-A6","2018/09/22 19:49:09","新北市中和區中正路637巷52弄1號","121.48545","24.9933866666667","6500300","中和區"
"235034","558-UM","2018/09/22 19:49:28","新北市中和區連勝街14號","121.498741666667","24.9983983333333","6500300","中和區"
"235054","640-BX","2018/09/22 19:49:18","新北市中和區莒光路111號","121.472455","25.0025266666667","6500300","中和區"
"235047","732-UM","2018/09/22 19:49:10","新北市中和區和平街72號","121.508033333333","24.9909583333333","6500300","中和區"
"235046","733-UM","2018/09/22 19:49:12","新北市中和區仁愛街76號","121.511343333333","24.9875933333333","6500300","中和區"
"235057","801-TS","2018/09/22 19:49:25","新北市中和區員山路102號","121.481055","24.9953833333333","6500300","中和區"
"235041","802-TS","2018/09/22 19:49:09","新北市中和區永貞路239巷20號","121.512518333333","25.0032016666667","6500300","中和區"
"235052","805-TS","2018/09/22 19:49:14","新北市中和區興南路二段94號","121.505518333333","24.9844283333333","6500300","中和區"
"235048","896-TW","2018/09/22 19:49:16","新北市中和區興南路一段164號","121.508111666667","24.9866766666667","6500300","中和區"
"235053","900-TW","2018/09/22 19:49:21","新北市中和區國光街171巷6號","121.467533333333","25.0014933333333","6500300","中和區"
"235060","911-UM","2018/09/22 19:49:27","新北市中和區新生街16巷31號","121.481948333333","25.0044366666667","6500300","中和區"
"235051","157-BY","2018/09/22 19:49:25","新北市中和區中興街180巷52弄3號","121.498471666667","24.9882816666667","6500300","中和區"
"235037","AAC-213","2018/09/22 19:49:22","新北市中和區自立路189號","121.523978333333","24.99136","6500300","中和區"
"235059","AAC-215","2018/09/22 19:49:23","新北市中和區圓通路335巷71號","121.494225","24.9893383333333","6500300","中和區"
"220068","013-TV","2018/09/22 19:49:17","新北市板橋區中山路二段412巷16-1號","121.483316666667","25.0202233333333","6500100","板橋區"
"220065","072-UY","2018/09/22 19:49:24","新北市板橋區民族路69巷5號","121.465555","25.0091883333333","6500100","板橋區"
"220106","075-UY","2018/09/22 19:49:25","新北市板橋區民治街61巷24號","121.480551666667","25.0333933333333","6500100","板橋區"
"220069","AAD-861","2018/09/22 19:49:26","新北市板橋區貴興路101號","121.456316666667","25.001555","6500100","板橋區"
"247002","893-R6","2018/09/22 19:49:08","新北市蘆洲區永樂街38巷57弄2號","121.458478333333","25.0901983333333","6501400","蘆洲區"
"247014","546-UM","2018/09/22 19:49:14","新北市蘆洲區中正路261號","121.467453333333","25.0872766666667","6501400","蘆洲區"
"247014","339-TH","2018/09/22 19:49:12","新北市蘆洲區中央路121-2號","121.4718","25.08394","6501400","蘆洲區"
"247008","336-TH","2018/09/22 19:49:20","新北市蘆洲區中山一路21號","121.479375","25.0807483333333","6501400","蘆洲區"
"247004","002-UY","2018/09/22 19:49:12","新北市蘆洲區中原路73號","121.458476666667","25.08188","6501400","蘆洲區"
"226004","312-R5","2018/09/22 19:49:18","新北市平溪區靜安路三段392巷3號","121.784491666667","25.0495616666667","6502400","平溪區"
"228003","097-TW","2018/09/22 19:49:10","新北市貢寮區真理里美艷山街14號","121.929058333333","25.0629316666667","6502600","貢寮區"
"228001","212-TW","2018/09/22 19:49:11","新北市貢寮區真理里新港街93號","121.92686","25.0567016666667","6502600","貢寮區"
"224010","AGQ-8101","2018/09/22 19:49:13","新北市瑞芳區基山街31巷20號","121.845975","25.1101116666667","6501200","瑞芳區"
"224002","639-TC","2018/09/22 19:49:27","新北市瑞芳區員山子路3-1號","121.819046666667","25.1047466666667","6501200","瑞芳區"
"227010","642-TC","2018/09/22 19:49:21","新北市雙溪區新基里中華路65號","121.865813333333","25.0380983333333","6502500","雙溪區"
"227002","400-TW","2018/09/22 19:49:24","新北市雙溪區雙溪里內挖路47號","121.863213333333","25.036785","6502500","雙溪區"
"222001","KEA-2212","2018/09/22 19:49:22","新北市深坑區北深路三段83號","121.606598333333","25.00135","6501800","深坑區"
"208002","KEA-2872","2018/09/22 19:49:29","新北市金山區中華路263號","121.633173333333","25.224495","6502700","金山區"
"208003","665-BX","2018/09/22 19:49:13","新北市金山區清泉里清水路36號","121.62988","25.230965","6502700","金山區"
"208001","761-BX","2018/09/22 19:49:21","新北市金山區重和里六股林口48號","121.60204","25.2197383333333","6502700","金山區"
"251009","008-UM","2018/09/22 19:49:20","新北市淡水區中正路32號","121.443905","25.1691933333333","6501000","淡水區"
"251005","010-UM","2018/09/22 19:49:16","新北市淡水區中山路108巷3號","121.442026666667","25.1710266666667","6501000","淡水區"
"251001","011-UM","2018/09/22 19:49:15","新北市淡水區淡金路182號","121.459225","25.1659416666667","6501000","淡水區"
"251013","KEA-2871","2018/09/22 19:49:26","新北市淡水區頂田寮17號","121.461703333333","25.2141866666667","6501000","淡水區"
"251016","179-VK","2018/09/22 19:49:14","新北市淡水區三塊厝2-1號","121.45439","25.2096633333333","6501000","淡水區"
"251015","180-VK","2018/09/22 19:49:10","新北市淡水區泉洲厝27-1號","121.483613333333","25.19132","6501000","淡水區"
"251008","181-VK","2018/09/22 19:49:25","新北市淡水區中正路一段24巷3號","121.4267","25.1769416666667","6501000","淡水區"
"251010","413-VK","2018/09/22 19:49:21","新北市淡水區下圭柔山91-4號","121.429671666667","25.2088283333333","6501000","淡水區"
"251012","441-VK","2018/09/22 19:49:11","新北市淡水區淡金路三段70巷1號","121.448285","25.2005516666667","6501000","淡水區"
"251007","442-VK","2018/09/22 19:49:13","新北市淡水區中正東路一段3巷2號","121.450818333333","25.1648266666667","6501000","淡水區"
"251006","561-UM","2018/09/22 19:49:20","新北市淡水區水碓街15號","121.443488333333","25.17695","6501000","淡水區"
"251011","650-BX","2018/09/22 19:49:21","新北市淡水區淡金路二段600號","121.446785","25.192125","6501000","淡水區"
"251003","673-BX","2018/09/22 19:49:17","新北市淡水區崁頂69號","121.43863","25.20217","6501000","淡水區"
"207003","550-UM","2018/09/22 19:49:20","新北市萬里區大鵬里萬里加投68號","121.642453333333","25.21478","6502800","萬里區"
"207004","225-TW","2018/09/22 19:49:10","新北市萬里區萬里里瑪鋉路261號","121.68983","25.1797733333333","6502800","萬里區"
"252001","292-VK","2018/09/22 19:49:29","新北市三芝區公正街66號","121.499781666667","25.2574616666667","6502100","三芝區"
"252002","AAC-283","2018/09/22 19:49:26","新北市三芝區三民街35號","121.504701666667","25.258585","6502100","三芝區"
"237004","KEA-2597","2018/09/22 19:49:23","新北市三峽區圳頭40號","121.377218333333","24.8862983333333","6500900","三峽區"
"237007","153-BY","2018/09/22 19:49:16","新北市三峽區二鬮路136巷20弄85號","121.358316666667","24.90894","6500900","三峽區"
"237009","210-TH","2018/09/22 19:49:22","新北市三峽區清水街428號","121.368726666667","24.9260266666667","6500900","三峽區"
"237013","252-BX","2018/09/22 19:49:19","新北市三峽區溪北街57號","121.397241666667","24.9359216666667","6500900","三峽區"
"237012","275-BY","2018/09/22 19:49:18","新北市三峽區光明路1-5號","121.372655","24.9321333333333","6500900","三峽區"
"237008","302-VK","2018/09/22 19:49:14","新北市三峽區永安街202號","121.37309","24.927425","6500900","三峽區"
"237014","433-BY","2018/09/22 19:49:15","新北市三峽區添福59-1號","121.374911666667","24.903475","6500900","三峽區"
"237006","5529-G3","2018/09/22 19:49:15","新北市三峽區中正路一段336巷15弄2號","121.369926666667","24.924965","6500900","三峽區"
"237016","649-BX","2018/09/22 19:49:29","新北市三峽區橫溪路99巷16弄1號","121.400011666667","24.9362433333333","6500900","三峽區"
"237005","AKY-6261","2018/09/22 19:49:24","新北市三峽區長泰街20號","121.378811666667","24.9317566666667","6500900","三峽區"
"236070","105-UM","2018/09/22 19:49:19","新北市土城區中央路二段346巷19號","121.439175","24.9721483333333","6501300","土城區"
"236042","107-UM","2018/09/22 19:49:11","新北市土城區裕民路259巷4號","121.45486","24.9833666666667","6501300","土城區"
"236079","166-UM","2018/09/22 19:49:11","新北市土城區中央路四段464號","121.40969","24.9503566666667","6501300","土城區"
"236030","253-BX","2018/09/22 19:49:10","新北市土城區中央路一段290號","121.443313333333","24.982405","6501300","土城區"
"236026","269-VK","2018/09/22 19:49:13","新北市土城區中央路二段61巷26號","121.443266666667","24.9787233333333","6501300","土城區"
"236038","271-VK","2018/09/22 19:49:22","新北市土城區國際路158巷54號","121.467858333333","24.9746883333333","6501300","土城區"
"236021","401-BY","2018/09/22 19:49:15","新北市土城區延吉街137巷10號","121.470958333333","24.985615","6501300","土城區"
"236059","912-UM","2018/09/22 19:49:22","新北市土城區中央路一段210號","121.444983333333","24.985465","6501300","土城區"
"236049","913-UM","2018/09/22 19:49:27","新北市土城區金城路二段396號","121.463925","24.9856666666667","6501300","土城區"
"236063","915-UM","2018/09/22 19:49:20","新北市土城區延和路146巷18號","121.468061666667","24.9893833333333","6501300","土城區"
"236055","AAC-216","2018/09/22 19:49:10","新北市土城區延和路109號","121.467783333333","24.9902733333333","6501300","土城區"
"242036","AAC-296","2018/09/22 19:49:26","新北市新莊區民安路207巷30弄26號","121.428226666667","25.0240366666667","6500500","新莊區"
"242058","986-R7","2018/09/22 19:49:19","新北市新莊區新樹路52號","121.437336666667","25.0266816666667","6500500","新莊區"
"242056","751-BX","2018/09/22 19:49:17","新北市新莊區新泰路53號","121.449503333333","25.0338816666667","6500500","新莊區"
"242029","705-TV","2018/09/22 19:49:14","新北市新莊區中平路363號","121.44467","25.0518916666667","6500500","新莊區"
"242027","615-BX","2018/09/22 19:49:18","新北市新莊區立信五街10號","121.44413","25.05152","6500500","新莊區"
"242048","497-BY","2018/09/22 19:49:16","新北市新莊區建安街76巷1弄18號","121.42583","25.02437","6500500","新莊區"
"242039","415-TV","2018/09/22 19:49:18","新北市新莊區民安路299巷24號","121.429361666667","25.0231366666667","6500500","新莊區"
"242023","362-BY","2018/09/22 19:49:09","新北市新莊區化成路310號","121.465721666667","25.048225","6500500","新莊區"
"242061","353-BY","2018/09/22 19:49:22","新北市新莊區中環路一段10號","121.44282","25.0257683333333","6500500","新莊區"
"242051","172-VK","2018/09/22 19:49:15","新北市新莊區民安路261號","121.427845","25.0218183333333","6500500","新莊區"
"242013","173-VK","2018/09/22 19:49:20","新北市新莊區中誠街69巷2號","121.45056","25.04764","6500500","新莊區"
"242007","176-VK","2018/09/22 19:49:26","新北市新莊區思源路593巷6弄12號","121.458993333333","25.05999","6500500","新莊區"
"242017","346-TH","2018/09/22 19:49:24","新北市新莊區中華路一段226號","121.45264","25.0429783333333","6500500","新莊區"
"242031","347-TH","2018/09/22 19:49:21","新北市新莊區忠孝街81號","121.443906666667","25.0367183333333","6500500","新莊區"
"242004","349-TH","2018/09/22 19:49:11","新北市新莊區化成路63巷24弄15號","121.462705","25.046055","6500500","新莊區"
"242021","350-TH","2018/09/22 19:49:17","新北市新莊區中正路393號","121.445613333333","25.0345766666667","6500500","新莊區"
"238015","755-BX","2018/09/22 19:49:11","新北市樹林區中山路一段108巷43號","121.421655","24.9915583333333","6500700","樹林區"
"238019","599-UM","2018/09/22 19:49:24","新北市樹林區大同街3號","121.41876","24.9828216666667","6500700","樹林區"
"238021","KEA-2539","2018/09/22 19:49:14","新北市樹林區佳園路三段181巷81號","121.390673333333","24.9484666666667","6500700","樹林區"
"238025","303-VK","2018/09/22 19:49:22","新北市樹林區中山路二段168號","121.412291666667","24.9826183333333","6500700","樹林區"
"238017","283-BY","2018/09/22 19:49:14","新北市樹林區保安街一段276號","121.41971","24.9969516666667","6500700","樹林區"
"238014","282-BY","2018/09/22 19:49:15","新北市樹林區千歲街68號","121.426225","24.9975683333333","6500700","樹林區"
"239007","AAC-297","2018/09/22 19:49:17","新北市鶯歌區大湖路340號","121.345995","24.971255","6500800","鶯歌區"
"239005","526-UM","2018/09/22 19:49:10","新北市鶯歌區中正一路478號","121.365181666667","24.95661","6500800","鶯歌區"
"239003","360-BY","2018/09/22 19:49:23","新北市鶯歌區二甲路12-2號","121.345701666667","24.9348366666667","6500800","鶯歌區"
"239002","359-BY","2018/09/22 19:49:17","新北市鶯歌區大湖路70號","121.342625","24.9623616666667","6500800","鶯歌區"
"221008","489-VK","2018/09/22 19:49:22","新北市汐止區康寧街39號","121.618626666667","25.0667883333333","6501100","汐止區"
"221036","130-UY","2018/09/22 19:49:21","新北市汐止區汐萬路一段127號","121.65393","25.0712066666667","6501100","汐止區"
"221015","131-UY","2018/09/22 19:49:27","新北市汐止區忠孝東路408號","121.66596","25.0711066666667","6501100","汐止區"
"221010","269-BY","2018/09/22 19:49:10","新北市汐止區康寧街885巷3號","121.650115","25.07648","6501100","汐止區"
"221012","278-VK","2018/09/22 19:49:25","新北市汐止區大同路三段547號","121.681315","25.0715316666667","6501100","汐止區"
"221023","279-VK","2018/09/22 19:49:23","新北市汐止區明峰街163號","121.62893","25.0701516666667","6501100","汐止區"
"221032","280-BY","2018/09/22 19:49:14","新北市汐止區橫科路403巷18號","121.624913333333","25.04762","6501100","汐止區"
"221027","281-BY","2018/09/22 19:49:20","新北市汐止區大同路二段575號","121.663268333333","25.0701116666667","6501100","汐止區"
"221029","298-VK","2018/09/22 19:25:49","新北市汐止區康寧街901號","121.651713333333","25.074965","6501100","汐止區"
"221021","299-VK","2018/09/22 19:49:17","新北市汐止區新興路84巷2號","121.657888333333","25.0615116666667","6501100","汐止區"
"221031","353-TW","2018/09/22 19:49:19","新北市汐止區福德二路54巷4號","121.633753333333","25.067465","6501100","汐止區"
"221035","622-UM","2018/09/22 19:49:30","新北市汐止區長江街13巷12弄2號","121.654693333333","25.0720916666667","6501100","汐止區"
"221025","623-UM","2018/09/22 19:49:11","新北市汐止區秀峰路81巷44號","121.661598333333","25.0647366666667","6501100","汐止區"
"221038","646-BX","2018/09/22 19:49:18","新北市汐止區忠孝東路428-3號","121.66606","25.0721233333333","6501100","汐止區"
"221002","707-TV","2018/09/22 19:49:24","新北市汐止區大同路一段219巷27號","121.633255","25.058345","6501100","汐止區"
"221018","753-BX","2018/09/22 19:49:11","新北市汐止區大同路二段542號","121.661505","25.0687733333333","6501100","汐止區"
"220079","145-BY","2018/09/22 19:49:19","新北市板橋區建國街100號","121.459891666667","25.0172266666667","6500100","板橋區"
"220082","610-BX","2018/09/22 19:49:26","新北市板橋區金門街149號","121.432741666667","24.9906766666667","6500100","板橋區"
"220101","245-BX","2018/09/22 19:49:19","新北市板橋區縣民大道三段103巷11號","121.475723333333","25.0228216666667","6500100","板橋區"
"220056","276-BY","2018/09/22 19:49:22","新北市板橋區四川路二段99巷1號","121.452761666667","24.99458","6500100","板橋區"
"220072","277-BY","2018/09/22 19:49:12","新北市板橋區篤行路二段1巷12-2號","121.432126666667","24.992665","6500100","板橋區"
"220094","280-UM","2018/09/22 19:49:14","新北市板橋區長江路一段218號","121.463141666667","25.0309566666667","6500100","板橋區"
"220071","283-VK","2018/09/22 19:49:31","新北市板橋區五權街32巷3號","121.464738333333","24.9931233333333","6500100","板橋區"
"220053","285-VK","2018/09/22 19:49:16","新北市板橋區中山路二段60巷1弄3-2號","121.474436666667","25.0154133333333","6500100","板橋區"
"220083","286-VK","2018/09/22 19:49:23","新北市板橋區龍興街97巷2號","121.44419","25.00264","6500100","板橋區"
"220081","287-VK","2018/09/22 19:49:08","新北市板橋區僑中一街80巷3弄1號","121.4476","25.0120533333333","6500100","板橋區"
"220090","288-VK","2018/09/22 19:49:23","新北市板橋區龍泉街82巷14弄23號","121.45605","25.02625","6500100","板橋區"
"220061","293-UM","2018/09/22 19:49:28","新北市板橋區板新路200巷22號","121.468691666667","25.0165616666667","6500100","板橋區"
"220092","295-UM","2018/09/22 19:49:27","新北市板橋區四維路137巷1弄17-2號","121.465088333333","25.0245816666667","6500100","板橋區"
"242002","281-VK","2018/09/22 19:49:19","新北市新莊區環漢路二段2號","121.45008","25.0318833333333","6500500","新莊區"
"220075","303-R5","2018/09/22 19:49:11","新北市板橋區金華街10巷23號","121.456661666667","25.0201716666667","6500100","板橋區"
"220062","305-R5","2018/09/22 19:49:25","新北市板橋區中山路二段416巷55號","121.483075","25.01907","6500100","板橋區"
"220098","317-R6","2018/09/22 19:49:18","新北市板橋區裕民街135號","121.459003333333","25.0272483333333","6500100","板橋區"
"220080","461-BY","2018/09/22 19:49:16","新北市板橋區大觀路二段37巷11號","121.447488333333","25.002875","6500100","板橋區"
"220064","486-VK","2018/09/22 19:49:17","新北市板橋區區運路3號","121.465158333333","25.00943","6500100","板橋區"
"242034","280-VK","2018/09/22 19:49:16","新北市新莊區仁愛街65號","121.44423","25.03762","6500500","新莊區"
"220035","560-BX","2018/09/22 19:49:19","新北市板橋區金華街16號","121.456171666667","25.020385","6500100","板橋區"
"220103","561-BX","2018/09/22 19:49:21","新北市板橋區陽明街29巷2號","121.465293333333","25.0217433333333","6500100","板橋區"
"220084","568-UM","2018/09/22 19:49:29","新北市板橋區滿平街2巷4號","121.425898333333","24.990055","6500100","板橋區"
"220063","609-BX","2018/09/22 19:49:17","新北市板橋區三民路一段156號","121.479116666667","25.0199983333333","6500100","板橋區"
"220091","637-BX","2018/09/22 19:49:10","新北市板橋區懷德街127巷23弄7號","121.479286666667","25.031665","6500100","板橋區"
"220057","686-BX","2018/09/22 19:49:20","新北市板橋區四川路二段1-12號","121.456788333333","24.996465","6500100","板橋區"
"220077","687-BX","2018/09/22 19:49:13","新北市板橋區僑中一街102巷3弄20號","121.445961666667","25.0125566666667","6500100","板橋區"
"220093","689-BX","2018/09/22 19:49:27","新北市板橋區長江路三段5號","121.471938333333","25.0335916666667","6500100","板橋區"
"220054","741-BX","2018/09/22 19:49:11","新北市板橋區實踐路93巷10號","121.464561666667","25.0054366666667","6500100","板橋區"
"220102","KEA-2699","2018/09/22 19:49:30","新北市板橋區松柏街50巷3號","121.475698333333","25.0302216666667","6500100","板橋區"
"220055","827-TW","2018/09/22 19:49:19","新北市板橋區國慶路49巷5號","121.459611666667","24.9959133333333","6500100","板橋區"
"220067","830-TW","2018/09/22 19:49:19","新北市板橋區長安街331巷19弄4號","121.473536666667","25.01239","6500100","板橋區"
"220096","831-TW","2018/09/22 19:49:25","新北市板橋區莊敬路133號","121.471825","25.0252366666667","6500100","板橋區"
"220089","833-TW","2018/09/22 19:49:25","新北市板橋區龍泉街82巷7號","121.455993333333","25.02548","6500100","板橋區"
"220074","895-R6","2018/09/22 19:49:20","新北市板橋區民權路87號","121.460971666667","25.0119666666667","6500100","板橋區"
"220073","985-R7","2018/09/22 19:49:25","新北市板橋區大智街93號","121.453005","25.0158516666667","6500100","板橋區"
"220097","AAC-210","2018/09/22 19:49:14","新北市板橋區文化路一段285巷1弄4號","121.464226666667","25.0188183333333","6500100","板橋區"
"220070","AAC-253","2018/09/22 19:49:24","新北市板橋區民族路65號","121.465278333333","25.0086883333333","6500100","板橋區"
"235068","KEA-2873","2018/09/22 19:49:08","新北市中和區永和路8巷23弄3號","121.500825","25.0037983333333","6500300","中和區"
"235061","KEA-2875","2018/09/22 19:49:09","新北市中和區員山路174巷10號","121.482045","24.999875","6500300","中和區"
