"lineid","car","time","location","longitude","latitude","cityid","cityname"
"234013","KEA-2591","2018/09/22 20:58:12","新北市八里區中山路三段409號","121.368561666667","25.1349333333333","6500400","永和區"
"244018","403-UM","2018/09/22 20:40:43","新北市林口區粉寮路二段88巷100-12號","121.409548333333","25.0902183333333","6501700","林口區"
"222002","659-BX","2018/09/22 20:58:12","新北市深坑區深南路56號","121.619566666667","25.0092583333333","6501800","深坑區"
"231059","046-UY","2018/09/22 20:58:17","新北市新店區僑信路74巷2號","121.499423333333","24.9486766666667","6500600","新店區"
"231040","047-UY","2018/09/22 20:58:11","新北市新店區中正路188號","121.54081","24.9722883333333","6500600","新店區"
"231052","108-UY","2018/09/22 20:58:12","新北市新店區北宜路一段143號","121.541096666667","24.9529166666667","6500600","新店區"
"231048","187-VK","2018/09/22 20:58:16","新北市新店區寶元路二段1巷2號","121.550731666667","24.98408","6500600","新店區"
"231054","KEA-2219","2018/09/22 20:58:12","新北市新店區大新街18號","121.543121666667","24.9685316666667","6500600","新店區"
"231042","268-BY","2018/09/22 20:58:28","新北市新店區寶高路102巷20號","121.55262","24.974035","6500600","新店區"
"231051","278-BY","2018/09/22 20:58:10","新北市新店區中正路663巷7弄15號","121.532943333333","24.9900933333333","6500600","新店區"
"231050","AAD-862","2018/09/22 20:58:11","新北市新店區三民路75巷1弄1號","121.535865","24.9712933333333","6500600","新店區"
"231043","355-BY","2018/09/22 20:58:21","新北市新店區中正路444號","121.53409","24.9785216666667","6500600","新店區"
"231066","4716-K9","2018/09/22 20:58:12","新北市新店區吉安街10號","121.51683","24.9657016666667","6500600","新店區"
"231056","4715-K9","2018/09/22 20:58:11","新北市新店區薏仁坑路自強巷1號","121.497736666667","24.95778","6500600","新店區"
"231067","4772-VM","2018/09/22 20:58:14","新北市新店區安康路一段351-1號","121.51939","24.9640883333333","6500600","新店區"
"231065","512-UM","2018/09/22 20:58:30","新北市新店區安祥路69巷72號","121.482663333333","24.9595316666667","6500600","新店區"
"231063","616-UM","2018/09/22 20:58:22","新北市新店區富貴街8巷2號","121.494478333333","24.9499116666667","6500600","新店區"
"231061","619-UM","2018/09/22 20:58:25","新北市新店區新和街116巷13號","121.521518333333","24.98596","6500600","新店區"
"231068","718-UY","2018/09/22 20:58:17","新北市新店區寶元路二段31巷2號","121.546726666667","24.9816916666667","6500600","新店區"
"231064","719-UM","2018/09/22 20:57:26","新北市新店區安民街303巷12號","121.516976666667","24.9736833333333","6500600","新店區"
"231062","720-UM","2018/09/22 20:58:23","新北市新店區裕合街143號","121.489131666667","24.9490733333333","6500600","新店區"
"231060","897-TW","2018/09/22 20:58:15","新北市新店區安康路三段358號","121.485931666667","24.951625","6500600","新店區"
"241011","013-R5","2018/09/22 20:58:15","新北市三重區秀江街117號","121.499751666667","25.072205","6500200","三重區"
"241028","022-UY","2018/09/22 20:58:17","新北市三重區中正北路23號","121.492126666667","25.06135","6500200","三重區"
"241008","059-VK","2018/09/22 20:58:21","新北市三重區力行路二段136巷1弄15號","121.482216666667","25.0765533333333","6500200","三重區"
"241031","061-VK","2018/09/22 20:58:29","新北市三重區重陽路一段113巷3號","121.487528333333","25.0598366666667","6500200","三重區"
"241015","062-VK","2018/09/22 20:58:16","新北市三重區福德北路46號","121.501995","25.0655216666667","6500200","三重區"
"241017","063-VK","2018/09/22 20:58:22","新北市三重區大仁街23號","121.492113333333","25.0645533333333","6500200","三重區"
"241024","065-VK","2018/09/22 20:58:24","新北市三重區國道路一段58巷17號","121.48138","25.0719933333333","6500200","三重區"
"241026","066-VK","2018/09/22 20:58:22","新北市三重區文化南路12號","121.50028","25.0620383333333","6500200","三重區"
"241002","090-VK","2018/09/22 20:58:26","新北市三重區五華街1巷48號","121.496448333333","25.080215","6500200","三重區"
"241003","091-VK","2018/09/22 20:58:20","新北市三重區進安街198號","121.493951666667","25.0859733333333","6500200","三重區"
"251014","742-BX","2018/09/22 20:58:14","新北市淡水區溪口6號","121.456265","25.236245","6501000","淡水區"
"241005","262-UM","2018/09/22 20:58:20","新北市三重區三信路182號","121.488091666667","25.086085","6500200","三重區"
"241016","266-UM","2018/09/22 20:58:23","新北市三重區自強路一段99號","121.495751666667","25.0663533333333","6500200","三重區"
"241009","267-UM","2018/09/22 20:58:20","新北市三重區三和路四段197號","121.482125","25.0791866666667","6500200","三重區"
"241018","268-UM","2018/09/22 20:58:17","新北市三重區雙園街97號","121.49385","25.0673283333333","6500200","三重區"
"241032","269-UM","2018/09/22 20:58:25","新北市三重區三陽路118號","121.48297","25.0587983333333","6500200","三重區"
"241013","270-UM","2018/09/22 20:58:28","新北市三重區仁賢街8號","121.495715","25.0747783333333","6500200","三重區"
"241025","271-UM","2018/09/22 20:58:17","新北市三重區貴陽街18-1號","121.48423","25.0619266666667","6500200","三重區"
"241007","398-BY","2018/09/22 20:58:26","新北市三重區慈愛街10號","121.484533333333","25.0784233333333","6500200","三重區"
"241004","475-VK","2018/09/22 20:58:14","新北市三重區仁愛街423-1號","121.490415","25.0814366666667","6500200","三重區"
"241020","478-VK","2018/09/22 20:58:21","新北市三重區忠孝路二段34號","121.485765","25.0710766666667","6500200","三重區"
"241014","543-UM","2018/09/22 20:58:25","新北市三重區龍濱路64號","121.50251","25.0692316666667","6500200","三重區"
"241023","545-UM","2018/09/22 20:58:19","新北市三重區洛陽街45巷15號","121.482336666667","25.0637566666667","6500200","三重區"
"241001","547-UM","2018/09/22 20:58:16","新北市三重區三和路四段128號","121.488988333333","25.0752833333333","6500200","三重區"
"241019","KEA-2593","2018/09/22 20:58:23","新北市三重區自強路二段74巷23-1號","121.487928333333","25.0698433333333","6500200","三重區"
"241006","AAD-863","2018/09/22 20:58:27","新北市三重區永福街23號","121.481733333333","25.0781483333333","6500200","三重區"
"241030","743-BX","2018/09/22 20:58:26","新北市三重區新興路2巷25號","121.492213333333","25.0522316666667","6500200","三重區"
"241022","887-TS","2018/09/22 20:58:22","新北市三重區中正北路20巷12號","121.487978333333","25.0625116666667","6500200","三重區"
"241012","941-UM","2018/09/22 20:58:26","新北市三重區仁信街29號","121.501251666667","25.075545","6500200","三重區"
"241029","942-UM","2018/09/22 20:58:30","新北市三重區仁化街107號","121.494385","25.058025","6500200","三重區"
"241033","AAC-255","2018/09/22 20:58:13","新北市三重區光復路二段2號","121.472008333333","25.053255","6500200","三重區"
"247012","KEA-2869","2018/09/22 20:58:11","新北市蘆洲區信義路222巷35號","121.480108333333","25.0854716666667","6501400","蘆洲區"
"247002","893-R6","2018/09/22 20:58:27","新北市蘆洲區長安街381號","121.457221666667","25.0881683333333","6501400","蘆洲區"
"247014","546-UM","2018/09/22 20:58:14","新北市蘆洲區正和街59號","121.468863333333","25.08122","6501400","蘆洲區"
"247024","500-BY","2018/09/22 20:58:21","新北市蘆洲區光明路20號","121.461158333333","25.0864216666667","6501400","蘆洲區"
"247014","339-TH","2018/09/22 20:58:12","新北市蘆洲區得勝街30號","121.473625","25.0838366666667","6501400","蘆洲區"
"247006","337-TH","2018/09/22 20:58:28","新北市蘆洲區永安南路二段18號","121.467685","25.0772233333333","6501400","蘆洲區"
"247008","336-TH","2018/09/22 20:58:20","新北市蘆洲區民生街76號","121.472935","25.0791166666667","6501400","蘆洲區"
"247020","057-VK","2018/09/22 20:58:26","新北市蘆洲區民族路488號","121.47111","25.0912783333333","6501400","蘆洲區"
"247010","056-VK","2018/09/22 20:58:16","新北市蘆洲區鷺江街76號","121.476951666667","25.0838066666667","6501400","蘆洲區"
"247018","007-UY","2018/09/22 20:58:24","新北市蘆洲區民權路87號","121.473141666667","25.0887866666667","6501400","蘆洲區"
"247004","002-UY","2018/09/22 20:58:32","新北市蘆洲區永安南路二段252號","121.459883333333","25.08014","6501400","蘆洲區"
"247022","001-UY","2018/09/22 20:58:25","新北市蘆洲區民族路498號","121.469668333333","25.090485","6501400","蘆洲區"
"251009","008-UM","2018/09/22 20:58:20","新北市淡水區民權路187巷15號","121.460226666667","25.1334866666667","6501000","淡水區"
"251005","010-UM","2018/09/22 20:58:16","新北市淡水區學府路51巷2弄16號","121.44806","25.1699333333333","6501000","淡水區"
"251001","011-UM","2018/09/22 20:58:15","新北市淡水區新市一路三段59號","121.44603","25.1833983333333","6501000","淡水區"
"251002","012-UM","2018/09/22 20:58:29","新北市淡水區英專路67號","121.44563","25.1711316666667","6501000","淡水區"
"251013","KEA-2871","2018/09/22 20:58:25","新北市淡水區行忠路136號","121.455231666667","25.1990283333333","6501000","淡水區"
"251016","179-VK","2018/09/22 20:58:14","新北市淡水區下田寮1-1號","121.450923333333","25.2187816666667","6501000","淡水區"
"251015","180-VK","2018/09/22 20:58:30","新北市淡水區淡金路四段542巷17號","121.452793333333","25.2270966666667","6501000","淡水區"
"251010","413-VK","2018/09/22 20:58:01","新北市淡水區淡海路42巷1號","121.423481666667","25.17978","6501000","淡水區"
"251012","441-VK","2018/09/22 20:58:11","新北市淡水區淡金路五段72號","121.454811666667","25.2337533333333","6501000","淡水區"
"251007","442-VK","2018/09/22 20:58:13","新北市淡水區仁愛街2巷42號","121.446835","25.1718466666667","6501000","淡水區"
"251011","650-BX","2018/09/22 20:58:29","新北市淡水區新民街一段3號","121.434148333333","25.1842566666667","6501000","淡水區"
"251003","673-BX","2018/09/22 20:58:17","新北市淡水區新春街125巷7號","121.441498333333","25.1824066666667","6501000","淡水區"
"242039","415-TV","2018/09/22 20:58:18","新北市新莊區瓊林路170-1號","121.441233333333","25.0236066666667","6500500","新莊區"
"242004","349-TH","2018/09/22 20:58:10","新北市林口區汕頭32號","121.366263333333","25.1347466666667","6500500","新莊區"
"242015","351-TH","2018/09/22 20:58:27","新北市八里區荖阡坑路22-5號","121.398825","25.1348416666667","6500500","新莊區"
"221023","279-VK","2018/09/22 20:58:23","新北市汐止區汐萬路一段256巷1號","121.65172","25.07486","6501100","汐止區"
"221027","281-BY","2018/09/22 20:58:20","新北市汐止區汐萬路一段256巷3號","121.653308333333","25.0746566666667","6501100","汐止區"
"221029","298-VK","2018/09/22 20:58:29","新北市汐止區汐萬路一段256巷1號","121.651743333333","25.0748133333333","6501100","汐止區"
"221018","753-BX","2018/09/22 20:58:31","新北市汐止區汐萬路一段158號","121.652628333333","25.071315","6501100","汐止區"
"220035","560-BX","2018/09/22 20:58:19","新北市八里區荖阡坑路34號","121.40174","25.1294383333333","6500100","板橋區"
"220070","AAC-253","2018/09/22 20:58:24","新北市八里區中山路三段409號","121.36845","25.1349233333333","6500100","板橋區"
