"lineid","car","time","location","longitude","latitude","cityid","cityname"
"234013","KEA-2591","2018/09/22 21:28:52","新北市八里區荖阡坑路41-3號","121.400465","25.1313133333333","6500400","永和區"
"243001","297-R6","2018/09/22 21:12:08","新北市泰山區黎明路31號","121.421763333333","25.06084","6501600","泰山區"
"243006","680-BX","2018/09/22 21:08:14","新北市泰山區犁頭窠3-1號","121.422106666667","25.0605816666667","6501600","泰山區"
"231063","616-UM","2018/09/22 21:28:42","新北市新店區如意街97號","121.495356666667","24.94692","6500600","新店區"
"241017","063-VK","2018/09/22 21:28:42","新北市三重區中正北路25巷2號","121.493241666667","25.062705","6500200","三重區"
"241024","065-VK","2018/09/22 21:28:44","新北市三重區中正北路145巷14號","121.484166666667","25.067765","6500200","三重區"
"241026","066-VK","2018/09/22 21:29:02","新北市三重區同安街111號","121.49442","25.0564066666667","6500200","三重區"
"251014","742-BX","2018/09/22 21:28:54","新北市淡水區六塊厝2-1號","121.450145","25.240465","6501000","淡水區"
"241005","262-UM","2018/09/22 21:29:00","新北市三重區仁華街85號","121.485745","25.0829766666667","6500200","三重區"
"241016","266-UM","2018/09/22 21:28:43","新北市三重區自強路一段95號","121.49586","25.0663666666667","6500200","三重區"
"241007","398-BY","2018/09/22 21:28:46","新北市三重區正義北路113號","121.496901666667","25.0657533333333","6500200","三重區"
"247012","KEA-2869","2018/09/22 21:28:51","新北市蘆洲區中正路507號","121.461093333333","25.0975433333333","6501400","蘆洲區"
"247002","893-R6","2018/09/22 21:28:27","新北市五股區凌雲路二段18巷64-3號","121.441553333333","25.1064233333333","6501400","蘆洲區"
"247008","336-TH","2018/09/22 21:29:00","新北市五股區新五路二段372巷20號","121.44798","25.085","6501400","蘆洲區"
"247020","057-VK","2018/09/22 21:28:46","新北市五股區新城八路1號","121.447921666667","25.0891183333333","6501400","蘆洲區"
"247018","007-UY","2018/09/22 21:28:43","新北市五股區成泰路一段98巷77號","121.451896666667","25.0804266666667","6501400","蘆洲區"
"247004","002-UY","2018/09/22 21:27:52","新北市五股區中直路21號","121.42146","25.11191","6501400","蘆洲區"
"251009","008-UM","2018/09/22 21:28:40","新北市淡水區民族路33巷16-3號","121.4634","25.13597","6501000","淡水區"
"251005","010-UM","2018/09/22 21:28:55","新北市淡水區水源街一段52-1號","121.444116666667","25.17223","6501000","淡水區"
"251001","011-UM","2018/09/22 21:28:55","新北市淡水區濱海路二段202巷27號","121.435173333333","25.1933116666667","6501000","淡水區"
"251013","KEA-2871","2018/09/22 21:29:00","新北市淡水區埤島61-5號","121.459786666667","25.19533","6501000","淡水區"
"251016","179-VK","2018/09/22 21:28:54","新北市淡水區前洲子11號","121.441055","25.21941","6501000","淡水區"
"251015","180-VK","2018/09/22 21:28:50","新北市淡水區淡金路四段542巷83弄13號","121.456443333333","25.226715","6501000","淡水區"
"251008","181-VK","2018/09/22 21:28:45","新北市淡水區水源街二段150號","121.454378333333","25.1750783333333","6501000","淡水區"
"251010","413-VK","2018/09/22 21:28:41","新北市淡水區沙崙路25巷21號","121.420546666667","25.182405","6501000","淡水區"
"251012","441-VK","2018/09/22 21:28:51","新北市淡水區石頭埔8號","121.45264","25.2346016666667","6501000","淡水區"
"251007","442-VK","2018/09/22 21:28:53","新北市淡水區水源街二段194號","121.456906666667","25.1760916666667","6501000","淡水區"
"251004","443-VK","2018/09/22 21:28:53","新北市淡水區民族路8號","121.46046","25.1367516666667","6501000","淡水區"
"251006","561-UM","2018/09/22 21:28:40","新北市淡水區公明街35號","121.443148333333","25.1689516666667","6501000","淡水區"
"251011","650-BX","2018/09/22 21:29:01","新北市淡水區真理街32號","121.4366","25.1784433333333","6501000","淡水區"
"251003","673-BX","2018/09/22 21:28:57","新北市淡水區崁頂15-5號","121.438973333333","25.1859","6501000","淡水區"
"220070","AAC-253","2018/09/22 21:28:44","新北市五股區新五路二段279號","121.442798333333","25.0860633333333","6500100","板橋區"
