"lineid","car","time","location","longitude","latitude","cityid","cityname"
"248005","653-BX","2018/05/14 06:59:09","新北市五股區成泰路一段98巷77號","121.452323333333","25.078905","6501500","五股區"
"232001","290-BY","2018/05/14 06:59:12","新北市坪林區坪雙路一段60號","121.713943333333","24.9435766666667","6502000","坪林區"
"232012","291-BY","2018/05/14 06:59:05","新北市坪林區黃舉皮寮4-5號","121.688036666667","24.9410066666667","6502000","坪林區"
"232010","375-UM","2018/05/14 06:59:07","新北市坪林區水聳淒坑15-2號","121.722325","24.9297383333333","6502000","坪林區"
"232017","705-BZ","2018/05/14 06:59:04","新北市坪林區坪雙路一段117號","121.732298333333","24.9510616666667","6502000","坪林區"
"232005","758-BX","2018/05/14 06:59:22","新北市坪林區魚堀17-1號","121.703873333333","24.9173583333333","6502000","坪林區"
"244001","248-BX","2018/05/14 06:59:10","新北市林口區頭湖70號","121.374976666667","25.0887866666667","6501700","林口區"
"222005","289-BY","2018/05/14 06:59:08","新北市深坑區深坑街43號","121.615615","25.0017366666667","6501800","深坑區"
"226005","5620-A6","2018/05/14 06:59:14","新北市平溪區石底里公園街18-3號","121.733265","25.0258","6502400","平溪區"
"223006","022-BY","2018/05/14 06:59:13","新北市石碇區新興坑36號","121.648576666667","25.0200716666667","6501900","石碇區"
"223002","KEA-2673","2018/05/14 06:59:22","新北市石碇區員山子1號","121.652296666667","24.9672433333333","6501900","石碇區"
"223001","205-TH","2018/05/14 06:59:14","新北市石碇區石碇東街147號","121.658933333333","24.9890166666667","6501900","石碇區"
"223008","406-TH","2018/05/14 06:59:09","新北市石碇區十八重溪84-1號","121.672013333333","25.0104516666667","6501900","石碇區"
"223001","592-UM","2018/05/14 06:59:11","新北市石碇區石碇西街9號","121.659075","24.9906333333333","6501900","石碇區"
"223004","660-BX","2018/05/14 06:59:08","新北市石碇區碇坪路一段58號","121.657081666667","24.9916183333333","6501900","石碇區"
"223007","661-BX","2018/05/14 06:59:25","新北市石碇區十八重溪81-1號","121.672246666667","25.0107216666667","6501900","石碇區"
"223005","677-TV","2018/05/14 06:59:17","新北市石碇區碇坪路一段60號","121.657125","24.9914883333333","6501900","石碇區"
"227005","282-VK","2018/05/14 06:59:07","新北市雙溪區新基里自強路5號","121.8663","25.039055","6502500","雙溪區"
"252006","073-UM","2018/05/14 06:59:10","新北市三芝區埔頭里埔頭37號","121.49847","25.2602083333333","6502100","三芝區"
"252004","249-BX","2018/05/14 06:59:12","新北市三芝區埔坪里埔頭坑41號","121.504488333333","25.2644016666667","6502100","三芝區"
"236007","165-UM","2018/05/14 06:59:14","新北市土城區永平街51號","121.428046666667","24.95916","6501300","土城區"
"220082","282-UM","2018/05/14 06:53:22","新北市板橋區國光路49巷17號","121.458946666667","25.0188033333333","6500100","板橋區"
