"lineid","car","time","location","longitude","latitude","cityid","cityname"
"248005","653-BX","2018/05/14 07:19:09","新北市五股區明德路12巷3號","121.433283333333","25.0717766666667","6501500","五股區"
"232001","290-BY","2018/05/14 07:19:12","新北市坪林區桶盤嶼8-2號","121.707196666667","24.9574633333333","6502000","坪林區"
"232012","291-BY","2018/05/14 07:19:05","新北市坪林區仁里13號","121.686673333333","24.92892","6502000","坪林區"
"232010","375-UM","2018/05/14 07:19:07","新北市坪林區水聳淒坑1號","121.726158333333","24.9253016666667","6502000","坪林區"
"232017","705-BZ","2018/05/14 07:19:04","新北市坪林區九芎坑2號","121.723276666667","24.9663216666667","6502000","坪林區"
"232005","758-BX","2018/05/14 07:19:22","新北市坪林區北宜路七段328號","121.696771666667","24.9325066666667","6502000","坪林區"
"244001","248-BX","2018/05/14 07:19:10","新北市林口區頂福里53-61號","121.341198333333","25.087925","6501700","林口區"
"222005","289-BY","2018/05/14 07:19:08","新北市深坑區文化街39巷1號","121.61893","25.0011133333333","6501800","深坑區"
"226005","5620-A6","2018/05/14 07:15:34","新北市平溪區菁桐里二坑路1號","121.7212","25.024275","6502400","平溪區"
"226001","7418-A5","2018/05/14 07:19:25","新北市平溪區南山里南山坪2號","121.763173333333","25.0318766666667","6502400","平溪區"
"226003","AGD-0702","2018/05/14 07:19:16","新北市平溪區嶺腳里嶺腳寮60號","121.747753333333","25.03137","6502400","平溪區"
"223006","022-BY","2018/05/14 07:19:13","新北市石碇區新興坑26號","121.649991666667","25.0140233333333","6501900","石碇區"
"223002","KEA-2673","2018/05/14 07:19:22","新北市石碇區碇格路二段12號","121.642476666667","24.9561083333333","6501900","石碇區"
"223001","205-TH","2018/05/14 07:19:14","新北市石碇區蓬菜寮4號","121.652446666667","24.973895","6501900","石碇區"
"223008","406-TH","2018/05/14 07:19:09","新北市石碇區番子坑22-1號","121.678446666667","25.0006833333333","6501900","石碇區"
"223001","592-UM","2018/05/14 07:19:11","新北市石碇區蓬菜寮5-1號","121.65214","24.9737683333333","6501900","石碇區"
"223004","660-BX","2018/05/14 07:19:08","新北市石碇區新興坑1-1號","121.654056666667","25.0148733333333","6501900","石碇區"
"223007","661-BX","2018/05/14 07:19:26","新北市石碇區蚯蚓坑18號","121.691071666667","25.0045066666667","6501900","石碇區"
"223005","677-TV","2018/05/14 07:19:17","新北市石碇區新興坑1-1號","121.654085","25.0147883333333","6501900","石碇區"
"227005","282-VK","2018/05/14 07:19:07","新北市雙溪區新基里自強路5號","121.8663","25.03904","6502500","雙溪區"
"252006","073-UM","2018/05/14 07:19:10","新北市三芝區錫板里海尾30號","121.488671666667","25.2525383333333","6502100","三芝區"
"252004","249-BX","2018/05/14 07:19:12","新北市三芝區福德里大湖10號","121.50463","25.223195","6502100","三芝區"
"237001","159-UY","2018/05/14 07:19:13","新北市三峽區隆恩街245號","121.357573333333","24.94097","6500900","三峽區"
"236007","165-UM","2018/05/14 07:19:14","新北市板橋區四川路二段285巷1號","121.449901666667","24.992935","6501300","土城區"
"236001","339-SR","2018/05/14 07:19:21","新北市土城區和平路95-1號","121.450721666667","24.9695183333333","6501300","土城區"
"242052","751-BX","2018/05/14 07:19:07","新北市新莊區新泰路357巷3弄57號","121.442195","25.0391966666667","6500500","新莊區"
"242022","705-TV","2018/05/14 07:19:22","新北市新莊區三和路12-13號","121.442286666667","25.0371383333333","6500500","新莊區"
"242026","615-BX","2018/05/14 07:19:25","新北市新莊區新泰路255巷83號","121.442351666667","25.0387583333333","6500500","新莊區"
"242045","497-BY","2018/05/14 07:19:09","新北市新莊區新泰路357巷3弄57號","121.442333333333","25.0395116666667","6500500","新莊區"
"242038","133-UY","2018/05/14 07:19:18","新北市新莊區新泰路255巷83號","121.442251666667","25.0389883333333","6500500","新莊區"
"220082","282-UM","2018/05/14 07:19:15","新北市板橋區國光路47號","121.457985","25.018","6500100","板橋區"
