"lineid","car","time","location","longitude","latitude","cityid","cityname"
"248005","653-BX","2018/05/14 07:39:09","新北市五股區明德路12巷3號","121.433313333333","25.0718116666667","6501500","五股區"
"232001","290-BY","2018/05/14 07:39:12","新北市坪林區樹梅嶺10號","121.695025","24.9599633333333","6502000","坪林區"
"232012","291-BY","2018/05/14 07:39:25","新北市坪林區金瓜寮16-1號","121.682551666667","24.9169316666667","6502000","坪林區"
"232010","375-UM","2018/05/14 07:39:07","新北市坪林區苦苓腳2號","121.714216666667","24.936135","6502000","坪林區"
"232017","705-BZ","2018/05/14 07:39:24","新北市平溪區東勢里芊蓁林28號","121.732583333333","24.9757816666667","6502000","坪林區"
"232005","758-BX","2018/05/14 07:39:22","新北市坪林區魚堀33-7號","121.696848333333","24.92483","6502000","坪林區"
"244001","248-BX","2018/05/14 07:39:10","新北市林口區頂福20號","121.352791666667","25.093545","6501700","林口區"
"244018","403-UM","2018/05/14 07:39:13","新北市林口區粉寮69號","121.405083333333","25.0908083333333","6501700","林口區"
"222005","289-BY","2018/05/14 07:29:26","新北市深坑區文化街39巷13號","121.618886666667","25.0009733333333","6501800","深坑區"
"231007","189-VK","2018/05/14 07:39:18","新北市新店區安一路一段1-1號","121.519758333333","24.961455","6500600","新店區"
"226005","5620-A6","2018/05/14 07:39:14","新北市平溪區平溪里平溪街20號","121.738845","25.02525","6502400","平溪區"
"226001","7418-A5","2018/05/14 07:39:25","新北市平溪區平湖里大厝1號","121.779733333333","25.0391516666667","6502400","平溪區"
"226003","AGD-0702","2018/05/14 07:37:55","新北市平溪區嶺腳里嶺腳寮83-2號","121.750263333333","25.0349566666667","6502400","平溪區"
"223006","022-BY","2018/05/14 07:37:43","新北市石碇區番子坑17號","121.67376","25.0011616666667","6501900","石碇區"
"223002","KEA-2673","2018/05/14 07:34:42","新北市石碇區北宜路五段竹坑巷26號","121.626783333333","24.9391516666667","6501900","石碇區"
"223001","205-TH","2018/05/14 07:39:14","新北市石碇區烏塗窟8號","121.655803333333","24.97504","6501900","石碇區"
"223008","406-TH","2018/05/14 07:30:12","新北市石碇區靜安路一段337號","121.698796666667","25.014665","6501900","石碇區"
"223001","592-UM","2018/05/14 07:38:32","新北市石碇區烏塗窟37號","121.656883333333","24.9713883333333","6501900","石碇區"
"223004","660-BX","2018/05/14 07:39:08","新北市石碇區八分寮49-1號","121.642698333333","25.0142866666667","6501900","石碇區"
"223007","661-BX","2018/05/14 07:39:25","新北市石碇區靜安路一段337號","121.698925","25.0145133333333","6501900","石碇區"
"223005","677-TV","2018/05/14 07:39:17","新北市石碇區八分寮47-1號","121.642471666667","25.01387","6501900","石碇區"
"227005","282-VK","2018/05/14 07:39:07","新北市雙溪區雙溪里太平路56號","121.864858333333","25.0355716666667","6502500","雙溪區"
"252006","073-UM","2018/05/14 07:39:11","新北市三芝區古庄里古庄83號","121.488981666667","25.2700783333333","6502100","三芝區"
"252004","249-BX","2018/05/14 07:39:12","新北市三芝區店子里菜公坑75號","121.509466666667","25.2058","6502100","三芝區"
"237001","159-UY","2018/05/14 07:39:12","新北市三峽區國慶路102號","121.376428333333","24.93918","6500900","三峽區"
"236007","165-UM","2018/05/14 07:39:14","新北市土城區金城路三段22-1號","121.46531","24.9863866666667","6501300","土城區"
"236001","339-SR","2018/05/14 07:39:21","新北市土城區南天母路143號","121.447838333333","24.95341","6501300","土城區"
"242057","986-R7","2018/05/14 07:39:22","新北市新莊區新泰路357巷1弄51號","121.442726666667","25.03979","6500500","新莊區"
"242052","751-BX","2018/05/14 07:39:07","新北市新莊區中正路400號","121.441983333333","25.0343","6500500","新莊區"
"242022","705-TV","2018/05/14 07:39:21","新北市新莊區公園一路73號","121.442423333333","25.0371533333333","6500500","新莊區"
"242026","615-BX","2018/05/14 07:39:25","新北市新莊區新泰路255巷83號","121.4424","25.0387933333333","6500500","新莊區"
"242028","612-BX","2018/05/14 07:17:42","新北市新莊區新泰路277巷57弄12號","121.443043333333","25.039875","6500500","新莊區"
"242040","566-BX","2018/05/14 07:39:11","新北市新莊區新泰路255巷83號","121.442148333333","25.0391033333333","6500500","新莊區"
"242045","497-BY","2018/05/14 07:39:09","新北市新莊區新泰路357巷3弄57號","121.44228","25.0393783333333","6500500","新莊區"
"242049","441-UM","2018/05/14 07:39:20","新北市新莊區瓊泰路77巷15號","121.442211666667","25.0288883333333","6500500","新莊區"
"242006","413-TV","2018/05/14 07:39:18","新北市新莊區新泰路357巷3弄57號","121.442213333333","25.03967","6500500","新莊區"
"242059","353-BY","2018/05/14 07:39:17","新北市新莊區新泰路255巷83號","121.442518333333","25.0390683333333","6500500","新莊區"
"242038","133-UY","2018/05/14 07:39:19","新北市新莊區新泰路415-1號","121.442253333333","25.04444","6500500","新莊區"
"242047","172-VK","2018/05/14 07:39:22","新北市新莊區中正路466號","121.438976666667","25.033375","6500500","新莊區"
"242016","175-VK","2018/05/14 07:39:10","新北市新莊區三和路12-21號","121.441991666667","25.03866","6500500","新莊區"
"242004","176-VK","2018/05/14 07:39:21","新北市新莊區三和路12-21號","121.441878333333","25.0388016666667","6500500","新莊區"
"242018","350-TH","2018/05/14 07:39:21","新北市新莊區新泰路255巷83號","121.442196666667","25.038895","6500500","新莊區"
"242012","351-TH","2018/05/14 07:39:22","新北市新莊區新泰路357巷3弄57號","121.442055","25.0395033333333","6500500","新莊區"
"220082","282-UM","2018/05/14 07:39:15","新北市板橋區國光路17號","121.456851666667","25.017435","6500100","板橋區"
"242035","280-VK","2018/05/14 07:39:20","新北市新莊區三和路12-21號","121.442205","25.0380616666667","6500500","新莊區"
